" Tow: TEST   RVWS/WS15161"
" Date: 14/06/2015"
" Temperature Probe #  4762    Conductivity Probe #  710"
" Pressure Probe #  188"
" Flow Meter Calibration  4.71 (m/count)  "
"165.675093"
"$GPRMC,161201,A,2437.1212,N,08050.7137,W,1.9,237.3,140615,6.2,"
"##MN-00 00 47 0016 02716 7408 554697 023943 214"
"165.675139"
"$GPRMC,161206,A,2437.1198,N,08050.7162,W,2.0,236.5,140615,6.2,"
"##MN-00 00 48 0017 02716 7407 273320 023927 214"
"165.675185"
"$GPRMC,161210,A,2437.1184,N,08050.7184,W,2.1,235.5,140615,6.2,"
"##MN-00 00 48 0018 02716 7406 560560 023925 214"
"165.675231"
"$GPRMC,161214,A,2437.1173,N,08050.7201,W,1.9,236.3,140615,6.2,"
"##MN-00 00 47 0019 02717 7404 511096 023930 214"
"165.675278"
"$GPRMC,161218,A,2437.1159,N,08050.7223,W,2.0,236.4,140615,6.2,"
"##MN-00 00 47 0020 02714 7403 391736 023928 214"
"165.675336"
"$GPRMC,161222,A,2437.1147,N,08050.7243,W,2.0,234.8,140615,6.2,"
"##MN-00 00 48 0021 02716 7402 795760 023922 214"
"165.675382"
"$GPRMC,161226,A,2437.1131,N,08050.7265,W,2.0,234.8,140615,6.2,"
"##MN-00 00 47 0021 02714 7400 560480 023920 214"
"165.675428"
"$GPRMC,161230,A,2437.1118,N,08050.7281,W,2.0,232.8,140615,6.2,"
"##MN-00 00 48 0022 02715 7399 560480 023937 214"
"165.675475"
"$GPRMC,161234,A,2437.1106,N,08050.7298,W,1.9,232.3,140615,6.2,"
"##MN-00 00 47 0023 02716 7397 678952 023925 214"
"165.675521"
"$GPRMC,161238,A,2437.1093,N,08050.7319,W,2.0,232.2,140615,6.2,"
"##MN-00 00 48 0024 02717 7395 560480 023934 214"
"165.675567"
"$GPRMC,161242,A,2437.1082,N,08050.7337,W,1.9,232.6,140615,6.2,"
"##MN-00 00 47 0025 02715 7394 798280 023931 214"
"165.675613"
"$GPRMC,161246,A,2437.1071,N,08050.7355,W,2.1,233.6,140615,6.2,"
"##MN-00 00 47 0026 02716 7392 797440 023926 214"
"165.67566"
"$GPRMC,161250,A,2437.1058,N,08050.7371,W,1.9,232.4,140615,6.2,"
"##MN-00 00 47 0027 02710 7390 508872 023892 214"
"165.675706"
"$GPRMC,161254,A,2437.1044,N,08050.7393,W,2.1,234.3,140615,6.2,"
"##MN-00 00 47 0027 02716 7388 222864 023882 214"
"165.675752"
"$GPRMC,161258,A,2437.1032,N,08050.7413,W,2.0,234.5,140615,6.2,"
"##MN-00 00 47 0028 02714 7386 913656 023889 214"
"165.675799"
"$GPRMC,161302,A,2437.1015,N,08050.7438,W,2.1,234.0,140615,6.2,"
"##MN-00 00 48 0029 02714 7384 903912 023903 214"
"165.675845"
"$GPRMC,161306,A,2437.1001,N,08050.7456,W,2.1,233.7,140615,6.2,"
"##MN-00 00 48 0030 02715 7382 779648 023895 214"
"165.675891"
"$GPRMC,161310,A,2437.0988,N,08050.7475,W,2.0,234.6,140615,6.2,"
"##MN-00 00 47 0031 02713 7381 659432 023884 214"
"165.675937"
"$GPRMC,161314,A,2437.0974,N,08050.7494,W,2.0,233.8,140615,6.2,"
"##MN-00 00 47 0032 02716 7378 775200 023900 214"
"165.675984"
"$GPRMC,161318,A,2437.0959,N,08050.7514,W,2.1,233.9,140615,6.2,"
"##MN-00 00 47 0033 02715 7376 484328 023909 214"
"165.67603"
"$GPRMC,161322,A,2437.0945,N,08050.7536,W,2.1,233.8,140615,6.2,"
"##MN-00 00 48 0033 02713 7374 529488 023909 214"
"165.676076"
"$GPRMC,161326,A,2437.0932,N,08050.7556,W,2.2,235.1,140615,6.2,"
"##MN-00 00 48 0034 02713 7372 766392 023888 214"
"165.676123"
"$GPRMC,161330,A,2437.0923,N,08050.7576,W,2.1,233.9,140615,6.2,"
"##MN-00 00 48 0035 02712 7369 000640 023913 214"
"165.676169"
"$GPRMC,161334,A,2437.0910,N,08050.7597,W,2.1,233.3,140615,6.2,"
"##MN-00 00 48 0036 02714 7367 750432 023914 214"
"165.676215"
"$GPRMC,161338,A,2437.0896,N,08050.7616,W,2.1,232.5,140615,6.2,"
"##MN-00 00 48 0037 02712 7365 265872 023919 214"
"165.676262"
"$GPRMC,161342,A,2437.0882,N,08050.7635,W,2.1,232.7,140615,6.2,"
"##MN-00 00 48 0038 02714 7362 742440 023912 214"
"165.676308"
"$GPRMC,161346,A,2437.0869,N,08050.7657,W,2.2,232.1,140615,6.2,"
"##MN-00 00 47 0039 02714 7360 740768 023917 214"
"165.676354"
"$GPRMC,161350,A,2437.0858,N,08050.7678,W,2.1,231.9,140615,6.2,"
"##MN-00 00 47 0040 02711 7357 503424 023918 214"
"165.676401"
"$GPRMC,161354,A,2437.0840,N,08050.7702,W,2.2,232.0,140615,6.2,"
"##MN-00 00 48 0041 02712 7355 812128 023914 214"
"165.676447"
"$GPRMC,161358,A,2437.0824,N,08050.7721,W,2.1,232.0,140615,6.2,"
"##MN-00 00 47 0041 02713 7352 169888 023886 214"
"165.676493"
"$GPRMC,161402,A,2437.0809,N,08050.7742,W,2.1,232.0,140615,6.2,"
"##MN-00 00 48 0042 02714 7350 859528 023897 214"
"165.676539"
"$GPRMC,161406,A,2437.0795,N,08050.7762,W,2.1,231.9,140615,6.2,"
"##MN-00 00 48 0043 02713 7347 063120 023888 214"
"165.676586"
"$GPRMC,161410,A,2437.0783,N,08050.7780,W,2.1,233.3,140615,6.2,"
"##MN-00 00 48 0044 02714 7344 275160 023894 214"
"165.676632"
"$GPRMC,161414,A,2437.0766,N,08050.7805,W,2.2,234.6,140615,6.2,"
"##MN-00 00 48 0045 02714 7342 268632 023897 214"
"165.676678"
"$GPRMC,161418,A,2437.0753,N,08050.7825,W,2.1,235.8,140615,6.2,"
"##MN-00 00 48 0046 02715 7339 622784 023905 214"
"165.676725"
"$GPRMC,161422,A,2437.0740,N,08050.7847,W,2.2,236.7,140615,6.2,"
"##MN-00 00 48 0047 02713 7336 140368 023893 214"
"165.676771"
"$GPRMC,161426,A,2437.0728,N,08050.7865,W,2.0,236.3,140615,6.2,"
"##MN-00 00 48 0048 02715 7334 208136 023908 214"
"165.676817"
"$GPRMC,161430,A,2437.0717,N,08050.7884,W,2.1,235.8,140615,6.2,"
"##MN-00 00 48 0048 02715 7331 371696 023897 214"
"165.676863"
"$GPRMC,161434,A,2437.0705,N,08050.7904,W,2.0,235.1,140615,6.2,"
"##MN-00 00 47 0049 02714 7328 026616 023908 214"
"165.67691"
"$GPRMC,161438,A,2437.0692,N,08050.7920,W,2.1,235.7,140615,6.2,"
"##MN-00 00 47 0050 02715 7325 426640 023920 214"
"165.676956"
"$GPRMC,161442,A,2437.0674,N,08050.7939,W,2.1,235.0,140615,6.2,"
"##MN-00 00 48 0051 02715 7323 353024 023923 214"
"165.677002"
"$GPRMC,161446,A,2437.0660,N,08050.7957,W,2.0,235.3,140615,6.2,"
"##MN-00 00 48 0052 02716 7320 448120 023886 214"
"165.677049"
"$GPRMC,161450,A,2437.0646,N,08050.7977,W,2.0,234.1,140615,6.2,"
"##MN-00 00 47 0053 02716 7317 353264 023891 214"
"165.677095"
"$GPRMC,161454,A,2437.0630,N,08050.7995,W,2.0,234.9,140615,6.2,"
"##MN-00 00 48 0054 02716 7314 759136 023871 214"
"165.677141"
"$GPRMC,161458,A,2437.0616,N,08050.8016,W,2.1,234.8,140615,6.2,"
"##MN-00 00 48 0054 02716 7311 872744 023879 214"
"165.677188"
"$GPRMC,161502,A,2437.0603,N,08050.8035,W,2.1,233.9,140615,6.2,"
"##MN-00 00 48 0055 02718 7308 341088 023909 214"
"165.677234"
"$GPRMC,161506,A,2437.0587,N,08050.8057,W,2.1,233.3,140615,6.2,"
"##MN-00 00 48 0056 02721 7305 289376 023904 214"
"165.67728"
"$GPRMC,161510,A,2437.0573,N,08050.8075,W,2.1,232.6,140615,6.2,"
"##MN-00 00 48 0057 02720 7303 730296 023907 214"
"165.677326"
"$GPRMC,161515,A,2437.0557,N,08050.8098,W,2.0,230.9,140615,6.2,"
"##MN-00 00 48 0058 02722 7299 719120 023905 214"
"165.677373"
"$GPRMC,161518,A,2437.0544,N,08050.8111,W,2.1,230.9,140615,6.2,"
"##MN-00 00 48 0059 02721 7297 322064 023895 214"
"165.677419"
"$GPRMC,161523,A,2437.0530,N,08050.8136,W,2.1,229.8,140615,6.2,"
"##MN-00 00 47 0060 02724 7294 793480 023930 214"
"165.677465"
"$GPRMC,161526,A,2437.0522,N,08050.8148,W,2.1,230.9,140615,6.2,"
"##MN-00 00 47 0061 02723 7291 023792 023934 214"
"165.677512"
"$GPRMC,161531,A,2437.0504,N,08050.8175,W,2.0,231.1,140615,6.2,"
"##MN-00 00 47 0061 02724 7288 210856 023934 214"
"165.677558"
"$GPRMC,161535,A,2437.0494,N,08050.8194,W,2.0,231.3,140615,6.2,"
"##MN-00 00 47 0062 02726 7285 661368 023896 214"
"165.677604"
"$GPRMC,161539,A,2437.0479,N,08050.8216,W,2.0,232.7,140615,6.2,"
"##MN-00 00 47 0063 02728 7282 391504 023873 214"
"165.67765"
"$GPRMC,161542,A,2437.0469,N,08050.8231,W,2.0,232.1,140615,6.2,"
"##MN-00 00 47 0064 02730 7278 346528 023861 214"
"165.677697"
"$GPRMC,161547,A,2437.0452,N,08050.8258,W,2.1,231.8,140615,6.2,"
"##MN-00 00 48 0065 02731 7276 867328 023856 214"
"165.677743"
"$GPRMC,161551,A,2437.0439,N,08050.8277,W,2.0,232.6,140615,6.2,"
"##MN-00 00 47 0066 02732 7273 693616 023797 214"
"165.677789"
"$GPRMC,161555,A,2437.0424,N,08050.8296,W,2.1,231.5,140615,6.2,"
"##MN-00 00 48 0067 02735 7269 251288 023784 214"
"165.677836"
"$GPRMC,161559,A,2437.0410,N,08050.8316,W,2.1,231.7,140615,6.2,"
"##MN-00 00 48 0067 02736 7266 520368 023777 214"
"165.677882"
"$GPRMC,161603,A,2437.0396,N,08050.8338,W,2.1,232.9,140615,6.2,"
"##MN-00 00 47 0068 02737 7263 154432 023781 214"
"165.677928"
"$GPRMC,161607,A,2437.0379,N,08050.8357,W,2.0,232.5,140615,6.2,"
"##MN-00 00 47 0069 02740 7260 745504 023767 214"
"165.677975"
"$GPRMC,161611,A,2437.0367,N,08050.8378,W,2.0,234.0,140615,6.2,"
"##MN-00 00 48 0070 02742 7257 478792 023770 214"
"165.678021"
"$GPRMC,161615,A,2437.0353,N,08050.8400,W,2.0,234.1,140615,6.2,"
"##MN-00 00 48 0071 02744 7254 413448 023787 214"
"165.678067"
"$GPRMC,161619,A,2437.0341,N,08050.8419,W,2.0,234.5,140615,6.2,"
"##MN-00 00 48 0071 02746 7251 775200 023788 214"
"165.678113"
"$GPRMC,161623,A,2437.0328,N,08050.8440,W,2.1,235.1,140615,6.2,"
"##MN-00 00 48 0072 02750 7248 490040 023768 214"
"165.67816"
"$GPRMC,161627,A,2437.0316,N,08050.8461,W,2.1,235.8,140615,6.2,"
"##MN-00 00 48 0073 02753 7245 542880 023759 214"
"165.678206"
"$GPRMC,161631,A,2437.0302,N,08050.8482,W,2.2,234.7,140615,6.2,"
"##MN-00 00 47 0074 02755 7242 777264 023741 214"
"165.678252"
"$GPRMC,161635,A,2437.0286,N,08050.8499,W,2.2,233.4,140615,6.2,"
"##MN-00 00 48 0075 02756 7239 244488 023744 214"
"165.678299"
"$GPRMC,161639,A,2437.0271,N,08050.8520,W,2.2,231.9,140615,6.2,"
"##MN-00 00 48 0076 02760 7235 355440 023764 214"
"165.678345"
"$GPRMC,161643,A,2437.0257,N,08050.8540,W,2.1,230.6,140615,6.2,"
"##MN-00 00 48 0076 02763 7232 469008 023756 214"
"165.678391"
"$GPRMC,161647,A,2437.0244,N,08050.8562,W,2.1,230.5,140615,6.2,"
"##MN-00 00 48 0077 02765 7229 911056 023748 214"
"165.678437"
"$GPRMC,161651,A,2437.0235,N,08050.8577,W,2.1,230.7,140615,6.2,"
"##MN-00 00 48 0078 02769 7226 788240 023755 214"
"165.678484"
"$GPRMC,161655,A,2437.0217,N,08050.8599,W,2.1,230.1,140615,6.2,"
"##MN-00 00 48 0079 02774 7223 618968 023747 214"
"165.67853"
"$GPRMC,161659,A,2437.0206,N,08050.8613,W,2.1,229.6,140615,6.2,"
"##MN-00 00 47 0080 02777 7219 590064 023752 214"
"165.678588"
"$GPRMC,161703,A,2437.0188,N,08050.8638,W,2.0,230.5,140615,6.2,"
"##MN-00 00 48 0080 02781 7216 817552 023736 214"
"165.678634"
"$GPRMC,161707,A,2437.0176,N,08050.8656,W,1.9,231.4,140615,6.2,"
"##MN-00 00 48 0081 02786 7213 316240 023745 214"
"165.678681"
"$GPRMC,161711,A,2437.0164,N,08050.8674,W,2.0,231.5,140615,6.2,"
"##MN-00 00 48 0082 02790 7210 514664 023744 214"
"165.678727"
"$GPRMC,161715,A,2437.0151,N,08050.8692,W,1.9,231.9,140615,6.2,"
"##MN-00 00 48 0083 02793 7207 955968 023740 214"
"165.678773"
"$GPRMC,161719,A,2437.0139,N,08050.8710,W,1.9,232.3,140615,6.2,"
"##MN-00 00 48 0083 02798 7204 599776 023743 214"
"165.678819"
"$GPRMC,161723,A,2437.0122,N,08050.8730,W,2.0,232.7,140615,6.2,"
"##MN-00 00 48 0084 02803 7200 152112 023732 214"
"165.678866"
"$GPRMC,161727,A,2437.0107,N,08050.8751,W,2.0,233.3,140615,6.2,"
"##MN-00 00 47 0085 02808 7197 902704 023733 214"
"165.678912"
"$GPRMC,161731,A,2437.0092,N,08050.8773,W,2.1,233.3,140615,6.2,"
"##MN-00 00 48 0086 02811 7193 540232 023737 214"
"165.678958"
"$GPRMC,161735,A,2437.0078,N,08050.8794,W,2.0,234.2,140615,6.2,"
"##MN-00 00 47 0087 02820 7190 600776 023727 214"
"165.679005"
"$GPRMC,161739,A,2437.0065,N,08050.8811,W,2.0,235.1,140615,6.2,"
"##MN-00 00 47 0087 02825 7187 516432 023725 214"
"165.679051"
"$GPRMC,161743,A,2437.0049,N,08050.8834,W,2.1,235.3,140615,6.2,"
"##MN-00 00 48 0088 02829 7184 669160 023717 214"
"165.679097"
"$GPRMC,161747,A,2437.0038,N,08050.8856,W,2.1,235.5,140615,6.2,"
"##MN-00 00 48 0089 02834 7181 537392 023724 214"
"165.679144"
"$GPRMC,161751,A,2437.0024,N,08050.8876,W,2.1,235.8,140615,6.2,"
"##MN-00 00 48 0090 02841 7178 008000 023721 214"
"165.67919"
"$GPRMC,161755,A,2437.0013,N,08050.8895,W,2.1,236.2,140615,6.2,"
"##MN-00 00 48 0090 02845 7175 755928 023750 214"
"165.679236"
"$GPRMC,161759,A,2436.9999,N,08050.8913,W,2.1,235.5,140615,6.2,"
"##MN-00 00 48 0091 02851 7171 861824 023709 214"
"165.679282"
"$GPRMC,161803,A,2436.9984,N,08050.8931,W,2.1,233.9,140615,6.2,"
"##MN-00 00 47 0092 02857 7168 294192 023713 214"
"165.679329"
"$GPRMC,161807,A,2436.9966,N,08050.8952,W,2.1,232.1,140615,6.2,"
"##MN-00 00 47 0093 02863 7165 587304 023719 214"
"165.679375"
"$GPRMC,161811,A,2436.9950,N,08050.8972,W,2.1,230.1,140615,6.2,"
"##MN-00 00 47 0094 02867 7162 213280 023712 214"
"165.679421"
"$GPRMC,161815,A,2436.9935,N,08050.8992,W,2.1,229.0,140615,6.2,"
"##MN-00 00 47 0094 02872 7158 328240 023710 214"
"165.679468"
"$GPRMC,161819,A,2436.9919,N,08050.9010,W,2.1,228.3,140615,6.2,"
"##MN-00 00 48 0095 02876 7155 685440 023722 214"
"165.679514"
"$GPRMC,161823,A,2436.9903,N,08050.9028,W,2.0,228.8,140615,6.2,"
"##MN-00 00 48 0096 02880 7152 317672 023736 214"
"165.67956"
"$GPRMC,161827,A,2436.9891,N,08050.9046,W,2.1,229.0,140615,6.2,"
"##MN-00 00 47 0097 02887 7149 002944 023727 214"
"165.679607"
"$GPRMC,161831,A,2436.9879,N,08050.9064,W,2.0,230.7,140615,6.2,"
"##MN-00 00 47 0098 02892 7145 428624 023727 214"
"165.679653"
"$GPRMC,161835,A,2436.9865,N,08050.9084,W,2.0,232.7,140615,6.2,"
"##MN-00 00 48 0098 02898 7142 302272 023739 214"
"165.679699"
"$GPRMC,161839,A,2436.9854,N,08050.9102,W,2.0,234.0,140615,6.2,"
"##MN-00 00 47 0099 02901 7139 172736 023746 214"
"165.679745"
"$GPRMC,161843,A,2436.9836,N,08050.9129,W,2.1,234.9,140615,6.2,"
"##MN-00 00 47 0100 02907 7136 167016 023743 214"
"165.679792"
"$GPRMC,161847,A,2436.9823,N,08050.9149,W,2.1,235.3,140615,6.2,"
"##MN-00 00 47 0101 02910 7133 166672 023734 214"
"165.679838"
"$GPRMC,161851,A,2436.9809,N,08050.9170,W,2.1,235.7,140615,6.2,"
"##MN-00 00 47 0102 02916 7130 090936 023730 214"
"165.679884"
"$GPRMC,161855,A,2436.9796,N,08050.9191,W,2.1,234.9,140615,6.2,"
"##MN-00 00 47 0102 02921 7126 558080 023732 214"
"165.679931"
"$GPRMC,161859,A,2436.9782,N,08050.9213,W,2.2,234.7,140615,6.2,"
"##MN-00 00 48 0103 02924 7123 562064 023733 214"
"165.679977"
"$GPRMC,161903,A,2436.9767,N,08050.9234,W,2.1,233.0,140615,6.2,"
"##MN-00 00 48 0104 02928 7120 152704 023740 214"
"165.680023"
"$GPRMC,161907,A,2436.9751,N,08050.9254,W,2.1,232.0,140615,6.2,"
"##MN-00 00 48 0105 02932 7116 147448 023754 214"
"165.680069"
"$GPRMC,161911,A,2436.9738,N,08050.9271,W,2.1,231.7,140615,6.2,"
"##MN-00 00 47 0106 02935 7114 141264 023736 214"
"165.680116"
"$GPRMC,161915,A,2436.9722,N,08050.9292,W,2.2,231.1,140615,6.2,"
"##MN-00 00 48 0106 02938 7110 379576 023751 214"
"165.680162"
"$GPRMC,161919,A,2436.9708,N,08050.9311,W,2.1,230.3,140615,6.2,"
"##MN-00 00 48 0107 02944 7107 133408 023755 214"
"165.680208"
"$GPRMC,161923,A,2436.9695,N,08050.9328,W,2.1,229.7,140615,6.2,"
"##MN-00 00 48 0108 02945 7104 774824 023745 214"
"165.680255"
"$GPRMC,161927,A,2436.9679,N,08050.9348,W,2.1,228.9,140615,6.2,"
"##MN-00 00 48 0109 02950 7101 124576 023761 214"
"165.680301"
"$GPRMC,161931,A,2436.9667,N,08050.9365,W,2.1,229.9,140615,6.2,"
"##MN-00 00 48 0110 02953 7097 494768 023780 214"
"165.680347"
"$GPRMC,161935,A,2436.9653,N,08050.9384,W,2.1,229.9,140615,6.2,"
"##MN-00 00 48 0110 02957 7094 134152 023767 214"
"165.680394"
"$GPRMC,161939,A,2436.9638,N,08050.9404,W,2.1,230.2,140615,6.2,"
"##MN-00 00 48 0111 02960 7091 109680 023741 214"
"165.68044"
"$GPRMC,161943,A,2436.9623,N,08050.9426,W,2.1,232.2,140615,6.2,"
"##MN-00 00 48 0112 02964 7088 107528 023738 214"
"165.680486"
"$GPRMC,161947,A,2436.9612,N,08050.9445,W,2.1,234.2,140615,6.2,"
"##MN-00 00 48 0113 02967 7085 100000 023740 214"
"165.680532"
"$GPRMC,161951,A,2436.9595,N,08050.9470,W,2.1,236.0,140615,6.2,"
"##MN-00 00 48 0114 02974 7082 338768 023750 214"
"165.680579"
"$GPRMC,161955,A,2436.9580,N,08050.9494,W,2.1,236.3,140615,6.2,"
"##MN-00 00 48 0114 02976 7078 090368 023747 214"
"165.680625"
"$GPRMC,162000,A,2436.9562,N,08050.9521,W,2.1,235.1,140615,6.2,"
"##MN-00 00 48 0115 02979 7075 489160 023768 214"
"165.680671"
"$GPRMC,162004,A,2436.9549,N,08050.9541,W,2.1,234.6,140615,6.2,"
"##MN-00 00 47 0116 02982 7072 081568 023759 214"
"165.680718"
"$GPRMC,162008,A,2436.9536,N,08050.9560,W,2.0,233.3,140615,6.2,"
"##MN-00 00 48 0117 02988 7069 074528 023757 214"
"165.680764"
"$GPRMC,162011,A,2436.9525,N,08050.9574,W,2.1,232.4,140615,6.2,"
"##MN-00 00 48 0117 02992 7066 557312 023758 214"
"165.68081"
"$GPRMC,162016,A,2436.9510,N,08050.9599,W,2.0,233.6,140615,6.2,"
"##MN-00 00 48 0118 02995 7062 186920 023771 214"
"165.680856"
"$GPRMC,162020,A,2436.9496,N,08050.9621,W,2.1,233.6,140615,6.2,"
"##MN-00 00 47 0119 02998 7059 056960 023783 214"
"165.680903"
"$GPRMC,162024,A,2436.9480,N,08050.9639,W,2.0,231.6,140615,6.2,"
"##MN-00 00 47 0120 03001 7056 458456 023792 214"
"165.680949"
"$GPRMC,162028,A,2436.9465,N,08050.9657,W,2.1,231.6,140615,6.2,"
"##MN-00 00 48 0120 03008 7053 296736 023754 214"
"165.680995"
"$GPRMC,162032,A,2436.9449,N,08050.9672,W,2.0,230.6,140615,6.2,"
"##MN-00 00 47 0121 03012 7050 860000 023744 214"
"165.681042"
"$GPRMC,162036,A,2436.9431,N,08050.9691,W,2.0,231.1,140615,6.2,"
"##MN-00 00 48 0122 03016 7047 410424 023758 214"
"165.681088"
"$GPRMC,162040,A,2436.9417,N,08050.9709,W,2.1,230.7,140615,6.2,"
"##MN-00 00 47 0122 03019 7044 039568 023758 214"
"165.681134"
"$GPRMC,162044,A,2436.9403,N,08050.9726,W,1.9,230.6,140615,6.2,"
"##MN-00 00 48 0123 03027 7041 439272 023764 214"
"165.681181"
"$GPRMC,162048,A,2436.9389,N,08050.9747,W,2.1,231.2,140615,6.2,"
"##MN-00 00 47 0124 03027 7037 514464 023771 214"
"165.681227"
"$GPRMC,162052,A,2436.9375,N,08050.9763,W,2.0,230.4,140615,6.2,"
"##MN-00 00 48 0125 03034 7034 551680 023765 214"
"165.681273"
"$GPRMC,162056,A,2436.9362,N,08050.9783,W,2.1,231.6,140615,6.2,"
"##MN-00 00 47 0125 03036 7031 507552 023776 214"
"165.681319"
"$GPRMC,162100,A,2436.9349,N,08050.9803,W,2.0,231.7,140615,6.2,"
"##MN-00 00 48 0126 03040 7028 470072 023783 214"
"165.681366"
"$GPRMC,162104,A,2436.9337,N,08050.9823,W,2.1,233.2,140615,6.2,"
"##MN-00 00 48 0127 03042 7025 651424 023780 214"
"165.681412"
"$GPRMC,162108,A,2436.9321,N,08050.9844,W,2.1,232.0,140615,6.2,"
"##MN-00 00 47 0128 03046 7021 807584 023799 214"
"165.681458"
"$GPRMC,162112,A,2436.9305,N,08050.9866,W,2.2,233.0,140615,6.2,"
"##MN-00 00 48 0129 03049 7018 047280 023785 214"
"165.681505"
"$GPRMC,162116,A,2436.9294,N,08050.9885,W,2.1,231.8,140615,6.2,"
"##MN-00 00 47 0129 03053 7015 042944 023782 214"
"165.681551"
"$GPRMC,162120,A,2436.9280,N,08050.9906,W,2.1,231.8,140615,6.2,"
"##MN-00 00 48 0130 03056 7012 036864 023796 214"
"165.681597"
"$GPRMC,162124,A,2436.9266,N,08050.9926,W,2.1,232.1,140615,6.2,"
"##MN-00 00 48 0131 03059 7009 029888 023784 214"
"165.681643"
"$GPRMC,162128,A,2436.9254,N,08050.9947,W,2.1,232.1,140615,6.2,"
"##MN-00 00 48 0132 03062 7006 025976 023804 214"
"165.68169"
"$GPRMC,162132,A,2436.9238,N,08050.9967,W,2.1,232.3,140615,6.2,"
"##MN-00 00 48 0133 03063 7002 019408 023800 214"
"165.681736"
"$GPRMC,162136,A,2436.9225,N,08050.9989,W,2.1,232.9,140615,6.2,"
"##MN-00 00 48 0133 03068 7000 732552 023801 214"
"165.681782"
"$GPRMC,162140,A,2436.9211,N,08051.0009,W,2.1,233.1,140615,6.2,"
"##MN-00 00 48 0134 03071 6997 009808 023802 214"
"165.68184"
"$GPRMC,162144,A,2436.9197,N,08051.0032,W,2.1,233.1,140615,6.2,"
"##MN-00 00 47 0135 03073 6993 881664 023820 214"
"165.681887"
"$GPRMC,162148,A,2436.9183,N,08051.0054,W,2.1,233.5,140615,6.2,"
"##MN-00 00 47 0136 03074 6990 991824 023820 214"
"165.681933"
"$GPRMC,162152,A,2436.9168,N,08051.0074,W,2.1,234.0,140615,6.2,"
"##MN-00 00 48 0137 03076 6987 991472 023821 214"
"165.681979"
"$GPRMC,162156,A,2436.9154,N,08051.0094,W,2.1,233.8,140615,6.2,"
"##MN-00 00 48 0137 03080 6984 988000 023804 214"
"165.682025"
"$GPRMC,162200,A,2436.9139,N,08051.0113,W,2.2,233.8,140615,6.2,"
"##MN-00 00 48 0138 03083 6981 990736 023812 214"
"165.682072"
"$GPRMC,162204,A,2436.9124,N,08051.0131,W,2.1,231.9,140615,6.2,"
"##MN-00 00 47 0139 03090 6978 972608 023812 214"
"165.682118"
"$GPRMC,162208,A,2436.9110,N,08051.0148,W,2.1,230.6,140615,6.2,"
"##MN-00 00 47 0140 03090 6974 971408 023823 214"
"165.682164"
"$GPRMC,162212,A,2436.9096,N,08051.0166,W,2.0,229.0,140615,6.2,"
"##MN-00 00 47 0140 03095 6971 965320 023800 214"
"165.682211"
"$GPRMC,162216,A,2436.9086,N,08051.0184,W,1.9,228.2,140615,6.2,"
"##MN-00 00 48 0141 03101 6968 960080 023813 214"
"165.682257"
"$GPRMC,162220,A,2436.9072,N,08051.0202,W,1.9,228.3,140615,6.2,"
"##MN-00 00 47 0142 03106 6965 953584 023822 214"
"165.682303"
"$GPRMC,162224,A,2436.9059,N,08051.0217,W,1.8,229.4,140615,6.2,"
"##MN-00 00 48 0142 03111 6962 390064 023818 214"
"165.68235"
"$GPRMC,162228,A,2436.9044,N,08051.0236,W,1.9,230.1,140615,6.2,"
"##MN-00 00 48 0143 03113 6959 936512 023842 214"
"165.682396"
"$GPRMC,162232,A,2436.9032,N,08051.0253,W,1.8,230.4,140615,6.2,"
"##MN-00 00 48 0144 03118 6955 936720 023830 214"
"165.682442"
"$GPRMC,162236,A,2436.9018,N,08051.0271,W,1.9,231.1,140615,6.2,"
"##MN-00 00 48 0145 03121 6953 814000 023807 214"
"165.682488"
"$GPRMC,162240,A,2436.9005,N,08051.0289,W,1.9,231.2,140615,6.2,"
"##MN-00 00 47 0145 03124 6949 642696 023813 214"
"165.682535"
"$GPRMC,162244,A,2436.8994,N,08051.0305,W,1.9,231.0,140615,6.2,"
"##MN-00 00 47 0146 03128 6946 917856 023822 214"
"165.682581"
"$GPRMC,162248,A,2436.8981,N,08051.0323,W,2.0,231.4,140615,6.2,"
"##MN-00 00 47 0147 03134 6943 910488 023819 214"
"165.682627"
"$GPRMC,162252,A,2436.8969,N,08051.0340,W,1.9,232.1,140615,6.2,"
"##MN-00 00 48 0148 03134 6940 900432 023818 214"
"165.682674"
"$GPRMC,162256,A,2436.8956,N,08051.0361,W,1.9,233.7,140615,6.2,"
"##MN-00 00 48 0149 03136 6937 897496 023811 214"
"165.68272"
"$GPRMC,162300,A,2436.8944,N,08051.0381,W,1.9,235.4,140615,6.2,"
"##MN-00 00 48 0150 03138 6934 882064 023838 214"
"165.682766"
"$GPRMC,162304,A,2436.8932,N,08051.0404,W,2.0,236.4,140615,6.2,"
"##MN-00 00 48 0150 03141 6931 880552 023832 214"
"165.682813"
"$GPRMC,162308,A,2436.8923,N,08051.0424,W,2.0,236.0,140615,6.2,"
"##MN-00 00 48 0151 03145 6927 879920 023834 214"
"165.682859"
"$GPRMC,162312,A,2436.8911,N,08051.0446,W,2.0,236.3,140615,6.2,"
"##MN-00 00 48 0152 03147 6924 868960 023820 214"
"165.682905"
"$GPRMC,162316,A,2436.8897,N,08051.0466,W,2.0,235.3,140615,6.2,"
"##MN-00 00 48 0153 03149 6921 864224 023828 214"
"165.682951"
"$GPRMC,162320,A,2436.8882,N,08051.0482,W,2.1,234.8,140615,6.2,"
"##MN-00 00 47 0154 03150 6918 854992 023826 214"
"165.682998"
"$GPRMC,162324,A,2436.8868,N,08051.0499,W,2.0,233.7,140615,6.2,"
"##MN-00 00 47 0154 03153 6914 850272 023830 214"
"165.683044"
"$GPRMC,162328,A,2436.8853,N,08051.0518,W,2.0,232.7,140615,6.2,"
"##MN-00 00 48 0155 03156 6911 842464 023837 214"
"165.68309"
"$GPRMC,162332,A,2436.8835,N,08051.0536,W,2.0,231.4,140615,6.2,"
"##MN-00 00 48 0156 03157 6908 827568 023850 214"
"165.683137"
"$GPRMC,162336,A,2436.8819,N,08051.0556,W,2.0,232.1,140615,6.2,"
"##MN-00 00 47 0157 03159 6905 825072 023844 214"
"165.683183"
"$GPRMC,162340,A,2436.8807,N,08051.0575,W,2.0,230.6,140615,6.2,"
"##MN-00 00 47 0158 03165 6901 702816 023849 214"
"165.683229"
"$GPRMC,162344,A,2436.8793,N,08051.0593,W,1.9,230.9,140615,6.2,"
"##MN-00 00 47 0158 03166 6898 812960 023835 214"
"165.683275"
"$GPRMC,162348,A,2436.8779,N,08051.0611,W,1.9,231.1,140615,6.2,"
"##MN-00 00 47 0159 03169 6894 805536 023843 214"
"165.683322"
"$GPRMC,162352,A,2436.8766,N,08051.0630,W,1.9,231.6,140615,6.2,"
"##MN-00 00 47 0160 03174 6891 798128 023838 214"
"165.683368"
"$GPRMC,162356,A,2436.8754,N,08051.0650,W,2.0,231.6,140615,6.2,"
"##MN-00 00 48 0161 03178 6888 513920 023850 214"
"165.683414"
"$GPRMC,162400,A,2436.8741,N,08051.0668,W,1.9,231.4,140615,6.2,"
"##MN-00 00 48 0162 03181 6885 033392 023845 214"
"165.683461"
"$GPRMC,162404,A,2436.8727,N,08051.0686,W,1.9,230.7,140615,6.2,"
"##MN-00 00 47 0162 03186 6881 620480 023854 214"
"165.683507"
"$GPRMC,162408,A,2436.8713,N,08051.0705,W,1.9,231.5,140615,6.2,"
"##MN-00 00 48 0163 03191 6878 495640 023843 214"
"165.683553"
"$GPRMC,162412,A,2436.8700,N,08051.0723,W,2.0,231.2,140615,6.2,"
"##MN-00 00 47 0164 03195 6875 528992 023861 214"
"165.6836"
"$GPRMC,162416,A,2436.8688,N,08051.0744,W,1.9,232.4,140615,6.2,"
"##MN-00 00 47 0165 03199 6871 480896 023846 214"
"165.683646"
"$GPRMC,162420,A,2436.8678,N,08051.0760,W,1.9,232.9,140615,6.2,"
"##MN-00 00 47 0165 03203 6868 509696 023860 214"
"165.683692"
"$GPRMC,162424,A,2436.8661,N,08051.0782,W,2.1,232.4,140615,6.2,"
"##MN-00 00 48 0166 03208 6865 341800 023844 214"
"165.683738"
"$GPRMC,162428,A,2436.8648,N,08051.0802,W,2.1,233.3,140615,6.2,"
"##MN-00 00 47 0167 03211 6861 744336 023853 214"
"165.683785"
"$GPRMC,162432,A,2436.8636,N,08051.0825,W,2.1,234.9,140615,6.2,"
"##MN-00 00 48 0168 03216 6858 720432 023864 214"
"165.683831"
"$GPRMC,162436,A,2436.8625,N,08051.0846,W,2.1,236.0,140615,6.2,"
"##MN-00 00 48 0168 03219 6855 720640 023861 214"
"165.683877"
"$GPRMC,162440,A,2436.8615,N,08051.0863,W,2.1,235.0,140615,6.2,"
"##MN-00 00 47 0169 03223 6851 711504 023858 214"
"165.683924"
"$GPRMC,162444,A,2436.8597,N,08051.0887,W,2.1,234.5,140615,6.2,"
"##MN-00 00 48 0170 03227 6848 712312 023830 214"
"165.68397"
"$GPRMC,162448,A,2436.8582,N,08051.0907,W,2.1,233.9,140615,6.2,"
"##MN-00 00 47 0170 03231 6844 693808 023833 214"
"165.684016"
"$GPRMC,162452,A,2436.8570,N,08051.0928,W,2.1,233.4,140615,6.2,"
"##MN-00 00 48 0171 03235 6841 696736 023824 214"
"165.684062"
"$GPRMC,162456,A,2436.8554,N,08051.0950,W,2.1,233.3,140615,6.2,"
"##MN-00 00 47 0172 03238 6837 678208 023827 214"
"165.684109"
"$GPRMC,162500,A,2436.8541,N,08051.0972,W,2.2,233.8,140615,6.2,"
"##MN-00 00 48 0173 03239 6834 669104 023836 214"
"165.684155"
"$GPRMC,162505,A,2436.8526,N,08051.0995,W,2.1,234.9,140615,6.2,"
"##MN-00 00 48 0173 03243 6830 654640 023851 214"
"165.684201"
"$GPRMC,162509,A,2436.8511,N,08051.1017,W,2.2,235.4,140615,6.2,"
"##MN-00 00 47 0174 03247 6827 654808 023859 214"
"165.684248"
"$GPRMC,162513,A,2436.8499,N,08051.1037,W,2.1,234.6,140615,6.2,"
"##MN-00 00 47 0175 03251 6824 669328 023827 214"
"165.684294"
"$GPRMC,162517,A,2436.8483,N,08051.1062,W,2.2,234.5,140615,6.2,"
"##MN-00 00 48 0176 03253 6820 644640 023831 214"
"165.68434"
"$GPRMC,162521,A,2436.8470,N,08051.1082,W,2.1,234.5,140615,6.2,"
"##MN-00 00 48 0176 03257 6816 632368 023841 214"
"165.684387"
"$GPRMC,162525,A,2436.8457,N,08051.1102,W,2.1,234.6,140615,6.2,"
"##MN-00 00 48 0177 03261 6813 628576 023837 214"
"165.684433"
"$GPRMC,162529,A,2436.8443,N,08051.1121,W,2.1,234.4,140615,6.2,"
"##MN-00 00 48 0178 03263 6809 607488 023842 214"
"165.684479"
"$GPRMC,162533,A,2436.8427,N,08051.1145,W,2.1,234.3,140615,6.2,"
"##MN-00 00 47 0179 03267 6806 047440 023842 214"
"165.684525"
"$GPRMC,162537,A,2436.8410,N,08051.1167,W,2.1,233.3,140615,6.2,"
"##MN-00 00 48 0179 03269 6802 482304 023853 214"
"165.684572"
"$GPRMC,162541,A,2436.8396,N,08051.1186,W,2.1,232.0,140615,6.2,"
"##MN-00 00 48 0180 03274 6799 603280 023836 214"
"165.684618"
"$GPRMC,162545,A,2436.8380,N,08051.1207,W,2.1,230.6,140615,6.2,"
"##MN-00 00 48 0181 03281 6795 584832 023841 214"
"165.684664"
"$GPRMC,162549,A,2436.8365,N,08051.1222,W,2.1,230.0,140615,6.2,"
"##MN-00 00 48 0181 03280 6791 574352 023851 214"
"165.684711"
"$GPRMC,162553,A,2436.8348,N,08051.1240,W,2.1,229.8,140615,6.2,"
"##MN-00 00 47 0182 03286 6788 288472 023856 214"
"165.684757"
"$GPRMC,162557,A,2436.8333,N,08051.1257,W,2.0,229.8,140615,6.2,"
"##MN-00 00 47 0183 03291 6784 295104 023859 214"
"165.684803"
"$GPRMC,162601,A,2436.8318,N,08051.1275,W,2.1,231.5,140615,6.2,"
"##MN-00 00 48 0184 03293 6780 551072 023867 214"
"165.68485"
"$GPRMC,162605,A,2436.8306,N,08051.1293,W,1.9,231.9,140615,6.2,"
"##MN-00 00 48 0184 03295 6776 794008 023836 214"
"165.684896"
"$GPRMC,162609,A,2436.8293,N,08051.1312,W,2.0,233.0,140615,6.2,"
"##MN-00 00 48 0185 03297 6773 291488 023843 214"
"165.684942"
"$GPRMC,162613,A,2436.8282,N,08051.1333,W,2.0,233.6,140615,6.2,"
"##MN-00 00 48 0186 03301 6769 775584 023852 214"
"165.684988"
"$GPRMC,162617,A,2436.8270,N,08051.1352,W,2.1,234.5,140615,6.2,"
"##MN-00 00 48 0187 03304 6765 509360 023856 214"
"165.685035"
"$GPRMC,162621,A,2436.8257,N,08051.1374,W,2.1,235.4,140615,6.2,"
"##MN-00 00 47 0187 03307 6761 344840 023870 214"
"165.685093"
"$GPRMC,162625,A,2436.8242,N,08051.1395,W,2.0,233.9,140615,6.2,"
"##MN-00 00 48 0188 03309 6757 249552 023882 214"
"165.685139"
"$GPRMC,162629,A,2436.8230,N,08051.1413,W,2.1,234.4,140615,6.2,"
"##MN-00 00 48 0189 03309 6754 740536 023838 214"
"165.685185"
"$GPRMC,162633,A,2436.8214,N,08051.1438,W,2.1,234.5,140615,6.2,"
"##MN-00 00 48 0190 03314 6750 478584 023853 214"
"165.685231"
"$GPRMC,162637,A,2436.8200,N,08051.1459,W,2.1,235.2,140615,6.2,"
"##MN-00 00 47 0190 03317 6746 466752 023862 214"
"165.685278"
"$GPRMC,162641,A,2436.8187,N,08051.1481,W,2.1,235.6,140615,6.2,"
"##MN-00 00 47 0191 03317 6742 458504 023847 214"
"165.685324"
"$GPRMC,162645,A,2436.8177,N,08051.1499,W,2.0,235.5,140615,6.2,"
"##MN-00 00 47 0192 03321 6739 437712 023892 214"
"165.68537"
"$GPRMC,162649,A,2436.8164,N,08051.1521,W,2.0,235.7,140615,6.2,"
"##MN-00 00 48 0193 03327 6734 436104 023894 214"
"165.685417"
"$GPRMC,162653,A,2436.8150,N,08051.1542,W,2.0,234.9,140615,6.2,"
"##MN-00 00 48 0193 03327 6731 436320 023850 214"
"165.685463"
"$GPRMC,162657,A,2436.8135,N,08051.1561,W,2.1,234.6,140615,6.2,"
"##MN-00 00 47 0194 03330 6727 427096 023801 214"
"165.685509"
"$GPRMC,162701,A,2436.8120,N,08051.1582,W,2.0,234.1,140615,6.2,"
"##MN-00 00 48 0195 03336 6723 423264 023779 214"
"165.685556"
"$GPRMC,162705,A,2436.8107,N,08051.1600,W,2.0,232.8,140615,6.2,"
"##MN-00 00 47 0195 03339 6719 407856 023794 214"
"165.685602"
"$GPRMC,162709,A,2436.8094,N,08051.1618,W,1.9,231.4,140615,6.2,"
"##MN-00 00 48 0196 03343 6715 398672 023812 214"
"165.685648"
"$GPRMC,162713,A,2436.8080,N,08051.1634,W,1.9,230.4,140615,6.2,"
"##MN-00 00 47 0197 03347 6711 382824 023823 214"
"165.685694"
"$GPRMC,162717,A,2436.8067,N,08051.1656,W,1.9,229.9,140615,6.2,"
"##MN-00 00 47 0198 03351 6707 379992 023793 214"
"165.685741"
"$GPRMC,162721,A,2436.8051,N,08051.1680,W,1.9,230.0,140615,6.2,"
"##MN-00 00 48 0198 03354 6703 378000 023792 214"
"165.685787"
"$GPRMC,162725,A,2436.8037,N,08051.1702,W,1.9,230.6,140615,6.2,"
"##MN-00 00 48 0199 03358 6699 363920 023801 214"
"165.685833"
"$GPRMC,162729,A,2436.8023,N,08051.1720,W,2.0,232.1,140615,6.2,"
"##MN-00 00 48 0200 03362 6695 353424 023813 214"
"165.68588"
"$GPRMC,162733,A,2436.8009,N,08051.1738,W,2.0,232.4,140615,6.2,"
"##MN-00 00 48 0201 03365 6691 344328 023824 214"
"165.685926"
"$GPRMC,162737,A,2436.7997,N,08051.1759,W,2.0,233.3,140615,6.2,"
"##MN-00 00 48 0201 03366 6687 329840 023834 214"
"165.685972"
"$GPRMC,162741,A,2436.7986,N,08051.1777,W,1.9,233.6,140615,6.2,"
"##MN-00 00 48 0202 03372 6682 325176 023833 214"
"165.686019"
"$GPRMC,162745,A,2436.7973,N,08051.1797,W,2.1,234.1,140615,6.2,"
"##MN-00 00 48 0203 03372 6678 321056 023808 214"
"165.686065"
"$GPRMC,162749,A,2436.7962,N,08051.1817,W,2.1,234.1,140615,6.2,"
"##MN-00 00 48 0204 03375 6674 308368 023820 214"
"165.686111"
"$GPRMC,162753,A,2436.7950,N,08051.1839,W,2.1,235.4,140615,6.2,"
"##MN-00 00 48 0205 03377 6670 297880 023838 214"
"165.686157"
"$GPRMC,162757,A,2436.7939,N,08051.1864,W,2.1,236.3,140615,6.2,"
"##MN-00 00 48 0205 03375 6666 288288 023831 214"
"165.686204"
"$GPRMC,162801,A,2436.7923,N,08051.1886,W,2.1,236.7,140615,6.2,"
"##MN-00 00 48 0206 03380 6662 273352 023857 214"
"165.68625"
"$GPRMC,162805,A,2436.7911,N,08051.1908,W,2.2,236.3,140615,6.2,"
"##MN-00 00 48 0207 03381 6657 268272 023835 214"
"165.686296"
"$GPRMC,162809,A,2436.7899,N,08051.1923,W,2.1,234.9,140615,6.2,"
"##MN-00 00 48 0208 03380 6654 268920 023810 214"
"165.686343"
"$GPRMC,162813,A,2436.7885,N,08051.1944,W,2.2,234.6,140615,6.2,"
"##MN-00 00 48 0209 03382 6649 257120 023837 214"
"165.686389"
"$GPRMC,162817,A,2436.7871,N,08051.1965,W,2.1,233.8,140615,6.2,"
"##MN-00 00 47 0209 03383 6645 240840 023832 214"
"165.686435"
"$GPRMC,162821,A,2436.7856,N,08051.1985,W,2.2,233.4,140615,6.2,"
"##MN-00 00 47 0210 03385 6641 238032 023841 214"
"165.686481"
"$GPRMC,162825,A,2436.7841,N,08051.2006,W,2.2,232.2,140615,6.2,"
"##MN-00 00 48 0211 03387 6636 215056 023874 214"
"165.686528"
"$GPRMC,162829,A,2436.7828,N,08051.2025,W,2.2,232.2,140615,6.2,"
"##MN-00 00 47 0212 03389 6632 213496 023854 214"
"165.686574"
"$GPRMC,162833,A,2436.7811,N,08051.2045,W,2.1,231.4,140615,6.2,"
"##MN-00 00 47 0212 03389 6628 211952 023844 214"
"165.68662"
"$GPRMC,162837,A,2436.7794,N,08051.2067,W,2.1,230.9,140615,6.2,"
"##MN-00 00 48 0213 03392 6623 198288 023845 214"
"165.686667"
"$GPRMC,162841,A,2436.7780,N,08051.2086,W,2.1,230.7,140615,6.2,"
"##MN-00 00 47 0214 03397 6619 187328 023861 214"
"165.686713"
"$GPRMC,162845,A,2436.7764,N,08051.2106,W,2.1,230.1,140615,6.2,"
"##MN-00 00 47 0215 03399 6615 571056 023863 214"
"165.686759"
"$GPRMC,162849,A,2436.7751,N,08051.2124,W,1.9,230.3,140615,6.2,"
"##MN-00 00 47 0215 03404 6610 163680 023896 214"
"165.686806"
"$GPRMC,162853,A,2436.7737,N,08051.2144,W,2.0,230.8,140615,6.2,"
"##MN-00 00 48 0216 03408 6606 157656 023863 214"
"165.686852"
"$GPRMC,162857,A,2436.7726,N,08051.2162,W,2.1,232.5,140615,6.2,"
"##MN-00 00 48 0217 03410 6602 153888 023866 214"
"165.686898"
"$GPRMC,162901,A,2436.7715,N,08051.2182,W,2.1,234.0,140615,6.2,"
"##MN-00 00 47 0218 03412 6597 155488 023887 214"
"165.686944"
"$GPRMC,162906,A,2436.7701,N,08051.2208,W,2.1,236.1,140615,6.2,"
"##MN-00 00 48 0218 03417 6593 125352 023884 214"
"165.686991"
"$GPRMC,162909,A,2436.7692,N,08051.2222,W,2.1,235.7,140615,6.2,"
"##MN-00 00 48 0219 03422 6588 122000 023888 214"
"165.687037"
"$GPRMC,162914,A,2436.7677,N,08051.2245,W,2.1,235.4,140615,6.2,"
"##MN-00 00 47 0220 03423 6584 109224 023894 214"
"165.687083"
"$GPRMC,162917,A,2436.7666,N,08051.2263,W,2.1,235.3,140615,6.2,"
"##MN-00 00 47 0221 03426 6579 101840 023889 214"
"165.68713"
"$GPRMC,162922,A,2436.7648,N,08051.2291,W,2.1,235.6,140615,6.2,"
"##MN-00 00 48 0221 03428 6575 100304 023911 214"
"165.687176"
"$GPRMC,162925,A,2436.7639,N,08051.2309,W,2.1,234.6,140615,6.2,"
"##MN-00 00 48 0222 03431 6570 086760 023908 214"
"165.687222"
"$GPRMC,162929,A,2436.7623,N,08051.2330,W,2.1,235.2,140615,6.2,"
"##MN-00 00 48 0223 03432 6566 076720 023941 214"
"165.687268"
"$GPRMC,162934,A,2436.7607,N,08051.2357,W,2.1,234.6,140615,6.2,"
"##MN-00 00 48 0224 03437 6562 067072 023931 214"
"165.687315"
"$GPRMC,162937,A,2436.7596,N,08051.2370,W,2.1,233.7,140615,6.2,"
"##MN-00 00 47 0224 03437 6557 052112 023949 214"
"165.687361"
"$GPRMC,162942,A,2436.7579,N,08051.2395,W,2.2,235.0,140615,6.2,"
"##MN-00 00 48 0225 03443 6552 308416 023945 214"
"165.687407"
"$GPRMC,162946,A,2436.7567,N,08051.2414,W,2.1,234.8,140615,6.2,"
"##MN-00 00 48 0226 03447 6548 046304 023955 214"
"165.687454"
"$GPRMC,162950,A,2436.7553,N,08051.2433,W,2.1,234.5,140615,6.2,"
"##MN-00 00 48 0227 03446 6543 033576 023951 214"
"165.6875"
"$GPRMC,162954,A,2436.7539,N,08051.2453,W,2.1,233.5,140615,6.2,"
"##MN-00 00 48 0227 03449 6539 020528 023967 214"
"165.687546"
"$GPRMC,162958,A,2436.7525,N,08051.2471,W,2.0,232.5,140615,6.2,"
"##MN-00 00 48 0228 03454 6534 011392 023967 214"
"165.687593"
"$GPRMC,163002,A,2436.7513,N,08051.2486,W,1.9,231.7,140615,6.2,"
"##MN-00 00 47 0229 03462 6529 524296 023983 214"
"165.687639"
"$GPRMC,163006,A,2436.7493,N,08051.2508,W,2.0,230.5,140615,6.2,"
"##MN-00 00 48 0230 03460 6525 038960 023988 214"
"165.687685"
"$GPRMC,163010,A,2436.7480,N,08051.2525,W,1.9,230.8,140615,6.2,"
"##MN-00 00 48 0230 03464 6520 035136 023970 214"
"165.687732"
"$GPRMC,163014,A,2436.7466,N,08051.2545,W,2.0,231.5,140615,6.2,"
"##MN-00 00 48 0231 03470 6515 024176 023969 214"
"165.687778"
"$GPRMC,163018,A,2436.7453,N,08051.2562,W,1.9,231.4,140615,6.2,"
"##MN-00 00 48 0232 03473 6511 755152 023998 214"
"165.687824"
"$GPRMC,163022,A,2436.7440,N,08051.2581,W,1.9,232.9,140615,6.2,"
"##MN-00 00 47 0232 03479 6506 002816 023987 214"
"165.68787"
"$GPRMC,163026,A,2436.7430,N,08051.2601,W,1.9,233.3,140615,6.2,"
"##MN-00 00 47 0233 03481 6501 990944 023993 214"
"165.687917"
"$GPRMC,163030,A,2436.7419,N,08051.2621,W,2.0,234.8,140615,6.2,"
"##MN-00 00 47 0234 03483 6497 982632 023999 214"
"165.687963"
"$GPRMC,163034,A,2436.7406,N,08051.2641,W,2.0,235.2,140615,6.2,"
"##MN-00 00 48 0235 03483 6492 980608 024000 214"
"165.688009"
"$GPRMC,163038,A,2436.7391,N,08051.2662,W,2.0,235.9,140615,6.2,"
"##MN-00 00 47 0236 03483 6487 970952 024016 214"
"165.688056"
"$GPRMC,163042,A,2436.7381,N,08051.2681,W,2.0,236.2,140615,6.2,"
"##MN-00 00 48 0237 03482 6483 962224 024002 214"
"165.688102"
"$GPRMC,163046,A,2436.7369,N,08051.2702,W,2.0,236.3,140615,6.2,"
"##MN+00 00 48 0237 03481 6478 817568 024015 214"
"165.688148"
"$GPRMC,163050,A,2436.7354,N,08051.2722,W,2.0,236.3,140615,6.2,"
"##MN+00 00 48 0238 03482 6474 679544 024032 213"
"165.688194"
"$GPRMC,163054,A,2436.7338,N,08051.2742,W,2.1,234.7,140615,6.2,"
"##MN+00 00 48 0239 03480 6469 928032 024033 213"
"165.688241"
"$GPRMC,163058,A,2436.7325,N,08051.2761,W,2.1,234.7,140615,6.2,"
"##MN-00 00 48 0240 03479 6464 925072 024017 214"
"165.688287"
"$GPRMC,163102,A,2436.7309,N,08051.2782,W,2.1,233.9,140615,6.2,"
"##MN-00 00 48 0241 03481 6459 915840 024034 214"
"165.688345"
"$GPRMC,163106,A,2436.7298,N,08051.2797,W,2.0,231.9,140615,6.2,"
"##MN-00 00 47 0242 03481 6454 907552 024027 214"
"165.688391"
"$GPRMC,163110,A,2436.7283,N,08051.2815,W,1.9,231.7,140615,6.2,"
"##MN-00 00 48 0242 03482 6449 899264 024042 214"
"165.688437"
"$GPRMC,163114,A,2436.7269,N,08051.2832,W,1.9,231.0,140615,6.2,"
"##MN-00 00 47 0243 03483 6445 888728 024039 214"
"165.688484"
"$GPRMC,163118,A,2436.7255,N,08051.2850,W,1.9,230.7,140615,6.2,"
"##MN-00 00 48 0244 03486 6440 873744 024060 214"
"165.68853"
"$GPRMC,163122,A,2436.7242,N,08051.2868,W,1.9,230.5,140615,6.2,"
"##MN-00 00 47 0245 03488 6435 871216 024054 214"
"165.688576"
"$GPRMC,163126,A,2436.7226,N,08051.2887,W,1.9,230.0,140615,6.2,"
"##MN-00 00 48 0246 03488 6430 863832 024042 214"
"165.688623"
"$GPRMC,163130,A,2436.7213,N,08051.2905,W,1.9,229.4,140615,6.2,"
"##MN-00 00 48 0247 03490 6425 853744 024057 214"
"165.688669"
"$GPRMC,163134,A,2436.7199,N,08051.2924,W,2.0,231.4,140615,6.2,"
"##MN-00 00 48 0247 03493 6421 845864 024061 214"
"165.688715"
"$GPRMC,163138,A,2436.7188,N,08051.2944,W,1.9,232.6,140615,6.2,"
"##MN-00 00 48 0248 03490 6416 835296 024059 214"
"165.688762"
"$GPRMC,163142,A,2436.7177,N,08051.2962,W,1.9,233.5,140615,6.2,"
"##MN-00 00 48 0249 03492 6411 824752 024083 214"
"165.688808"
"#increment_net"
"$GPRMC,163146,A,2436.7163,N,08051.2982,W,1.9,233.4,140615,6.2,"
"##MN-00 00 48 0250 03491 6406 814680 024091 214"
"165.688854"
"$GPRMC,163150,A,2436.7152,N,08051.3002,W,1.9,233.8,140615,6.2,"
"##MN-00 00 48 0251 03490 6401 814384 024074 214"
"165.6889"
"$GPRMC,163154,A,2436.7138,N,08051.3022,W,1.9,234.1,140615,6.2,"
"##MN-00 00 48 0252 03493 6397 800728 024081 214"
"165.688947"
"$GPRMC,163158,A,2436.7126,N,08051.3043,W,2.0,234.4,140615,6.2,"
"##MN-00 00 48 0252 03493 6392 794160 024084 214"
"165.688993"
"$GPRMC,163202,A,2436.7115,N,08051.3063,W,1.9,235.0,140615,6.2,"
"##MN-00 00 47 0253 03492 6387 785392 024084 214"
"165.689039"
"$GPRMC,163206,A,2436.7103,N,08051.3082,W,2.1,234.5,140615,6.2,"
"##MN-00 00 47 0254 03494 6381 777520 024097 214"
"165.689086"
"$GPRMC,163210,A,2436.7091,N,08051.3101,W,2.1,233.6,140615,6.2,"
"##MN-00 00 48 0255 03494 6377 762488 024112 214"
"165.689132"
"$GPRMC,163214,A,2436.7079,N,08051.3121,W,2.1,235.0,140615,6.2,"
"##MN-00 00 48 0256 03494 6372 759592 024101 214"
"165.689178"
"$GPRMC,163218,A,2436.7067,N,08051.3139,W,2.0,234.9,140615,6.2,"
"##MN-00 00 47 0257 03493 6367 755728 024093 214"
"165.689225"
"$GPRMC,163222,A,2436.7054,N,08051.3159,W,2.0,235.2,140615,6.2,"
"##MN-00 00 47 0258 03494 6362 743832 024095 214"
"165.689271"
"$GPRMC,163226,A,2436.7041,N,08051.3179,W,1.9,234.8,140615,6.2,"
"##MN-00 00 47 0258 03494 6357 736320 024115 214"
"165.689317"
"$GPRMC,163230,A,2436.7026,N,08051.3199,W,1.9,235.2,140615,6.2,"
"##MN-00 00 48 0259 03493 6352 726248 024111 214"
"165.689363"
"$GPRMC,163234,A,2436.7011,N,08051.3219,W,1.9,234.3,140615,6.2,"
"##MN-00 00 48 0260 03493 6348 712584 024119 214"
"165.68941"
"$GPRMC,163238,A,2436.6996,N,08051.3241,W,2.0,234.3,140615,6.2,"
"##MN-00 00 47 0261 03493 6342 700224 024131 214"
"165.689456"
"$GPRMC,163242,A,2436.6983,N,08051.3262,W,1.9,233.6,140615,6.2,"
"##MN-00 00 48 0262 03490 6338 703480 024127 214"
"165.689502"
"$GPRMC,163246,A,2436.6971,N,08051.3280,W,1.9,233.7,140615,6.2,"
"##MN-00 00 48 0263 03489 6333 696928 024126 214"
"165.689549"
"$GPRMC,163250,A,2436.6960,N,08051.3298,W,2.0,234.8,140615,6.2,"
"##MN-00 00 48 0264 03488 6328 682296 024129 214"
"165.689595"
"$GPRMC,163254,A,2436.6947,N,08051.3314,W,2.0,235.4,140615,6.2,"
"##MN-00 00 47 0264 03490 6323 691824 024131 214"
"165.689641"
"$GPRMC,163258,A,2436.6935,N,08051.3331,W,1.9,235.6,140615,6.2,"
"##MN-00 00 48 0265 03487 6318 673232 024148 214"
"165.689687"
"$GPRMC,163302,A,2436.6924,N,08051.3349,W,2.0,235.5,140615,6.2,"
"##MN-00 00 47 0266 03488 6313 658152 024140 214"
"165.689734"
"$GPRMC,163306,A,2436.6911,N,08051.3367,W,1.9,234.1,140615,6.2,"
"##MN-00 00 47 0267 03487 6309 646688 024165 214"
"165.68978"
"$GPRMC,163310,A,2436.6895,N,08051.3387,W,1.9,234.5,140615,6.2,"
"##MN-00 00 47 0268 03483 6304 646824 024154 214"
"165.689826"
"$GPRMC,163314,A,2436.6881,N,08051.3407,W,1.9,234.7,140615,6.2,"
"##MN-00 00 48 0269 03484 6299 646944 024129 214"
"165.689873"
"$GPRMC,163318,A,2436.6866,N,08051.3428,W,1.9,234.3,140615,6.2,"
"##MN-00 00 48 0270 03481 6294 636832 024146 214"
"165.689919"
"$GPRMC,163322,A,2436.6855,N,08051.3448,W,2.0,233.6,140615,6.2,"
"##MN-00 00 47 0271 03482 6289 628432 024139 214"
"165.689965"
"$GPRMC,163326,A,2436.6841,N,08051.3468,W,1.9,233.7,140615,6.2,"
"##MN-00 00 47 0271 03479 6284 485456 024142 214"
"165.690012"
"$GPRMC,163330,A,2436.6827,N,08051.3490,W,1.9,233.7,140615,6.2,"
"##MN-00 00 48 0272 03477 6279 611712 024145 214"
"165.690058"
"$GPRMC,163334,A,2436.6814,N,08051.3506,W,1.8,233.6,140615,6.2,"
"##MN-00 00 47 0273 03478 6274 596640 024152 214"
"165.690104"
"$GPRMC,163338,A,2436.6802,N,08051.3526,W,1.9,233.9,140615,6.2,"
"##MN-00 00 47 0274 03474 6269 590504 024155 214"
"165.69015"
"$GPRMC,163342,A,2436.6790,N,08051.3542,W,1.9,233.1,140615,6.2,"
"##MN-00 00 48 0275 03470 6265 082336 024167 214"
"165.690197"
"$GPRMC,163346,A,2436.6777,N,08051.3563,W,2.0,232.6,140615,6.2,"
"##MN-00 00 47 0276 03468 6260 588936 024150 214"
"165.690243"
"$GPRMC,163350,A,2436.6765,N,08051.3582,W,1.9,232.2,140615,6.2,"
"##MN-00 00 47 0277 03467 6254 577024 024141 214"
"165.690289"
"$GPRMC,163355,A,2436.6749,N,08051.3607,W,1.9,232.7,140615,6.2,"
"##MN-00 00 47 0278 03463 6250 571312 024149 214"
"165.690336"
"$GPRMC,163358,A,2436.6738,N,08051.3621,W,1.9,232.6,140615,6.2,"
"##MN-00 00 47 0279 03461 6245 428312 024152 214"
"165.690382"
"$GPRMC,163403,A,2436.6720,N,08051.3645,W,1.9,233.1,140615,6.2,"
"##MN-00 00 47 0280 03461 6240 554512 024160 214"
"165.690428"
"$GPRMC,163406,A,2436.6711,N,08051.3658,W,1.9,232.2,140615,6.2,"
"##MN-00 00 47 0280 03457 6235 543496 024182 214"
"165.690475"
"$GPRMC,163410,A,2436.6697,N,08051.3678,W,1.9,231.5,140615,6.2,"
"##MN-00 00 47 0281 03456 6230 534216 024183 214"
"165.690521"
"$GPRMC,163415,A,2436.6682,N,08051.3700,W,1.9,230.7,140615,6.2,"
"##MN-00 00 47 0282 03453 6226 534320 024187 214"
"165.690567"
"$GPRMC,163419,A,2436.6668,N,08051.3719,W,1.9,230.3,140615,6.2,"
"##MN-00 00 47 0283 03451 6221 533080 024141 214"
"165.690613"
"$GPRMC,163423,A,2436.6656,N,08051.3739,W,1.9,230.7,140615,6.2,"
"##MN-00 00 46 0284 03450 6216 525600 024166 214"
"165.69066"
"$GPRMC,163427,A,2436.6646,N,08051.3759,W,1.9,231.6,140615,6.2,"
"##MN-00 00 46 0285 03447 6211 514104 024186 214"
"165.690706"
"$GPRMC,163431,A,2436.6632,N,08051.3779,W,2.0,233.1,140615,6.2,"
"##MN-00 00 47 0286 03445 6206 507920 024180 214"
"165.690752"
"$GPRMC,163435,A,2436.6624,N,08051.3794,W,2.0,233.9,140615,6.2,"
"##MN-00 00 47 0287 03444 6201 502712 024197 214"
"165.690799"
"$GPRMC,163439,A,2436.6611,N,08051.3815,W,2.0,234.6,140615,6.2,"
"##MN-00 00 47 0288 03442 6196 487664 024213 214"
"165.690845"
"$GPRMC,163443,A,2436.6599,N,08051.3834,W,2.1,234.4,140615,6.2,"
"##MN-00 00 47 0288 03439 6192 477936 024244 214"
"165.690891"
"$GPRMC,163447,A,2436.6585,N,08051.3853,W,2.0,233.9,140615,6.2,"
"##MN-00 00 47 0289 03438 6187 749056 024247 214"
"165.690938"
"$GPRMC,163451,A,2436.6570,N,08051.3874,W,2.0,233.0,140615,6.2,"
"##MN-00 00 47 0290 03436 6182 478976 024205 214"
"165.690984"
"$GPRMC,163455,A,2436.6555,N,08051.3891,W,1.9,231.4,140615,6.2,"
"##MN-00 00 46 0291 03432 6177 475480 024174 214"
"165.69103"
"$GPRMC,163459,A,2436.6541,N,08051.3912,W,2.0,231.6,140615,6.2,"
"##MN-00 00 46 0292 03429 6172 463488 024199 214"
"165.691076"
"$GPRMC,163503,A,2436.6530,N,08051.3927,W,1.9,230.4,140615,6.2,"
"##MN-00 00 47 0293 03426 6168 460416 024208 214"
"165.691123"
"$GPRMC,163507,A,2436.6516,N,08051.3945,W,1.9,231.5,140615,6.2,"
"##MN-00 00 47 0294 03427 6163 450640 024203 214"
"165.691169"
"$GPRMC,163511,A,2436.6502,N,08051.3963,W,2.0,230.7,140615,6.2,"
"##MN-00 00 47 0295 03426 6158 448928 024208 214"
"165.691215"
"$GPRMC,163515,A,2436.6488,N,08051.3982,W,1.9,231.1,140615,6.2,"
"##MN-00 00 46 0296 03424 6153 439616 024213 214"
"165.691262"
"$GPRMC,163519,A,2436.6474,N,08051.4001,W,1.9,231.2,140615,6.2,"
"##MN-00 00 47 0297 03422 6149 424960 024241 214"
"165.691308"
"$GPRMC,163523,A,2436.6463,N,08051.4017,W,1.9,231.7,140615,6.2,"
"##MN-00 00 47 0297 03419 6144 421416 024243 214"
"165.691354"
"$GPRMC,163527,A,2436.6449,N,08051.4036,W,1.9,233.0,140615,6.2,"
"##MN-00 00 47 0298 03416 6139 421504 024213 214"
"165.6914"
"$GPRMC,163531,A,2436.6437,N,08051.4053,W,1.9,232.9,140615,6.2,"
"##MN-00 00 47 0299 03416 6134 421568 024211 214"
"165.691447"
"$GPRMC,163535,A,2436.6427,N,08051.4068,W,1.9,233.1,140615,6.2,"
"##MN-00 00 47 0300 03411 6130 418936 024193 214"
"165.691505"
"$GPRMC,163539,A,2436.6415,N,08051.4086,W,1.9,232.0,140615,6.2,"
"##MN-00 00 47 0301 03410 6125 136352 024204 214"
"165.691551"
"$GPRMC,163543,A,2436.6402,N,08051.4105,W,1.9,232.4,140615,6.2,"
"##MN-00 00 47 0302 03409 6120 402552 024200 214"
"165.691597"
"$GPRMC,163547,A,2436.6390,N,08051.4124,W,1.8,232.6,140615,6.2,"
"##MN-00 00 47 0303 03406 6116 394176 024229 214"
"165.691644"
"$GPRMC,163551,A,2436.6379,N,08051.4147,W,1.8,233.3,140615,6.2,"
"##MN-00 00 47 0304 03402 6111 934480 024249 214"
"165.69169"
"$GPRMC,163555,A,2436.6367,N,08051.4162,W,1.8,232.0,140615,6.2,"
"##MN-00 00 47 0305 03400 6106 382648 024226 214"
"165.691736"
"$GPRMC,163559,A,2436.6354,N,08051.4176,W,1.8,231.4,140615,6.2,"
"##MN-00 00 47 0306 03401 6102 365744 024233 214"
"165.691782"
"$GPRMC,163603,A,2436.6339,N,08051.4194,W,1.8,231.0,140615,6.2,"
"##MN-00 00 46 0306 03395 6097 364912 024245 214"
"165.691829"
"$GPRMC,163607,A,2436.6328,N,08051.4209,W,1.9,230.6,140615,6.2,"
"##MN-00 00 47 0307 03393 6093 364976 024242 214"
"165.691875"
"$GPRMC,163611,A,2436.6312,N,08051.4230,W,1.9,231.1,140615,6.2,"
"##MN-00 00 47 0308 03389 6088 364096 024212 214"
"165.691921"
"$GPRMC,163615,A,2436.6300,N,08051.4252,W,2.1,232.4,140615,6.2,"
"##MN-00 00 47 0309 03388 6083 364984 024215 214"
"165.691968"
"$GPRMC,163619,A,2436.6288,N,08051.4270,W,1.9,232.5,140615,6.2,"
"##MN-00 00 48 0310 03384 6079 357856 024219 214"
"165.692014"
"$GPRMC,163623,A,2436.6277,N,08051.4289,W,1.9,233.7,140615,6.2,"
"##MN-00 00 47 0311 03381 6074 349848 024219 214"
"165.69206"
"$GPRMC,163627,A,2436.6261,N,08051.4310,W,1.9,233.0,140615,6.2,"
"##MN-00 00 47 0312 03379 6070 344064 024233 214"
"165.692106"
"$GPRMC,163631,A,2436.6246,N,08051.4328,W,1.8,233.0,140615,6.2,"
"##MN-00 00 47 0313 03376 6065 336512 024230 214"
"165.692153"
"$GPRMC,163635,A,2436.6234,N,08051.4346,W,1.9,232.5,140615,6.2,"
"##MN-00 00 47 0314 03375 6060 333784 024225 214"
"165.692199"
"$GPRMC,163639,A,2436.6223,N,08051.4366,W,1.9,234.4,140615,6.2,"
"##MN-00 00 47 0315 03373 6056 329312 024224 214"
"165.692245"
"$GPRMC,163643,A,2436.6209,N,08051.4390,W,1.9,234.2,140615,6.2,"
"##MN-00 00 47 0316 03369 6051 182672 024216 214"
"165.692292"
"$GPRMC,163647,A,2436.6200,N,08051.4407,W,1.9,235.1,140615,6.2,"
"##MN-00 00 47 0316 03367 6047 308784 024212 214"
"165.692338"
"$GPRMC,163651,A,2436.6187,N,08051.4420,W,1.9,234.7,140615,6.2,"
"##MN-00 00 47 0317 03364 6043 307832 024216 214"
"165.692384"
"$GPRMC,163655,A,2436.6177,N,08051.4434,W,1.8,233.3,140615,6.2,"
"##MN-00 00 47 0318 03361 6039 307808 024212 214"
"165.692431"
"$GPRMC,163659,A,2436.6165,N,08051.4451,W,1.8,233.2,140615,6.2,"
"##MN-00 00 47 0319 03362 6034 854320 024221 214"
"165.692477"
"$GPRMC,163703,A,2436.6153,N,08051.4465,W,1.8,232.5,140615,6.2,"
"##MN-00 00 46 0320 03359 6030 307784 024209 214"
"165.692523"
"$GPRMC,163707,A,2436.6141,N,08051.4483,W,1.8,232.6,140615,6.2,"
"##MN-00 00 46 0321 03357 6025 307808 024211 214"
"165.692569"
"$GPRMC,163711,A,2436.6130,N,08051.4502,W,1.8,232.7,140615,6.2,"
"##MN-00 00 47 0322 03354 6020 305560 024214 214"
"165.692616"
"$GPRMC,163715,A,2436.6117,N,08051.4520,W,1.7,233.4,140615,6.2,"
"##MN-00 00 47 0323 03353 6016 158888 024206 213"
"165.692662"
"$GPRMC,163719,A,2436.6104,N,08051.4539,W,1.8,233.0,140615,6.2,"
"##MN-00 00 47 0323 03351 6012 289920 024206 214"
"165.692708"
"$GPRMC,163723,A,2436.6091,N,08051.4556,W,1.8,233.1,140615,6.2,"
"##MN-00 00 46 0324 03349 6007 288064 024205 214"
"165.692755"
"$GPRMC,163727,A,2436.6078,N,08051.4577,W,1.8,234.3,140615,6.2,"
"##MN-00 00 47 0325 03347 6003 830976 024199 214"
"165.692801"
"$GPRMC,163731,A,2436.6068,N,08051.4599,W,1.8,234.5,140615,6.2,"
"##MN-00 00 47 0326 03344 5999 234864 024198 214"
"165.692847"
"$GPRMC,163735,A,2436.6064,N,08051.4617,W,1.8,235.8,140615,6.2,"
"##MN-00 00 46 0327 03341 5995 185056 024201 214"
"165.692894"
"$GPRMC,163739,A,2436.6051,N,08051.4635,W,1.8,237.2,140615,6.2,"
"##MN-00 00 45 0328 03342 5990 271888 024197 214"
"165.69294"
"$GPRMC,163743,A,2436.6039,N,08051.4650,W,1.7,238.4,140615,6.2,"
"##MN-00 00 45 0329 03337 5986 544216 024192 214"
"165.692986"
"$GPRMC,163747,A,2436.6026,N,08051.4671,W,1.9,237.9,140615,6.2,"
"##MN-00 00 45 0330 03336 5982 043120 024201 214"
"165.693032"
"$GPRMC,163751,A,2436.6012,N,08051.4691,W,1.8,237.3,140615,6.2,"
"##MN-00 00 46 0331 03335 5978 260648 024239 214"
"165.693079"
"$GPRMC,163755,A,2436.5999,N,08051.4711,W,1.8,236.6,140615,6.2,"
"##MN-00 00 46 0331 03331 5974 251664 024250 214"
"165.693125"
"$GPRMC,163759,A,2436.5990,N,08051.4727,W,1.9,235.3,140615,6.2,"
"##MN-00 00 45 0332 03330 5970 798624 024241 214"
"165.693171"
"$GPRMC,163803,A,2436.5978,N,08051.4744,W,1.8,233.9,140615,6.2,"
"##MN-00 00 46 0333 03327 5966 637744 024249 214"
"165.693218"
"$GPRMC,163807,A,2436.5967,N,08051.4762,W,1.9,233.6,140615,6.2,"
"##MN-00 00 45 0334 03323 5962 249392 024208 214"
"165.693264"
"$GPRMC,163811,A,2436.5953,N,08051.4780,W,1.9,233.2,140615,6.2,"
"##MN-00 00 45 0335 03321 5957 387560 024221 214"
"165.69331"
"$GPRMC,163815,A,2436.5938,N,08051.4801,W,1.8,232.1,140615,6.2,"
"##MN-00 00 45 0336 03319 5954 250200 024186 214"
"165.693357"
"$GPRMC,163819,A,2436.5923,N,08051.4819,W,1.8,231.2,140615,6.2,"
"##MN-00 00 45 0337 03314 5949 250176 024185 214"
"165.693403"
"$GPRMC,163823,A,2436.5909,N,08051.4837,W,1.8,230.7,140615,6.2,"
"##MN-00 00 46 0337 03317 5945 659856 024189 214"
"165.693449"
"$GPRMC,163827,A,2436.5895,N,08051.4852,W,1.8,230.2,140615,6.2,"
"##MN-00 00 46 0338 03310 5941 243920 024184 214"
"165.693495"
"$GPRMC,163831,A,2436.5882,N,08051.4867,W,1.8,230.3,140615,6.2,"
"##MN-00 00 46 0339 03311 5937 603160 024201 213"
"165.693542"
"$GPRMC,163835,A,2436.5870,N,08051.4881,W,1.8,230.0,140615,6.2,"
"##MN-00 00 46 0340 03308 5933 669192 024208 214"
"165.693588"
"$GPRMC,163839,A,2436.5856,N,08051.4900,W,1.8,230.4,140615,6.2,"
"##MN-00 00 46 0341 03305 5930 232256 024235 214"
"165.693634"
"$GPRMC,163843,A,2436.5845,N,08051.4917,W,1.8,230.9,140615,6.2,"
"##MN-00 00 46 0342 03304 5926 503712 024223 213"
"165.693681"
"$GPRMC,163848,A,2436.5830,N,08051.4939,W,1.8,231.6,140615,6.2,"
"##MN-00 00 45 0342 03301 5922 225088 024207 213"
"165.693727"
"$GPRMC,163852,A,2436.5821,N,08051.4957,W,1.9,233.2,140615,6.2,"
"##MN-00 00 46 0343 03300 5918 496992 024225 214"
"165.693773"
"$GPRMC,163856,A,2436.5807,N,08051.4976,W,1.9,234.4,140615,6.2,"
"##MN-00 00 46 0344 03297 5914 608016 024241 213"
"165.693819"
"$GPRMC,163900,A,2436.5797,N,08051.4994,W,1.8,235.3,140615,6.2,"
"##MN-00 00 45 0345 03297 5911 494272 024242 213"
"165.693866"
"$GPRMC,163904,A,2436.5786,N,08051.5014,W,1.8,235.5,140615,6.2,"
"##MN-00 00 45 0346 03294 5907 215576 024229 213"
"165.693912"
"$GPRMC,163908,A,2436.5780,N,08051.5032,W,1.8,236.6,140615,6.2,"
"##MN-00 00 45 0346 03290 5903 488800 024247 214"
"165.693958"
"$GPRMC,163912,A,2436.5766,N,08051.5051,W,1.9,237.2,140615,6.2,"
"##MN-00 00 45 0347 03289 5899 873504 024241 213"
"165.694005"
"$GPRMC,163916,A,2436.5755,N,08051.5069,W,2.0,236.7,140615,6.2,"
"##MN-00 00 45 0348 03286 5896 617992 024252 213"
"165.694051"
"$GPRMC,163920,A,2436.5742,N,08051.5090,W,2.0,237.0,140615,6.2,"
"##MN-00 00 45 0349 03282 5892 974624 024255 214"
"165.694097"
"$GPRMC,163924,A,2436.5726,N,08051.5110,W,2.0,234.6,140615,6.2,"
"##MN+00 00 44 0350 03280 5888 469408 024260 213"
"165.694144"
"$GPRMC,163928,A,2436.5715,N,08051.5128,W,1.9,232.9,140615,6.2,"
"##MN+00 00 43 0351 03275 5884 330768 024268 213"
"165.69419"
"$GPRMC,163932,A,2436.5704,N,08051.5145,W,2.0,233.1,140615,6.2,"
"##MN+00 00 45 0352 03271 5881 070048 024267 213"
"165.694236"
"$GPRMC,163936,A,2436.5689,N,08051.5164,W,2.0,231.9,140615,6.2,"
"##MN-00 00 45 0353 03271 5877 942888 024273 213"
"165.694282"
"$GPRMC,163940,A,2436.5676,N,08051.5178,W,1.9,230.6,140615,6.2,"
"##MN-00 00 45 0354 03270 5874 742416 024277 213"
"165.694329"
"#increment_net"
"$GPRMC,163944,A,2436.5660,N,08051.5196,W,1.9,229.8,140615,6.2,"
"##MN-00 00 44 0354 03266 5870 716544 024278 214"
"165.694375"
"$GPRMC,163948,A,2436.5649,N,08051.5209,W,1.8,228.9,140615,6.2,"
"##MN-00 00 44 0355 03262 5867 605328 024279 213"
"165.694421"
"$GPRMC,163952,A,2436.5634,N,08051.5225,W,1.8,228.6,140615,6.2,"
"##MN-00 00 44 0356 03262 5864 245376 024280 213"
"165.694468"
"$GPRMC,163956,A,2436.5622,N,08051.5242,W,1.8,229.1,140615,6.2,"
"##MN-00 00 44 0357 03260 5860 329560 024268 214"
"165.694514"
"$GPRMC,164000,A,2436.5605,N,08051.5261,W,1.8,229.8,140615,6.2,"
"##MN-00 00 44 0358 03258 5857 466736 024260 213"
"165.69456"
"$GPRMC,164004,A,2436.5592,N,08051.5279,W,1.8,231.2,140615,6.2,"
"##MN-00 00 44 0359 03255 5853 965504 024249 214"
"165.694606"
"$GPRMC,164008,A,2436.5587,N,08051.5293,W,1.8,231.9,140615,6.2,"
"##MN-00 00 44 0360 03254 5850 466448 024253 213"
"165.694664"
"$GPRMC,164012,A,2436.5573,N,08051.5314,W,1.8,234.1,140615,6.2,"
"##MN-00 00 44 0361 03251 5846 192144 024253 213"
"165.694711"
"$GPRMC,164016,A,2436.5562,N,08051.5329,W,1.8,234.8,140615,6.2,"
"##MN-00 00 43 0361 03249 5843 852696 024247 213"
"165.694757"
"$GPRMC,164020,A,2436.5548,N,08051.5347,W,1.8,234.9,140615,6.2,"
"##MN-00 00 43 0362 03242 5840 191376 024246 213"
"165.694803"
"$GPRMC,164024,A,2436.5540,N,08051.5365,W,1.9,235.2,140615,6.2,"
"##MN-00 00 43 0363 03239 5837 740896 024257 213"
"165.69485"
"$GPRMC,164028,A,2436.5526,N,08051.5387,W,1.8,235.4,140615,6.2,"
"##MN-00 00 43 0364 03237 5833 715416 024256 213"
"165.694896"
"$GPRMC,164032,A,2436.5513,N,08051.5408,W,1.9,236.4,140615,6.2,"
"##MN-00 00 43 0365 03232 5830 740560 024267 213"
"165.694942"
"$GPRMC,164036,A,2436.5500,N,08051.5424,W,1.8,236.5,140615,6.2,"
"##MN-00 00 43 0366 03226 5827 577336 024252 213"
"165.694988"
"$GPRMC,164040,A,2436.5490,N,08051.5444,W,1.8,235.4,140615,6.2,"
"##MN-00 00 43 0367 03223 5824 464336 024263 213"
"165.695035"
"$GPRMC,164044,A,2436.5483,N,08051.5456,W,1.8,234.1,140615,6.2,"
"##MN-00 00 43 0368 03216 5821 964912 024262 213"
"165.695081"
"$GPRMC,164048,A,2436.5469,N,08051.5477,W,1.8,233.9,140615,6.2,"
"##MN-00 00 43 0369 03212 5818 465416 024285 213"
"165.695127"
"$GPRMC,164052,A,2436.5457,N,08051.5498,W,1.7,233.5,140615,6.2,"
"##MN-00 00 43 0370 03207 5815 190736 024307 213"
"165.695174"
"$GPRMC,164056,A,2436.5439,N,08051.5517,W,1.8,233.3,140615,6.2,"
"##MN-00 00 44 0371 03201 5812 602432 024297 213"
"165.69522"
"$GPRMC,164100,A,2436.5428,N,08051.5535,W,1.8,233.5,140615,6.2,"
"##MN-00 00 44 0372 03198 5809 576440 024304 213"
"165.695266"
"$GPRMC,164104,A,2436.5415,N,08051.5553,W,1.8,233.8,140615,6.2,"
"##MN-00 00 44 0373 03193 5806 189264 024313 213"
"165.695313"
"$GPRMC,164108,A,2436.5401,N,08051.5571,W,1.8,233.4,140615,6.2,"
"##MN-00 00 44 0374 03188 5803 464696 024290 213"
"165.695359"
"$GPRMC,164112,A,2436.5392,N,08051.5589,W,1.8,233.0,140615,6.2,"
"##MN-00 00 44 0375 03182 5800 739120 024303 213"
"165.695405"
"$GPRMC,164116,A,2436.5378,N,08051.5605,W,1.8,233.0,140615,6.2,"
"##MN-00 00 44 0375 03178 5797 988712 024296 213"
"165.695451"
"$GPRMC,164120,A,2436.5367,N,08051.5618,W,1.8,232.6,140615,6.2,"
"##MN-00 00 44 0376 03174 5794 850696 024301 213"
"165.695498"
"$GPRMC,164124,A,2436.5357,N,08051.5634,W,1.8,231.9,140615,6.2,"
"##MN-00 00 44 0377 03172 5792 464048 024300 213"
"165.695544"
"$GPRMC,164128,A,2436.5349,N,08051.5650,W,1.8,232.6,140615,6.2,"
"##MN-00 00 44 0378 03166 5789 463960 024289 213"
"165.69559"
"$GPRMC,164132,A,2436.5339,N,08051.5662,W,1.7,232.8,140615,6.2,"
"##MN-00 00 44 0379 03164 5786 601560 024300 213"
"165.695637"
"$GPRMC,164136,A,2436.5327,N,08051.5680,W,1.7,233.0,140615,6.2,"
"##MN-00 00 45 0380 03161 5783 188048 024297 213"
"165.695683"
"$GPRMC,164140,A,2436.5314,N,08051.5694,W,1.6,234.1,140615,6.2,"
"##MN-00 00 44 0381 03159 5781 467072 024282 213"
"165.695729"
"$GPRMC,164144,A,2436.5303,N,08051.5712,W,1.7,234.1,140615,6.2,"
"##MN-00 00 45 0382 03156 5778 469616 024284 213"
"165.695775"
"$GPRMC,164148,A,2436.5294,N,08051.5728,W,1.7,234.8,140615,6.2,"
"##MN-00 00 45 0383 03153 5775 585344 024282 213"
"165.695822"
"$GPRMC,164152,A,2436.5285,N,08051.5744,W,1.6,235.1,140615,6.2,"
"##MN-00 00 45 0383 03149 5773 616360 024269 213"
"165.695868"
"$GPRMC,164156,A,2436.5271,N,08051.5766,W,1.7,235.0,140615,6.2,"
"##MN-00 00 44 0384 03147 5771 980048 024273 213"
"165.695914"
"$GPRMC,164200,A,2436.5262,N,08051.5781,W,1.7,234.7,140615,6.2,"
"##MN-00 00 44 0385 03143 5768 757392 024272 213"
"165.695961"
"$GPRMC,164204,A,2436.5255,N,08051.5796,W,1.8,236.0,140615,6.2,"
"##MN-00 00 44 0386 03140 5766 871664 024259 213"
"165.696007"
"$GPRMC,164208,A,2436.5244,N,08051.5817,W,1.8,236.6,140615,6.2,"
"##MN-00 00 45 0387 03139 5763 488976 024280 213"
"165.696053"
"$GPRMC,164212,A,2436.5233,N,08051.5838,W,1.7,238.7,140615,6.2,"
"##MN-00 00 45 0388 03134 5761 739368 024286 213"
"165.6961"
"$GPRMC,164216,A,2436.5219,N,08051.5856,W,1.8,240.1,140615,6.2,"
"##MN-00 00 45 0389 03131 5759 766720 024270 213"
"165.696146"
"$GPRMC,164220,A,2436.5209,N,08051.5867,W,1.8,240.0,140615,6.2,"
"##MN-00 00 45 0390 03127 5756 356888 024260 213"
"165.696192"
"$GPRMC,164224,A,2436.5198,N,08051.5885,W,1.8,240.0,140615,6.2,"
"##MN-00 00 44 0391 03126 5754 223304 024282 213"
"165.696238"
"$GPRMC,164228,A,2436.5186,N,08051.5903,W,1.8,239.1,140615,6.2,"
"##MN-00 00 43 0391 03121 5752 225792 024275 213"
"165.696285"
"$GPRMC,164232,A,2436.5173,N,08051.5925,W,1.8,238.1,140615,6.2,"
"##MN-00 00 44 0392 03116 5750 754040 024260 213"
"165.696331"
"$GPRMC,164236,A,2436.5163,N,08051.5943,W,1.8,237.9,140615,6.2,"
"##MN-00 00 44 0393 03112 5748 233504 024271 213"
"165.696377"
"$GPRMC,164240,A,2436.5148,N,08051.5965,W,1.8,237.9,140615,6.2,"
"##MN-00 00 45 0394 03106 5746 512888 024260 213"
"165.696424"
"$GPRMC,164244,A,2436.5136,N,08051.5984,W,1.8,238.1,140615,6.2,"
"##MN-00 00 44 0395 03105 5743 628632 024242 213"
"165.69647"
"$GPRMC,164248,A,2436.5123,N,08051.6002,W,1.8,237.0,140615,6.2,"
"##MN-00 00 44 0396 03103 5741 792080 024292 213"
"165.696516"
"$GPRMC,164252,A,2436.5114,N,08051.6019,W,1.9,235.9,140615,6.2,"
"##MN-00 00 44 0397 03097 5739 903040 024290 213"
"165.696563"
"$GPRMC,164256,A,2436.5101,N,08051.6033,W,1.8,235.5,140615,6.2,"
"##MN-00 00 44 0398 03093 5737 018864 024304 213"
"165.696609"
"$GPRMC,164300,A,2436.5093,N,08051.6048,W,1.9,233.6,140615,6.2,"
"##MN-00 00 44 0398 03090 5735 426504 024300 213"
"165.696655"
"$GPRMC,164304,A,2436.5080,N,08051.6066,W,1.9,233.3,140615,6.2,"
"##MN+00 00 44 0399 03089 5734 218424 024299 213"
"165.696701"
"$GPRMC,164308,A,2436.5068,N,08051.6084,W,1.8,232.3,140615,6.2,"
"##MN+00 00 44 0400 03084 5731 014256 024309 213"
"165.696748"
"$GPRMC,164312,A,2436.5050,N,08051.6105,W,1.7,232.1,140615,6.2,"
"##MN+00 00 42 0401 03081 5730 130048 024297 213"
"165.696794"
