" Tow: 10WGELZO   RVWS/WS15161"
" Date: 22/06/2015"
" Temperature Probe #  4762    Conductivity Probe #  710"
" Pressure Probe #  159"
" Flow Meter Calibration  4.71 (m/count)  "
"173.939757"
"$GPRMC,223154,A,2420.7096,N,08158.9000,W,1.5,149.6,220615,5.4,"
"##MN-00 00 72 0000 01540 5169 423804 827361 196"
"173.939803"
"$GPRMC,223316,A,2420.6885,N,08158.8423,W,2.8,107.9,220615,5.4,"
"##MN-00 00 72 0000 01541 5169 420577 827691 196"
"173.940023"
"$GPRMC,223333,A,2420.6844,N,08158.8282,W,2.9,107.7,220615,5.4,"
"##MN-00 00 72 0000 01540 5167 421315 827814 196"
"173.940069"
"$GPRMC,223339,A,2420.6830,N,08158.8232,W,2.9,107.7,220615,5.4,"
"##MN-00 00 72 0000 01540 5167 422506 827760 196"
"173.940208"
"$GPRMC,223350,A,2420.6803,N,08158.8140,W,2.9,107.2,220615,5.4,"
"##MN-00 00 72 0000 01540 5165 422716 827783 196"
"173.940255"
"$GPRMC,223354,A,2420.6794,N,08158.8106,W,2.9,107.3,220615,5.4,"
"##MN-00 00 72 0000 01540 5165 422119 827827 196"
"173.940301"
"$GPRMC,223358,A,2420.6783,N,08158.8072,W,2.9,107.3,220615,5.4,"
"##MN-00 00 72 0000 01541 5164 421955 827691 196"
"173.940347"
"$GPRMC,223402,A,2420.6773,N,08158.8038,W,2.9,107.4,220615,5.4,"
"##MN-00 00 72 0000 01540 5164 421830 827828 196"
"173.940394"
"$GPRMC,223406,A,2420.6761,N,08158.8000,W,2.9,107.6,220615,5.4,"
"##MN-00 00 72 0000 01540 5163 421556 827760 196"
"173.94044"
"$GPRMC,223410,A,2420.6747,N,08158.7961,W,2.9,108.0,220615,5.4,"
"##MN-00 00 72 0000 01541 5162 421537 827759 196"
"173.940486"
"$GPRMC,223415,A,2420.6734,N,08158.7919,W,2.9,108.1,220615,5.4,"
"##MN-00 00 72 0000 01540 5162 421731 827759 196"
"173.940532"
"$GPRMC,223419,A,2420.6725,N,08158.7888,W,2.9,108.2,220615,5.4,"
"##MN-00 00 72 0000 01540 5161 422112 827758 196"
"173.940579"
"$GPRMC,223422,A,2420.6715,N,08158.7862,W,2.9,108.6,220615,5.4,"
"##MN-00 00 71 0000 01540 5160 422940 827827 196"
"173.940625"
"$GPRMC,223426,A,2420.6702,N,08158.7825,W,2.8,108.7,220615,5.4,"
"##MN-00 00 72 0000 01540 5160 423192 827754 196"
"173.940671"
"$GPRMC,223431,A,2420.6689,N,08158.7784,W,2.8,108.1,220615,5.4,"
"##MN-00 00 69 0000 01540 5160 423670 827821 196"
"173.940718"
"$GPRMC,223434,A,2420.6682,N,08158.7759,W,2.8,108.2,220615,5.4,"
"##MN-00 00 67 0000 01540 5159 423965 827686 196"
"173.940764"
"$GPRMC,223439,A,2420.6669,N,08158.7721,W,2.9,108.4,220615,5.4,"
"##MN-00 00 66 0000 01540 5158 423883 827621 196"
"173.94081"
"$GPRMC,223443,A,2420.6660,N,08158.7688,W,2.9,108.1,220615,5.4,"
"##MN-00 00 62 0000 01542 5158 424150 827825 196"
"173.940856"
"$GPRMC,223447,A,2420.6650,N,08158.7657,W,2.8,108.1,220615,5.4,"
"##MN-00 00 59 0000 01540 5157 424182 827706 196"
"173.940903"
"$GPRMC,223451,A,2420.6640,N,08158.7624,W,2.7,107.8,220615,5.4,"
"##MN-00 00 59 0000 01544 5157 423915 827743 196"
"173.940949"
"$GPRMC,223455,A,2420.6632,N,08158.7594,W,2.6,107.5,220615,5.4,"
"##MN-00 00 59 0000 01541 5156 423687 827812 196"
"173.940995"
"$GPRMC,223459,A,2420.6624,N,08158.7561,W,2.6,106.9,220615,5.4,"
"##MN-00 00 59 0001 01540 5156 424045 827741 196"
"173.941042"
"$GPRMC,223503,A,2420.6614,N,08158.7531,W,2.6,106.5,220615,5.4,"
"##MN-00 00 58 0001 01541 5155 427807 293279 196"
"173.941088"
"$GPRMC,223507,A,2420.6606,N,08158.7502,W,2.6,107.1,220615,5.4,"
"##MN-00 00 09 0002 01542 5155 438131 205571 196"
"173.941134"
"$GPRMC,223511,A,2420.6599,N,08158.7472,W,2.6,107.0,220615,5.4,"
"##MN-00 00 08 0002 01544 5154 438265 203990 196"
"173.941181"
"$GPRMC,223515,A,2420.6590,N,08158.7443,W,2.6,107.0,220615,5.4,"
"##MN-00 00 34 0003 01545 5154 438299 204054 196"
"173.941227"
"$GPRMC,223519,A,2420.6583,N,08158.7414,W,2.6,107.3,220615,5.4,"
"##MN-00 00 16 0004 01550 5154 438392 204084 196"
"173.941273"
"$GPRMC,223523,A,2420.6575,N,08158.7386,W,2.5,107.4,220615,5.4,"
"##MN-00 00 16 0004 01557 5153 438466 204108 196"
"173.941319"
"$GPRMC,223527,A,2420.6568,N,08158.7361,W,2.5,108.1,220615,5.4,"
"##MN-00 00 16 0005 01563 5153 438454 204093 196"
"173.941366"
"$GPRMC,223531,A,2420.6563,N,08158.7338,W,2.4,108.1,220615,5.4,"
"##MN-00 00 16 0006 01572 5153 438678 204138 196"
"173.941412"
"$GPRMC,223535,A,2420.6554,N,08158.7313,W,2.3,108.1,220615,5.4,"
"##MN-00 00 16 0006 01576 5153 439019 204179 196"
"173.941458"
"$GPRMC,223539,A,2420.6544,N,08158.7282,W,2.3,108.0,220615,5.4,"
"##MN-00 00 16 0007 01583 5154 439225 204214 196"
"173.941505"
"$GPRMC,223543,A,2420.6534,N,08158.7252,W,2.3,108.0,220615,5.4,"
"##MN-00 00 17 0008 01587 5154 439588 204272 196"
"173.941551"
"$GPRMC,223547,A,2420.6525,N,08158.7221,W,2.3,108.1,220615,5.4,"
"##MN-00 00 17 0008 01592 5155 439967 204338 196"
"173.941597"
"$GPRMC,223551,A,2420.6518,N,08158.7198,W,2.3,108.3,220615,5.4,"
"##MN-00 00 17 0009 01601 5155 439359 204222 196"
"173.941644"
"$GPRMC,223555,A,2420.6512,N,08158.7173,W,2.3,108.5,220615,5.4,"
"##MN-00 00 17 0010 01606 5156 439219 204204 196"
"173.94169"
"$GPRMC,223559,A,2420.6505,N,08158.7148,W,2.3,108.0,220615,5.4,"
"##MN-00 00 17 0010 01612 5157 440847 204468 196"
"173.941736"
"$GPRMC,223603,A,2420.6497,N,08158.7121,W,2.3,107.5,220615,5.4,"
"##MN-00 00 18 0011 01618 5158 441574 204530 196"
"173.941782"
"$GPRMC,223607,A,2420.6489,N,08158.7096,W,2.3,107.2,220615,5.4,"
"##MN-00 00 18 0012 01624 5159 441710 204532 196"
"173.941829"
"$GPRMC,223611,A,2420.6483,N,08158.7071,W,2.2,106.9,220615,5.4,"
"##MN-00 00 18 0012 01630 5160 441834 204546 196"
"173.941875"
"$GPRMC,223615,A,2420.6476,N,08158.7044,W,2.2,106.9,220615,5.4,"
"##MN-00 00 18 0013 01636 5162 442146 204609 196"
"173.941921"
"$GPRMC,223619,A,2420.6469,N,08158.7019,W,2.2,107.0,220615,5.4,"
"##MN-00 00 18 0014 01640 5163 442312 204638 196"
"173.941968"
"$GPRMC,223623,A,2420.6462,N,08158.6994,W,2.2,107.0,220615,5.4,"
"##MN-00 00 18 0014 01644 5165 442544 204685 196"
"173.942014"
"$GPRMC,223627,A,2420.6454,N,08158.6966,W,2.2,107.6,220615,5.4,"
"##MN-00 00 18 0015 01652 5166 442560 204684 196"
"173.94206"
"$GPRMC,223631,A,2420.6447,N,08158.6940,W,2.2,107.7,220615,5.4,"
"##MN-00 00 14 0015 01658 5168 442738 204728 196"
"173.942106"
"$GPRMC,223635,A,2420.6440,N,08158.6912,W,2.3,107.9,220615,5.4,"
"##MN-00 00 18 0016 01661 5170 442779 204729 196"
"173.942153"
"$GPRMC,223639,A,2420.6430,N,08158.6884,W,2.3,108.2,220615,5.4,"
"##MN-00 00 18 0017 01667 5171 443066 204780 196"
"173.942199"
"$GPRMC,223643,A,2420.6423,N,08158.6857,W,2.3,108.3,220615,5.4,"
"##MN-00 00 15 0017 01673 5173 443361 204816 196"
"173.942245"
"$GPRMC,223647,A,2420.6414,N,08158.6831,W,2.3,108.8,220615,5.4,"
"##MN-00 00 13 0018 01682 5175 443846 204858 196"
"173.942292"
"$GPRMC,223651,A,2420.6406,N,08158.6804,W,2.3,109.0,220615,5.4,"
"##MN-00 00 18 0018 01686 5177 444328 204914 196"
"173.942338"
"$GPRMC,223655,A,2420.6398,N,08158.6778,W,2.3,109.2,220615,5.4,"
"##MN-00 00 18 0019 01691 5179 444487 204923 196"
"173.942384"
"$GPRMC,223659,A,2420.6389,N,08158.6752,W,2.3,109.4,220615,5.4,"
"##MN-00 00 18 0020 01698 5180 444717 204977 196"
"173.942431"
"$GPRMC,223703,A,2420.6380,N,08158.6725,W,2.3,109.8,220615,5.4,"
"##MN-00 00 12 0020 01703 5183 444927 205009 196"
"173.942477"
"$GPRMC,223707,A,2420.6371,N,08158.6699,W,2.3,110.0,220615,5.4,"
"##MN-00 00 18 0021 01706 5185 445079 205034 196"
"173.942523"
"$GPRMC,223711,A,2420.6364,N,08158.6673,W,2.3,110.0,220615,5.4,"
"##MN-00 00 18 0021 01711 5187 445269 205064 196"
"173.942569"
"$GPRMC,223715,A,2420.6354,N,08158.6645,W,2.3,109.5,220615,5.4,"
"##MN-00 00 18 0022 01717 5189 445505 205091 196"
"173.942616"
"$GPRMC,223719,A,2420.6346,N,08158.6619,W,2.3,109.1,220615,5.4,"
"##MN-00 00 13 0022 01722 5191 445609 205094 196"
"173.942662"
"$GPRMC,223723,A,2420.6337,N,08158.6593,W,2.3,109.0,220615,5.4,"
"##MN-00 00 12 0023 01727 5193 445669 205101 196"
"173.942708"
"$GPRMC,223727,A,2420.6330,N,08158.6566,W,2.3,108.1,220615,5.4,"
"##MN-00 00 13 0024 01733 5195 445758 205100 196"
"173.942755"
"$GPRMC,223731,A,2420.6321,N,08158.6536,W,2.3,107.7,220615,5.4,"
"##MN-00 00 18 0024 01734 5198 446031 205131 196"
"173.942801"
"$GPRMC,223735,A,2420.6313,N,08158.6508,W,2.4,107.4,220615,5.4,"
"##MN-00 00 18 0025 01738 5200 446194 205154 196"
"173.942847"
"$GPRMC,223739,A,2420.6302,N,08158.6476,W,2.4,107.1,220615,5.4,"
"##MN-00 00 18 0025 01745 5202 446246 205161 196"
"173.942894"
"$GPRMC,223743,A,2420.6293,N,08158.6446,W,2.4,106.6,220615,5.4,"
"##MN-00 00 18 0026 01751 5205 446288 205167 196"
"173.94294"
"$GPRMC,223747,A,2420.6286,N,08158.6420,W,2.4,106.4,220615,5.4,"
"##MN-00 00 15 0027 01757 5207 446343 205174 196"
"173.942986"
"$GPRMC,223751,A,2420.6281,N,08158.6393,W,2.4,105.8,220615,5.4,"
"##MN-00 00 16 0027 01763 5209 446447 205192 196"
"173.943032"
"$GPRMC,223755,A,2420.6274,N,08158.6365,W,2.4,104.7,220615,5.4,"
"##MN-00 00 18 0028 01768 5211 446699 205240 196"
"173.943079"
"$GPRMC,223759,A,2420.6268,N,08158.6337,W,2.4,104.0,220615,5.4,"
"##MN-00 00 18 0028 01772 5213 446957 205274 196"
"173.943125"
"$GPRMC,223803,A,2420.6261,N,08158.6309,W,2.4,104.4,220615,5.4,"
"##MN-00 00 11 0029 01783 5215 447055 205281 196"
"173.943171"
"$GPRMC,223807,A,2420.6255,N,08158.6283,W,2.4,104.7,220615,5.4,"
"##MN-00 00 18 0029 01785 5218 447220 205314 196"
"173.943218"
"$GPRMC,223811,A,2420.6249,N,08158.6255,W,2.4,105.3,220615,5.4,"
"##MN-00 00 12 0030 01787 5220 447398 205360 196"
"173.943275"
"$GPRMC,223815,A,2420.6241,N,08158.6226,W,2.4,105.6,220615,5.4,"
"##MN-00 00 18 0030 01792 5223 447634 205421 196"
"173.943322"
"$GPRMC,223819,A,2420.6232,N,08158.6197,W,2.4,105.8,220615,5.4,"
"##MN-00 00 14 0031 01796 5224 447940 205484 196"
"173.943368"
"$GPRMC,223823,A,2420.6223,N,08158.6168,W,2.4,106.2,220615,5.4,"
"##MN-00 00 14 0031 01803 5227 448635 205642 196"
"173.943414"
"$GPRMC,223827,A,2420.6216,N,08158.6140,W,2.4,106.4,220615,5.4,"
"##MN-00 00 15 0032 01812 5229 449466 205840 196"
"173.943461"
"$GPRMC,223831,A,2420.6207,N,08158.6113,W,2.4,106.7,220615,5.4,"
"##MN-00 00 11 0032 01816 5231 449962 205948 196"
"173.943507"
"$GPRMC,223835,A,2420.6198,N,08158.6086,W,2.4,107.1,220615,5.4,"
"##MN-00 00 10 0033 01820 5234 450194 205996 196"
"173.943553"
"$GPRMC,223839,A,2420.6190,N,08158.6059,W,2.4,107.9,220615,5.4,"
"##MN-00 00 10 0034 01827 5236 450541 206080 196"
"173.9436"
"$GPRMC,223843,A,2420.6181,N,08158.6033,W,2.3,108.3,220615,5.4,"
"##MN-00 00 09 0034 01831 5239 451216 206217 196"
"173.943646"
"$GPRMC,223847,A,2420.6173,N,08158.6005,W,2.4,108.9,220615,5.4,"
"##MN-00 00 09 0035 01835 5241 451932 206363 196"
"173.943692"
"$GPRMC,223851,A,2420.6165,N,08158.5979,W,2.3,108.8,220615,5.4,"
"##MN-00 00 08 0035 01845 5243 452704 206477 196"
"173.943738"
"$GPRMC,223855,A,2420.6158,N,08158.5953,W,2.3,108.9,220615,5.4,"
"##MN-00 00 08 0036 01847 5245 454205 206732 196"
"173.943785"
"$GPRMC,223859,A,2420.6149,N,08158.5927,W,2.3,109.0,220615,5.4,"
"##MN-00 00 09 0036 01851 5247 455466 207020 196"
"173.943831"
"$GPRMC,223903,A,2420.6141,N,08158.5901,W,2.3,108.0,220615,5.4,"
"##MN-00 00 09 0037 01856 5249 456233 207178 196"
"173.943877"
"$GPRMC,223907,A,2420.6134,N,08158.5875,W,2.3,107.5,220615,5.4,"
"##MN-00 00 09 0037 01863 5252 457378 207389 196"
"173.943924"
"$GPRMC,223911,A,2420.6127,N,08158.5849,W,2.3,107.6,220615,5.4,"
"##MN-00 00 15 0037 01869 5254 458156 207574 196"
"173.94397"
"$GPRMC,223916,A,2420.6117,N,08158.5815,W,2.4,107.3,220615,5.4,"
"##MN-00 00 09 0038 01878 5256 458773 207712 196"
"173.944016"
"$GPRMC,223920,A,2420.6109,N,08158.5789,W,2.3,106.9,220615,5.4,"
"##MN-00 00 11 0038 01883 5258 460071 208053 196"
"173.944062"
"$GPRMC,223924,A,2420.6104,N,08158.5762,W,2.3,106.7,220615,5.4,"
"##MN-00 00 09 0039 01892 5260 461634 208360 196"
"173.944109"
"$GPRMC,223928,A,2420.6098,N,08158.5735,W,2.3,106.3,220615,5.4,"
"##MN-00 00 09 0039 01896 5262 463139 208694 196"
"173.944155"
"$GPRMC,223932,A,2420.6093,N,08158.5708,W,2.3,105.4,220615,5.4,"
"##MN-00 00 09 0040 01902 5264 464905 209076 196"
"173.944201"
"$GPRMC,223936,A,2420.6087,N,08158.5681,W,2.4,105.1,220615,5.4,"
"##MN-00 00 09 0040 01908 5266 466941 209319 196"
"173.944248"
"$GPRMC,223940,A,2420.6079,N,08158.5652,W,2.3,105.1,220615,5.4,"
"##MN-00 00 09 0041 01912 5268 467838 209454 196"
"173.944294"
"$GPRMC,223944,A,2420.6072,N,08158.5624,W,2.4,105.1,220615,5.4,"
"##MN-00 00 09 0041 01916 5270 468505 209574 196"
"173.94434"
"$GPRMC,223947,A,2420.6066,N,08158.5602,W,2.4,105.5,220615,5.4,"
"##MN-00 00 10 0042 01924 5272 469103 209684 196"
"173.944387"
"$GPRMC,223952,A,2420.6057,N,08158.5566,W,2.4,105.7,220615,5.4,"
"##MN-00 00 09 0042 01931 5274 470523 209955 196"
"173.944433"
"$GPRMC,223956,A,2420.6049,N,08158.5539,W,2.4,105.9,220615,5.4,"
"##MN-00 00 09 0042 01939 5276 473025 210599 196"
"173.944479"
"$GPRMC,224000,A,2420.6042,N,08158.5511,W,2.4,105.9,220615,5.4,"
"##MN-00 00 09 0043 01944 5277 477185 211440 196"
"173.944525"
"$GPRMC,224004,A,2420.6035,N,08158.5484,W,2.4,105.9,220615,5.4,"
"##MN-00 00 09 0043 01952 5279 479855 211966 196"
"173.944572"
"$GPRMC,224008,A,2420.6025,N,08158.5455,W,2.4,106.5,220615,5.4,"
"##MN-00 00 09 0044 01957 5281 482335 212441 196"
"173.944618"
"$GPRMC,224012,A,2420.6014,N,08158.5423,W,2.4,107.0,220615,5.4,"
"##MN-00 00 10 0044 01962 5283 484467 212902 196"
"173.944664"
"$GPRMC,224016,A,2420.6004,N,08158.5392,W,2.4,107.3,220615,5.4,"
"##MN-00 00 10 0045 01967 5284 486020 213212 196"
"173.944711"
"$GPRMC,224020,A,2420.5994,N,08158.5364,W,2.5,107.5,220615,5.4,"
"##MN-00 00 19 0045 01973 5286 488557 213688 196"
"173.944757"
"$GPRMC,224024,A,2420.5985,N,08158.5335,W,2.4,108.0,220615,5.4,"
"##MN-00 00 19 0046 01976 5287 490698 214115 196"
"173.944803"
"$GPRMC,224028,A,2420.5978,N,08158.5308,W,2.5,107.9,220615,5.4,"
"##MN-00 00 19 0046 01979 5288 492364 214441 196"
"173.94485"
"$GPRMC,224032,A,2420.5971,N,08158.5281,W,2.5,107.9,220615,5.4,"
"##MN-00 00 19 0046 01987 5290 494251 214824 196"
"173.944896"
"$GPRMC,224036,A,2420.5963,N,08158.5254,W,2.4,107.6,220615,5.4,"
"##MN-00 00 19 0047 01991 5291 495906 215173 196"
"173.944942"
"$GPRMC,224040,A,2420.5956,N,08158.5225,W,2.5,107.2,220615,5.4,"
"##MN-00 00 19 0047 01996 5292 496541 215266 196"
"173.944988"
"$GPRMC,224044,A,2420.5947,N,08158.5195,W,2.5,107.1,220615,5.4,"
"##MN-00 00 19 0048 01999 5293 497207 215446 196"
"173.945035"
"$GPRMC,224048,A,2420.5941,N,08158.5166,W,2.5,106.9,220615,5.4,"
"##MN-00 00 20 0048 02004 5294 497906 215572 196"
"173.945081"
"$GPRMC,224052,A,2420.5932,N,08158.5135,W,2.5,106.8,220615,5.4,"
"##MN-00 00 20 0049 02009 5295 498783 215776 196"
"173.945127"
"$GPRMC,224056,A,2420.5924,N,08158.5105,W,2.5,106.7,220615,5.4,"
"##MN-00 00 20 0049 02011 5296 500701 216089 196"
"173.945174"
"$GPRMC,224100,A,2420.5917,N,08158.5075,W,2.6,106.7,220615,5.4,"
"##MN-00 00 20 0050 02015 5296 502625 216453 196"
"173.94522"
"$GPRMC,224104,A,2420.5909,N,08158.5045,W,2.6,106.6,220615,5.4,"
"##MN-00 00 20 0050 02020 5298 503819 216671 196"
"173.945266"
"$GPRMC,224108,A,2420.5900,N,08158.5015,W,2.6,106.1,220615,5.4,"
"##MN-00 00 20 0051 02021 5298 504193 216724 196"
"173.945313"
"$GPRMC,224112,A,2420.5892,N,08158.4985,W,2.6,106.4,220615,5.4,"
"##MN-00 00 20 0051 02029 5298 504626 216861 196"
"173.945359"
"$GPRMC,224116,A,2420.5883,N,08158.4955,W,2.5,106.2,220615,5.4,"
"##MN-00 00 20 0052 02035 5299 505999 217103 196"
"173.945405"
"$GPRMC,224120,A,2420.5878,N,08158.4932,W,2.5,106.0,220615,5.4,"
"##MN-00 00 20 0052 02038 5299 506802 217275 196"
"173.945451"
"$GPRMC,224124,A,2420.5867,N,08158.4894,W,2.5,106.0,220615,5.4,"
"##MN-00 00 20 0053 02043 5300 507334 217396 196"
"173.945498"
"$GPRMC,224128,A,2420.5859,N,08158.4864,W,2.5,106.2,220615,5.4,"
"##MN-00 00 20 0053 02048 5300 507702 217473 196"
"173.945544"
"$GPRMC,224132,A,2420.5849,N,08158.4835,W,2.5,106.7,220615,5.4,"
"##MN-00 00 20 0054 02054 5300 507887 217514 196"
"173.94559"
"$GPRMC,224136,A,2420.5840,N,08158.4805,W,2.5,107.2,220615,5.4,"
"##MN-00 00 20 0054 02059 5300 507979 217541 196"
"173.945637"
"$GPRMC,224140,A,2420.5833,N,08158.4776,W,2.5,107.3,220615,5.4,"
"##MN-00 00 20 0055 02061 5300 508066 217565 196"
"173.945683"
"$GPRMC,224144,A,2420.5824,N,08158.4747,W,2.4,107.0,220615,5.4,"
"##MN-00 00 20 0055 02069 5300 508115 217584 196"
"173.945729"
"$GPRMC,224148,A,2420.5816,N,08158.4720,W,2.4,107.0,220615,5.4,"
"##MN-00 00 20 0056 02072 5300 508217 217598 196"
"173.945775"
"$GPRMC,224152,A,2420.5808,N,08158.4691,W,2.4,106.6,220615,5.4,"
"##MN-00 00 20 0056 02077 5300 508276 217616 196"
"173.945822"
"$GPRMC,224156,A,2420.5801,N,08158.4662,W,2.4,106.5,220615,5.4,"
"##MN-00 00 20 0057 02080 5300 508443 217644 196"
"173.945868"
"$GPRMC,224200,A,2420.5793,N,08158.4633,W,2.4,106.4,220615,5.4,"
"##MN-00 00 20 0057 02085 5299 508576 217678 196"
"173.945914"
"$GPRMC,224204,A,2420.5786,N,08158.4604,W,2.5,106.3,220615,5.4,"
"##MN-00 00 20 0057 02087 5299 508713 217710 196"
"173.945961"
"$GPRMC,224208,A,2420.5777,N,08158.4575,W,2.4,106.8,220615,5.4,"
"##MN-00 00 20 0058 02093 5299 508964 217773 196"
"173.946007"
"$GPRMC,224212,A,2420.5768,N,08158.4547,W,2.4,106.8,220615,5.4,"
"##MN-00 00 20 0058 02097 5298 510008 217922 196"
"173.946053"
"$GPRMC,224216,A,2420.5760,N,08158.4519,W,2.3,107.1,220615,5.4,"
"##MN-00 00 20 0058 02106 5298 510906 218134 196"
"173.9461"
"$GPRMC,224220,A,2420.5753,N,08158.4493,W,2.3,107.2,220615,5.4,"
"##MN-00 00 20 0059 02113 5297 511673 218272 196"
"173.946146"
"$GPRMC,224224,A,2420.5746,N,08158.4466,W,2.3,107.1,220615,5.4,"
"##MN-00 00 20 0059 02118 5296 512092 218366 196"
"173.946192"
"$GPRMC,224228,A,2420.5739,N,08158.4438,W,2.3,106.9,220615,5.4,"
"##MN-00 00 20 0060 02123 5296 513981 218800 196"
"173.946238"
"$GPRMC,224232,A,2420.5729,N,08158.4408,W,2.2,106.8,220615,5.4,"
"##MN-00 00 20 0060 02130 5295 522237 220898 196"
"173.946285"
"$GPRMC,224236,A,2420.5721,N,08158.4381,W,2.3,108.0,220615,5.4,"
"##MN-00 00 20 0061 02134 5294 535259 222999 196"
"173.946331"
"$GPRMC,224240,A,2420.5710,N,08158.4353,W,2.3,109.4,220615,5.4,"
"##MN-00 00 21 0061 02136 5294 541281 224179 196"
"173.946377"
"$GPRMC,224244,A,2420.5697,N,08158.4327,W,2.2,111.9,220615,5.4,"
"##MN-00 00 21 0062 02141 5293 544228 224993 196"
"173.946424"
"$GPRMC,224248,A,2420.5685,N,08158.4305,W,2.3,114.3,220615,5.4,"
"##MN-00 00 21 0062 02146 5292 546180 225573 196"
"173.94647"
"$GPRMC,224252,A,2420.5674,N,08158.4282,W,2.2,117.0,220615,5.4,"
"##MN-00 00 21 0063 02148 5291 548177 225793 196"
"173.946528"
"$GPRMC,224256,A,2420.5659,N,08158.4261,W,2.2,120.1,220615,5.4,"
"##MN-00 00 21 0063 02153 5290 550215 226294 196"
"173.946574"
"$GPRMC,224300,A,2420.5646,N,08158.4241,W,2.2,123.0,220615,5.4,"
"##MN-00 00 21 0064 02155 5289 551672 226712 196"
"173.94662"
"$GPRMC,224304,A,2420.5631,N,08158.4222,W,2.2,125.2,220615,5.4,"
"##MN-00 00 21 0064 02159 5288 553660 227249 196"
"173.946667"
"$GPRMC,224308,A,2420.5616,N,08158.4202,W,2.2,127.3,220615,5.4,"
"##MN-00 00 21 0065 02164 5287 555122 227552 196"
"173.946713"
"$GPRMC,224312,A,2420.5602,N,08158.4182,W,2.2,129.6,220615,5.4,"
"##MN-00 00 21 0065 02167 5286 555682 227621 196"
"173.946759"
"$GPRMC,224316,A,2420.5583,N,08158.4162,W,2.3,131.7,220615,5.4,"
"##MN-00 00 21 0066 02165 5284 556232 227733 196"
"173.946806"
"$GPRMC,224320,A,2420.5564,N,08158.4141,W,2.4,133.0,220615,5.4,"
"##MN-00 00 22 0066 02163 5282 556541 227861 196"
"173.946852"
"$GPRMC,224324,A,2420.5544,N,08158.4118,W,2.5,133.9,220615,5.4,"
"##MN-00 00 22 0067 02162 5281 556498 227794 196"
"173.946898"
"$GPRMC,224328,A,2420.5522,N,08158.4095,W,2.6,134.6,220615,5.4,"
"##MN-00 00 22 0068 02159 5279 556386 227772 196"
"173.946944"
"$GPRMC,224332,A,2420.5501,N,08158.4071,W,2.6,135.1,220615,5.4,"
"##MN-00 00 22 0069 02158 5277 555772 227729 196"
"173.946991"
"$GPRMC,224336,A,2420.5479,N,08158.4047,W,2.8,135.1,220615,5.4,"
"##MN-00 00 21 0069 02153 5275 554339 227506 196"
"173.947037"
"$GPRMC,224340,A,2420.5457,N,08158.4023,W,2.8,134.8,220615,5.4,"
"##MN-00 00 21 0070 02153 5273 552855 227236 196"
"173.947083"
"$GPRMC,224344,A,2420.5433,N,08158.4000,W,2.8,134.8,220615,5.4,"
"##MN-00 00 21 0070 02148 5271 551700 226994 196"
"173.94713"
"$GPRMC,224348,A,2420.5412,N,08158.3977,W,2.8,134.7,220615,5.4,"
"##MN-00 00 21 0071 02147 5269 550882 226723 196"
"173.947176"
"$GPRMC,224352,A,2420.5390,N,08158.3953,W,2.8,134.4,220615,5.4,"
"##MN-00 00 21 0071 02146 5266 549933 226524 196"
"173.947222"
"$GPRMC,224356,A,2420.5369,N,08158.3928,W,2.8,134.4,220615,5.4,"
"##MN-00 00 21 0072 02146 5264 548593 226284 196"
"173.947268"
"$GPRMC,224400,A,2420.5349,N,08158.3903,W,2.7,133.4,220615,5.4,"
"##MN-00 00 21 0073 02142 5262 547626 226054 196"
"173.947315"
"$GPRMC,224404,A,2420.5336,N,08158.3881,W,2.8,132.2,220615,5.4,"
"##MN-00 00 21 0073 02144 5259 546819 225917 196"
"173.947361"
"$GPRMC,224409,A,2420.5314,N,08158.3851,W,2.8,131.9,220615,5.4,"
"##MN-00 00 21 0074 02140 5257 546105 225722 196"
"173.947407"
"$GPRMC,224413,A,2420.5294,N,08158.3826,W,2.8,131.4,220615,5.4,"
"##MN-00 00 21 0075 02140 5254 545737 225593 196"
"173.947454"
"$GPRMC,224417,A,2420.5268,N,08158.3797,W,2.8,131.3,220615,5.4,"
"##MN-00 00 21 0076 02136 5251 545092 225501 196"
"173.9475"
"$GPRMC,224421,A,2420.5248,N,08158.3770,W,2.9,131.5,220615,5.4,"
"##MN-00 00 21 0076 02134 5249 543687 225136 196"
"173.947546"
"$GPRMC,224425,A,2420.5228,N,08158.3743,W,3.0,131.4,220615,5.4,"
"##MN-00 00 21 0077 02131 5246 541840 224768 196"
"173.947593"
"$GPRMC,224429,A,2420.5205,N,08158.3716,W,3.0,131.6,220615,5.4,"
"##MN-00 00 21 0078 02127 5243 539057 224162 196"
"173.947639"
"$GPRMC,224433,A,2420.5182,N,08158.3688,W,3.1,132.0,220615,5.4,"
"##MN-00 00 21 0079 02125 5241 532840 222863 196"
"173.947685"
"$GPRMC,224437,A,2420.5158,N,08158.3661,W,3.1,132.6,220615,5.4,"
"##MN-00 00 21 0080 02119 5238 523729 221103 196"
"173.947731"
"$GPRMC,224441,A,2420.5132,N,08158.3632,W,3.1,133.5,220615,5.4,"
"##MN-00 00 21 0080 02117 5235 517980 220529 196"
"173.947778"
"$GPRMC,224445,A,2420.5107,N,08158.3604,W,3.2,133.7,220615,5.4,"
"##MN-00 00 21 0081 02113 5232 514156 219121 196"
"173.947824"
"$GPRMC,224449,A,2420.5081,N,08158.3576,W,3.2,134.1,220615,5.4,"
"##MN-00 00 20 0082 02110 5229 512722 218892 196"
"173.94787"
"$GPRMC,224453,A,2420.5054,N,08158.3548,W,3.2,134.9,220615,5.4,"
"##MN-00 00 20 0083 02105 5227 512401 218770 196"
"173.947917"
"$GPRMC,224457,A,2420.5027,N,08158.3523,W,3.2,136.0,220615,5.4,"
"##MN-00 00 20 0084 02105 5224 512113 218641 196"
"173.947963"
"$GPRMC,224501,A,2420.5002,N,08158.3496,W,3.2,136.2,220615,5.4,"
"##MN-00 00 20 0085 02101 5222 511926 218838 196"
"173.948009"
"$GPRMC,224505,A,2420.4974,N,08158.3469,W,3.2,136.8,220615,5.4,"
"##MN-00 00 20 0086 02101 5219 511601 218553 196"
"173.948056"
"$GPRMC,224509,A,2420.4948,N,08158.3443,W,3.2,136.9,220615,5.4,"
"##MN-00 00 20 0087 02095 5216 511154 218352 196"
"173.948102"
"$GPRMC,224513,A,2420.4921,N,08158.3416,W,3.2,136.8,220615,5.4,"
"##MN-00 00 20 0088 02093 5214 510716 218240 196"
"173.948148"
"$GPRMC,224517,A,2420.4895,N,08158.3391,W,3.2,136.8,220615,5.4,"
"##MN-00 00 20 0089 02093 5211 510327 218111 196"
"173.948194"
"$GPRMC,224521,A,2420.4867,N,08158.3366,W,3.2,137.3,220615,5.4,"
"##MN-00 00 20 0090 02088 5208 509970 218124 196"
"173.948241"
"$GPRMC,224525,A,2420.4838,N,08158.3340,W,3.2,138.2,220615,5.4,"
"##MN-00 00 20 0091 02088 5207 509621 218013 196"
"173.948287"
"$GPRMC,224529,A,2420.4812,N,08158.3315,W,3.2,138.7,220615,5.4,"
"##MN-00 00 20 0092 02088 5204 509197 217872 196"
"173.948333"
"$GPRMC,224533,A,2420.4787,N,08158.3290,W,3.2,139.1,220615,5.4,"
"##MN-00 00 20 0093 02085 5202 508986 217805 196"
"173.94838"
"$GPRMC,224537,A,2420.4763,N,08158.3267,W,3.1,139.2,220615,5.4,"
"##MN-00 00 20 0094 02087 5199 508903 217788 196"
"173.948426"
"$GPRMC,224541,A,2420.4738,N,08158.3242,W,3.1,139.8,220615,5.4,"
"##MN-00 00 20 0094 02086 5197 508935 217790 196"
"173.948472"
"$GPRMC,224545,A,2420.4709,N,08158.3217,W,3.1,139.8,220615,5.4,"
"##MN-00 00 20 0095 02084 5195 508801 217748 196"
"173.948519"
"$GPRMC,224549,A,2420.4684,N,08158.3194,W,3.1,140.5,220615,5.4,"
"##MN-00 00 20 0096 02086 5193 508731 217737 196"
"173.948565"
"$GPRMC,224553,A,2420.4657,N,08158.3172,W,3.0,141.0,220615,5.4,"
"##MN-00 00 20 0097 02087 5191 508748 217740 196"
"173.948611"
"$GPRMC,224557,A,2420.4630,N,08158.3149,W,3.0,142.0,220615,5.4,"
"##MN-00 00 20 0098 02088 5189 508777 217747 196"
"173.948657"
"$GPRMC,224601,A,2420.4603,N,08158.3126,W,3.0,143.0,220615,5.4,"
"##MN-00 00 20 0099 02086 5187 508782 217756 196"
"173.948704"
"$GPRMC,224605,A,2420.4576,N,08158.3104,W,3.0,143.3,220615,5.4,"
"##MN-00 00 20 0100 02086 5185 508796 217748 196"
"173.94875"
"$GPRMC,224609,A,2420.4548,N,08158.3080,W,3.0,142.7,220615,5.4,"
"##MN-00 00 20 0101 02084 5183 508806 217751 196"
"173.948796"
"$GPRMC,224613,A,2420.4519,N,08158.3058,W,3.1,142.0,220615,5.4,"
"##MN-00 00 20 0102 02085 5181 508811 217750 196"
"173.948843"
"$GPRMC,224617,A,2420.4491,N,08158.3034,W,3.1,142.3,220615,5.4,"
"##MN-00 00 20 0103 02082 5179 508811 217744 196"
"173.948889"
"$GPRMC,224621,A,2420.4464,N,08158.3011,W,3.1,142.3,220615,5.4,"
"##MN-00 00 20 0104 02086 5178 508803 217740 196"
"173.948935"
"$GPRMC,224625,A,2420.4436,N,08158.2988,W,3.1,142.2,220615,5.4,"
"##MN-00 00 20 0105 02082 5176 508789 217737 196"
"173.948981"
"$GPRMC,224629,A,2420.4406,N,08158.2963,W,3.1,142.4,220615,5.4,"
"##MN-00 00 20 0106 02081 5174 508770 217735 196"
"173.949028"
"$GPRMC,224633,A,2420.4378,N,08158.2938,W,3.2,142.6,220615,5.4,"
"##MN-00 00 20 0107 02081 5172 508763 217734 196"
"173.949074"
"$GPRMC,224637,A,2420.4350,N,08158.2915,W,3.2,142.6,220615,5.4,"
"##MN-00 00 20 0108 02081 5171 508746 217732 196"
"173.94912"
"$GPRMC,224641,A,2420.4320,N,08158.2891,W,3.2,142.6,220615,5.4,"
"##MN-00 00 20 0109 02082 5169 508705 217720 196"
"173.949167"
"$GPRMC,224645,A,2420.4292,N,08158.2867,W,3.2,142.5,220615,5.4,"
"##MN-00 00 20 0110 02081 5167 508635 217711 196"
"173.949213"
"$GPRMC,224649,A,2420.4263,N,08158.2842,W,3.2,142.2,220615,5.4,"
"##MN-00 00 20 0111 02081 5165 508554 217692 196"
"173.949259"
"$GPRMC,224653,A,2420.4234,N,08158.2817,W,3.3,141.7,220615,5.4,"
"##MN-00 00 20 0112 02082 5164 508513 217685 196"
"173.949306"
"$GPRMC,224657,A,2420.4207,N,08158.2793,W,3.3,142.3,220615,5.4,"
"##MN-00 00 20 0113 02080 5162 508487 217682 196"
"173.949352"
"$GPRMC,224701,A,2420.4176,N,08158.2769,W,3.2,142.9,220615,5.4,"
"##MN-00 00 20 0114 02080 5160 508476 217681 196"
"173.949398"
"$GPRMC,224705,A,2420.4147,N,08158.2747,W,3.2,143.8,220615,5.4,"
"##MN-00 00 20 0115 02081 5159 508480 217683 196"
"173.949444"
"$GPRMC,224709,A,2420.4117,N,08158.2724,W,3.2,145.0,220615,5.4,"
"##MN-00 00 20 0117 02082 5157 508497 217681 196"
"173.949491"
"$GPRMC,224713,A,2420.4088,N,08158.2701,W,3.2,144.8,220615,5.4,"
"##MN-00 00 20 0118 02086 5156 508502 217681 196"
"173.949537"
"$GPRMC,224717,A,2420.4056,N,08158.2677,W,3.2,144.3,220615,5.4,"
"##MN-00 00 20 0119 02082 5154 508486 217680 196"
"173.949583"
"$GPRMC,224721,A,2420.4027,N,08158.2653,W,3.2,144.2,220615,5.4,"
"##MN-00 00 20 0120 02083 5153 508484 217679 196"
"173.94963"
"$GPRMC,224725,A,2420.3994,N,08158.2630,W,3.2,145.1,220615,5.4,"
"##MN-00 00 20 0121 02084 5151 508482 217680 196"
"173.949676"
"$GPRMC,224729,A,2420.3960,N,08158.2606,W,3.2,145.3,220615,5.4,"
"##MN-00 00 20 0122 02085 5150 508488 217679 196"
"173.949734"
"$GPRMC,224733,A,2420.3936,N,08158.2585,W,3.2,145.3,220615,5.4,"
"##MN-00 00 20 0123 02085 5148 508493 217679 196"
"173.94978"
"$GPRMC,224737,A,2420.3908,N,08158.2563,W,3.2,145.2,220615,5.4,"
"##MN-00 00 20 0124 02086 5146 508500 217681 196"
"173.949826"
"$GPRMC,224741,A,2420.3880,N,08158.2542,W,3.2,145.6,220615,5.4,"
"##MN-00 00 20 0125 02087 5145 508537 217683 196"
"173.949873"
"$GPRMC,224745,A,2420.3850,N,08158.2520,W,3.2,146.3,220615,5.4,"
"##MN-00 00 20 0126 02085 5144 508520 217684 196"
"173.949919"
"$GPRMC,224749,A,2420.3820,N,08158.2498,W,3.2,146.4,220615,5.4,"
"##MN-00 00 20 0128 02087 5142 508534 217684 196"
"173.949965"
"$GPRMC,224753,A,2420.3784,N,08158.2475,W,3.2,146.4,220615,5.4,"
"##MN-00 00 20 0129 02088 5141 508541 217686 196"
"173.950012"
"$GPRMC,224757,A,2420.3752,N,08158.2453,W,3.2,146.6,220615,5.4,"
"##MN-00 00 20 0130 02088 5139 508549 217688 196"
"173.950058"
"$GPRMC,224801,A,2420.3719,N,08158.2431,W,3.2,146.4,220615,5.4,"
"##MN-00 00 20 0131 02089 5138 508553 217688 196"
"173.950104"
"$GPRMC,224805,A,2420.3695,N,08158.2412,W,3.2,146.7,220615,5.4,"
"##MN-00 00 20 0132 02090 5136 508582 217691 196"
"173.95015"
"$GPRMC,224809,A,2420.3666,N,08158.2391,W,3.2,147.2,220615,5.4,"
"##MN-00 00 20 0133 02092 5135 508650 217706 196"
"173.950197"
"$GPRMC,224813,A,2420.3634,N,08158.2370,W,3.2,147.6,220615,5.4,"
"##MN-00 00 20 0135 02092 5133 508741 217716 196"
"173.950243"
"$GPRMC,224817,A,2420.3604,N,08158.2350,W,3.2,147.7,220615,5.4,"
"##MN-00 00 20 0136 02094 5132 508852 217739 196"
"173.950289"
"$GPRMC,224821,A,2420.3576,N,08158.2331,W,3.2,148.4,220615,5.4,"
"##MN-00 00 20 0137 02095 5130 508961 217756 196"
"173.950336"
"$GPRMC,224825,A,2420.3548,N,08158.2313,W,3.2,148.8,220615,5.4,"
"##MN-00 00 20 0138 02095 5129 509094 217775 196"
"173.950382"
"$GPRMC,224830,A,2420.3511,N,08158.2290,W,3.2,149.4,220615,5.4,"
"##MN-00 00 20 0139 02095 5128 509253 217821 196"
"173.950428"
"$GPRMC,224833,A,2420.3488,N,08158.2276,W,3.2,150.4,220615,5.4,"
"##MN-00 00 20 0140 02096 5127 509447 217858 196"
"173.950475"
"$GPRMC,224838,A,2420.3448,N,08158.2253,W,3.2,150.4,220615,5.4,"
"##MN-00 00 20 0141 02099 5125 509627 217895 196"
"173.950521"
"$GPRMC,224842,A,2420.3416,N,08158.2235,W,3.2,150.8,220615,5.4,"
"##MN-00 00 20 0143 02099 5124 509909 217938 196"
"173.950567"
"$GPRMC,224846,A,2420.3385,N,08158.2217,W,3.1,151.3,220615,5.4,"
"##MN-00 00 20 0144 02101 5122 510091 217954 196"
"173.950613"
"$GPRMC,224850,A,2420.3354,N,08158.2198,W,3.1,151.3,220615,5.4,"
"##MN-00 00 20 0145 02103 5121 510394 217979 196"
"173.95066"
"$GPRMC,224854,A,2420.3322,N,08158.2181,W,3.1,151.7,220615,5.4,"
"##MN-00 00 20 0146 02103 5119 510635 218085 196"
"173.950706"
"$GPRMC,224858,A,2420.3290,N,08158.2161,W,3.1,151.5,220615,5.4,"
"##MN-00 00 20 0148 02105 5118 510856 218135 196"
"173.950752"
"$GPRMC,224902,A,2420.3259,N,08158.2143,W,3.1,151.4,220615,5.4,"
"##MN-00 00 20 0149 02104 5116 511037 218152 196"
"173.950799"
"$GPRMC,224906,A,2420.3235,N,08158.2129,W,3.1,151.7,220615,5.4,"
"##MN-00 00 20 0150 02108 5115 511224 218186 196"
"173.950845"
"$GPRMC,224910,A,2420.3204,N,08158.2111,W,3.1,151.9,220615,5.4,"
"##MN-00 00 20 0151 02108 5114 511392 218239 196"
"173.950891"
"$GPRMC,224914,A,2420.3163,N,08158.2088,W,3.1,152.2,220615,5.4,"
"##MN-00 00 20 0152 02109 5112 511536 218257 196"
"173.950938"
"$GPRMC,224918,A,2420.3140,N,08158.2075,W,3.2,152.7,220615,5.4,"
"##MN-00 00 20 0154 02110 5111 511648 218295 196"
"173.950984"
"$GPRMC,224922,A,2420.3109,N,08158.2057,W,3.2,153.0,220615,5.4,"
"##MN-00 00 20 0155 02111 5110 511892 218341 196"
"173.95103"
"$GPRMC,224926,A,2420.3077,N,08158.2040,W,3.2,152.9,220615,5.4,"
"##MN-00 00 20 0156 02110 5108 512365 218422 196"
"173.951076"
"$GPRMC,224930,A,2420.3036,N,08158.2020,W,3.2,153.4,220615,5.4,"
"##MN-00 00 20 0157 02113 5107 512781 218467 196"
"173.951123"
"$GPRMC,224934,A,2420.3004,N,08158.2004,W,3.2,154.2,220615,5.4,"
"##MN-00 00 20 0159 02113 5106 513202 218656 196"
"173.951169"
"$GPRMC,224938,A,2420.2973,N,08158.1987,W,3.1,155.4,220615,5.4,"
"##MN-00 00 20 0160 02116 5104 514690 218929 196"
"173.951215"
"$GPRMC,224942,A,2420.2941,N,08158.1972,W,3.1,156.0,220615,5.4,"
"##MN-00 00 20 0161 02117 5103 516673 219341 196"
"173.951262"
"$GPRMC,224946,A,2420.2910,N,08158.1957,W,3.1,155.7,220615,5.4,"
"##MN-00 00 20 0162 02118 5101 518351 219649 196"
"173.951308"
"$GPRMC,224950,A,2420.2878,N,08158.1942,W,3.1,155.9,220615,5.4,"
"##MN-00 00 20 0163 02120 5100 519494 219974 196"
"173.951354"
"$GPRMC,224954,A,2420.2846,N,08158.1928,W,3.1,156.5,220615,5.4,"
"##MN-00 00 20 0165 02119 5099 520955 220026 196"
"173.9514"
"$GPRMC,224958,A,2420.2813,N,08158.1912,W,3.1,156.8,220615,5.4,"
"##MN-00 00 20 0166 02122 5097 522892 220097 196"
"173.951447"
"$GPRMC,225002,A,2420.2782,N,08158.1898,W,3.1,156.6,220615,5.4,"
"##MN-00 00 20 0167 02123 5096 525905 220638 196"
"173.951493"
"$GPRMC,225006,A,2420.2749,N,08158.1884,W,3.1,156.8,220615,5.4,"
"##MN-00 00 20 0168 02126 5095 527641 221127 196"
"173.951539"
"$GPRMC,225010,A,2420.2716,N,08158.1869,W,3.1,157.6,220615,5.4,"
"##MN-00 00 20 0169 02130 5093 528912 221601 196"
"173.951586"
"$GPRMC,225014,A,2420.2680,N,08158.1854,W,3.1,158.4,220615,5.4,"
"##MN-00 00 20 0171 02130 5092 532080 222245 196"
"173.951632"
"$GPRMC,225018,A,2420.2644,N,08158.1840,W,3.0,158.9,220615,5.4,"
"##MN-00 00 21 0172 02131 5090 537241 223390 196"
"173.951678"
"$GPRMC,225022,A,2420.2611,N,08158.1827,W,3.1,159.2,220615,5.4,"
"##MN-00 00 20 0173 02136 5088 539519 223903 196"
"173.951725"
"$GPRMC,225026,A,2420.2578,N,08158.1814,W,3.0,159.1,220615,5.4,"
"##MN-00 00 21 0174 02134 5087 541022 224325 196"
"173.951771"
"$GPRMC,225030,A,2420.2543,N,08158.1800,W,3.1,159.3,220615,5.4,"
"##MN-00 00 21 0175 02135 5086 542618 224649 196"
"173.951817"
"$GPRMC,225034,A,2420.2511,N,08158.1787,W,3.1,159.9,220615,5.4,"
"##MN-00 00 21 0177 02138 5084 544499 224906 196"
"173.951863"
"$GPRMC,225038,A,2420.2478,N,08158.1774,W,3.0,160.3,220615,5.4,"
"##MN-00 00 21 0178 02139 5082 545865 225209 196"
"173.95191"
"$GPRMC,225042,A,2420.2445,N,08158.1762,W,3.0,160.3,220615,5.4,"
"##MN-00 00 21 0179 02140 5080 547478 225648 196"
"173.951956"
"$GPRMC,225046,A,2420.2415,N,08158.1749,W,3.0,161.0,220615,5.4,"
"##MN-00 00 21 0180 02144 5079 549352 225966 196"
"173.952002"
"$GPRMC,225050,A,2420.2383,N,08158.1735,W,3.0,160.5,220615,5.4,"
"##MN-00 00 21 0182 02147 5077 551144 226572 196"
"173.952049"
"$GPRMC,225054,A,2420.2350,N,08158.1722,W,3.0,160.3,220615,5.4,"
"##MN-00 00 21 0183 02148 5075 553440 227036 196"
"173.952095"
"$GPRMC,225058,A,2420.2316,N,08158.1710,W,3.0,159.6,220615,5.4,"
"##MN-00 00 21 0184 02149 5073 554542 227348 196"
"173.952141"
"$GPRMC,225102,A,2420.2285,N,08158.1697,W,3.1,159.8,220615,5.4,"
"##MN-00 00 21 0185 02151 5071 554979 227341 196"
"173.952188"
"$GPRMC,225106,A,2420.2253,N,08158.1684,W,3.0,159.9,220615,5.4,"
"##MN-00 00 21 0186 02153 5069 555297 227437 196"
"173.952234"
"$GPRMC,225110,A,2420.2218,N,08158.1671,W,3.1,160.2,220615,5.4,"
"##MN-00 00 21 0188 02154 5067 555698 227586 196"
"173.95228"
"$GPRMC,225114,A,2420.2185,N,08158.1657,W,3.1,160.1,220615,5.4,"
"##MN-00 00 21 0189 02155 5064 556125 227636 196"
"173.952326"
"$GPRMC,225118,A,2420.2152,N,08158.1643,W,3.1,160.5,220615,5.4,"
"##MN-00 00 21 0190 02159 5063 556444 227713 196"
"173.952373"
"$GPRMC,225122,A,2420.2119,N,08158.1630,W,3.1,159.7,220615,5.4,"
"##MN-00 00 21 0191 02162 5060 556729 227843 196"
"173.952419"
"$GPRMC,225126,A,2420.2085,N,08158.1618,W,3.1,159.5,220615,5.4,"
"##MN-00 00 21 0193 02162 5058 556849 227845 196"
"173.952465"
"$GPRMC,225130,A,2420.2051,N,08158.1605,W,3.2,159.2,220615,5.4,"
"##MN-00 00 21 0194 02165 5056 556926 227966 196"
"173.952512"
"$GPRMC,225134,A,2420.2019,N,08158.1591,W,3.2,159.4,220615,5.4,"
"##MN-00 00 21 0195 02167 5053 557058 228039 196"
"173.952558"
"$GPRMC,225138,A,2420.1985,N,08158.1578,W,3.1,159.5,220615,5.4,"
"##MN-00 00 21 0196 02170 5051 557174 228059 196"
"173.952604"
"$GPRMC,225142,A,2420.1953,N,08158.1564,W,3.2,159.5,220615,5.4,"
"##MN-00 00 21 0198 02170 5049 557244 228076 196"
"173.95265"
"$GPRMC,225146,A,2420.1920,N,08158.1551,W,3.1,159.7,220615,5.4,"
"##MN-00 00 21 0199 02172 5046 557271 228090 196"
"173.952697"
"$GPRMC,225150,A,2420.1886,N,08158.1538,W,3.1,159.8,220615,5.4,"
"##MN-00 00 21 0200 02174 5044 557324 228102 196"
"173.952743"
"$GPRMC,225154,A,2420.1852,N,08158.1526,W,3.2,160.3,220615,5.4,"
"##MN-00 00 21 0201 02178 5041 557300 228118 196"
"173.952789"
"$GPRMC,225158,A,2420.1820,N,08158.1514,W,3.2,161.5,220615,5.4,"
"##MN-00 00 21 0203 02179 5038 557238 228099 196"
"173.952847"
"$GPRMC,225202,A,2420.1787,N,08158.1503,W,3.1,162.3,220615,5.4,"
"##MN-00 00 21 0204 02183 5036 557279 228104 196"
"173.952893"
"$GPRMC,225206,A,2420.1754,N,08158.1492,W,3.1,162.7,220615,5.4,"
"##MN-00 00 21 0205 02181 5033 557362 228132 196"
"173.95294"
"$GPRMC,225210,A,2420.1721,N,08158.1481,W,3.1,162.6,220615,5.4,"
"##MN-00 00 21 0206 02186 5030 557425 228143 196"
"173.952986"
"$GPRMC,225214,A,2420.1689,N,08158.1470,W,3.1,162.9,220615,5.4,"
"##MN-00 00 21 0208 02187 5028 557522 228177 196"
"173.953032"
"$GPRMC,225218,A,2420.1656,N,08158.1459,W,3.1,163.3,220615,5.4,"
"##MN-00 00 21 0209 02190 5025 557571 228181 196"
"173.953079"
"$GPRMC,225222,A,2420.1624,N,08158.1447,W,3.1,163.8,220615,5.4,"
"##MN-00 00 21 0210 02191 5022 557571 228184 196"
"173.953125"
"$GPRMC,225226,A,2420.1590,N,08158.1435,W,3.1,163.6,220615,5.4,"
"##MN-00 00 21 0212 02192 5019 557617 228198 196"
"173.953171"
"$GPRMC,225230,A,2420.1557,N,08158.1424,W,3.1,163.3,220615,5.4,"
"##MN-00 00 21 0213 02196 5016 557650 228203 196"
"173.953218"
"$GPRMC,225234,A,2420.1524,N,08158.1414,W,3.1,163.0,220615,5.4,"
"##MN-00 00 21 0214 02198 5014 557638 228200 196"
"173.953264"
"$GPRMC,225238,A,2420.1491,N,08158.1403,W,3.1,163.8,220615,5.4,"
"##MN-00 00 21 0215 02199 5011 557544 228178 196"
"173.95331"
"$GPRMC,225242,A,2420.1458,N,08158.1394,W,3.1,163.8,220615,5.4,"
"##MN-00 00 21 0217 02200 5008 557461 228173 196"
"173.953357"
"$GPRMC,225246,A,2420.1423,N,08158.1385,W,3.1,164.5,220615,5.4,"
"##MN-00 00 21 0218 02201 5005 557518 228183 196"
"173.953403"
"$GPRMC,225250,A,2420.1389,N,08158.1374,W,3.2,164.5,220615,5.4,"
"##MN-00 00 21 0219 02204 5002 557702 228203 196"
"173.953449"
"$GPRMC,225254,A,2420.1357,N,08158.1363,W,3.1,163.7,220615,5.4,"
"##MN-00 00 21 0221 02204 4999 557735 228221 196"
"173.953495"
"$GPRMC,225258,A,2420.1324,N,08158.1352,W,3.1,163.8,220615,5.4,"
"##MN-00 00 21 0222 02205 4997 557783 228223 196"
"173.953542"
"$GPRMC,225303,A,2420.1281,N,08158.1337,W,3.1,163.6,220615,5.4,"
"##MN-00 00 21 0223 02208 4994 557761 228229 196"
"173.953588"
"$GPRMC,225306,A,2420.1255,N,08158.1330,W,3.2,164.0,220615,5.4,"
"##MN-00 00 21 0224 02209 4991 557785 228234 196"
"173.953634"
"$GPRMC,225311,A,2420.1213,N,08158.1316,W,3.1,163.7,220615,5.4,"
"##MN-00 00 21 0226 02211 4987 557803 228243 196"
"173.953681"
"$GPRMC,225315,A,2420.1180,N,08158.1305,W,3.1,163.5,220615,5.4,"
"##MN-00 00 21 0227 02212 4985 557819 228242 196"
"173.953727"
"$GPRMC,225319,A,2420.1147,N,08158.1295,W,3.2,163.2,220615,5.4,"
"##MN-00 00 21 0228 02214 4982 557824 228241 196"
"173.953773"
"$GPRMC,225322,A,2420.1122,N,08158.1285,W,3.2,164.0,220615,5.4,"
"##MN-00 00 21 0229 02217 4979 557853 228239 196"
"173.953819"
"$GPRMC,225326,A,2420.1087,N,08158.1276,W,3.2,163.2,220615,5.4,"
"##MN-00 00 21 0231 02219 4976 557933 228254 196"
"173.953866"
"$GPRMC,225331,A,2420.1046,N,08158.1262,W,3.2,163.2,220615,5.4,"
"##MN-00 00 21 0232 02219 4972 557921 228264 196"
"173.953912"
"$GPRMC,225335,A,2420.1011,N,08158.1251,W,3.2,163.4,220615,5.4,"
"##MN-00 00 21 0233 02219 4969 557916 228265 196"
"173.953958"
"$GPRMC,225339,A,2420.0976,N,08158.1239,W,3.2,163.3,220615,5.4,"
"##MN-00 00 21 0234 02222 4967 557918 228265 196"
"173.954005"
"$GPRMC,225343,A,2420.0942,N,08158.1227,W,3.2,162.3,220615,5.4,"
"##MN-00 00 21 0236 02222 4964 557925 228270 196"
"173.954051"
"$GPRMC,225347,A,2420.0907,N,08158.1214,W,3.2,162.6,220615,5.4,"
"##MN-00 00 21 0237 02224 4961 557887 228267 196"
"173.954097"
"$GPRMC,225351,A,2420.0873,N,08158.1201,W,3.2,163.0,220615,5.4,"
"##MN-00 00 21 0238 02229 4958 557875 228264 196"
"173.954144"
"$GPRMC,225355,A,2420.0840,N,08158.1188,W,3.2,162.6,220615,5.4,"
"##MN-00 00 21 0240 02228 4955 557904 228267 196"
"173.95419"
"$GPRMC,225359,A,2420.0806,N,08158.1177,W,3.1,162.3,220615,5.4,"
"##MN-00 00 21 0241 02231 4952 557921 228269 196"
"173.954236"
"$GPRMC,225403,A,2420.0772,N,08158.1165,W,3.1,161.9,220615,5.4,"
"##MN-00 00 21 0242 02232 4949 557954 228274 196"
"173.954282"
"$GPRMC,225407,A,2420.0739,N,08158.1154,W,3.1,161.9,220615,5.4,"
"##MN-00 00 21 0243 02233 4945 557991 228280 196"
"173.954329"
"$GPRMC,225411,A,2420.0704,N,08158.1142,W,3.1,162.4,220615,5.4,"
"##MN-00 00 21 0245 02235 4942 557970 228280 196"
"173.954375"
"$GPRMC,225415,A,2420.0671,N,08158.1129,W,3.1,162.2,220615,5.4,"
"##MN-00 00 21 0246 02237 4939 557966 228277 196"
"173.954421"
"$GPRMC,225419,A,2420.0638,N,08158.1117,W,3.1,162.2,220615,5.4,"
"##MN-00 00 21 0247 02239 4936 557970 228282 196"
"173.954468"
"$GPRMC,225423,A,2420.0605,N,08158.1105,W,3.1,162.3,220615,5.4,"
"##MN-00 00 21 0249 02240 4933 557996 228285 196"
"173.954514"
"$GPRMC,225427,A,2420.0571,N,08158.1092,W,3.2,162.5,220615,5.4,"
"##MN-00 00 21 0250 02244 4930 558002 228285 196"
"173.95456"
"$GPRMC,225431,A,2420.0537,N,08158.1080,W,3.2,162.5,220615,5.4,"
"##MN-00 00 21 0251 02244 4927 558011 228288 196"
"173.954606"
"$GPRMC,225435,A,2420.0504,N,08158.1069,W,3.2,161.9,220615,5.4,"
"##MN-00 00 21 0252 02245 4924 557985 228286 196"
"173.954653"
"$GPRMC,225439,A,2420.0471,N,08158.1057,W,3.1,162.2,220615,5.4,"
"##MN-00 00 21 0254 02244 4921 557998 228287 196"
"173.954699"
"$GPRMC,225443,A,2420.0436,N,08158.1046,W,3.1,162.5,220615,5.4,"
"##MN-00 00 21 0255 02248 4918 557991 228286 196"
"173.954745"
"$GPRMC,225447,A,2420.0403,N,08158.1035,W,3.2,163.3,220615,5.4,"
"##MN-00 00 21 0256 02248 4915 558041 228294 196"
"173.954792"
"$GPRMC,225451,A,2420.0368,N,08158.1024,W,3.2,163.3,220615,5.4,"
"##MN-00 00 21 0258 02248 4912 558098 228307 196"
"173.954838"
"$GPRMC,225455,A,2420.0335,N,08158.1014,W,3.2,164.1,220615,5.4,"
"##MN-00 00 21 0259 02251 4908 558181 228323 196"
"173.954884"
"$GPRMC,225459,A,2420.0302,N,08158.1005,W,3.1,164.5,220615,5.4,"
"##MN-00 00 21 0260 02252 4905 558191 228326 196"
"173.954931"
"$GPRMC,225503,A,2420.0268,N,08158.0995,W,3.1,164.4,220615,5.4,"
"##MN-00 00 21 0262 02254 4902 558159 228320 196"
"173.954977"
"$GPRMC,225507,A,2420.0234,N,08158.0986,W,3.1,164.7,220615,5.4,"
"##MN-00 00 21 0263 02257 4899 558161 228322 196"
"173.955023"
"$GPRMC,225511,A,2420.0201,N,08158.0977,W,3.1,165.6,220615,5.4,"
"##MN-00 00 21 0264 02258 4896 558153 228320 196"
"173.955069"
"$GPRMC,225515,A,2420.0168,N,08158.0968,W,3.1,166.2,220615,5.4,"
"##MN-00 00 21 0266 02262 4893 558152 228318 196"
"173.955116"
"$GPRMC,225519,A,2420.0134,N,08158.0961,W,3.0,166.5,220615,5.4,"
"##MN-00 00 21 0267 02261 4890 558186 228319 196"
"173.955162"
"$GPRMC,225523,A,2420.0100,N,08158.0954,W,3.1,167.3,220615,5.4,"
"##MN-00 00 21 0268 02264 4887 558214 228324 196"
"173.955208"
"$GPRMC,225527,A,2420.0067,N,08158.0946,W,3.1,168.3,220615,5.4,"
"##MN-00 00 21 0270 02266 4884 558266 228340 196"
"173.955255"
"$GPRMC,225531,A,2420.0032,N,08158.0939,W,3.1,168.7,220615,5.4,"
"##MN-00 00 21 0271 02264 4881 558278 228340 196"
"173.955301"
"$GPRMC,225535,A,2419.9997,N,08158.0932,W,3.1,168.7,220615,5.4,"
"##MN-00 00 21 0272 02264 4877 558249 228341 196"
"173.955347"
"$GPRMC,225539,A,2419.9963,N,08158.0926,W,3.1,169.2,220615,5.4,"
"##MN-00 00 21 0274 02267 4874 558246 228341 196"
"173.955394"
"$GPRMC,225543,A,2419.9930,N,08158.0919,W,3.1,169.7,220615,5.4,"
"##MN-00 00 21 0275 02266 4871 558250 228341 196"
"173.95544"
"$GPRMC,225547,A,2419.9895,N,08158.0911,W,3.1,170.1,220615,5.4,"
"##MN-00 00 21 0276 02268 4868 558227 228338 196"
"173.955486"
"$GPRMC,225551,A,2419.9862,N,08158.0904,W,3.1,169.8,220615,5.4,"
"##MN-00 00 21 0278 02270 4865 558249 228341 196"
"173.955532"
"$GPRMC,225555,A,2419.9828,N,08158.0898,W,3.0,170.1,220615,5.4,"
"##MN-00 00 21 0279 02271 4862 558310 228352 196"
"173.955579"
"$GPRMC,225559,A,2419.9794,N,08158.0891,W,3.0,168.7,220615,5.4,"
"##MN-00 00 21 0280 02274 4859 558425 228374 196"
"173.955625"
"$GPRMC,225603,A,2419.9760,N,08158.0885,W,3.0,168.9,220615,5.4,"
"##MN-00 00 21 0281 02275 4856 558597 228388 196"
"173.955671"
"$GPRMC,225607,A,2419.9727,N,08158.0878,W,3.0,169.5,220615,5.4,"
"##MN-00 00 21 0283 02276 4853 558652 228421 196"
"173.955718"
"$GPRMC,225611,A,2419.9695,N,08158.0870,W,3.0,169.5,220615,5.4,"
"##MN-00 00 21 0284 02277 4850 558764 228441 196"
"173.955764"
"$GPRMC,225615,A,2419.9660,N,08158.0863,W,3.0,169.3,220615,5.4,"
"##MN-00 00 21 0285 02280 4847 558961 228503 196"
"173.95581"
"$GPRMC,225619,A,2419.9627,N,08158.0857,W,3.0,169.4,220615,5.4,"
"##MN-00 00 21 0287 02281 4843 559285 228551 196"
"173.955856"
"$GPRMC,225623,A,2419.9596,N,08158.0851,W,3.0,170.6,220615,5.4,"
"##MN-00 00 21 0288 02283 4841 559684 228572 196"
"173.955903"
"$GPRMC,225627,A,2419.9565,N,08158.0845,W,3.0,170.8,220615,5.4,"
"##MN-00 00 21 0289 02285 4837 560032 228728 196"
"173.955949"
"$GPRMC,225631,A,2419.9536,N,08158.0841,W,3.0,170.5,220615,5.4,"
"##MN-00 00 21 0291 02288 4834 560309 228772 196"
"173.955995"
"$GPRMC,225635,A,2419.9505,N,08158.0838,W,3.0,171.7,220615,5.4,"
"##MN-00 00 21 0292 02288 4831 560481 228825 196"
"173.956053"
"$GPRMC,225639,A,2419.9473,N,08158.0833,W,3.0,171.8,220615,5.4,"
"##MN-00 00 21 0293 02291 4828 560597 228846 196"
"173.9561"
"$GPRMC,225643,A,2419.9443,N,08158.0831,W,2.9,172.0,220615,5.4,"
"##MN-00 00 21 0295 02294 4825 560903 228892 196"
"173.956146"
"$GPRMC,225647,A,2419.9413,N,08158.0825,W,2.9,171.7,220615,5.4,"
"##MN-00 00 21 0296 02296 4822 561504 229056 196"
"173.956192"
"$GPRMC,225651,A,2419.9381,N,08158.0820,W,2.9,171.5,220615,5.4,"
"##MN-00 00 21 0297 02298 4819 561935 229190 196"
"173.956238"
"$GPRMC,225655,A,2419.9348,N,08158.0813,W,2.9,171.2,220615,5.4,"
"##MN-00 00 21 0299 02300 4816 562262 229212 196"
"173.956285"
"$GPRMC,225659,A,2419.9314,N,08158.0807,W,3.0,170.6,220615,5.4,"
"##MN-00 00 21 0300 02301 4812 562484 229237 196"
"173.956331"
"$GPRMC,225703,A,2419.9280,N,08158.0802,W,3.0,171.1,220615,5.4,"
"##MN-00 00 21 0301 02304 4809 562648 229257 196"
"173.956377"
"$GPRMC,225707,A,2419.9245,N,08158.0798,W,3.0,170.9,220615,5.4,"
"##MN-00 00 21 0302 02304 4807 562927 229321 196"
"173.956424"
"$GPRMC,225711,A,2419.9211,N,08158.0792,W,3.0,172.2,220615,5.4,"
"##MN-00 00 21 0304 02307 4804 563093 229439 196"
"173.95647"
"$GPRMC,225715,A,2419.9178,N,08158.0788,W,3.0,172.2,220615,5.4,"
"##MN-00 00 21 0305 02308 4800 563220 229498 196"
"173.956516"
"$GPRMC,225719,A,2419.9153,N,08158.0782,W,3.0,171.6,220615,5.4,"
"##MN-00 00 21 0307 02311 4797 563244 229490 196"
"173.956563"
"$GPRMC,225723,A,2419.9109,N,08158.0775,W,3.0,171.7,220615,5.4,"
"##MN-00 00 21 0308 02311 4794 563391 229504 196"
"173.956609"
"$GPRMC,225727,A,2419.9083,N,08158.0771,W,3.0,171.7,220615,5.4,"
"##MN-00 00 21 0309 02311 4791 563511 229560 196"
"173.956655"
"$GPRMC,225732,A,2419.9030,N,08158.0760,W,3.1,170.4,220615,5.4,"
"##MN-00 00 21 0311 02313 4788 563720 229615 196"
"173.956701"
"$GPRMC,225736,A,2419.8995,N,08158.0753,W,3.1,170.2,220615,5.4,"
"##MN-00 00 21 0312 02314 4785 564070 229719 196"
"173.956748"
"$GPRMC,225739,A,2419.8969,N,08158.0749,W,3.1,171.1,220615,5.4,"
"##MN-00 00 21 0313 02315 4782 564459 229808 196"
"173.956794"
"$GPRMC,225743,A,2419.8943,N,08158.0746,W,3.1,171.0,220615,5.4,"
"##MN-00 00 21 0314 02317 4779 564767 229893 196"
"173.95684"
"$GPRMC,225748,A,2419.8891,N,08158.0736,W,3.1,170.7,220615,5.4,"
"##MN-00 00 21 0316 02317 4776 565011 229928 196"
"173.956887"
"$GPRMC,225752,A,2419.8857,N,08158.0729,W,3.1,170.4,220615,5.4,"
"##MN-00 00 21 0317 02320 4773 565185 229961 196"
"173.956933"
"$GPRMC,225756,A,2419.8822,N,08158.0722,W,3.1,170.5,220615,5.4,"
"##MN-00 00 21 0319 02323 4770 565328 229982 196"
"173.956979"
"$GPRMC,225800,A,2419.8788,N,08158.0715,W,3.1,169.9,220615,5.4,"
"##MN-00 00 21 0320 02323 4767 565253 229971 196"
"173.957025"
"$GPRMC,225804,A,2419.8752,N,08158.0709,W,3.1,169.8,220615,5.4,"
"##MN-00 00 21 0321 02326 4763 565168 229967 196"
"173.957072"
"$GPRMC,225808,A,2419.8717,N,08158.0704,W,3.1,170.5,220615,5.4,"
"##MN-00 00 21 0323 02328 4760 565073 229947 196"
"173.957118"
"$GPRMC,225812,A,2419.8682,N,08158.0697,W,3.1,171.0,220615,5.4,"
"##MN-00 00 21 0324 02329 4757 565087 229958 196"
"173.957164"
"$GPRMC,225816,A,2419.8649,N,08158.0690,W,3.1,171.2,220615,5.4,"
"##MN-00 00 21 0325 02331 4754 565187 229964 196"
"173.957211"
"$GPRMC,225820,A,2419.8615,N,08158.0686,W,3.1,170.9,220615,5.4,"
"##MN-00 00 21 0326 02331 4751 565069 229948 196"
"173.957257"
"$GPRMC,225824,A,2419.8580,N,08158.0680,W,3.0,171.3,220615,5.4,"
"##MN-00 00 21 0328 02335 4747 565042 229946 196"
"173.957303"
"$GPRMC,225828,A,2419.8546,N,08158.0675,W,3.0,171.0,220615,5.4,"
"##MN+00 00 21 0329 02336 4744 565108 229964 196"
"173.95735"
"$GPRMC,225832,A,2419.8513,N,08158.0670,W,3.1,171.2,220615,5.4,"
"##MN+00 00 21 0331 02340 4742 565213 229992 196"
"173.957396"
"$GPRMC,225836,A,2419.8478,N,08158.0664,W,3.0,171.4,220615,5.4,"
"##MN+00 00 21 0332 02341 4739 565356 230029 196"
"173.957442"
"$GPRMC,225840,A,2419.8445,N,08158.0659,W,3.0,171.1,220615,5.4,"
"##MN+00 00 21 0333 02343 4735 565501 230046 196"
"173.957488"
"$GPRMC,225844,A,2419.8409,N,08158.0654,W,3.1,171.0,220615,5.4,"
"##MN+00 00 21 0335 02344 4732 565667 230087 196"
"173.957535"
"$GPRMC,225848,A,2419.8376,N,08158.0644,W,3.0,171.4,220615,5.4,"
"##MN+00 00 21 0336 02351 4729 566067 230197 196"
"173.957581"
"$GPRMC,225852,A,2419.8340,N,08158.0636,W,3.1,171.0,220615,5.4,"
"##MN-00 00 21 0337 02353 4726 566613 230336 196"
"173.957627"
"$GPRMC,225856,A,2419.8307,N,08158.0632,W,3.1,171.5,220615,5.4,"
"##MN-00 00 21 0338 02356 4723 567285 230501 196"
"173.957674"
"$GPRMC,225900,A,2419.8273,N,08158.0625,W,3.1,171.3,220615,5.4,"
"##MN-00 00 21 0340 02358 4720 567957 230628 196"
"173.95772"
"$GPRMC,225904,A,2419.8239,N,08158.0618,W,3.1,170.8,220615,5.4,"
"##MN-00 00 21 0341 02362 4716 568533 230748 196"
"173.957766"
"$GPRMC,225908,A,2419.8205,N,08158.0612,W,3.1,170.6,220615,5.4,"
"##MN-00 00 21 0342 02362 4713 568748 230797 196"
"173.957812"
"$GPRMC,225912,A,2419.8171,N,08158.0607,W,3.0,170.7,220615,5.4,"
"##MN-00 00 21 0344 02359 4710 568854 230833 196"
"173.957859"
"$GPRMC,225916,A,2419.8139,N,08158.0599,W,3.0,171.3,220615,5.4,"
"##MN-00 00 21 0345 02360 4707 569003 230864 196"
"173.957905"
"$GPRMC,225920,A,2419.8106,N,08158.0594,W,2.9,171.3,220615,5.4,"
"##MN-00 00 21 0346 02358 4704 568881 230842 196"
"173.957951"
"$GPRMC,225924,A,2419.8075,N,08158.0591,W,2.9,171.6,220615,5.4,"
"##MN-00 00 21 0347 02356 4701 568839 230837 196"
"173.957998"
"$GPRMC,225928,A,2419.8044,N,08158.0588,W,2.8,172.8,220615,5.4,"
"##MN-00 00 21 0349 02358 4697 568828 230847 196"
"173.958044"
"$GPRMC,225932,A,2419.8012,N,08158.0583,W,2.8,173.1,220615,5.4,"
"##MN-00 00 21 0350 02357 4695 569207 230985 196"
"173.95809"
"$GPRMC,225936,A,2419.7981,N,08158.0579,W,2.8,173.9,220615,5.4,"
"##MN-00 00 21 0351 02357 4691 569702 231080 196"
"173.958137"
"$GPRMC,225940,A,2419.7950,N,08158.0576,W,2.8,173.6,220615,5.4,"
"##MN-00 00 21 0353 02356 4688 570092 231156 196"
"173.958183"
"$GPRMC,225944,A,2419.7917,N,08158.0571,W,2.8,173.1,220615,5.4,"
"##MN-00 00 21 0354 02354 4685 570331 231203 196"
"173.958229"
"$GPRMC,225948,A,2419.7885,N,08158.0568,W,2.9,173.1,220615,5.4,"
"##MN-00 00 21 0355 02353 4682 570431 231212 196"
"173.958275"
"$GPRMC,225952,A,2419.7853,N,08158.0565,W,2.9,173.1,220615,5.4,"
"##MN-00 00 21 0357 02351 4679 570351 231179 196"
"173.958322"
"$GPRMC,225956,A,2419.7821,N,08158.0562,W,2.9,173.7,220615,5.4,"
"##MN-00 00 21 0358 02349 4676 569996 231049 196"
"173.958368"
"$GPRMC,230000,A,2419.7789,N,08158.0558,W,2.9,174.2,220615,5.4,"
"##MN-00 00 21 0360 02348 4673 569240 230898 196"
"173.958414"
"$GPRMC,230004,A,2419.7756,N,08158.0554,W,2.9,174.1,220615,5.4,"
"##MN-00 00 21 0361 02348 4669 568844 230846 196"
"173.958461"
"$GPRMC,230008,A,2419.7724,N,08158.0553,W,2.9,173.9,220615,5.4,"
"##MN-00 00 21 0362 02344 4666 568703 230816 196"
"173.958507"
"$GPRMC,230012,A,2419.7692,N,08158.0547,W,2.9,173.7,220615,5.4,"
"##MN-00 00 21 0364 02342 4663 568614 230798 196"
"173.958553"
"$GPRMC,230016,A,2419.7659,N,08158.0545,W,2.9,173.8,220615,5.4,"
"##MN-00 00 21 0365 02343 4660 568556 230786 196"
"173.9586"
"$GPRMC,230020,A,2419.7627,N,08158.0540,W,2.9,174.3,220615,5.4,"
"##MN-00 00 21 0367 02342 4657 568477 230754 196"
"173.958646"
"$GPRMC,230024,A,2419.7594,N,08158.0537,W,2.9,173.9,220615,5.4,"
"##MN-00 00 21 0368 02338 4653 568221 230709 196"
"173.958692"
"$GPRMC,230028,A,2419.7562,N,08158.0535,W,2.9,172.9,220615,5.4,"
"##MN-00 00 21 0369 02338 4650 568178 230704 196"
"173.958738"
"$GPRMC,230032,A,2419.7531,N,08158.0533,W,2.9,173.3,220615,5.4,"
"##MN-00 00 21 0371 02338 4647 568182 230713 196"
"173.958785"
"$GPRMC,230036,A,2419.7500,N,08158.0530,W,2.9,174.8,220615,5.4,"
"##MN-00 00 21 0372 02339 4644 568292 230735 196"
"173.958831"
"$GPRMC,230040,A,2419.7467,N,08158.0527,W,2.8,175.1,220615,5.4,"
"##MN-00 00 21 0373 02337 4641 568386 230747 196"
"173.958877"
"$GPRMC,230044,A,2419.7437,N,08158.0522,W,2.8,175.0,220615,5.4,"
"##MN-00 00 52 0375 02336 4638 568415 230754 196"
"173.958924"
"$GPRMC,230048,A,2419.7404,N,08158.0522,W,2.8,174.7,220615,5.4,"
"##MN-00 00 21 0376 02336 4635 568438 230757 196"
"173.95897"
"$GPRMC,230052,A,2419.7372,N,08158.0520,W,2.8,175.2,220615,5.4,"
"##MN-00 00 21 0377 02333 4632 568430 230750 196"
"173.959016"
"$GPRMC,230056,A,2419.7339,N,08158.0515,W,2.8,174.5,220615,5.4,"
"##MN-00 00 21 0379 02331 4629 568286 230691 196"
"173.959062"
"$GPRMC,230100,A,2419.7307,N,08158.0509,W,2.9,173.7,220615,5.4,"
"##MN-00 00 21 0380 02330 4626 567847 230576 196"
"173.959109"
"$GPRMC,230104,A,2419.7274,N,08158.0509,W,2.9,173.3,220615,5.4,"
"##MN-00 00 21 0381 02329 4623 567363 230485 196"
"173.959155"
"$GPRMC,230108,A,2419.7243,N,08158.0507,W,2.8,173.2,220615,5.4,"
"##MN-00 00 22 0383 02328 4620 567102 230448 196"
"173.959201"
"$GPRMC,230112,A,2419.7213,N,08158.0505,W,2.8,173.6,220615,5.4,"
"##MN-00 00 21 0384 02329 4617 566912 230395 196"
"173.959248"
"$GPRMC,230116,A,2419.7179,N,08158.0501,W,2.9,173.2,220615,5.4,"
"##MN-00 00 21 0385 02327 4613 566779 230369 196"
"173.959306"
"$GPRMC,230120,A,2419.7148,N,08158.0498,W,2.9,173.0,220615,5.4,"
"##MN-00 00 21 0387 02325 4611 566637 230304 196"
"173.959352"
"$GPRMC,230124,A,2419.7115,N,08158.0495,W,2.9,173.3,220615,5.4,"
"##MN-00 00 21 0388 02323 4607 566248 230216 196"
"173.959398"
"$GPRMC,230128,A,2419.7083,N,08158.0493,W,2.9,173.7,220615,5.4,"
"##MN-00 00 21 0389 02322 4604 565816 230121 196"
"173.959444"
"$GPRMC,230132,A,2419.7050,N,08158.0490,W,2.9,173.9,220615,5.4,"
"##MN-00 00 21 0391 02318 4601 565558 230077 196"
"173.959491"
"$GPRMC,230136,A,2419.7018,N,08158.0487,W,2.9,173.8,220615,5.4,"
"##MN-00 00 21 0392 02317 4599 565433 230049 196"
"173.959537"
"$GPRMC,230140,A,2419.6985,N,08158.0484,W,2.9,174.2,220615,5.4,"
"##MN-00 00 21 0393 02315 4595 565291 229995 196"
"173.959583"
"$GPRMC,230144,A,2419.6953,N,08158.0480,W,2.9,174.5,220615,5.4,"
"##MN-00 00 21 0395 02314 4592 564794 229851 196"
"173.95963"
"$GPRMC,230148,A,2419.6921,N,08158.0475,W,2.9,174.8,220615,5.4,"
"##MN-00 00 21 0396 02312 4589 564040 229696 196"
"173.959676"
"$GPRMC,230152,A,2419.6889,N,08158.0473,W,2.9,174.4,220615,5.4,"
"##MN-00 00 21 0398 02311 4586 563789 229663 196"
"173.959722"
"$GPRMC,230156,A,2419.6857,N,08158.0471,W,2.9,174.7,220615,5.4,"
"##MN-00 00 21 0399 02310 4584 563533 229590 196"
"173.959769"
"$GPRMC,230200,A,2419.6825,N,08158.0466,W,2.8,175.6,220615,5.4,"
"##MN-00 00 21 0400 02309 4580 563273 229527 196"
"173.959815"
"$GPRMC,230204,A,2419.6794,N,08158.0463,W,2.8,176.0,220615,5.4,"
"##MN-00 00 21 0402 02304 4577 562934 229455 196"
"173.959861"
"$GPRMC,230208,A,2419.6761,N,08158.0460,W,2.8,175.9,220615,5.4,"
"##MN-00 00 21 0403 02303 4575 562740 229410 196"
"173.959907"
"$GPRMC,230212,A,2419.6730,N,08158.0456,W,2.8,175.8,220615,5.4,"
"##MN-00 00 21 0405 02301 4572 562592 229367 196"
"173.959954"
"$GPRMC,230216,A,2419.6698,N,08158.0453,W,2.9,175.8,220615,5.4,"
"##MN-00 00 21 0406 02299 4569 562424 229320 196"
"173.96"
"$GPRMC,230221,A,2419.6658,N,08158.0449,W,2.9,175.8,220615,5.4,"
"##MN-00 00 21 0407 02298 4566 562050 229224 196"
"173.960046"
"$GPRMC,230225,A,2419.6628,N,08158.0444,W,2.9,175.5,220615,5.4,"
"##MN-00 00 21 0409 02295 4563 561304 229025 196"
"173.960093"
"$GPRMC,230228,A,2419.6604,N,08158.0442,W,2.9,175.8,220615,5.4,"
"##MN-00 00 21 0410 02294 4560 560701 228910 196"
"173.960139"
"$GPRMC,230232,A,2419.6573,N,08158.0438,W,2.9,176.0,220615,5.4,"
"##MN-00 00 21 0411 02294 4557 560437 228849 196"
"173.960185"
"$GPRMC,230236,A,2419.6543,N,08158.0435,W,2.8,175.5,220615,5.4,"
"##MN-00 00 21 0413 02291 4555 560184 228799 196"
"173.960231"
"$GPRMC,230241,A,2419.6503,N,08158.0429,W,2.8,175.4,220615,5.4,"
"##MN-00 00 21 0414 02292 4552 559967 228738 196"
"173.960278"
"$GPRMC,230245,A,2419.6472,N,08158.0426,W,2.9,174.9,220615,5.4,"
"##MN-00 00 22 0416 02287 4549 559685 228667 196"
"173.960324"
"$GPRMC,230249,A,2419.6440,N,08158.0421,W,2.9,174.5,220615,5.4,"
"##MN-00 00 21 0417 02289 4546 559441 228628 196"
"173.96037"
"$GPRMC,230253,A,2419.6409,N,08158.0417,W,2.9,174.1,220615,5.4,"
"##MN-00 00 21 0418 02285 4544 559350 228601 196"
"173.960417"
"$GPRMC,230257,A,2419.6378,N,08158.0416,W,2.9,174.0,220615,5.4,"
"##MN-00 00 21 0420 02285 4541 559261 228588 196"
"173.960463"
"$GPRMC,230301,A,2419.6350,N,08158.0417,W,2.9,175.8,220615,5.4,"
"##MN-00 00 21 0421 02283 4538 559208 228564 196"
"173.960509"
"$GPRMC,230305,A,2419.6321,N,08158.0417,W,2.8,177.5,220615,5.4,"
"##MN-00 00 21 0423 02281 4536 558986 228503 196"
"173.960556"
"$GPRMC,230309,A,2419.6290,N,08158.0417,W,2.9,178.3,220615,5.4,"
"##MN-00 00 21 0424 02281 4533 558775 228465 196"
"173.960602"
"$GPRMC,230313,A,2419.6260,N,08158.0417,W,2.8,178.7,220615,5.4,"
"##MN-00 00 21 0425 02279 4530 558711 228455 196"
"173.960648"
"$GPRMC,230317,A,2419.6230,N,08158.0418,W,2.8,179.6,220615,5.4,"
"##MN-00 00 21 0427 02280 4527 558641 228433 196"
"173.960694"
"$GPRMC,230321,A,2419.6199,N,08158.0418,W,2.8,179.8,220615,5.4,"
"##MN-00 00 21 0428 02280 4525 558546 228409 196"
"173.960741"
"$GPRMC,230325,A,2419.6169,N,08158.0418,W,2.8,179.3,220615,5.4,"
"##MN-00 00 21 0430 02278 4522 558457 228389 196"
"173.960787"
"$GPRMC,230329,A,2419.6138,N,08158.0417,W,2.8,178.6,220615,5.4,"
"##MN-00 00 21 0431 02279 4520 558346 228362 196"
"173.960833"
"$GPRMC,230333,A,2419.6107,N,08158.0416,W,2.8,178.5,220615,5.4,"
"##MN-00 00 21 0432 02273 4517 558250 228335 196"
"173.96088"
"$GPRMC,230337,A,2419.6077,N,08158.0414,W,2.8,178.4,220615,5.4,"
"##MN-00 00 21 0434 02274 4515 558119 228302 196"
"173.960926"
"$GPRMC,230341,A,2419.6049,N,08158.0416,W,2.8,178.6,220615,5.4,"
"##MN-00 00 21 0435 02271 4512 557878 228238 196"
"173.960972"
"$GPRMC,230345,A,2419.6023,N,08158.0417,W,2.8,178.7,220615,5.4,"
"##MN-00 00 21 0436 02269 4509 557494 228152 196"
"173.961018"
"$GPRMC,230349,A,2419.5996,N,08158.0419,W,2.8,179.3,220615,5.4,"
"##MN-00 00 21 0437 02268 4507 557255 228101 196"
"173.961065"
"$GPRMC,230353,A,2419.5967,N,08158.0420,W,2.8,179.3,220615,5.4,"
"##MN-00 00 21 0439 02267 4504 557040 228050 196"
"173.961111"
"$GPRMC,230357,A,2419.5936,N,08158.0420,W,2.8,180.2,220615,5.4,"
"##MN-00 00 21 0440 02266 4502 556843 228011 196"
"173.961157"
"$GPRMC,230401,A,2419.5906,N,08158.0421,W,2.8,180.9,220615,5.4,"
"##MN-00 00 21 0442 02265 4500 556727 227993 196"
"173.961204"
"$GPRMC,230405,A,2419.5878,N,08158.0421,W,2.7,180.6,220615,5.4,"
"##MN-00 00 55 0443 02263 4497 556724 227999 196"
"173.96125"
"$GPRMC,230409,A,2419.5845,N,08158.0424,W,2.8,181.0,220615,5.4,"
"##MN-00 00 20 0444 02261 4494 556731 227987 196"
"173.961296"
"$GPRMC,230413,A,2419.5815,N,08158.0427,W,2.8,180.8,220615,5.4,"
"##MN-00 00 21 0446 02260 4492 556670 227977 196"
"173.961343"
"$GPRMC,230417,A,2419.5782,N,08158.0430,W,2.8,180.2,220615,5.4,"
"##MN-00 00 20 0447 02259 4489 556634 227968 196"
"173.961389"
"$GPRMC,230421,A,2419.5751,N,08158.0433,W,2.8,180.1,220615,5.4,"
"##MN-00 00 20 0448 02259 4487 556593 227958 196"
"173.961435"
"$GPRMC,230425,A,2419.5721,N,08158.0433,W,2.8,180.2,220615,5.4,"
"##MN-00 00 21 0450 02257 4485 556562 227954 196"
"173.961481"
"$GPRMC,230429,A,2419.5688,N,08158.0433,W,2.8,180.4,220615,5.4,"
"##MN-00 00 20 0451 02253 4482 556552 227948 196"
"173.961528"
"$GPRMC,230433,A,2419.5658,N,08158.0430,W,2.8,180.6,220615,5.4,"
"##MN-00 00 20 0452 02253 4480 556505 227937 196"
"173.961574"
"$GPRMC,230437,A,2419.5625,N,08158.0430,W,2.8,180.0,220615,5.4,"
"##MN-00 00 20 0454 02252 4478 556448 227922 196"
"173.96162"
"$GPRMC,230441,A,2419.5594,N,08158.0427,W,2.8,180.8,220615,5.4,"
"##MN-00 00 21 0455 02251 4475 556414 227916 195"
"173.961667"
"$GPRMC,230445,A,2419.5563,N,08158.0428,W,2.8,181.4,220615,5.4,"
"##MN-00 00 20 0457 02247 4473 556384 227912 196"
"173.961713"
"$GPRMC,230449,A,2419.5530,N,08158.0427,W,2.8,180.9,220615,5.4,"
