" Tow: 10WM-B   RVWS/WS15161"
" Date: 22/06/2015"
" Temperature Probe #  4762    Conductivity Probe #  710"
" Pressure Probe #  159"
" Flow Meter Calibration  4.71 (m/count)  "
"173.624711"
"$GPRMC,143007,A,2422.1412,N,08204.9505,W,2.9,158.7,220615,5.4,"
"##MN-00 00 09 0006 01568 3765 454895 205127 197"
"173.624757"
"$GPRMC,145935,A,2420.2099,N,08203.7549,W,3.0,139.8,220615,5.4,"
"##MN-00 00 09 0007 01568 3770 441877 205091 197"
"173.624803"
"$GPRMC,145939,A,2420.2074,N,08203.7527,W,3.0,139.5,220615,5.4,"
"##MN-00 00 09 0008 01566 3775 441870 205088 197"
"173.62485"
"$GPRMC,145943,A,2420.2049,N,08203.7504,W,2.9,139.8,220615,5.4,"
"##MN-00 00 09 0009 01567 3780 441911 205102 197"
"173.624896"
"$GPRMC,145947,A,2420.2025,N,08203.7480,W,2.9,139.6,220615,5.4,"
"##MN-00 00 08 0010 01570 3784 441888 205087 197"
"173.624942"
"$GPRMC,145951,A,2420.2000,N,08203.7457,W,2.9,139.7,220615,5.4,"
"##MN-00 00 08 0011 01575 3790 441835 205078 197"
"173.624988"
"$GPRMC,145955,A,2420.1974,N,08203.7435,W,2.9,140.1,220615,5.4,"
"##MN-00 00 08 0011 01579 3795 441840 205082 197"
"173.625035"
"$GPRMC,145959,A,2420.1949,N,08203.7412,W,3.0,139.8,220615,5.4,"
"##MN-00 00 08 0012 01582 3800 441898 205093 197"
"173.625081"
"$GPRMC,150003,A,2420.1924,N,08203.7388,W,3.0,139.7,220615,5.4,"
"##MN-00 00 08 0013 01585 3806 441958 205097 197"
"173.625127"
"$GPRMC,150007,A,2420.1898,N,08203.7363,W,3.0,139.2,220615,5.4,"
"##MN-00 00 08 0014 01589 3812 441968 205103 197"
"173.625174"
"$GPRMC,150011,A,2420.1873,N,08203.7339,W,3.1,138.5,220615,5.4,"
"##MN-00 00 08 0015 01591 3816 442084 205126 197"
"173.62522"
"$GPRMC,150015,A,2420.1849,N,08203.7313,W,3.0,138.3,220615,5.4,"
"##MN-00 00 08 0015 01594 3822 442138 205138 197"
"173.625266"
"$GPRMC,150019,A,2420.1824,N,08203.7288,W,3.0,138.2,220615,5.4,"
"##MN-00 00 08 0016 01597 3828 442190 205140 197"
"173.625312"
"$GPRMC,150023,A,2420.1799,N,08203.7264,W,3.0,138.6,220615,5.4,"
"##MN-00 00 07 0017 01601 3834 442260 205147 197"
"173.625359"
"$GPRMC,150027,A,2420.1774,N,08203.7239,W,3.0,138.1,220615,5.4,"
"##MN-00 00 08 0018 01604 3839 442316 205140 197"
"173.625405"
"$GPRMC,150031,A,2420.1749,N,08203.7214,W,3.0,138.5,220615,5.4,"
"##MN-00 00 07 0019 01605 3845 442423 205130 197"
"173.625451"
"$GPRMC,150035,A,2420.1723,N,08203.7189,W,3.1,138.5,220615,5.4,"
"##MN-00 00 08 0020 01608 3851 442515 205111 197"
"173.625498"
"$GPRMC,150039,A,2420.1698,N,08203.7163,W,3.1,138.7,220615,5.4,"
"##MN-00 00 08 0021 01609 3857 442594 205104 197"
"173.625544"
"$GPRMC,150043,A,2420.1671,N,08203.7138,W,3.1,138.8,220615,5.4,"
"##MN-00 00 08 0022 01612 3863 442625 205094 197"
"173.62559"
"$GPRMC,150047,A,2420.1644,N,08203.7113,W,3.1,138.6,220615,5.4,"
"##MN-00 00 07 0023 01613 3869 442655 205086 197"
"173.625637"
"$GPRMC,150051,A,2420.1618,N,08203.7089,W,3.1,138.9,220615,5.4,"
"##MN-00 00 07 0024 01618 3874 442687 205080 197"
"173.625683"
"$GPRMC,150055,A,2420.1592,N,08203.7065,W,3.1,139.4,220615,5.4,"
"##MN-00 00 08 0024 01621 3880 442705 205070 197"
"173.625729"
"$GPRMC,150059,A,2420.1566,N,08203.7040,W,3.1,139.9,220615,5.4,"
"##MN-00 00 07 0025 01624 3886 442728 205056 197"
"173.625787"
"$GPRMC,150103,A,2420.1537,N,08203.7016,W,3.1,140.3,220615,5.4,"
"##MN-00 00 07 0026 01627 3893 442744 205048 197"
"173.625833"
"$GPRMC,150107,A,2420.1510,N,08203.6992,W,3.1,140.4,220615,5.4,"
"##MN-00 00 07 0027 01629 3898 442754 205042 197"
"173.62588"
"$GPRMC,150111,A,2420.1483,N,08203.6969,W,3.1,140.6,220615,5.4,"
"##MN-00 00 07 0028 01632 3905 442749 205048 197"
"173.625926"
"$GPRMC,150115,A,2420.1458,N,08203.6945,W,3.1,140.4,220615,5.4,"
"##MN-00 00 07 0029 01636 3911 442742 205050 197"
"173.625972"
"$GPRMC,150119,A,2420.1431,N,08203.6921,W,3.1,140.0,220615,5.4,"
"##MN-00 00 07 0030 01636 3917 442738 205048 197"
"173.626019"
"$GPRMC,150123,A,2420.1404,N,08203.6896,W,3.1,140.2,220615,5.4,"
"##MN-00 00 07 0031 01639 3924 442738 205047 197"
"173.626065"
"$GPRMC,150127,A,2420.1377,N,08203.6874,W,3.1,140.8,220615,5.4,"
"##MN-00 00 07 0032 01643 3929 442738 205052 197"
"173.626111"
"$GPRMC,150131,A,2420.1351,N,08203.6851,W,3.1,140.7,220615,5.4,"
"##MN-00 00 07 0032 01644 3935 442749 205039 197"
"173.626157"
"$GPRMC,150135,A,2420.1324,N,08203.6829,W,3.0,141.1,220615,5.4,"
"##MN-00 00 07 0033 01650 3942 442803 205016 197"
"173.626204"
"$GPRMC,150139,A,2420.1299,N,08203.6806,W,3.0,140.7,220615,5.4,"
"##MN-00 00 07 0034 01652 3948 442875 204985 197"
"173.62625"
"$GPRMC,150143,A,2420.1271,N,08203.6781,W,3.0,140.3,220615,5.4,"
"##MN-00 00 07 0035 01654 3954 442901 204980 197"
"173.626296"
"$GPRMC,150147,A,2420.1245,N,08203.6757,W,3.0,140.1,220615,5.4,"
"##MN-00 00 07 0036 01656 3960 442988 204970 197"
"173.626343"
"$GPRMC,150151,A,2420.1219,N,08203.6732,W,3.0,139.4,220615,5.4,"
"##MN-00 00 07 0037 01658 3966 443074 204961 197"
"173.626389"
"$GPRMC,150155,A,2420.1194,N,08203.6709,W,3.0,139.7,220615,5.4,"
"##MN-00 00 07 0038 01661 3973 443063 204961 197"
"173.626435"
"$GPRMC,150159,A,2420.1169,N,08203.6685,W,3.0,139.9,220615,5.4,"
"##MN-00 00 07 0039 01664 3979 443057 204961 197"
"173.626481"
"$GPRMC,150203,A,2420.1143,N,08203.6659,W,3.0,139.5,220615,5.4,"
"##MN-00 00 07 0040 01668 3985 443128 204948 197"
"173.626528"
"$GPRMC,150207,A,2420.1118,N,08203.6634,W,3.0,138.9,220615,5.4,"
"##MN-00 00 07 0041 01671 3992 443174 204937 197"
"173.626574"
"$GPRMC,150212,A,2420.1086,N,08203.6604,W,3.0,138.8,220615,5.4,"
"##MN-00 00 07 0042 01672 3997 443279 204933 197"
"173.62662"
"$GPRMC,150216,A,2420.1060,N,08203.6578,W,3.0,138.8,220615,5.4,"
"##MN-00 00 07 0042 01674 4004 443638 204905 197"
"173.626667"
"$GPRMC,150220,A,2420.1036,N,08203.6554,W,3.0,138.7,220615,5.4,"
"##MN-00 00 07 0043 01677 4010 443973 204906 197"
"173.626713"
"$GPRMC,150224,A,2420.1010,N,08203.6529,W,3.0,139.1,220615,5.4,"
"##MN-00 00 07 0044 01681 4016 444235 204927 197"
"173.626759"
"$GPRMC,150228,A,2420.0984,N,08203.6505,W,3.0,139.4,220615,5.4,"
"##MN-00 00 07 0045 01681 4023 444309 204936 197"
"173.626806"
"$GPRMC,150232,A,2420.0958,N,08203.6482,W,3.0,139.4,220615,5.4,"
"##MN-00 00 07 0046 01684 4029 444426 204957 197"
"173.626852"
"$GPRMC,150236,A,2420.0934,N,08203.6459,W,3.0,139.2,220615,5.4,"
"##MN-00 00 07 0047 01687 4035 444527 204964 197"
"173.626898"
"$GPRMC,150240,A,2420.0909,N,08203.6434,W,3.0,139.1,220615,5.4,"
"##MN-00 00 07 0048 01688 4041 444636 204988 197"
"173.626944"
"$GPRMC,150244,A,2420.0883,N,08203.6409,W,3.0,138.5,220615,5.4,"
"##MN-00 00 07 0049 01690 4048 444745 205010 197"
"173.626991"
"$GPRMC,150248,A,2420.0858,N,08203.6386,W,3.0,138.8,220615,5.4,"
"##MN-00 00 07 0050 01693 4054 444857 205023 197"
"173.627037"
"$GPRMC,150252,A,2420.0833,N,08203.6362,W,3.0,139.3,220615,5.4,"
"##MN-00 00 07 0051 01695 4060 444896 205023 197"
"173.627083"
"$GPRMC,150256,A,2420.0807,N,08203.6338,W,3.0,139.2,220615,5.4,"
"##MN-00 00 07 0052 01698 4067 444953 205037 197"
"173.62713"
"$GPRMC,150300,A,2420.0781,N,08203.6316,W,3.0,139.3,220615,5.4,"
"##MN-00 00 07 0053 01701 4073 445004 205045 197"
"173.627176"
"$GPRMC,150304,A,2420.0755,N,08203.6293,W,3.0,139.5,220615,5.4,"
"##MN-00 00 07 0054 01702 4079 445029 205047 197"
"173.627222"
"$GPRMC,150308,A,2420.0729,N,08203.6271,W,3.0,139.9,220615,5.4,"
"##MN-00 00 07 0056 01705 4085 445059 205055 197"
"173.627269"
"$GPRMC,150312,A,2420.0703,N,08203.6247,W,3.0,140.2,220615,5.4,"
"##MN-00 00 07 0057 01705 4091 445094 205056 197"
"173.627315"
"$GPRMC,150316,A,2420.0676,N,08203.6225,W,3.0,140.5,220615,5.4,"
"##MN-00 00 07 0058 01708 4098 445134 205064 197"
"173.627361"
"$GPRMC,150320,A,2420.0650,N,08203.6202,W,3.0,140.4,220615,5.4,"
"##MN-00 00 07 0059 01709 4104 445155 205071 197"
"173.627407"
"$GPRMC,150324,A,2420.0624,N,08203.6179,W,3.0,140.5,220615,5.4,"
"##MN-00 00 07 0060 01711 4110 445164 205066 197"
"173.627454"
"$GPRMC,150328,A,2420.0599,N,08203.6156,W,3.0,140.4,220615,5.4,"
"##MN-00 00 07 0061 01714 4116 445183 205070 197"
"173.6275"
"$GPRMC,150332,A,2420.0573,N,08203.6133,W,3.0,140.4,220615,5.4,"
"##MN-00 00 07 0062 01717 4122 445195 205075 197"
"173.627546"
"$GPRMC,150336,A,2420.0547,N,08203.6109,W,3.0,140.5,220615,5.4,"
"##MN-00 00 07 0063 01717 4128 445211 205076 197"
"173.627593"
"$GPRMC,150340,A,2420.0522,N,08203.6086,W,3.0,140.3,220615,5.4,"
"##MN-00 00 07 0064 01720 4135 445257 205088 197"
"173.627639"
"$GPRMC,150344,A,2420.0497,N,08203.6063,W,2.9,140.9,220615,5.4,"
"##MN-00 00 07 0065 01721 4141 445319 205094 197"
"173.627685"
"$GPRMC,150348,A,2420.0471,N,08203.6041,W,2.9,141.2,220615,5.4,"
"##MN-00 00 07 0067 01724 4147 445367 205097 197"
"173.627731"
"$GPRMC,150352,A,2420.0446,N,08203.6017,W,2.9,140.6,220615,5.4,"
"##MN-00 00 07 0068 01727 4153 445450 205109 197"
"173.627778"
"$GPRMC,150356,A,2420.0421,N,08203.5996,W,2.9,140.2,220615,5.4,"
"##MN-00 00 07 0069 01731 4159 445568 205128 197"
"173.627824"
"$GPRMC,150400,A,2420.0396,N,08203.5973,W,3.0,140.5,220615,5.4,"
"##MN-00 00 07 0070 01733 4165 445639 205146 197"
"173.62787"
"$GPRMC,150404,A,2420.0369,N,08203.5950,W,3.0,140.8,220615,5.4,"
"##MN-00 00 07 0071 01733 4171 445698 205158 197"
"173.627917"
"$GPRMC,150408,A,2420.0345,N,08203.5927,W,3.0,140.8,220615,5.4,"
"##MN-00 00 07 0072 01735 4177 445734 205158 197"
"173.627963"
"$GPRMC,150412,A,2420.0320,N,08203.5905,W,2.9,140.0,220615,5.4,"
"##MN-00 00 07 0073 01738 4183 445768 205175 197"
"173.628009"
"$GPRMC,150416,A,2420.0294,N,08203.5882,W,2.9,140.2,220615,5.4,"
"##MN-00 00 07 0074 01740 4189 445793 205173 197"
"173.628056"
"$GPRMC,150420,A,2420.0269,N,08203.5859,W,2.9,140.0,220615,5.4,"
"##MN-00 00 07 0075 01744 4195 445860 205189 197"
"173.628102"
"$GPRMC,150424,A,2420.0245,N,08203.5835,W,2.9,140.1,220615,5.4,"
"##MN-00 00 07 0076 01748 4201 446012 205210 197"
"173.628148"
"$GPRMC,150428,A,2420.0221,N,08203.5812,W,2.9,139.1,220615,5.4,"
"##MN-00 00 07 0077 01751 4207 446057 205218 197"
"173.628194"
"$GPRMC,150432,A,2420.0198,N,08203.5789,W,2.9,138.1,220615,5.4,"
"##MN-00 00 07 0078 01755 4213 446127 205229 197"
"173.628241"
"$GPRMC,150436,A,2420.0174,N,08203.5765,W,2.9,138.7,220615,5.4,"
"##MN-00 00 07 0080 01755 4219 446157 205230 197"
"173.628287"
"$GPRMC,150440,A,2420.0150,N,08203.5742,W,2.9,138.9,220615,5.4,"
"##MN-00 00 07 0081 01757 4225 446192 205236 197"
"173.628333"
"$GPRMC,150444,A,2420.0125,N,08203.5718,W,2.9,139.2,220615,5.4,"
"##MN-00 00 07 0082 01762 4231 446221 205246 197"
"173.62838"
"$GPRMC,150448,A,2420.0100,N,08203.5694,W,2.9,138.6,220615,5.4,"
"##MN-00 00 07 0083 01762 4236 446238 205245 197"
"173.628426"
"$GPRMC,150452,A,2420.0076,N,08203.5669,W,3.0,138.4,220615,5.4,"
"##MN-00 00 07 0084 01765 4242 446258 205253 197"
"173.628472"
"$GPRMC,150456,A,2420.0051,N,08203.5645,W,2.9,138.5,220615,5.4,"
"##MN-00 00 07 0085 01768 4248 446273 205260 197"
"173.628519"
"$GPRMC,150500,A,2420.0027,N,08203.5621,W,3.0,138.5,220615,5.4,"
"##MN-00 00 07 0086 01770 4253 446287 205262 197"
"173.628565"
"$GPRMC,150504,A,2420.0002,N,08203.5598,W,3.0,138.5,220615,5.4,"
"##MN-00 00 07 0087 01773 4259 446302 205271 197"
"173.628611"
"$GPRMC,150508,A,2419.9978,N,08203.5576,W,2.9,138.5,220615,5.4,"
"##MN-00 00 07 0088 01773 4265 446314 205275 197"
"173.628657"
"$GPRMC,150512,A,2419.9955,N,08203.5554,W,2.9,139.0,220615,5.4,"
"##MN-00 00 07 0089 01779 4271 446323 205275 197"
"173.628704"
"$GPRMC,150516,A,2419.9930,N,08203.5533,W,2.8,139.3,220615,5.4,"
"##MN-00 00 07 0090 01783 4277 446340 205277 197"
"173.62875"
"$GPRMC,150520,A,2419.9905,N,08203.5511,W,2.9,139.8,220615,5.4,"
"##MN-00 00 07 0092 01784 4282 446460 205298 197"
"173.628796"
"$GPRMC,150524,A,2419.9881,N,08203.5489,W,2.8,140.0,220615,5.4,"
"##MN-00 00 07 0093 01787 4288 446610 205317 197"
"173.628843"
"$GPRMC,150528,A,2419.9855,N,08203.5466,W,2.9,140.6,220615,5.4,"
"##MN-00 00 07 0094 01790 4294 446681 205324 197"
"173.628889"
"$GPRMC,150532,A,2419.9830,N,08203.5444,W,2.9,140.7,220615,5.4,"
"##MN-00 00 07 0095 01794 4299 446720 205339 197"
"173.628935"
"$GPRMC,150536,A,2419.9805,N,08203.5422,W,2.9,141.0,220615,5.4,"
"##MN-00 00 07 0096 01796 4305 446745 205344 197"
"173.628981"
"$GPRMC,150540,A,2419.9781,N,08203.5400,W,2.9,140.7,220615,5.4,"
"##MN-00 00 07 0097 01800 4311 446763 205342 197"
"173.629039"
"$GPRMC,150544,A,2419.9756,N,08203.5378,W,2.9,140.3,220615,5.4,"
"##MN-00 00 07 0098 01802 4316 446770 205338 197"
"173.629086"
"$GPRMC,150548,A,2419.9731,N,08203.5357,W,2.8,140.8,220615,5.4,"
"##MN-00 00 07 0099 01804 4322 446751 205324 197"
"173.629132"
"$GPRMC,150552,A,2419.9708,N,08203.5334,W,2.8,141.4,220615,5.4,"
"##MN-00 00 07 0100 01807 4327 446708 205301 197"
"173.629178"
"$GPRMC,150556,A,2419.9684,N,08203.5313,W,2.8,140.2,220615,5.4,"
"##MN-00 00 07 0101 01813 4333 446702 205288 197"
"173.629225"
"$GPRMC,150600,A,2419.9659,N,08203.5292,W,2.8,140.0,220615,5.4,"
"##MN-00 00 07 0102 01815 4338 446773 205278 197"
"173.629271"
"$GPRMC,150604,A,2419.9635,N,08203.5270,W,2.8,139.6,220615,5.4,"
"##MN-00 00 07 0103 01818 4344 446836 205274 197"
"173.629317"
"$GPRMC,150608,A,2419.9612,N,08203.5247,W,2.8,139.3,220615,5.4,"
"##MN-00 00 07 0104 01820 4350 446882 205271 197"
"173.629363"
"$GPRMC,150612,A,2419.9587,N,08203.5224,W,2.8,139.3,220615,5.4,"
"##MN-00 00 07 0105 01820 4355 446945 205272 197"
"173.62941"
"$GPRMC,150616,A,2419.9562,N,08203.5199,W,2.9,139.6,220615,5.4,"
"##MN-00 00 06 0107 01821 4361 446997 205277 197"
"173.629456"
"$GPRMC,150620,A,2419.9537,N,08203.5174,W,2.9,138.9,220615,5.4,"
"##MN-00 00 06 0108 01820 4366 447042 205288 197"
"173.629502"
"$GPRMC,150624,A,2419.9512,N,08203.5151,W,2.9,138.7,220615,5.4,"
"##MN+00 00 06 0109 01818 4371 447132 205304 197"
"173.629549"
"$GPRMC,150628,A,2419.9489,N,08203.5127,W,2.8,138.7,220615,5.4,"
"##MN+00 00 07 0110 01818 4377 447154 205303 197"
"173.629595"
"$GPRMC,150632,A,2419.9467,N,08203.5105,W,2.8,138.4,220615,5.4,"
"##MN+00 00 07 0111 01817 4382 447185 205309 197"
"173.629641"
"$GPRMC,150636,A,2419.9443,N,08203.5082,W,2.8,138.7,220615,5.4,"
"##MN+00 00 07 0112 01819 4388 447271 205314 197"
"173.629688"
"$GPRMC,150640,A,2419.9420,N,08203.5061,W,2.7,138.9,220615,5.4,"
"##MN+00 00 07 0113 01821 4393 447266 205319 197"
"173.629734"
"$GPRMC,150645,A,2419.9392,N,08203.5034,W,2.7,139.5,220615,5.4,"
"##MN+00 00 06 0114 01821 4398 447309 205326 197"
"173.62978"
"#increment_net"
"$GPRMC,150648,A,2419.9374,N,08203.5019,W,2.7,139.5,220615,5.4,"
"##MN-00 00 06 0115 01824 4403 447386 205343 197"
"173.629826"
"$GPRMC,150652,A,2419.9352,N,08203.4998,W,2.7,139.7,220615,5.4,"
"##MN-00 00 07 0117 01823 4408 447457 205347 197"
"173.629873"
"$GPRMC,150656,A,2419.9327,N,08203.4976,W,2.7,139.9,220615,5.4,"
"##MN-00 00 06 0118 01824 4414 447422 205340 197"
"173.629919"
"$GPRMC,150700,A,2419.9305,N,08203.4954,W,2.8,139.8,220615,5.4,"
"##MN-00 00 06 0119 01822 4419 447428 205347 197"
"173.629965"
"$GPRMC,150705,A,2419.9274,N,08203.4926,W,2.8,140.0,220615,5.4,"
"##MN-00 00 06 0120 01824 4424 447415 205340 197"
"173.630012"
"$GPRMC,150709,A,2419.9251,N,08203.4903,W,2.8,140.0,220615,5.4,"
"##MN-00 00 06 0121 01822 4430 447337 205339 197"
"173.630058"
"$GPRMC,150713,A,2419.9229,N,08203.4880,W,2.8,139.5,220615,5.4,"
"##MN-00 00 06 0122 01823 4435 447431 205345 197"
"173.630104"
"$GPRMC,150717,A,2419.9204,N,08203.4858,W,2.8,138.7,220615,5.4,"
"##MN-00 00 06 0123 01824 4440 447428 205344 197"
"173.63015"
"$GPRMC,150721,A,2419.9182,N,08203.4837,W,2.8,138.9,220615,5.4,"
"##MN-00 00 06 0125 01824 4445 447383 205338 197"
"173.630197"
"$GPRMC,150725,A,2419.9160,N,08203.4815,W,2.8,138.5,220615,5.4,"
"##MN-00 00 06 0126 01823 4451 447339 205333 197"
"173.630243"
"$GPRMC,150729,A,2419.9136,N,08203.4793,W,2.8,138.8,220615,5.4,"
"##MN+00 00 06 0127 01824 4456 447381 205334 197"
"173.630289"
"$GPRMC,150733,A,2419.9113,N,08203.4770,W,2.8,139.1,220615,5.4,"
"##MN+00 00 06 0128 01825 4461 447405 205335 197"
"173.630336"
"$GPRMC,150737,A,2419.9090,N,08203.4749,W,2.8,139.2,220615,5.4,"
"##MN+00 00 06 0129 01826 4466 447425 205335 197"
"173.630382"
"$GPRMC,150741,A,2419.9067,N,08203.4726,W,2.8,139.2,220615,5.4,"
"##MN+00 00 07 0130 01825 4472 447409 205334 197"
"173.630428"
"$GPRMC,150745,A,2419.9044,N,08203.4704,W,2.7,138.9,220615,5.4,"
"##MN+00 00 06 0132 01828 4476 447325 205322 197"
"173.630475"
"$GPRMC,150749,A,2419.9021,N,08203.4681,W,2.8,138.6,220615,5.4,"
"##MN+00 00 06 0133 01828 4481 447330 205322 197"
"173.630521"
"#increment_net"
"$GPRMC,150753,A,2419.8997,N,08203.4659,W,2.8,138.7,220615,5.4,"
"##MN-00 00 07 0134 01827 4486 447372 205324 197"
"173.630567"
"$GPRMC,150757,A,2419.8974,N,08203.4636,W,2.8,139.2,220615,5.4,"
"##MN-00 00 06 0135 01827 4492 447388 205322 197"
"173.630613"
"$GPRMC,150801,A,2419.8951,N,08203.4613,W,2.8,139.5,220615,5.4,"
"##MN-00 00 06 0136 01824 4497 447390 205323 197"
"173.63066"
"$GPRMC,150805,A,2419.8926,N,08203.4591,W,2.8,139.3,220615,5.4,"
"##MN-00 00 06 0137 01823 4502 447383 205324 197"
"173.630706"
"$GPRMC,150809,A,2419.8904,N,08203.4568,W,2.8,139.4,220615,5.4,"
"##MN-00 00 06 0138 01821 4506 447374 205322 197"
"173.630752"
"$GPRMC,150813,A,2419.8879,N,08203.4544,W,2.8,139.2,220615,5.4,"
"##MN-00 00 06 0140 01820 4511 447367 205320 197"
"173.630799"
"$GPRMC,150817,A,2419.8855,N,08203.4522,W,2.8,139.4,220615,5.4,"
"##MN-00 00 06 0141 01819 4516 447349 205318 197"
"173.630845"
"$GPRMC,150821,A,2419.8832,N,08203.4500,W,2.8,140.0,220615,5.4,"
"##MN-00 00 06 0142 01819 4521 447303 205314 197"
"173.630891"
"$GPRMC,150825,A,2419.8808,N,08203.4478,W,2.8,140.4,220615,5.4,"
"##MN+00 00 06 0143 01819 4526 447281 205313 197"
"173.630937"
"$GPRMC,150829,A,2419.8784,N,08203.4456,W,2.8,139.7,220615,5.4,"
"##MN+00 00 06 0144 01818 4531 447296 205310 197"
"173.630984"
"$GPRMC,150833,A,2419.8760,N,08203.4435,W,2.8,139.2,220615,5.4,"
"##MN+00 00 06 0145 01819 4536 447285 205309 197"
"173.63103"
"$GPRMC,150837,A,2419.8738,N,08203.4414,W,2.7,138.7,220615,5.4,"
"##MN-00 00 06 0146 01817 4541 447274 205306 197"
"173.631076"
"$GPRMC,150841,A,2419.8716,N,08203.4393,W,2.7,138.4,220615,5.4,"
"##MN-00 00 06 0147 01817 4546 447245 205303 197"
"173.631123"
"$GPRMC,150845,A,2419.8692,N,08203.4371,W,2.7,138.5,220615,5.4,"
"##MN+00 00 06 0148 01816 4551 447233 205303 197"
"173.631169"
"$GPRMC,150849,A,2419.8669,N,08203.4349,W,2.7,138.9,220615,5.4,"
"##MN+00 00 06 0150 01818 4556 447234 205302 197"
"173.631215"
"$GPRMC,150853,A,2419.8647,N,08203.4327,W,2.8,138.6,220615,5.4,"
"##MN+00 00 55 0151 01820 4561 447220 205298 197"
"173.631262"
"#increment_net"
"$GPRMC,150857,A,2419.8623,N,08203.4305,W,2.7,138.6,220615,5.4,"
"##MN-00 00 06 0152 01817 4566 447221 205296 197"
"173.631308"
"$GPRMC,150901,A,2419.8600,N,08203.4283,W,2.8,138.6,220615,5.4,"
"##MN-00 00 06 0153 01817 4570 447215 205295 197"
"173.631354"
"$GPRMC,150905,A,2419.8577,N,08203.4260,W,2.8,138.5,220615,5.4,"
"##MN-00 00 06 0154 01818 4575 447168 205292 197"
"173.6314"
"$GPRMC,150909,A,2419.8553,N,08203.4238,W,2.8,138.5,220615,5.4,"
"##MN-00 00 06 0155 01816 4580 447150 205290 197"
"173.631447"
"$GPRMC,150913,A,2419.8530,N,08203.4216,W,2.8,138.3,220615,5.4,"
"##MN-00 00 06 0157 01815 4584 447127 205287 197"
"173.631493"
"$GPRMC,150917,A,2419.8507,N,08203.4193,W,2.8,138.2,220615,5.4,"
"##MN-00 00 06 0158 01816 4589 447101 205286 197"
"173.631539"
"$GPRMC,150921,A,2419.8484,N,08203.4170,W,2.8,137.8,220615,5.4,"
"##MN+00 00 06 0159 01814 4594 447110 205285 197"
"173.631586"
"$GPRMC,150925,A,2419.8460,N,08203.4148,W,2.8,137.5,220615,5.4,"
"##MN+00 00 06 0160 01813 4599 447089 205283 197"
"173.631632"
"$GPRMC,150929,A,2419.8438,N,08203.4126,W,2.8,137.3,220615,5.4,"
"##MN+00 00 06 0161 01814 4603 447091 205282 197"
"173.631678"
"$GPRMC,150933,A,2419.8414,N,08203.4106,W,2.8,138.1,220615,5.4,"
"##MN-00 00 06 0163 01813 4608 447059 205279 197"
"173.631725"
"$GPRMC,150937,A,2419.8392,N,08203.4084,W,2.8,138.3,220615,5.4,"
"##MN-00 00 06 0164 01812 4613 447060 205279 197"
"173.631771"
"$GPRMC,150941,A,2419.8369,N,08203.4064,W,2.8,139.3,220615,5.4,"
"##MN+00 00 06 0165 01813 4618 447042 205274 197"
"173.631817"
"$GPRMC,150945,A,2419.8345,N,08203.4042,W,2.8,139.4,220615,5.4,"
"##MN+00 00 06 0166 01810 4622 447036 205272 197"
"173.631863"
"$GPRMC,150949,A,2419.8322,N,08203.4020,W,2.8,139.3,220615,5.4,"
"##MN+00 00 53 0167 01815 4627 447041 205272 197"
"173.63191"
"$GPRMC,150953,A,2419.8298,N,08203.3999,W,2.8,139.4,220615,5.4,"
"##MN-00 00 06 0168 01812 4631 447043 205271 197"
"173.631956"
"#increment_net"
"$GPRMC,150957,A,2419.8275,N,08203.3978,W,2.8,140.3,220615,5.4,"
"##MN-00 00 06 0170 01813 4636 447035 205269 197"
"173.632002"
"$GPRMC,151001,A,2419.8250,N,08203.3956,W,2.8,139.7,220615,5.4,"
"##MN-00 00 06 0171 01813 4641 447027 205268 197"
"173.632049"
"$GPRMC,151005,A,2419.8228,N,08203.3934,W,2.8,139.8,220615,5.4,"
"##MN-00 00 06 0172 01812 4645 447019 205266 197"
"173.632095"
"$GPRMC,151009,A,2419.8203,N,08203.3912,W,2.8,139.7,220615,5.4,"
"##MN-00 00 06 0173 01809 4650 447009 205264 197"
"173.632141"
"$GPRMC,151013,A,2419.8181,N,08203.3890,W,2.8,140.2,220615,5.4,"
"##MN-00 00 06 0175 01811 4654 447009 205263 197"
"173.632187"
"$GPRMC,151017,A,2419.8157,N,08203.3868,W,2.8,140.1,220615,5.4,"
"##MN-00 00 06 0176 01811 4659 447005 205261 197"
"173.632234"
"$GPRMC,151021,A,2419.8134,N,08203.3846,W,2.8,140.0,220615,5.4,"
"##MN-00 00 06 0177 01810 4664 447004 205259 197"
"173.632292"
"$GPRMC,151025,A,2419.8109,N,08203.3824,W,2.7,139.2,220615,5.4,"
"##MN-00 00 05 0178 01809 4668 447013 205260 197"
"173.632338"
"$GPRMC,151029,A,2419.8087,N,08203.3800,W,2.8,138.9,220615,5.4,"
"##MN-00 00 05 0179 01809 4672 447003 205259 197"
"173.632384"
"$GPRMC,151033,A,2419.8065,N,08203.3777,W,2.8,138.2,220615,5.4,"
"##MN+00 00 04 0181 01811 4677 447013 205259 197"
"173.632431"
"$GPRMC,151037,A,2419.8044,N,08203.3755,W,2.8,137.4,220615,5.4,"
"##MN+00 00 44 0182 01812 4681 447026 205259 197"
"173.632477"
"$GPRMC,151041,A,2419.8022,N,08203.3732,W,2.8,137.0,220615,5.4,"
"##MN+00 00 06 0183 01810 4686 447028 205259 197"
"173.632523"
"$GPRMC,151045,A,2419.7998,N,08203.3709,W,2.8,137.0,220615,5.4,"
"##MN+00 00 05 0184 01810 4690 447028 205258 197"
"173.632569"
"$GPRMC,151049,A,2419.7976,N,08203.3686,W,2.8,137.0,220615,5.4,"
"##MN+00 00 03 0186 01809 4695 447030 205258 197"
"173.632616"
"$GPRMC,151053,A,2419.7952,N,08203.3662,W,2.8,137.3,220615,5.4,"
"##MN+00 00 05 0187 01815 4699 447035 205256 197"
"173.632662"
"#increment_net"
"$GPRMC,151057,A,2419.7930,N,08203.3640,W,2.8,137.3,220615,5.4,"
"##MN-00 00 05 0188 01818 4703 447041 205252 197"
"173.632708"
"$GPRMC,151101,A,2419.7907,N,08203.3618,W,2.8,137.3,220615,5.4,"
"##MN-00 00 04 0189 01822 4708 447074 205247 197"
"173.632755"
"$GPRMC,151105,A,2419.7885,N,08203.3595,W,2.7,137.9,220615,5.4,"
"##MN-00 00 05 0191 01829 4712 447167 205250 197"
"173.632801"
"$GPRMC,151109,A,2419.7861,N,08203.3573,W,2.7,138.4,220615,5.4,"
"##MN-00 00 51 0192 01835 4716 447191 205253 197"
"173.632847"
"$GPRMC,151113,A,2419.7836,N,08203.3549,W,2.8,139.0,220615,5.4,"
"##MN-00 00 04 0194 01840 4721 447244 205261 197"
"173.632894"
"$GPRMC,151117,A,2419.7813,N,08203.3527,W,2.8,139.4,220615,5.4,"
"##MN-00 00 05 0195 01841 4725 447532 205337 197"
"173.63294"
"$GPRMC,151121,A,2419.7787,N,08203.3503,W,2.9,140.3,220615,5.4,"
"##MN-00 00 04 0197 01840 4729 447790 205381 197"
"173.632986"
"$GPRMC,151125,A,2419.7762,N,08203.3480,W,2.9,140.4,220615,5.4,"
"##MN-00 00 48 0198 01843 4734 447829 205386 197"
"173.633032"
"$GPRMC,151129,A,2419.7737,N,08203.3457,W,2.9,140.3,220615,5.4,"
"##MN-00 00 05 0200 01841 4738 447859 205392 197"
"173.633079"
"$GPRMC,151133,A,2419.7711,N,08203.3434,W,2.9,140.5,220615,5.4,"
"##MN-00 00 05 0202 01840 4742 447857 205399 197"
"173.633125"
"$GPRMC,151137,A,2419.7686,N,08203.3410,W,2.9,140.9,220615,5.4,"
"##MN-00 00 05 0203 01839 4747 447834 205392 197"
"173.633171"
"$GPRMC,151141,A,2419.7662,N,08203.3386,W,2.9,140.5,220615,5.4,"
"##MN-00 00 05 0205 01839 4751 447785 205378 197"
"173.633218"
"$GPRMC,151146,A,2419.7629,N,08203.3356,W,3.0,140.1,220615,5.4,"
"##MN-00 00 05 0207 01835 4755 447567 205324 197"
"173.633264"
"$GPRMC,151150,A,2419.7604,N,08203.3333,W,3.0,139.5,220615,5.4,"
"##MN-00 00 05 0208 01835 4759 447301 205275 197"
"173.63331"
"$GPRMC,151154,A,2419.7578,N,08203.3308,W,3.0,139.3,220615,5.4,"
"##MN-00 00 05 0210 01831 4763 447234 205262 197"
"173.633356"
"$GPRMC,151158,A,2419.7553,N,08203.3284,W,3.0,138.9,220615,5.4,"
"##MN-00 00 04 0211 01829 4767 447203 205255 197"
"173.633403"
"$GPRMC,151202,A,2419.7528,N,08203.3259,W,3.0,138.4,220615,5.4,"
"##MN-00 00 05 0213 01824 4772 447175 205253 197"
"173.633449"
"$GPRMC,151206,A,2419.7503,N,08203.3236,W,3.0,138.1,220615,5.4,"
"##MN-00 00 05 0214 01824 4776 447154 205248 197"
"173.633495"
"$GPRMC,151210,A,2419.7477,N,08203.3215,W,3.0,138.3,220615,5.4,"
"##MN-00 00 05 0216 01822 4780 447142 205247 197"
"173.633542"
"$GPRMC,151214,A,2419.7451,N,08203.3191,W,3.0,138.2,220615,5.4,"
"##MN-00 00 05 0217 01818 4784 447138 205244 197"
"173.633588"
"$GPRMC,151218,A,2419.7426,N,08203.3167,W,3.0,138.5,220615,5.4,"
"##MN-00 00 42 0219 01816 4788 447123 205242 197"
"173.633634"
"$GPRMC,151222,A,2419.7401,N,08203.3142,W,3.0,138.1,220615,5.4,"
"##MN-00 00 51 0220 01814 4792 447102 205237 197"
"173.633681"
"$GPRMC,151226,A,2419.7375,N,08203.3118,W,3.1,138.6,220615,5.4,"
"##MN-00 00 04 0222 01810 4796 447085 205234 197"
"173.633727"
"$GPRMC,151230,A,2419.7350,N,08203.3097,W,3.0,138.7,220615,5.4,"
"##MN-00 00 49 0224 01808 4800 447070 205232 197"
"173.633773"
"$GPRMC,151234,A,2419.7323,N,08203.3075,W,3.0,138.8,220615,5.4,"
"##MN-00 00 06 0225 01804 4805 447063 205231 197"
"173.633819"
"$GPRMC,151238,A,2419.7298,N,08203.3053,W,3.0,139.0,220615,5.4,"
"##MN-00 00 05 0227 01803 4808 447054 205229 197"
"173.633866"
"$GPRMC,151242,A,2419.7273,N,08203.3031,W,3.0,139.6,220615,5.4,"
"##MN-00 00 05 0228 01798 4812 447045 205229 197"
"173.633912"
"$GPRMC,151246,A,2419.7249,N,08203.3008,W,3.0,140.5,220615,5.4,"
"##MN-00 00 05 0230 01798 4816 447027 205223 197"
"173.633958"
"$GPRMC,151250,A,2419.7224,N,08203.2986,W,2.9,140.6,220615,5.4,"
"##MN-00 00 05 0231 01795 4820 446970 205215 197"
"173.634005"
"$GPRMC,151254,A,2419.7198,N,08203.2962,W,2.9,140.3,220615,5.4,"
"##MN-00 00 05 0233 01792 4824 446910 205210 197"
"173.634051"
"$GPRMC,151258,A,2419.7174,N,08203.2938,W,2.9,139.6,220615,5.4,"
"##MN-00 00 04 0234 01790 4828 446841 205205 197"
"173.634097"
"$GPRMC,151302,A,2419.7150,N,08203.2915,W,2.9,139.4,220615,5.4,"
"##MN-00 00 05 0236 01785 4832 446678 205190 197"
"173.634144"
"$GPRMC,151306,A,2419.7124,N,08203.2890,W,3.0,139.1,220615,5.4,"
"##MN-00 00 05 0237 01785 4836 446598 205186 197"
"173.63419"
"$GPRMC,151310,A,2419.7097,N,08203.2864,W,3.0,139.3,220615,5.4,"
"##MN-00 00 05 0239 01779 4840 446490 205175 197"
"173.634236"
"$GPRMC,151314,A,2419.7072,N,08203.2839,W,3.0,139.2,220615,5.4,"
"##MN-00 00 05 0240 01776 4843 446449 205174 197"
"173.634282"
"$GPRMC,151318,A,2419.7045,N,08203.2813,W,3.0,138.8,220615,5.4,"
"##MN-00 00 05 0242 01773 4847 446423 205176 197"
"173.634329"
"$GPRMC,151322,A,2419.7019,N,08203.2789,W,3.0,138.4,220615,5.4,"
"##MN-00 00 04 0243 01768 4851 446371 205174 197"
"173.634375"
"$GPRMC,151326,A,2419.6993,N,08203.2764,W,3.0,138.9,220615,5.4,"
"##MN-00 00 05 0245 01765 4856 446296 205177 197"
"173.634421"
"$GPRMC,151330,A,2419.6969,N,08203.2740,W,3.0,138.8,220615,5.4,"
"##MN-00 00 05 0246 01762 4859 446285 205195 197"
"173.634468"
"$GPRMC,151334,A,2419.6945,N,08203.2716,W,3.0,138.1,220615,5.4,"
"##MN-00 00 05 0248 01761 4863 446303 205210 197"
"173.634514"
"$GPRMC,151338,A,2419.6921,N,08203.2692,W,2.9,138.3,220615,5.4,"
"##MN-00 00 05 0249 01759 4867 446315 205227 197"
"173.63456"
"$GPRMC,151342,A,2419.6897,N,08203.2671,W,2.9,138.5,220615,5.4,"
"##MN-00 00 05 0251 01756 4871 446303 205244 197"
"173.634606"
"$GPRMC,151346,A,2419.6872,N,08203.2647,W,2.9,138.6,220615,5.4,"
"##MN-00 00 05 0252 01751 4874 446235 205248 197"
"173.634653"
"$GPRMC,151350,A,2419.6848,N,08203.2625,W,2.9,138.7,220615,5.4,"
"##MN-00 00 05 0254 01748 4879 446117 205237 197"
"173.634699"
"$GPRMC,151354,A,2419.6823,N,08203.2603,W,2.9,138.5,220615,5.4,"
"##MN-00 00 05 0255 01746 4882 445928 205203 197"
"173.634745"
"$GPRMC,151358,A,2419.6798,N,08203.2578,W,2.9,138.8,220615,5.4,"
"##MN-00 00 05 0257 01741 4886 445711 205169 197"
"173.634792"
"$GPRMC,151402,A,2419.6774,N,08203.2555,W,2.9,139.5,220615,5.4,"
"##MN-00 00 05 0258 01738 4890 445567 205151 197"
"173.634838"
"$GPRMC,151406,A,2419.6750,N,08203.2533,W,2.9,139.5,220615,5.4,"
"##MN-00 00 05 0260 01735 4893 445474 205136 197"
"173.634884"
"$GPRMC,151410,A,2419.6725,N,08203.2510,W,2.9,140.0,220615,5.4,"
"##MN-00 00 05 0261 01729 4898 445408 205118 197"
"173.634931"
"$GPRMC,151414,A,2419.6700,N,08203.2488,W,2.9,139.9,220615,5.4,"
"##MN-00 00 05 0263 01728 4901 445322 205107 197"
"173.634977"
"$GPRMC,151418,A,2419.6673,N,08203.2468,W,3.0,139.6,220615,5.4,"
"##MN-00 00 05 0264 01726 4905 445291 205097 197"
"173.635023"
"$GPRMC,151422,A,2419.6648,N,08203.2445,W,2.9,140.0,220615,5.4,"
"##MN-00 00 05 0266 01720 4908 445234 205088 197"
"173.635069"
"$GPRMC,151426,A,2419.6622,N,08203.2421,W,3.0,139.8,220615,5.4,"
"##MN-00 00 05 0267 01716 4912 445202 205082 197"
"173.635116"
"$GPRMC,151430,A,2419.6596,N,08203.2397,W,3.0,139.7,220615,5.4,"
"##MN-00 00 05 0269 01713 4916 445146 205071 197"
"173.635162"
"$GPRMC,151434,A,2419.6570,N,08203.2373,W,3.0,139.4,220615,5.4,"
"##MN-00 00 05 0270 01708 4920 445094 205063 197"
"173.635208"
"$GPRMC,151438,A,2419.6544,N,08203.2348,W,3.0,139.4,220615,5.4,"
"##MN-00 00 05 0272 01705 4923 445043 205056 197"
"173.635255"
"$GPRMC,151442,A,2419.6519,N,08203.2324,W,3.0,139.0,220615,5.4,"
"##MN-00 00 05 0273 01700 4927 444965 205047 197"
"173.635301"
"$GPRMC,151446,A,2419.6494,N,08203.2297,W,3.0,138.5,220615,5.4,"
"##MN-00 00 05 0275 01702 4931 444918 205040 197"
"173.635347"
"$GPRMC,151450,A,2419.6469,N,08203.2275,W,3.0,138.3,220615,5.4,"
"##MN-00 00 05 0276 01695 4935 444850 205033 197"
"173.635405"
"$GPRMC,151454,A,2419.6444,N,08203.2249,W,3.0,138.1,220615,5.4,"
"##MN-00 00 05 0278 01694 4938 444763 205020 197"
"173.635451"
"$GPRMC,151458,A,2419.6420,N,08203.2222,W,3.0,137.6,220615,5.4,"
"##MN-00 00 05 0279 01690 4942 444687 205018 197"
"173.635498"
"$GPRMC,151502,A,2419.6394,N,08203.2200,W,3.1,137.5,220615,5.4,"
"##MN-00 00 05 0281 01685 4945 444623 205013 197"
"173.635544"
"$GPRMC,151506,A,2419.6368,N,08203.2175,W,3.1,137.9,220615,5.4,"
"##MN-00 00 05 0282 01681 4949 444501 204990 197"
"173.63559"
"$GPRMC,151510,A,2419.6343,N,08203.2147,W,3.1,138.1,220615,5.4,"
"##MN-00 00 05 0284 01679 4953 444361 204983 197"
"173.635637"
"$GPRMC,151514,A,2419.6317,N,08203.2122,W,3.1,138.5,220615,5.4,"
"##MN-00 00 05 0285 01675 4956 444185 204975 197"
"173.635683"
"$GPRMC,151518,A,2419.6292,N,08203.2100,W,3.1,139.2,220615,5.4,"
"##MN-00 00 05 0286 01673 4960 443911 204967 197"
"173.635729"
"$GPRMC,151522,A,2419.6265,N,08203.2073,W,3.0,139.1,220615,5.4,"
"##MN-00 00 05 0288 01669 4964 443534 204968 197"
"173.635775"
"$GPRMC,151526,A,2419.6241,N,08203.2049,W,3.0,139.3,220615,5.4,"
"##MN-00 00 05 0289 01664 4967 443290 204978 197"
"173.635822"
"$GPRMC,151530,A,2419.6216,N,08203.2027,W,3.0,139.6,220615,5.4,"
"##MN-00 00 05 0291 01661 4970 443195 204996 197"
"173.635868"
"$GPRMC,151534,A,2419.6190,N,08203.2004,W,3.0,139.9,220615,5.4,"
"##MN-00 00 05 0292 01659 4974 443158 205001 197"
"173.635914"
"$GPRMC,151538,A,2419.6165,N,08203.1982,W,3.0,140.4,220615,5.4,"
"##MN-00 00 05 0293 01654 4978 443121 205008 197"
"173.635961"
"$GPRMC,151542,A,2419.6140,N,08203.1958,W,3.0,140.5,220615,5.4,"
"##MN-00 00 05 0295 01654 4981 443098 205026 197"
"173.636007"
"$GPRMC,151546,A,2419.6112,N,08203.1934,W,3.0,140.5,220615,5.4,"
"##MN-00 00 05 0296 01648 4985 443086 205036 197"
"173.636053"
"$GPRMC,151550,A,2419.6086,N,08203.1911,W,3.1,140.4,220615,5.4,"
"##MN-00 00 05 0298 01647 4988 443038 205053 197"
"173.6361"
"$GPRMC,151554,A,2419.6058,N,08203.1886,W,3.1,140.4,220615,5.4,"
"##MN-00 00 05 0299 01642 4992 442978 205062 197"
"173.636146"
"$GPRMC,151558,A,2419.6031,N,08203.1862,W,3.1,140.6,220615,5.4,"
"##MN-00 00 05 0301 01640 4996 442946 205067 197"
"173.636192"
"$GPRMC,151602,A,2419.6004,N,08203.1835,W,3.1,140.5,220615,5.4,"
"##MN-00 00 05 0302 01634 4999 442897 205072 197"
"173.636238"
"$GPRMC,151606,A,2419.5977,N,08203.1813,W,3.1,139.9,220615,5.4,"
"##MN-00 00 05 0303 01632 5003 442840 205077 197"
"173.636285"
"$GPRMC,151611,A,2419.5945,N,08203.1777,W,3.1,139.6,220615,5.4,"
"##MN-00 00 05 0305 01629 5006 442800 205083 197"
"173.636331"
"$GPRMC,151615,A,2419.5918,N,08203.1750,W,3.2,138.8,220615,5.4,"
"##MN-00 00 05 0306 01626 5010 442735 205088 197"
"173.636377"
"$GPRMC,151618,A,2419.5898,N,08203.1732,W,3.2,139.1,220615,5.4,"
"##MN-00 00 05 0308 01620 5013 442661 205116 197"
"173.636424"
"$GPRMC,151622,A,2419.5872,N,08203.1707,W,3.2,138.5,220615,5.4,"
"##MN-00 00 05 0309 01616 5017 442590 205145 197"
"173.63647"
"$GPRMC,151626,A,2419.5845,N,08203.1679,W,3.2,138.4,220615,5.4,"
"##MN-00 00 05 0310 01612 5020 442534 205165 197"
"173.636516"
"$GPRMC,151631,A,2419.5811,N,08203.1650,W,3.2,138.0,220615,5.4,"
"##MN-00 00 05 0312 01604 5024 442499 205176 197"
"173.636563"
"$GPRMC,151635,A,2419.5784,N,08203.1624,W,3.2,138.0,220615,5.4,"
"##MN-00 00 05 0313 01602 5027 442472 205179 197"
"173.636609"
"$GPRMC,151639,A,2419.5758,N,08203.1599,W,3.1,138.7,220615,5.4,"
"##MN-00 00 05 0315 01599 5031 442452 205178 197"
"173.636655"
"$GPRMC,151643,A,2419.5732,N,08203.1578,W,3.1,138.5,220615,5.4,"
"##MN-00 00 05 0316 01596 5034 442424 205175 197"
"173.636701"
"$GPRMC,151647,A,2419.5705,N,08203.1556,W,3.1,138.5,220615,5.4,"
"##MN-00 00 05 0318 01593 5038 442407 205172 197"
"173.636748"
"$GPRMC,151651,A,2419.5679,N,08203.1531,W,3.1,139.2,220615,5.4,"
"##MN-00 00 05 0319 01588 5041 442375 205168 197"
"173.636794"
"$GPRMC,151655,A,2419.5653,N,08203.1505,W,3.1,140.2,220615,5.4,"
"##MN-00 00 05 0320 01585 5045 442353 205165 197"
"173.63684"
"$GPRMC,151659,A,2419.5627,N,08203.1482,W,3.1,141.1,220615,5.4,"
"##MN-00 00 05 0322 01582 5048 442310 205162 197"
"173.636887"
"$GPRMC,151703,A,2419.5598,N,08203.1457,W,3.1,141.5,220615,5.4,"
"##MN-00 00 05 0323 01574 5052 442261 205142 197"
"173.636933"
"$GPRMC,151707,A,2419.5571,N,08203.1431,W,3.1,141.5,220615,5.4,"
"##MN-00 00 06 0325 01569 5055 442210 205133 197"
"173.636979"
"$GPRMC,151711,A,2419.5545,N,08203.1406,W,3.0,141.8,220615,5.4,"
"##MN-00 00 06 0326 01565 5058 442189 205129 197"
"173.637025"
"$GPRMC,151715,A,2419.5518,N,08203.1382,W,3.0,141.9,220615,5.4,"
"##MN-00 00 06 0328 01563 5062 442081 205112 197"
"173.637072"
"$GPRMC,151719,A,2419.5492,N,08203.1357,W,3.1,141.9,220615,5.4,"
"##MN-00 00 06 0329 01557 5065 442038 205102 197"
"173.637118"
"$GPRMC,151723,A,2419.5464,N,08203.1333,W,3.1,142.3,220615,5.4,"
"##MN-00 00 06 0331 01555 5069 441935 205072 197"
"173.637164"
"$GPRMC,151727,A,2419.5436,N,08203.1311,W,3.1,142.0,220615,5.4,"
"##MN-00 00 06 0332 01556 5072 441834 205056 197"
