" Tow: 10WM-A   RVWS/WS15161"
" Date: 22/06/2015"
" Temperature Probe #  4762    Conductivity Probe #  710"
" Pressure Probe #  159"
" Flow Meter Calibration  4.71 (m/count)  "
"173.591157"
"$GPRMC,141112,A,2422.9038,N,08205.3028,W,2.5,157.9,220615,5.4,"
"##MN-00 00 90 0005 01549 4657 456526 204893 198"
"173.591204"
"$GPRMC,141116,A,2422.9010,N,08205.3015,W,2.5,157.9,220615,5.4,"
"##MN-00 00 90 0006 01551 4662 441654 204832 198"
"173.59125"
"$GPRMC,141120,A,2422.8984,N,08205.3002,W,2.5,157.6,220615,5.4,"
"##MN-00 00 90 0007 01550 4666 441648 204831 198"
"173.591296"
"$GPRMC,141124,A,2422.8958,N,08205.2991,W,2.5,157.8,220615,5.4,"
"##MN-00 00 90 0008 01549 4672 441640 204831 198"
"173.591343"
"$GPRMC,141128,A,2422.8931,N,08205.2979,W,2.5,158.3,220615,5.4,"
"##MN-00 00 90 0009 01549 4677 441627 204829 198"
"173.591389"
"$GPRMC,141132,A,2422.8905,N,08205.2967,W,2.4,158.7,220615,5.4,"
"##MN-00 00 90 0010 01550 4681 441619 204828 198"
"173.591435"
"$GPRMC,141136,A,2422.8879,N,08205.2956,W,2.5,159.8,220615,5.4,"
"##MN-00 00 90 0011 01549 4686 441636 204831 198"
"173.591481"
"$GPRMC,141140,A,2422.8853,N,08205.2946,W,2.5,159.8,220615,5.4,"
"##MN-00 00 90 0012 01548 4691 441637 204833 198"
"173.591528"
"$GPRMC,141144,A,2422.8828,N,08205.2935,W,2.5,160.1,220615,5.4,"
"##MN-00 00 90 0013 01548 4696 441626 204831 198"
"173.591574"
"$GPRMC,141148,A,2422.8802,N,08205.2925,W,2.4,159.3,220615,5.4,"
"##MN-00 00 90 0014 01549 4701 441619 204829 198"
"173.59162"
"$GPRMC,141152,A,2422.8777,N,08205.2915,W,2.5,159.4,220615,5.4,"
"##MN-00 00 90 0015 01548 4705 441622 204830 198"
"173.591667"
"$GPRMC,141156,A,2422.8750,N,08205.2904,W,2.4,159.9,220615,5.4,"
"##MN-00 00 90 0016 01549 4710 441624 204832 198"
"173.591713"
"$GPRMC,141200,A,2422.8724,N,08205.2894,W,2.4,160.2,220615,5.4,"
"##MN-00 00 09 0016 01556 4715 441617 204831 198"
"173.591759"
"$GPRMC,141204,A,2422.8699,N,08205.2885,W,2.4,160.7,220615,5.4,"
"##MN-00 00 10 0017 01556 4720 441628 204833 198"
"173.591806"
"$GPRMC,141208,A,2422.8673,N,08205.2875,W,2.4,160.7,220615,5.4,"
"##MN-00 00 13 0018 01559 4725 441632 204834 198"
"173.591852"
"$GPRMC,141212,A,2422.8648,N,08205.2866,W,2.4,160.2,220615,5.4,"
"##MN-00 00 13 0019 01562 4729 441641 204834 198"
"173.591898"
"$GPRMC,141216,A,2422.8622,N,08205.2856,W,2.4,160.9,220615,5.4,"
"##MN-00 00 14 0020 01564 4734 441616 204829 198"
"173.591944"
"$GPRMC,141220,A,2422.8595,N,08205.2846,W,2.5,161.1,220615,5.4,"
"##MN-00 00 14 0020 01566 4739 441629 204830 198"
"173.591991"
"$GPRMC,141224,A,2422.8568,N,08205.2837,W,2.5,161.2,220615,5.4,"
"##MN-00 00 14 0021 01570 4743 441631 204828 198"
"173.592037"
"$GPRMC,141228,A,2422.8542,N,08205.2828,W,2.5,161.0,220615,5.4,"
"##MN-00 00 13 0022 01572 4748 441644 204827 198"
"173.592083"
"$GPRMC,141232,A,2422.8517,N,08205.2819,W,2.5,161.4,220615,5.4,"
"##MN-00 00 13 0023 01575 4752 441642 204826 198"
"173.59213"
"$GPRMC,141236,A,2422.8489,N,08205.2809,W,2.5,161.8,220615,5.4,"
"##MN-00 00 13 0024 01577 4757 441621 204821 198"
"173.592176"
"$GPRMC,141240,A,2422.8463,N,08205.2801,W,2.5,162.4,220615,5.4,"
"##MN-00 00 13 0025 01581 4761 441605 204819 198"
"173.592222"
"$GPRMC,141244,A,2422.8436,N,08205.2794,W,2.4,163.7,220615,5.4,"
"##MN-00 00 12 0026 01589 4766 441633 204821 198"
"173.592269"
"$GPRMC,141248,A,2422.8411,N,08205.2787,W,2.4,163.6,220615,5.4,"
"##MN-00 00 13 0027 01590 4771 441709 204822 198"
"173.592315"
"$GPRMC,141252,A,2422.8385,N,08205.2778,W,2.5,164.0,220615,5.4,"
"##MN-00 00 12 0028 01591 4775 441719 204821 198"
"173.592361"
"$GPRMC,141256,A,2422.8360,N,08205.2769,W,2.5,163.9,220615,5.4,"
"##MN-00 00 12 0029 01593 4779 441789 204821 198"
"173.592407"
"$GPRMC,141300,A,2422.8334,N,08205.2761,W,2.5,164.2,220615,5.4,"
"##MN-00 00 12 0030 01598 4784 441859 204815 197"
"173.592454"
"$GPRMC,141304,A,2422.8307,N,08205.2754,W,2.4,164.8,220615,5.4,"
"##MN-00 00 13 0031 01601 4789 441914 204803 197"
"173.5925"
"$GPRMC,141308,A,2422.8281,N,08205.2745,W,2.5,165.1,220615,5.4,"
"##MN-00 00 14 0032 01604 4793 441966 204789 198"
"173.592546"
"$GPRMC,141312,A,2422.8255,N,08205.2737,W,2.5,164.9,220615,5.4,"
"##MN-00 00 13 0032 01606 4797 442074 204765 198"
"173.592604"
"$GPRMC,141316,A,2422.8228,N,08205.2731,W,2.4,165.7,220615,5.4,"
"##MN-00 00 13 0033 01611 4802 442143 204759 198"
"173.59265"
"$GPRMC,141320,A,2422.8203,N,08205.2725,W,2.4,166.2,220615,5.4,"
"##MN-00 00 13 0034 01616 4806 442175 204755 197"
"173.592697"
"$GPRMC,141324,A,2422.8176,N,08205.2718,W,2.5,166.0,220615,5.4,"
"##MN-00 00 12 0035 01618 4810 442238 204748 198"
"173.592743"
"$GPRMC,141328,A,2422.8150,N,08205.2710,W,2.4,166.0,220615,5.4,"
"##MN-00 00 12 0036 01621 4815 442272 204743 198"
"173.592789"
"$GPRMC,141332,A,2422.8123,N,08205.2703,W,2.5,165.5,220615,5.4,"
"##MN-00 00 12 0037 01624 4819 442308 204738 198"
"173.592836"
"$GPRMC,141336,A,2422.8096,N,08205.2695,W,2.4,165.7,220615,5.4,"
"##MN-00 00 12 0038 01626 4823 442334 204734 197"
"173.592882"
"$GPRMC,141340,A,2422.8069,N,08205.2687,W,2.4,166.1,220615,5.4,"
"##MN-00 00 12 0038 01628 4828 442354 204729 198"
"173.592928"
"$GPRMC,141344,A,2422.8042,N,08205.2679,W,2.4,165.9,220615,5.4,"
"##MN-00 00 13 0039 01634 4832 442371 204724 198"
"173.592975"
"$GPRMC,141348,A,2422.8015,N,08205.2672,W,2.4,165.6,220615,5.4,"
"##MN-00 00 20 0040 01634 4836 442380 204722 197"
"173.593021"
"$GPRMC,141352,A,2422.7988,N,08205.2663,W,2.4,165.0,220615,5.4,"
"##MN-00 00 20 0041 01638 4841 442389 204719 198"
"173.593067"
"$GPRMC,141356,A,2422.7961,N,08205.2654,W,2.5,165.3,220615,5.4,"
"##MN-00 00 20 0042 01640 4845 442395 204715 198"
"173.593113"
"$GPRMC,141400,A,2422.7934,N,08205.2646,W,2.5,165.2,220615,5.4,"
"##MN-00 00 20 0043 01644 4849 442403 204712 198"
"173.59316"
"$GPRMC,141404,A,2422.7907,N,08205.2639,W,2.5,165.0,220615,5.4,"
"##MN-00 00 20 0044 01648 4853 442417 204710 197"
"173.593206"
"$GPRMC,141408,A,2422.7879,N,08205.2632,W,2.5,165.3,220615,5.4,"
"##MN-00 00 20 0045 01650 4857 442420 204710 198"
"173.593252"
"$GPRMC,141412,A,2422.7853,N,08205.2624,W,2.5,165.3,220615,5.4,"
"##MN-00 00 20 0046 01657 4862 442430 204706 198"
"173.593299"
"$GPRMC,141417,A,2422.7820,N,08205.2614,W,2.5,165.1,220615,5.4,"
"##MN-00 00 20 0047 01656 4866 442431 204704 198"
"173.593345"
"$GPRMC,141421,A,2422.7791,N,08205.2606,W,2.5,164.8,220615,5.4,"
"##MN-00 00 20 0047 01658 4870 442432 204702 198"
"173.593391"
"$GPRMC,141425,A,2422.7766,N,08205.2598,W,2.5,164.8,220615,5.4,"
"##MN-00 00 20 0048 01665 4874 442433 204699 198"
"173.593438"
"$GPRMC,141429,A,2422.7738,N,08205.2590,W,2.5,164.4,220615,5.4,"
"##MN-00 00 20 0049 01668 4878 442445 204696 198"
"173.593484"
"$GPRMC,141433,A,2422.7711,N,08205.2582,W,2.5,164.3,220615,5.4,"
"##MN-00 00 19 0050 01673 4882 442461 204694 197"
"173.59353"
"$GPRMC,141437,A,2422.7684,N,08205.2573,W,2.5,164.7,220615,5.4,"
"##MN-00 00 19 0051 01672 4887 442476 204693 198"
"173.593576"
"$GPRMC,141441,A,2422.7657,N,08205.2564,W,2.5,164.8,220615,5.4,"
"##MN-00 00 20 0052 01676 4890 442493 204693 197"
"173.593623"
"$GPRMC,141445,A,2422.7630,N,08205.2556,W,2.5,164.7,220615,5.4,"
"##MN-00 00 20 0053 01683 4894 442510 204693 197"
"173.593669"
"$GPRMC,141449,A,2422.7603,N,08205.2549,W,2.5,164.3,220615,5.4,"
"##MN-00 00 19 0054 01684 4899 442516 204692 198"
"173.593715"
"$GPRMC,141453,A,2422.7576,N,08205.2541,W,2.5,164.4,220615,5.4,"
"##MN-00 00 19 0055 01685 4903 442521 204690 198"
"173.593762"
"$GPRMC,141457,A,2422.7549,N,08205.2532,W,2.5,164.0,220615,5.4,"
"##MN-00 00 19 0056 01689 4907 442527 204691 198"
"173.593808"
"$GPRMC,141501,A,2422.7521,N,08205.2524,W,2.5,164.2,220615,5.4,"
"##MN-00 00 19 0057 01695 4911 442537 204691 198"
"173.593854"
"$GPRMC,141505,A,2422.7495,N,08205.2514,W,2.5,164.5,220615,5.4,"
"##MN-00 00 19 0057 01697 4915 442577 204699 198"
"173.5939"
"$GPRMC,141509,A,2422.7468,N,08205.2505,W,2.5,164.4,220615,5.4,"
"##MN-00 00 19 0058 01699 4919 442627 204707 198"
"173.593947"
"$GPRMC,141513,A,2422.7442,N,08205.2498,W,2.5,164.7,220615,5.4,"
"##MN-00 00 20 0059 01703 4922 442646 204709 197"
"173.593993"
"$GPRMC,141517,A,2422.7415,N,08205.2490,W,2.4,165.0,220615,5.4,"
"##MN-00 00 20 0060 01706 4927 442662 204711 198"
"173.594039"
"$GPRMC,141521,A,2422.7387,N,08205.2481,W,2.5,165.1,220615,5.4,"
"##MN-00 00 19 0061 01708 4931 442685 204712 197"
"173.594086"
"$GPRMC,141525,A,2422.7361,N,08205.2471,W,2.5,164.3,220615,5.4,"
"##MN-00 00 19 0062 01711 4935 442721 204716 197"
"173.594132"
"$GPRMC,141529,A,2422.7334,N,08205.2462,W,2.5,163.3,220615,5.4,"
"##MN-00 00 20 0063 01714 4938 442754 204713 198"
"173.594178"
"$GPRMC,141533,A,2422.7307,N,08205.2452,W,2.5,162.9,220615,5.4,"
"##MN-00 00 19 0063 01720 4942 442774 204714 198"
"173.594225"
"$GPRMC,141537,A,2422.7280,N,08205.2443,W,2.5,162.5,220615,5.4,"
"##MN-00 00 19 0064 01721 4946 442805 204722 198"
"173.594271"
"$GPRMC,141541,A,2422.7253,N,08205.2434,W,2.5,162.3,220615,5.4,"
"##MN-00 00 20 0065 01724 4950 442836 204724 197"
"173.594317"
"$GPRMC,141545,A,2422.7225,N,08205.2424,W,2.5,162.7,220615,5.4,"
"##MN-00 00 19 0066 01725 4953 442852 204724 197"
"173.594363"
"$GPRMC,141549,A,2422.7198,N,08205.2413,W,2.5,162.6,220615,5.4,"
"##MN-00 00 19 0067 01727 4957 442868 204722 198"
"173.59441"
"$GPRMC,141553,A,2422.7170,N,08205.2402,W,2.6,161.8,220615,5.4,"
"##MN-00 00 19 0068 01729 4961 442889 204723 198"
"173.594456"
"$GPRMC,141557,A,2422.7142,N,08205.2392,W,2.6,162.3,220615,5.4,"
"##MN-00 00 19 0069 01732 4965 442940 204729 198"
"173.594502"
"$GPRMC,141601,A,2422.7115,N,08205.2382,W,2.6,162.2,220615,5.4,"
"##MN-00 00 19 0070 01733 4969 443054 204744 198"
"173.594549"
"$GPRMC,141605,A,2422.7088,N,08205.2371,W,2.5,162.1,220615,5.4,"
"##MN-00 00 19 0071 01736 4972 443098 204749 198"
"173.594595"
"$GPRMC,141609,A,2422.7061,N,08205.2361,W,2.6,160.8,220615,5.4,"
"##MN-00 00 19 0072 01736 4976 443164 204753 197"
"173.594641"
"$GPRMC,141613,A,2422.7034,N,08205.2349,W,2.6,159.7,220615,5.4,"
"##MN-00 00 18 0073 01738 4980 443262 204766 197"
"173.594688"
"$GPRMC,141617,A,2422.7007,N,08205.2339,W,2.6,159.4,220615,5.4,"
"##MN-00 00 19 0074 01743 4984 443342 204782 198"
"173.594734"
"$GPRMC,141621,A,2422.6982,N,08205.2332,W,2.5,160.9,220615,5.4,"
"##MN-00 00 18 0075 01745 4987 443401 204794 198"
"173.59478"
"$GPRMC,141625,A,2422.6954,N,08205.2323,W,2.5,160.7,220615,5.4,"
"##MN-00 00 18 0076 01751 4991 443533 204821 198"
"173.594826"
"$GPRMC,141629,A,2422.6928,N,08205.2311,W,2.5,159.9,220615,5.4,"
"##MN-00 00 18 0077 01750 4995 443735 204847 198"
"173.594873"
"$GPRMC,141633,A,2422.6902,N,08205.2300,W,2.5,159.6,220615,5.4,"
"##MN-00 00 18 0077 01754 4999 443814 204858 198"
"173.594919"
"$GPRMC,141637,A,2422.6877,N,08205.2288,W,2.5,158.5,220615,5.4,"
"##MN-00 00 18 0078 01757 5002 443940 204881 198"
"173.594965"
"$GPRMC,141641,A,2422.6849,N,08205.2278,W,2.5,157.8,220615,5.4,"
"##MN-00 00 18 0079 01757 5006 443984 204888 198"
"173.595012"
"$GPRMC,141645,A,2422.6823,N,08205.2266,W,2.5,157.9,220615,5.4,"
"##MN-00 00 18 0080 01759 5010 444038 204898 198"
"173.595058"
"$GPRMC,141649,A,2422.6796,N,08205.2256,W,2.5,158.4,220615,5.4,"
"##MN-00 00 18 0081 01764 5014 444072 204903 197"
"173.595104"
"$GPRMC,141653,A,2422.6772,N,08205.2244,W,2.5,157.5,220615,5.4,"
"##MN-00 00 18 0082 01768 5017 444088 204901 198"
"173.59515"
"$GPRMC,141657,A,2422.6750,N,08205.2234,W,2.5,156.8,220615,5.4,"
"##MN-00 00 18 0083 01774 5020 444120 204908 198"
"173.595197"
"$GPRMC,141701,A,2422.6720,N,08205.2218,W,2.5,156.5,220615,5.4,"
"##MN-00 00 18 0084 01774 5024 444144 204912 198"
"173.595243"
"$GPRMC,141705,A,2422.6696,N,08205.2206,W,2.5,156.6,220615,5.4,"
"##MN-00 00 17 0085 01779 5028 444176 204913 198"
"173.595289"
"$GPRMC,141709,A,2422.6671,N,08205.2193,W,2.5,156.5,220615,5.4,"
"##MN-00 00 16 0086 01781 5031 444207 204918 198"
"173.595336"
"$GPRMC,141713,A,2422.6644,N,08205.2180,W,2.5,156.9,220615,5.4,"
"##MN-00 00 16 0087 01782 5034 444243 204926 198"
"173.595382"
"$GPRMC,141717,A,2422.6618,N,08205.2167,W,2.6,156.5,220615,5.4,"
"##MN-00 00 16 0088 01787 5038 444307 204941 198"
"173.595428"
"$GPRMC,141721,A,2422.6592,N,08205.2158,W,2.6,156.1,220615,5.4,"
"##MN-00 00 17 0088 01790 5042 444433 204965 197"
"173.595475"
"$GPRMC,141725,A,2422.6566,N,08205.2144,W,2.6,155.9,220615,5.4,"
"##MN-00 00 18 0089 01793 5045 444517 204981 198"
"173.595521"
"$GPRMC,141729,A,2422.6541,N,08205.2131,W,2.5,155.3,220615,5.4,"
"##MN-00 00 18 0090 01799 5048 444651 204994 198"
"173.595567"
"$GPRMC,141733,A,2422.6516,N,08205.2119,W,2.5,155.2,220615,5.4,"
"##MN-00 00 13 0091 01800 5052 444866 205029 197"
"173.595613"
"$GPRMC,141737,A,2422.6490,N,08205.2106,W,2.6,154.8,220615,5.4,"
"##MN-00 00 18 0092 01802 5055 445140 205068 198"
"173.59566"
"$GPRMC,141741,A,2422.6465,N,08205.2093,W,2.6,153.9,220615,5.4,"
"##MN-00 00 18 0093 01804 5059 445289 205087 198"
"173.595706"
"$GPRMC,141745,A,2422.6437,N,08205.2079,W,2.5,153.7,220615,5.4,"
"##MN-00 00 12 0094 01807 5062 445362 205096 198"
"173.595752"
"$GPRMC,141749,A,2422.6411,N,08205.2066,W,2.5,154.1,220615,5.4,"
"##MN-00 00 18 0095 01807 5065 445400 205089 197"
"173.595799"
"$GPRMC,141753,A,2422.6385,N,08205.2052,W,2.5,154.4,220615,5.4,"
"##MN-00 00 18 0096 01805 5069 445410 205081 198"
"173.595856"
"$GPRMC,141757,A,2422.6359,N,08205.2038,W,2.5,154.7,220615,5.4,"
"##MN-00 00 18 0097 01804 5072 445387 205099 197"
"173.595903"
"$GPRMC,141801,A,2422.6330,N,08205.2022,W,2.5,154.2,220615,5.4,"
"##MN-00 00 18 0098 01804 5075 445380 205099 198"
"173.595949"
"$GPRMC,141805,A,2422.6306,N,08205.2007,W,2.5,153.9,220615,5.4,"
"##MN+00 00 18 0099 01804 5079 445353 205097 198"
"173.595995"
"$GPRMC,141809,A,2422.6281,N,08205.1992,W,2.5,153.4,220615,5.4,"
"##MN+00 00 18 0100 01806 5082 445337 205097 198"
"173.596042"
"$GPRMC,141813,A,2422.6256,N,08205.1976,W,2.5,152.9,220615,5.4,"
"##MN+00 00 18 0101 01804 5085 445327 205096 198"
"173.596088"
"$GPRMC,141817,A,2422.6232,N,08205.1962,W,2.5,152.7,220615,5.4,"
"##MN+00 00 18 0102 01804 5088 445321 205095 198"
"173.596134"
"$GPRMC,141821,A,2422.6207,N,08205.1947,W,2.5,153.0,220615,5.4,"
"##MN+00 00 19 0103 01802 5092 445291 205092 198"
"173.596181"
"$GPRMC,141825,A,2422.6182,N,08205.1932,W,2.5,153.2,220615,5.4,"
"##MN+00 00 19 0104 01807 5095 445266 205088 198"
"173.596227"
"$GPRMC,141830,A,2422.6151,N,08205.1914,W,2.5,152.5,220615,5.4,"
"##MN-00 00 19 0105 01806 5098 445314 205092 198"
"173.596273"
"#increment_net"
"$GPRMC,141833,A,2422.6133,N,08205.1904,W,2.5,152.7,220615,5.4,"
"##MN-00 00 19 0106 01807 5101 445345 205096 198"
"173.596319"
"$GPRMC,141838,A,2422.6100,N,08205.1884,W,2.5,151.9,220615,5.4,"
"##MN-00 00 20 0107 01809 5104 445351 205097 198"
"173.596366"
"$GPRMC,141841,A,2422.6082,N,08205.1872,W,2.5,152.0,220615,5.4,"
"##MN-00 00 20 0108 01807 5107 445344 205097 198"
"173.596412"
"$GPRMC,141845,A,2422.6055,N,08205.1857,W,2.5,152.0,220615,5.4,"
"##MN-00 00 20 0109 01807 5111 445325 205095 198"
"173.596458"
"$GPRMC,141850,A,2422.6025,N,08205.1839,W,2.5,151.5,220615,5.4,"
"##MN-00 00 20 0110 01806 5114 445318 205094 198"
"173.596505"
"$GPRMC,141854,A,2422.6000,N,08205.1826,W,2.5,151.8,220615,5.4,"
"##MN-00 00 44 0111 01806 5117 445340 205096 198"
"173.596551"
"$GPRMC,141858,A,2422.5976,N,08205.1812,W,2.5,152.4,220615,5.4,"
"##MN-00 00 18 0112 01808 5120 445362 205097 198"
"173.596597"
"$GPRMC,141902,A,2422.5950,N,08205.1799,W,2.5,152.5,220615,5.4,"
"##MN-00 00 17 0113 01806 5123 445369 205098 198"
"173.596644"
"$GPRMC,141906,A,2422.5925,N,08205.1785,W,2.5,152.0,220615,5.4,"
"##MN-00 00 40 0114 01805 5126 445354 205097 198"
"173.59669"
"$GPRMC,141910,A,2422.5900,N,08205.1770,W,2.5,152.4,220615,5.4,"
"##MN-00 00 45 0115 01806 5129 445345 205096 198"
"173.596736"
"$GPRMC,141914,A,2422.5876,N,08205.1755,W,2.5,153.1,220615,5.4,"
"##MN-00 00 19 0116 01805 5132 445326 205096 198"
"173.596782"
"$GPRMC,141918,A,2422.5848,N,08205.1741,W,2.5,153.3,220615,5.4,"
"##MN-00 00 45 0117 01807 5135 445320 205094 198"
"173.596829"
"$GPRMC,141922,A,2422.5824,N,08205.1728,W,2.5,153.1,220615,5.4,"
"##MN-00 00 42 0118 01806 5138 445327 205094 198"
"173.596875"
"$GPRMC,141926,A,2422.5798,N,08205.1715,W,2.5,153.2,220615,5.4,"
"##MN+00 00 45 0120 01805 5141 445340 205095 198"
"173.596921"
"$GPRMC,141930,A,2422.5775,N,08205.1701,W,2.5,153.3,220615,5.4,"
"##MN+00 00 22 0121 01805 5144 445364 205096 198"
"173.596968"
"$GPRMC,141934,A,2422.5747,N,08205.1686,W,2.5,153.8,220615,5.4,"
"##MN+00 00 18 0122 01802 5147 445366 205097 198"
"173.597014"
"$GPRMC,141938,A,2422.5721,N,08205.1672,W,2.5,154.3,220615,5.4,"
"##MN-00 00 20 0123 01806 5150 445375 205097 198"
"173.59706"
"$GPRMC,141942,A,2422.5697,N,08205.1660,W,2.5,154.4,220615,5.4,"
"##MN+00 00 19 0124 01805 5153 445370 205098 198"
"173.597106"
"$GPRMC,141946,A,2422.5671,N,08205.1646,W,2.5,153.9,220615,5.4,"
"##MN+00 00 18 0125 01806 5156 445381 205098 198"
"173.597153"
"$GPRMC,141950,A,2422.5647,N,08205.1632,W,2.5,153.3,220615,5.4,"
"##MN+00 00 19 0126 01806 5159 445403 205101 198"
"173.597199"
"#increment_net"
"$GPRMC,141954,A,2422.5623,N,08205.1619,W,2.5,152.5,220615,5.4,"
"##MN-00 00 18 0127 01804 5162 445424 205103 197"
"173.597245"
"$GPRMC,141958,A,2422.5598,N,08205.1605,W,2.5,152.5,220615,5.4,"
"##MN-00 00 18 0128 01804 5164 445415 205103 198"
"173.597292"
"$GPRMC,142002,A,2422.5573,N,08205.1590,W,2.5,152.2,220615,5.4,"
"##MN-00 00 18 0129 01803 5167 445406 205102 198"
"173.597338"
"$GPRMC,142006,A,2422.5547,N,08205.1576,W,2.5,152.9,220615,5.4,"
"##MN-00 00 18 0130 01802 5170 445404 205101 198"
"173.597384"
"$GPRMC,142010,A,2422.5520,N,08205.1561,W,2.5,153.5,220615,5.4,"
"##MN-00 00 18 0131 01801 5173 445394 205100 198"
"173.597431"
"$GPRMC,142014,A,2422.5493,N,08205.1547,W,2.5,154.3,220615,5.4,"
"##MN-00 00 18 0132 01799 5176 445369 205098 197"
"173.597477"
"$GPRMC,142018,A,2422.5469,N,08205.1534,W,2.5,154.6,220615,5.4,"
"##MN-00 00 18 0133 01800 5179 445362 205095 197"
"173.597523"
"$GPRMC,142022,A,2422.5444,N,08205.1523,W,2.5,154.2,220615,5.4,"
"##MN-00 00 18 0134 01803 5182 445365 205096 198"
"173.597569"
"$GPRMC,142026,A,2422.5421,N,08205.1509,W,2.5,153.6,220615,5.4,"
"##MN-00 00 17 0135 01802 5185 445353 205094 198"
"173.597616"
"$GPRMC,142030,A,2422.5396,N,08205.1494,W,2.5,154.0,220615,5.4,"
"##MN-00 00 18 0136 01799 5188 445346 205092 198"
"173.597662"
"$GPRMC,142034,A,2422.5367,N,08205.1478,W,2.5,154.1,220615,5.4,"
"##MN+00 00 18 0137 01801 5191 445347 205093 197"
"173.597708"
"$GPRMC,142038,A,2422.5345,N,08205.1465,W,2.5,153.9,220615,5.4,"
"##MN+00 00 18 0138 01800 5193 445354 205094 198"
"173.597755"
"$GPRMC,142042,A,2422.5316,N,08205.1449,W,2.5,153.1,220615,5.4,"
"##MN+00 00 18 0139 01801 5196 445352 205093 197"
"173.597801"
"$GPRMC,142046,A,2422.5291,N,08205.1436,W,2.5,152.8,220615,5.4,"
"##MN-00 00 18 0140 01800 5199 445357 205095 198"
"173.597847"
"$GPRMC,142050,A,2422.5263,N,08205.1422,W,2.5,153.2,220615,5.4,"
"##MN-00 00 18 0141 01800 5201 445354 205094 198"
"173.597894"
"$GPRMC,142054,A,2422.5235,N,08205.1406,W,2.5,153.0,220615,5.4,"
"##MN-00 00 18 0142 01800 5204 445353 205094 198"
"173.59794"
"$GPRMC,142058,A,2422.5211,N,08205.1391,W,2.5,152.3,220615,5.4,"
"##MN+00 00 18 0143 01800 5207 445364 205094 197"
"173.597986"
"$GPRMC,142102,A,2422.5184,N,08205.1377,W,2.6,152.6,220615,5.4,"
"##MN+00 00 18 0144 01800 5210 445368 205095 197"
"173.598032"
"$GPRMC,142106,A,2422.5158,N,08205.1363,W,2.6,152.7,220615,5.4,"
"##MN+00 00 18 0145 01803 5212 445363 205094 198"
"173.598079"
"#increment_net"
"$GPRMC,142110,A,2422.5135,N,08205.1348,W,2.6,152.0,220615,5.4,"
"##MN-00 00 18 0146 01799 5215 445385 205097 198"
"173.598125"
"$GPRMC,142114,A,2422.5110,N,08205.1334,W,2.6,151.8,220615,5.4,"
"##MN-00 00 18 0148 01801 5218 445384 205096 198"
"173.598171"
"$GPRMC,142118,A,2422.5085,N,08205.1320,W,2.6,151.8,220615,5.4,"
"##MN-00 00 18 0149 01800 5221 445370 205095 198"
"173.598218"
"$GPRMC,142122,A,2422.5060,N,08205.1306,W,2.6,151.8,220615,5.4,"
"##MN-00 00 18 0150 01798 5224 445340 205092 197"
"173.598264"
"$GPRMC,142126,A,2422.5033,N,08205.1291,W,2.6,152.2,220615,5.4,"
"##MN-00 00 20 0151 01795 5226 445315 205090 197"
"173.59831"
"$GPRMC,142130,A,2422.5009,N,08205.1277,W,2.6,152.2,220615,5.4,"
"##MN-00 00 18 0152 01796 5228 445293 205086 197"
"173.598356"
"$GPRMC,142134,A,2422.4984,N,08205.1262,W,2.6,152.2,220615,5.4,"
"##MN-00 00 44 0153 01797 5231 445250 205080 197"
"173.598403"
"$GPRMC,142138,A,2422.4957,N,08205.1246,W,2.6,152.1,220615,5.4,"
"##MN-00 00 19 0154 01793 5234 445217 205076 197"
"173.598449"
"$GPRMC,142142,A,2422.4931,N,08205.1230,W,2.6,152.3,220615,5.4,"
"##MN-00 00 17 0155 01793 5237 445180 205070 197"
"173.598495"
"$GPRMC,142146,A,2422.4904,N,08205.1216,W,2.5,152.4,220615,5.4,"
"##MN-00 00 17 0156 01792 5239 445145 205065 197"
"173.598542"
"$GPRMC,142150,A,2422.4879,N,08205.1202,W,2.5,152.8,220615,5.4,"
"##MN-00 00 17 0157 01792 5241 445092 205058 197"
"173.598588"
"$GPRMC,142154,A,2422.4851,N,08205.1187,W,2.5,152.9,220615,5.4,"
"##MN-00 00 18 0158 01793 5244 445050 205052 197"
"173.598634"
"$GPRMC,142158,A,2422.4825,N,08205.1173,W,2.5,153.6,220615,5.4,"
"##MN+00 00 18 0159 01792 5247 445035 205049 197"
"173.598681"
"$GPRMC,142202,A,2422.4799,N,08205.1160,W,2.5,153.5,220615,5.4,"
"##MN+00 00 17 0160 01793 5249 445039 205048 197"
"173.598727"
"$GPRMC,142206,A,2422.4775,N,08205.1145,W,2.5,153.8,220615,5.4,"
"##MN+00 00 17 0161 01793 5252 445061 205049 198"
"173.598773"
"$GPRMC,142210,A,2422.4751,N,08205.1132,W,2.5,153.5,220615,5.4,"
"##MN+00 00 43 0162 01793 5254 445066 205050 198"
"173.598819"
"$GPRMC,142214,A,2422.4726,N,08205.1119,W,2.5,153.6,220615,5.4,"
"##MN+00 00 17 0163 01791 5257 445046 205047 197"
"173.598866"
"$GPRMC,142218,A,2422.4702,N,08205.1104,W,2.5,153.4,220615,5.4,"
"##MN+00 00 17 0165 01793 5259 445055 205048 197"
"173.598912"
"$GPRMC,142222,A,2422.4677,N,08205.1091,W,2.6,153.3,220615,5.4,"
"##MN-00 00 17 0166 01793 5262 445117 205056 197"
"173.598958"
"#increment_net"
"$GPRMC,142226,A,2422.4649,N,08205.1076,W,2.6,154.1,220615,5.4,"
"##MN-00 00 18 0167 01792 5264 445160 205062 198"
"173.599016"
"$GPRMC,142230,A,2422.4621,N,08205.1062,W,2.5,154.4,220615,5.4,"
"##MN-00 00 17 0168 01792 5268 445164 205062 197"
"173.599062"
"$GPRMC,142234,A,2422.4596,N,08205.1048,W,2.6,154.3,220615,5.4,"
"##MN-00 00 17 0169 01792 5270 445163 205064 197"
"173.599109"
"$GPRMC,142238,A,2422.4572,N,08205.1037,W,2.6,154.3,220615,5.4,"
"##MN-00 00 17 0170 01794 5272 445186 205066 197"
"173.599155"
"$GPRMC,142242,A,2422.4547,N,08205.1024,W,2.5,154.2,220615,5.4,"
"##MN-00 00 17 0171 01792 5274 445204 205066 197"
"173.599201"
"$GPRMC,142246,A,2422.4520,N,08205.1012,W,2.5,154.1,220615,5.4,"
"##MN-00 00 17 0172 01795 5277 445223 205069 197"
"173.599248"
"$GPRMC,142250,A,2422.4494,N,08205.1000,W,2.5,153.9,220615,5.4,"
"##MN-00 00 45 0173 01795 5280 445237 205069 197"
"173.599294"
"$GPRMC,142254,A,2422.4469,N,08205.0986,W,2.6,153.7,220615,5.4,"
"##MN-00 00 18 0174 01793 5282 445217 205068 197"
"173.59934"
"$GPRMC,142258,A,2422.4444,N,08205.0972,W,2.6,153.5,220615,5.4,"
"##MN-00 00 44 0176 01794 5285 445204 205067 197"
"173.599387"
"$GPRMC,142302,A,2422.4418,N,08205.0959,W,2.5,153.8,220615,5.4,"
"##MN-00 00 18 0177 01792 5287 445198 205066 197"
"173.599433"
"$GPRMC,142306,A,2422.4398,N,08205.0946,W,2.5,153.8,220615,5.4,"
"##MN-00 00 17 0178 01793 5289 445188 205065 197"
"173.599479"
"$GPRMC,142310,A,2422.4372,N,08205.0933,W,2.5,153.6,220615,5.4,"
"##MN-00 00 17 0179 01793 5292 445194 205067 197"
"173.599525"
"$GPRMC,142314,A,2422.4348,N,08205.0919,W,2.5,153.8,220615,5.4,"
"##MN+00 00 17 0180 01792 5294 445204 205068 197"
"173.599572"
"$GPRMC,142318,A,2422.4320,N,08205.0904,W,2.5,153.3,220615,5.4,"
"##MN+00 00 17 0181 01793 5297 445208 205067 197"
"173.599618"
"$GPRMC,142323,A,2422.4287,N,08205.0886,W,2.5,152.5,220615,5.4,"
"##MN+00 00 17 0182 01793 5299 445199 205065 197"
"173.599664"
"$GPRMC,142327,A,2422.4262,N,08205.0873,W,2.5,152.5,220615,5.4,"
"##MN-00 00 18 0184 01792 5302 445171 205063 197"
"173.599711"
"$GPRMC,142331,A,2422.4236,N,08205.0858,W,2.6,153.0,220615,5.4,"
"##MN+00 00 17 0185 01791 5304 445138 205059 197"
"173.599757"
"$GPRMC,142335,A,2422.4209,N,08205.0842,W,2.6,152.8,220615,5.4,"
"##MN+00 00 18 0186 01791 5306 445096 205051 197"
"173.599803"
"$GPRMC,142339,A,2422.4184,N,08205.0827,W,2.6,152.4,220615,5.4,"
"##MN+00 00 18 0187 01797 5309 445069 205045 197"
"173.59985"
"#increment_net"
"$GPRMC,142342,A,2422.4164,N,08205.0816,W,2.5,152.3,220615,5.4,"
"##MN-00 00 18 0188 01799 5311 445118 205059 197"
"173.599896"
"$GPRMC,142346,A,2422.4139,N,08205.0803,W,2.5,152.7,220615,5.4,"
"##MN-00 00 18 0190 01806 5314 445223 205076 197"
"173.599942"
"$GPRMC,142351,A,2422.4107,N,08205.0785,W,2.5,153.5,220615,5.4,"
"##MN-00 00 38 0191 01810 5316 445431 205097 197"
"173.599988"
"$GPRMC,142355,A,2422.4081,N,08205.0771,W,2.5,153.7,220615,5.4,"
"##MN-00 00 19 0193 01816 5318 445763 205161 197"
"173.600035"
"$GPRMC,142359,A,2422.4054,N,08205.0758,W,2.6,154.2,220615,5.4,"
"##MN-00 00 19 0194 01818 5320 446152 205212 197"
"173.600081"
"$GPRMC,142403,A,2422.4030,N,08205.0743,W,2.6,153.5,220615,5.4,"
"##MN-00 00 19 0196 01824 5323 446257 205234 197"
"173.600127"
"$GPRMC,142407,A,2422.4002,N,08205.0729,W,2.6,154.0,220615,5.4,"
"##MN-00 00 18 0197 01825 5325 446426 205271 197"
"173.600174"
"$GPRMC,142411,A,2422.3974,N,08205.0714,W,2.7,154.7,220615,5.4,"
"##MN-00 00 46 0199 01824 5328 446763 205324 197"
"173.60022"
"$GPRMC,142415,A,2422.3947,N,08205.0700,W,2.7,155.2,220615,5.4,"
"##MN-00 00 47 0200 01820 5330 446598 205288 197"
"173.600266"
"$GPRMC,142419,A,2422.3918,N,08205.0687,W,2.8,154.8,220615,5.4,"
"##MN-00 00 20 0202 01818 5332 446346 205262 197"
"173.600313"
"$GPRMC,142423,A,2422.3889,N,08205.0675,W,2.8,155.9,220615,5.4,"
"##MN-00 00 46 0203 01817 5335 446212 205233 197"
"173.600359"
"$GPRMC,142427,A,2422.3861,N,08205.0660,W,2.8,155.7,220615,5.4,"
"##MN-00 00 48 0205 01815 5336 446138 205226 197"
"173.600405"
"$GPRMC,142431,A,2422.3833,N,08205.0646,W,2.8,155.3,220615,5.4,"
"##MN-00 00 48 0206 01812 5338 446039 205208 197"
"173.600451"
"$GPRMC,142435,A,2422.3804,N,08205.0632,W,2.8,154.8,220615,5.4,"
"##MN-00 00 48 0208 01811 5341 445944 205192 197"
"173.600498"
"$GPRMC,142439,A,2422.3775,N,08205.0617,W,2.8,154.6,220615,5.4,"
"##MN-00 00 15 0209 01807 5344 445825 205175 197"
"173.600544"
"$GPRMC,142443,A,2422.3746,N,08205.0603,W,2.8,154.5,220615,5.4,"
"##MN-00 00 41 0211 01807 5345 445720 205159 197"
"173.60059"
"$GPRMC,142447,A,2422.3717,N,08205.0588,W,2.8,153.9,220615,5.4,"
"##MN-00 00 19 0212 01804 5348 445573 205124 197"
"173.600637"
"$GPRMC,142451,A,2422.3690,N,08205.0575,W,2.8,154.3,220615,5.4,"
"##MN-00 00 18 0214 01802 5350 445417 205105 197"
"173.600683"
"$GPRMC,142455,A,2422.3662,N,08205.0561,W,2.7,154.5,220615,5.4,"
"##MN-00 00 47 0215 01799 5352 445331 205088 197"
"173.600729"
"$GPRMC,142459,A,2422.3634,N,08205.0546,W,2.7,154.7,220615,5.4,"
"##MN-00 00 44 0217 01797 5354 445185 205064 197"
"173.600775"
"$GPRMC,142503,A,2422.3608,N,08205.0532,W,2.7,154.8,220615,5.4,"
"##MN-00 00 47 0218 01794 5356 445050 205044 197"
"173.600822"
"$GPRMC,142507,A,2422.3582,N,08205.0518,W,2.7,155.0,220615,5.4,"
"##MN-00 00 46 0220 01793 5358 445006 205034 197"
"173.600868"
"$GPRMC,142511,A,2422.3553,N,08205.0505,W,2.7,155.3,220615,5.4,"
"##MN-00 00 47 0221 01792 5361 444891 205019 197"
"173.600914"
"$GPRMC,142515,A,2422.3526,N,08205.0493,W,2.7,155.1,220615,5.4,"
"##MN-00 00 17 0223 01790 5363 444832 205008 197"
"173.600961"
"$GPRMC,142519,A,2422.3505,N,08205.0482,W,2.7,155.2,220615,5.4,"
"##MN-00 00 40 0224 01786 5365 444667 204972 197"
"173.601007"
"$GPRMC,142523,A,2422.3470,N,08205.0464,W,2.8,155.2,220615,5.4,"
"##MN-00 00 46 0225 01783 5367 444363 204925 197"
"173.601053"
"$GPRMC,142527,A,2422.3441,N,08205.0451,W,2.7,155.2,220615,5.4,"
"##MN-00 00 44 0227 01781 5369 444220 204902 197"
"173.6011"
"$GPRMC,142531,A,2422.3413,N,08205.0437,W,2.8,155.1,220615,5.4,"
"##MN-00 00 46 0228 01777 5371 444140 204904 197"
"173.601146"
"$GPRMC,142535,A,2422.3383,N,08205.0423,W,2.8,155.6,220615,5.4,"
"##MN-00 00 18 0230 01775 5373 444084 204883 197"
"173.601192"
"$GPRMC,142539,A,2422.3355,N,08205.0411,W,2.8,156.2,220615,5.4,"
"##MN-00 00 45 0231 01773 5376 444043 204876 197"
"173.601238"
"$GPRMC,142543,A,2422.3327,N,08205.0397,W,2.8,157.1,220615,5.4,"
"##MN-00 00 44 0233 01769 5378 443997 204870 197"
"173.601285"
"$GPRMC,142547,A,2422.3298,N,08205.0385,W,2.8,157.2,220615,5.4,"
"##MN-00 00 19 0234 01768 5380 443963 204865 197"
"173.601331"
"$GPRMC,142551,A,2422.3270,N,08205.0372,W,2.8,156.9,220615,5.4,"
"##MN-00 00 18 0236 01760 5382 443924 204849 197"
"173.601377"
"$GPRMC,142555,A,2422.3242,N,08205.0358,W,2.8,156.1,220615,5.4,"
"##MN-00 00 19 0237 01758 5384 443856 204826 197"
"173.601424"
"$GPRMC,142559,A,2422.3215,N,08205.0346,W,2.8,155.9,220615,5.4,"
"##MN-00 00 18 0239 01755 5386 443669 204794 197"
"173.60147"
"$GPRMC,142603,A,2422.3187,N,08205.0331,W,2.7,156.1,220615,5.4,"
"##MN-00 00 45 0240 01752 5388 443590 204768 197"
"173.601516"
"$GPRMC,142607,A,2422.3159,N,08205.0317,W,2.6,155.4,220615,5.4,"
"##MN-00 00 42 0241 01747 5390 443525 204761 197"
"173.601563"
"$GPRMC,142611,A,2422.3134,N,08205.0303,W,2.7,155.2,220615,5.4,"
"##MN-00 00 19 0243 01744 5392 443445 204763 197"
"173.601609"
"$GPRMC,142615,A,2422.3107,N,08205.0290,W,2.7,156.0,220615,5.4,"
"##MN-00 00 16 0244 01739 5394 443393 204760 197"
"173.601655"
"$GPRMC,142619,A,2422.3080,N,08205.0280,W,2.7,156.0,220615,5.4,"
"##MN-00 00 19 0246 01735 5397 443357 204759 197"
"173.601701"
"$GPRMC,142623,A,2422.3051,N,08205.0269,W,2.7,154.9,220615,5.4,"
"##MN-00 00 19 0247 01734 5399 443320 204754 197"
"173.601748"
"$GPRMC,142627,A,2422.3023,N,08205.0255,W,2.7,154.3,220615,5.4,"
"##MN-00 00 44 0249 01731 5401 443285 204752 197"
"173.601794"
"$GPRMC,142631,A,2422.2995,N,08205.0242,W,2.8,153.5,220615,5.4,"
"##MN-00 00 18 0250 01727 5403 443249 204749 197"
"173.60184"
"$GPRMC,142635,A,2422.2968,N,08205.0227,W,2.7,153.6,220615,5.4,"
"##MN-00 00 18 0251 01725 5405 443206 204746 197"
"173.601887"
"$GPRMC,142639,A,2422.2940,N,08205.0212,W,2.7,154.1,220615,5.4,"
"##MN-00 00 19 0253 01725 5407 443170 204746 197"
"173.601933"
"$GPRMC,142643,A,2422.2914,N,08205.0198,W,2.7,154.4,220615,5.4,"
"##MN-00 00 18 0254 01723 5409 443139 204744 197"
"173.601979"
"$GPRMC,142647,A,2422.2885,N,08205.0183,W,2.8,154.5,220615,5.4,"
"##MN-00 00 44 0256 01720 5411 443101 204745 197"
"173.602025"
"$GPRMC,142651,A,2422.2857,N,08205.0170,W,2.8,154.4,220615,5.4,"
"##MN-00 00 12 0257 01714 5413 443062 204750 197"
"173.602072"
"$GPRMC,142655,A,2422.2831,N,08205.0159,W,2.8,155.5,220615,5.4,"
"##MN-00 00 19 0258 01710 5415 443021 204753 197"
"173.60213"
"$GPRMC,142659,A,2422.2802,N,08205.0145,W,2.7,157.6,220615,5.4,"
"##MN-00 00 42 0260 01709 5417 442995 204750 197"
"173.602176"
"$GPRMC,142703,A,2422.2775,N,08205.0133,W,2.7,158.4,220615,5.4,"
"##MN-00 00 19 0261 01705 5419 442971 204745 197"
"173.602222"
"$GPRMC,142707,A,2422.2747,N,08205.0120,W,2.7,158.7,220615,5.4,"
"##MN-00 00 19 0263 01701 5422 442955 204743 197"
"173.602269"
"$GPRMC,142711,A,2422.2719,N,08205.0107,W,2.7,159.3,220615,5.4,"
"##MN-00 00 16 0264 01698 5423 442937 204738 197"
"173.602315"
"$GPRMC,142715,A,2422.2690,N,08205.0094,W,2.8,158.9,220615,5.4,"
"##MN-00 00 43 0265 01694 5425 442908 204733 197"
"173.602361"
"$GPRMC,142719,A,2422.2661,N,08205.0081,W,2.8,158.5,220615,5.4,"
"##MN-00 00 18 0267 01691 5428 442864 204731 197"
"173.602407"
"$GPRMC,142723,A,2422.2632,N,08205.0067,W,2.8,157.7,220615,5.4,"
"##MN-00 00 43 0268 01687 5430 442834 204730 197"
"173.602454"
"$GPRMC,142727,A,2422.2601,N,08205.0053,W,2.8,157.2,220615,5.4,"
"##MN-00 00 18 0270 01684 5432 442812 204729 197"
"173.6025"
"$GPRMC,142731,A,2422.2574,N,08205.0039,W,2.9,157.4,220615,5.4,"
"##MN-00 00 45 0271 01680 5433 442796 204729 197"
"173.602546"
"$GPRMC,142735,A,2422.2542,N,08205.0024,W,2.9,157.1,220615,5.4,"
"##MN-00 00 18 0273 01677 5436 442782 204727 197"
"173.602593"
"$GPRMC,142739,A,2422.2513,N,08205.0009,W,2.9,156.5,220615,5.4,"
"##MN-00 00 18 0274 01673 5438 442764 204724 197"
"173.602639"
"$GPRMC,142743,A,2422.2484,N,08204.9996,W,2.9,156.2,220615,5.4,"
"##MN-00 00 18 0275 01667 5440 442738 204721 197"
"173.602685"
"$GPRMC,142748,A,2422.2448,N,08204.9976,W,2.9,156.9,220615,5.4,"
"##MN-00 00 19 0277 01663 5442 442704 204717 197"
"173.602731"
"$GPRMC,142751,A,2422.2426,N,08204.9967,W,2.9,156.6,220615,5.4,"
"##MN-00 00 19 0278 01661 5444 442689 204715 197"
"173.602778"
"$GPRMC,142755,A,2422.2395,N,08204.9954,W,2.9,156.9,220615,5.4,"
"##MN-00 00 18 0280 01658 5446 442667 204712 197"
"173.602824"
"$GPRMC,142800,A,2422.2359,N,08204.9935,W,2.8,157.6,220615,5.4,"
"##MN-00 00 18 0281 01652 5448 442631 204711 197"
"173.60287"
"$GPRMC,142804,A,2422.2329,N,08204.9922,W,2.9,157.6,220615,5.4,"
"##MN-00 00 18 0283 01651 5450 442592 204709 197"
"173.602917"
"$GPRMC,142808,A,2422.2299,N,08204.9909,W,2.9,158.0,220615,5.4,"
"##MN-00 00 19 0284 01648 5452 442544 204710 197"
"173.602963"
"$GPRMC,142812,A,2422.2271,N,08204.9896,W,2.9,158.2,220615,5.4,"
"##MN-00 00 18 0285 01643 5454 442502 204712 197"
"173.603009"
"$GPRMC,142816,A,2422.2242,N,08204.9882,W,2.8,158.1,220615,5.4,"
"##MN-00 00 19 0287 01641 5456 442463 204713 197"
"173.603056"
"$GPRMC,142820,A,2422.2211,N,08204.9870,W,2.8,158.6,220615,5.4,"
"##MN-00 00 19 0288 01637 5458 442405 204716 197"
"173.603102"
"$GPRMC,142824,A,2422.2182,N,08204.9857,W,2.8,158.7,220615,5.4,"
"##MN-00 00 38 0290 01634 5459 442348 204719 197"
"173.603148"
"$GPRMC,142828,A,2422.2152,N,08204.9845,W,2.9,158.6,220615,5.4,"
"##MN-00 00 13 0291 01630 5462 442290 204721 197"
"173.603194"
"$GPRMC,142832,A,2422.2122,N,08204.9831,W,2.9,159.0,220615,5.4,"
"##MN-00 00 13 0293 01627 5464 442262 204724 197"
"173.603241"
"$GPRMC,142836,A,2422.2092,N,08204.9817,W,2.9,159.3,220615,5.4,"
"##MN-00 00 12 0294 01620 5465 442202 204732 197"
"173.603287"
"$GPRMC,142840,A,2422.2062,N,08204.9804,W,2.9,158.1,220615,5.4,"
"##MN-00 00 13 0296 01616 5467 442164 204739 197"
"173.603333"
"$GPRMC,142844,A,2422.2031,N,08204.9791,W,2.9,157.8,220615,5.4,"
"##MN-00 00 18 0297 01614 5469 442156 204742 197"
"173.60338"
"$GPRMC,142848,A,2422.2000,N,08204.9777,W,2.9,157.8,220615,5.4,"
"##MN-00 00 14 0298 01609 5471 442137 204757 197"
"173.603426"
"$GPRMC,142852,A,2422.1971,N,08204.9763,W,2.9,157.0,220615,5.4,"
"##MN-00 00 18 0300 01604 5473 442078 204766 197"
"173.603472"
"$GPRMC,142856,A,2422.1942,N,08204.9749,W,2.9,156.5,220615,5.4,"
"##MN-00 00 18 0301 01600 5475 442043 204770 197"
"173.603519"
"$GPRMC,142900,A,2422.1913,N,08204.9736,W,2.9,156.4,220615,5.4,"
"##MN-00 00 18 0303 01599 5477 441960 204784 197"
"173.603565"
"$GPRMC,142904,A,2422.1884,N,08204.9722,W,2.9,156.2,220615,5.4,"
"##MN-00 00 19 0304 01597 5480 441839 204819 197"
"173.603611"
"$GPRMC,142908,A,2422.1855,N,08204.9708,W,2.9,155.6,220615,5.4,"
"##MN-00 00 19 0305 01591 5481 441758 204832 197"
"173.603657"
"$GPRMC,142912,A,2422.1825,N,08204.9694,W,2.9,155.7,220615,5.4,"
"##MN-00 00 18 0307 01588 5483 441727 204838 197"
"173.603704"
"$GPRMC,142916,A,2422.1796,N,08204.9681,W,2.8,156.1,220615,5.4,"
"##MN-00 00 18 0308 01583 5485 441673 204835 197"
"173.60375"
"$GPRMC,142920,A,2422.1766,N,08204.9668,W,2.8,156.3,220615,5.4,"
"##MN-00 00 19 0310 01582 5487 441671 204831 197"
"173.603796"
"$GPRMC,142924,A,2422.1737,N,08204.9654,W,2.9,156.3,220615,5.4,"
"##MN-00 00 17 0311 01574 5489 441670 204833 197"
"173.603843"
"$GPRMC,142928,A,2422.1707,N,08204.9638,W,2.9,155.8,220615,5.4,"
"##MN-00 00 44 0313 01571 5491 441679 204836 197"
"173.603889"
"$GPRMC,142932,A,2422.1678,N,08204.9624,W,2.9,155.6,220615,5.4,"
"##MN-00 00 18 0314 01570 5493 441677 204834 197"
"173.603935"
"$GPRMC,142936,A,2422.1647,N,08204.9610,W,2.9,156.1,220615,5.4,"
"##MN-00 00 19 0315 01564 5495 441670 204832 197"
"173.603981"
"$GPRMC,142940,A,2422.1617,N,08204.9596,W,2.9,156.6,220615,5.4,"
"##MN-00 00 19 0317 01557 5496 441618 204827 197"
"173.604028"
"$GPRMC,142944,A,2422.1588,N,08204.9583,W,2.9,157.4,220615,5.4,"
"##MN-00 00 18 0318 01556 5498 441662 204833 197"
"173.604074"
"$GPRMC,142948,A,2422.1557,N,08204.9570,W,2.9,157.5,220615,5.4,"
"##MN-00 00 43 0320 01550 5500 441652 204834 197"
"173.60412"
"$GPRMC,142952,A,2422.1526,N,08204.9556,W,2.9,157.9,220615,5.4,"
"##MN-00 00 14 0321 01547 5502 441622 204826 197"
"173.604167"
"$GPRMC,142956,A,2422.1495,N,08204.9542,W,3.0,157.1,220615,5.4,"
"##MN-00 00 14 0323 01548 5504 441626 204825 197"
"173.604213"
"$GPRMC,143000,A,2422.1465,N,08204.9530,W,3.0,157.5,220615,5.4,"
"##MN-00 00 14 0324 01550 5506 441603 204823 197"
