" Tow: 10WS   RVWS/WS15161"
" Date: 22/06/2015"
" Temperature Probe #  4762    Conductivity Probe #  710"
" Pressure Probe #  188"
" Flow Meter Calibration  4.71 (m/count)  "
"173.798785"
"$GPRMC,191011,A,2420.2433,N,08159.9587,W,3.0,353.5,220615,5.4,"
"##MN-00 00 80 0000 02730 7556 406997 396204 200"
"173.798831"
"$GPRMC,191016,A,2420.2473,N,08159.9592,W,3.0,353.4,220615,5.4,"
"##MN-00 00 80 0000 02730 7557 560640 023699 200"
"173.798877"
"$GPRMC,191020,A,2420.2511,N,08159.9597,W,3.0,353.7,220615,5.4,"
"##MN-00 00 80 0000 02730 7557 334672 023701 200"
"173.798924"
"$GPRMC,191024,A,2420.2540,N,08159.9599,W,3.0,353.9,220615,5.4,"
"##MN-00 00 80 0000 02732 7558 219416 023699 200"
"173.79897"
"$GPRMC,191028,A,2420.2574,N,08159.9603,W,3.0,354.2,220615,5.4,"
"##MN-00 00 80 0000 02730 7559 795408 023690 200"
"173.799016"
"$GPRMC,191032,A,2420.2603,N,08159.9606,W,3.0,354.4,220615,5.4,"
"##MN-00 00 80 0000 02729 7559 338176 023705 200"
"173.799062"
"$GPRMC,191036,A,2420.2635,N,08159.9608,W,3.0,354.7,220615,5.4,"
"##MN-00 00 80 0000 02730 7560 104976 023724 200"
"173.799109"
"$GPRMC,191040,A,2420.2674,N,08159.9611,W,2.9,354.8,220615,5.4,"
"##MN-00 00 80 0000 02730 7560 338104 023704 200"
"173.799155"
"$GPRMC,191044,A,2420.2708,N,08159.9613,W,2.9,355.6,220615,5.4,"
"##MN-00 00 80 0000 02729 7561 794464 023717 200"
"173.799201"
"$GPRMC,191048,A,2420.2742,N,08159.9613,W,3.0,356.2,220615,5.4,"
"##MN-00 00 80 0000 02729 7561 561792 023709 200"
"173.799248"
"$GPRMC,191052,A,2420.2775,N,08159.9613,W,2.9,357.1,220615,5.4,"
"##MN-00 00 80 0000 02732 7562 106704 023698 200"
"173.799294"
"$GPRMC,191056,A,2420.2805,N,08159.9613,W,2.9,357.4,220615,5.4,"
"##MN-00 00 80 0000 02731 7562 450128 023709 200"
"173.79934"
"$GPRMC,191100,A,2420.2836,N,08159.9612,W,2.9,357.2,220615,5.4,"
"##MN-00 00 80 0000 02731 7563 785552 023677 200"
"173.799387"
"$GPRMC,191104,A,2420.2866,N,08159.9613,W,2.9,356.9,220615,5.4,"
"##MN-00 00 80 0000 02730 7563 342544 023698 200"
"173.799433"
"$GPRMC,191108,A,2420.2899,N,08159.9613,W,2.9,356.9,220615,5.4,"
"##MN-00 00 80 0000 02730 7564 337984 023698 200"
"173.799479"
"$GPRMC,191112,A,2420.2935,N,08159.9617,W,2.9,356.5,220615,5.4,"
"##MN-00 00 80 0000 02729 7564 450088 023681 200"
"173.799525"
"$GPRMC,191116,A,2420.2970,N,08159.9620,W,2.9,356.3,220615,5.4,"
"##MN-00 00 80 0000 02731 7565 338032 023690 200"
"173.799572"
"$GPRMC,191120,A,2420.3003,N,08159.9622,W,2.9,355.7,220615,5.4,"
"##MN-00 00 80 0000 02731 7565 338048 023694 200"
"173.799618"
"$GPRMC,191124,A,2420.3033,N,08159.9625,W,2.9,354.8,220615,5.4,"
"##MN-00 00 80 0000 02730 7566 338048 023678 200"
"173.799664"
"$GPRMC,191128,A,2420.3064,N,08159.9629,W,2.9,353.8,220615,5.4,"
"##MN-00 00 80 0000 02730 7566 338048 023678 200"
"173.800694"
""
"##MN-00 00 80 0000 02730 7566 338048 023678 200"
" Tow: 10WS   RVWS/WS15161"
" Date: 22/06/2015"
" Temperature Probe #  4762    Conductivity Probe #  710"
" Pressure Probe #  188"
" Flow Meter Calibration  4.71 (m/count)  "
"173.804653"
"$GPRMC,191838,A,2420.6089,N,08159.9914,W,2.1,354.9,220615,5.4,"
"##MN-00 00 46 0005 02708 7404 48993w 023902 200"
"173.804699"
"$GPRMC,191842,A,2420.6114,N,08159.9917,W,2.1,354.2,220615,5.4,"
"##MN-00 00 45 0005 02707 7403 296048 023881 200"
"173.804745"
"$GPRMC,191846,A,2420.6140,N,08159.9921,W,2.1,353.7,220615,5.4,"
"##MN-00 00 45 0005 02707 7403 296048 023881 200"
"173.805289"
""
"##MN-00 00 50 0015 02706 7376 536023 023878 200"
"173.805336"
"$GPRMC,191937,A,2420.6464,N,08159.9993,W,2.4,347.8,220615,5.4,"
"##MN-00 00 51 0016 02710 7373 698496 023884 200"
"173.805382"
"$GPRMC,191941,A,2420.6489,N,08159.9997,W,2.4,347.9,220615,5.4,"
"##MN-00 00 49 0017 02708 7371 811560 023893 200"
"173.805428"
"$GPRMC,191945,A,2420.6516,N,08200.0004,W,2.4,347.5,220615,5.4,"
"##MN-00 00 49 0018 02710 7368 692016 023905 200"
"173.805475"
"$GPRMC,191949,A,2420.6541,N,08200.0011,W,2.4,348.0,220615,5.4,"
"##MN-00 00 51 0019 02708 7366 328632 023894 200"
"173.805521"
"$GPRMC,191953,A,2420.6568,N,08200.0016,W,2.4,348.8,220615,5.4,"
"##MN-00 00 51 0020 02709 7363 685808 023906 200"
"173.805567"
"$GPRMC,191957,A,2420.6599,N,08200.0022,W,2.5,349.5,220615,5.4,"
"##MN-00 00 51 0021 02710 7361 684824 023886 200"
"173.805613"
"$GPRMC,192001,A,2420.6626,N,08200.0025,W,2.5,350.3,220615,5.4,"
"##MN-00 00 51 0022 02710 7358 447024 023897 200"
"173.80566"
"$GPRMC,192005,A,2420.6653,N,08200.0032,W,2.5,350.6,220615,5.4,"
"##MN-00 00 51 0023 02708 7355 447024 023891 200"
"173.805706"
"$GPRMC,192009,A,2420.6678,N,08200.0036,W,2.5,350.8,220615,5.4,"
"##MN-00 00 51 0024 02706 7353 566432 023881 200"
"173.805752"
"$GPRMC,192013,A,2420.6706,N,08200.0041,W,2.4,351.0,220615,5.4,"
"##MN-00 00 51 0025 02710 7350 209264 023898 200"
"173.805799"
"$GPRMC,192017,A,2420.6734,N,08200.0047,W,2.5,351.0,220615,5.4,"
"##MN-00 00 51 0026 02709 7348 804664 023883 200"
"173.805845"
"$GPRMC,192021,A,2420.6761,N,08200.0050,W,2.5,350.7,220615,5.4,"
"##MN-00 00 51 0027 02708 7344 209280 023872 200"
"173.805891"
"$GPRMC,192025,A,2420.6789,N,08200.0054,W,2.5,350.7,220615,5.4,"
"##MN-00 00 51 0028 02709 7342 280416 023873 200"
"173.805938"
"$GPRMC,192029,A,2420.6815,N,08200.0059,W,2.5,350.4,220615,5.4,"
"##MN-00 00 51 0029 02710 7339 444400 023891 200"
"173.805984"
"$GPRMC,192033,A,2420.6843,N,08200.0065,W,2.5,350.4,220615,5.4,"
"##MN-00 00 51 0030 02709 7336 436856 023892 200"
"173.80603"
"$GPRMC,192037,A,2420.6870,N,08200.0070,W,2.5,349.3,220615,5.4,"
"##MN-00 00 51 0031 02709 7333 432096 023904 200"
"173.806076"
"$GPRMC,192041,A,2420.6897,N,08200.0076,W,2.5,348.9,220615,5.4,"
"##MN-00 00 51 0032 02711 7330 667664 023891 200"
"173.806123"
"$GPRMC,192045,A,2420.6924,N,08200.0080,W,2.5,347.7,220615,5.4,"
"##MN-00 00 53 0032 02710 7327 664608 023898 200"
"173.806169"
"$GPRMC,192049,A,2420.6952,N,08200.0087,W,2.5,347.0,220615,5.4,"
"##MN-00 00 51 0033 02709 7325 492632 023908 200"
"173.806215"
"$GPRMC,192054,A,2420.6985,N,08200.0095,W,2.5,346.3,220615,5.4,"
"##MN-00 00 51 0034 02711 7322 538632 023903 200"
"173.806262"
"$GPRMC,192057,A,2420.7007,N,08200.0101,W,2.5,346.3,220615,5.4,"
"##MN-00 00 51 0035 02710 7319 653136 023900 200"
"173.806308"
"$GPRMC,192102,A,2420.7042,N,08200.0112,W,2.5,345.2,220615,5.4,"
"##MN-00 00 51 0036 02710 7316 530280 023899 200"
"173.806354"
"$GPRMC,192105,A,2420.7061,N,08200.0116,W,2.5,345.5,220615,5.4,"
"##MN-00 00 51 0037 02709 7313 640736 023917 200"
"173.8064"
"$GPRMC,192110,A,2420.7097,N,08200.0127,W,2.5,345.7,220615,5.4,"
"##MN-00 00 52 0038 02711 7310 756608 023917 200"
"173.806447"
"$GPRMC,192114,A,2420.7126,N,08200.0135,W,2.5,345.8,220615,5.4,"
"##MN-00 00 53 0039 02710 7308 777920 023926 200"
"173.806493"
"$GPRMC,192118,A,2420.7154,N,08200.0144,W,2.5,346.1,220615,5.4,"
"##MN-00 00 51 0040 02711 7304 703648 023906 200"
"173.806539"
"$GPRMC,192122,A,2420.7182,N,08200.0152,W,2.5,346.0,220615,5.4,"
"##MN-00 00 51 0041 02711 7302 347360 023905 200"
"173.806586"
"$GPRMC,192126,A,2420.7209,N,08200.0159,W,2.5,346.3,220615,5.4,"
"##MN-00 00 51 0042 02710 7299 151984 023886 200"
"173.806632"
"$GPRMC,192130,A,2420.7231,N,08200.0163,W,2.5,347.2,220615,5.4,"
"##MN-00 00 51 0043 02712 7295 630344 023879 200"
"173.806678"
"$GPRMC,192134,A,2420.7260,N,08200.0167,W,2.5,347.7,220615,5.4,"
"##MN-00 00 51 0044 02712 7292 869152 023862 200"
"173.806725"
"$GPRMC,192138,A,2420.7296,N,08200.0177,W,2.5,348.7,220615,5.4,"
"##MN-00 00 55 0046 02713 7290 627280 023892 200"
"173.806771"
"$GPRMC,192142,A,2420.7327,N,08200.0184,W,2.5,348.3,220615,5.4,"
"##MN-00 00 51 0047 02712 7286 046832 023880 200"
"173.806817"
"$GPRMC,192146,A,2420.7354,N,08200.0191,W,2.5,348.7,220615,5.4,"
"##MN-00 00 51 0048 02714 7283 044760 023903 200"
"173.806863"
"$GPRMC,192150,A,2420.7382,N,08200.0196,W,2.5,349.4,220615,5.4,"
"##MN-00 00 51 0049 02715 7280 564264 023900 200"
"173.80691"
"$GPRMC,192154,A,2420.7407,N,08200.0200,W,2.5,349.3,220615,5.4,"
"##MN-00 00 52 0050 02715 7277 274224 023906 200"
"173.806956"
"$GPRMC,192158,A,2420.7436,N,08200.0207,W,2.5,349.0,220615,5.4,"
"##MN-00 00 51 0051 02716 7275 393696 023902 200"
"173.807002"
"$GPRMC,192202,A,2420.7453,N,08200.0210,W,2.5,348.7,220615,5.4,"
"##MN-00 00 54 0052 02717 7271 624912 023907 200"
"173.807049"
"$GPRMC,192206,A,2420.7490,N,08200.0218,W,2.5,348.1,220615,5.4,"
"##MN-00 00 51 0053 02717 7268 596224 023906 200"
"173.807095"
"$GPRMC,192210,A,2420.7520,N,08200.0227,W,2.5,347.6,220615,5.4,"
"##MN-00 00 51 0054 02719 7265 254456 023910 200"
"173.807141"
"$GPRMC,192214,A,2420.7553,N,08200.0238,W,2.5,347.0,220615,5.4,"
"##MN-00 00 52 0055 02717 7262 815328 023925 200"
"173.807187"
"$GPRMC,192218,A,2420.7581,N,08200.0245,W,2.5,346.5,220615,5.4,"
"##MN+00 00 51 0056 02717 7260 531608 023928 200"
"173.807234"
"$GPRMC,192222,A,2420.7607,N,08200.0251,W,2.5,345.9,220615,5.4,"
"##MN+00 00 51 0057 02720 7257 531232 023917 200"
"173.80728"
"$GPRMC,192226,A,2420.7635,N,08200.0260,W,2.5,345.3,220615,5.4,"
"##MN+00 00 51 0058 02722 7253 816384 023882 200"
"173.807326"
"$GPRMC,192230,A,2420.7661,N,08200.0267,W,2.5,345.1,220615,5.4,"
"##MN-00 00 51 0059 02721 7250 336360 023895 200"
"173.807373"
"$GPRMC,192234,A,2420.7686,N,08200.0275,W,2.4,345.5,220615,5.4,"
"##MN-00 00 52 0060 02724 7248 575072 023890 200"
"173.807419"
"$GPRMC,192238,A,2420.7711,N,08200.0279,W,2.5,345.6,220615,5.4,"
"##MN-00 00 52 0061 02724 7244 525232 023902 200"
"173.807465"
"#increment_net"
"$GPRMC,192242,A,2420.7737,N,08200.0286,W,2.5,346.1,220615,5.4,"
"##MN-00 00 51 0062 02723 7241 567328 023894 200"
"173.807512"
"$GPRMC,192246,A,2420.7762,N,08200.0293,W,2.5,346.0,220615,5.4,"
"##MN-00 00 51 0063 02725 7238 514176 023906 200"
"173.807558"
"$GPRMC,192250,A,2420.7789,N,08200.0300,W,2.5,346.5,220615,5.4,"
"##MN-00 00 51 0064 02727 7235 914248 023909 200"
"173.807604"
"$GPRMC,192254,A,2420.7816,N,08200.0308,W,2.5,346.3,220615,5.4,"
"##MN-00 00 51 0065 02727 7232 788272 023911 200"
"173.80765"
"$GPRMC,192258,A,2420.7845,N,08200.0316,W,2.4,346.5,220615,5.4,"
"##MN-00 00 51 0066 02728 7229 907696 023916 200"
"173.807697"
"$GPRMC,192302,A,2420.7872,N,08200.0322,W,2.5,346.4,220615,5.4,"
"##MN-00 00 51 0067 02729 7226 219120 023908 200"
"173.807743"
"$GPRMC,192306,A,2420.7898,N,08200.0329,W,2.5,346.4,220615,5.4,"
"##MN-00 00 53 0068 02730 7222 897936 023901 200"
"173.807789"
"$GPRMC,192310,A,2420.7923,N,08200.0336,W,2.5,346.6,220615,5.4,"
"##MN-00 00 51 0069 02730 7220 205824 023907 200"
"173.807836"
"$GPRMC,192314,A,2420.7948,N,08200.0343,W,2.5,347.3,220615,5.4,"
"##MN-00 00 50 0070 02732 7217 240232 023925 200"
"173.807882"
"$GPRMC,192318,A,2420.7977,N,08200.0352,W,2.5,348.2,220615,5.4,"
"##MN-00 00 50 0071 02733 7213 117800 023911 200"
"173.807928"
"$GPRMC,192322,A,2420.8003,N,08200.0359,W,2.5,348.4,220615,5.4,"
"##MN-00 00 50 0073 02732 7210 674480 023888 200"
"173.807974"
"$GPRMC,192326,A,2420.8032,N,08200.0368,W,2.5,348.5,220615,5.4,"
"##MN-00 00 50 0074 02733 7207 436272 023898 200"
"173.808021"
"$GPRMC,192330,A,2420.8060,N,08200.0376,W,2.5,348.4,220615,5.4,"
"##MN-00 00 52 0075 02734 7204 169832 023911 200"
"173.808067"
"$GPRMC,192334,A,2420.8089,N,08200.0383,W,2.5,348.3,220615,5.4,"
"##MN-00 00 50 0076 02735 7201 819520 023899 200"
"173.808113"
"$GPRMC,192338,A,2420.8115,N,08200.0388,W,2.5,348.1,220615,5.4,"
"##MN-00 00 50 0077 02737 7198 423440 023898 200"
"173.80816"
"$GPRMC,192342,A,2420.8141,N,08200.0395,W,2.5,347.7,220615,5.4,"
"##MN-00 00 51 0078 02737 7195 747536 023914 200"
"173.808206"
"$GPRMC,192346,A,2420.8169,N,08200.0401,W,2.5,347.8,220615,5.4,"
"##MN-00 00 50 0079 02740 7192 171472 023896 200"
"173.808252"
"$GPRMC,192350,A,2420.8198,N,08200.0406,W,2.5,347.3,220615,5.4,"
"##MN-00 00 50 0080 02739 7189 576480 023905 200"
"173.808299"
"$GPRMC,192354,A,2420.8223,N,08200.0410,W,2.4,346.8,220615,5.4,"
"##MN-00 00 50 0081 02741 7186 568520 023903 200"
"173.808345"
"$GPRMC,192358,A,2420.8250,N,08200.0416,W,2.5,346.7,220615,5.4,"
"##MN-00 00 50 0082 02741 7183 603648 023909 200"
"173.808391"
"$GPRMC,192402,A,2420.8275,N,08200.0421,W,2.5,346.8,220615,5.4,"
"##MN-00 00 50 0083 02741 7179 589912 023917 200"
"173.808438"
"$GPRMC,192406,A,2420.8304,N,08200.0428,W,2.4,347.0,220615,5.4,"
"##MN-00 00 50 0084 02743 7176 753656 023909 200"
"173.808484"
"$GPRMC,192410,A,2420.8329,N,08200.0434,W,2.5,346.9,220615,5.4,"
"##MN-00 00 51 0085 02744 7174 715408 023921 200"
"173.80853"
"$GPRMC,192414,A,2420.8362,N,08200.0438,W,2.5,346.7,220615,5.4,"
"##MN-00 00 50 0086 02745 7170 464216 023912 200"
"173.808576"
"$GPRMC,192418,A,2420.8387,N,08200.0445,W,2.5,346.6,220615,5.4,"
"##MN-00 00 50 0087 02745 7167 464240 023887 200"
"173.808634"
"$GPRMC,192422,A,2420.8416,N,08200.0452,W,2.5,346.1,220615,5.4,"
"##MN-00 00 51 0088 02745 7164 502024 023878 200"
"173.808681"
"$GPRMC,192426,A,2420.8441,N,08200.0457,W,2.5,345.9,220615,5.4,"
"##MN-00 00 50 0089 02747 7161 552768 023850 200"
"173.808727"
"$GPRMC,192430,A,2420.8469,N,08200.0466,W,2.5,345.4,220615,5.4,"
"##MN+00 00 50 0090 02748 7158 380544 023829 200"
"173.808773"
"$GPRMC,192434,A,2420.8495,N,08200.0474,W,2.5,345.0,220615,5.4,"
"##MN+00 00 50 0092 02746 7155 615032 023796 200"
"173.808819"
"$GPRMC,192438,A,2420.8521,N,08200.0484,W,2.5,344.6,220615,5.4,"
"##MN+00 00 58 0093 02750 7152 504896 023786 200"
"173.808866"
"$GPRMC,192442,A,2420.8549,N,08200.0492,W,2.5,344.6,220615,5.4,"
"##MN-00 00 52 0094 02750 7149 892064 023768 200"
"173.808912"
"$GPRMC,192446,A,2420.8575,N,08200.0502,W,2.5,344.8,220615,5.4,"
"##MN-00 00 51 0095 02752 7146 398608 023764 200"
"173.808958"
"#increment_net"
"$GPRMC,192450,A,2420.8603,N,08200.0506,W,2.5,345.6,220615,5.4,"
"##MN-00 00 51 0096 02752 7143 233320 023763 200"
"173.809005"
"$GPRMC,192454,A,2420.8626,N,08200.0513,W,2.5,344.8,220615,5.4,"
"##MN-00 00 51 0097 02754 7140 625808 023762 200"
"173.809051"
"$GPRMC,192458,A,2420.8651,N,08200.0518,W,2.5,344.9,220615,5.4,"
"##MN-00 00 51 0098 02754 7137 373392 023763 200"
"173.809097"
"$GPRMC,192502,A,2420.8679,N,08200.0527,W,2.4,345.5,220615,5.4,"
"##MN-00 00 50 0099 02757 7133 292608 023768 200"
"173.809144"
"$GPRMC,192506,A,2420.8707,N,08200.0535,W,2.5,346.1,220615,5.4,"
"##MN-00 00 50 0100 02757 7131 317672 023776 200"
"173.80919"
"$GPRMC,192510,A,2420.8730,N,08200.0542,W,2.4,346.7,220615,5.4,"
"##MN-00 00 50 0101 02755 7127 697664 023771 200"
"173.809236"
"$GPRMC,192514,A,2420.8759,N,08200.0549,W,2.4,346.8,220615,5.4,"
"##MN-00 00 50 0102 02758 7125 190384 023732 200"
"173.809282"
"$GPRMC,192518,A,2420.8787,N,08200.0557,W,2.4,346.8,220615,5.4,"
"##MN-00 00 50 0103 02760 7122 622656 023745 200"
"173.809329"
"$GPRMC,192522,A,2420.8813,N,08200.0564,W,2.4,347.0,220615,5.4,"
"##MN-00 00 50 0104 02761 7118 331712 023741 200"
"173.809375"
"$GPRMC,192527,A,2420.8848,N,08200.0572,W,2.4,347.2,220615,5.4,"
"##MN-00 00 50 0105 02760 7115 527600 023741 200"
"173.809421"
"$GPRMC,192531,A,2420.8877,N,08200.0579,W,2.5,347.6,220615,5.4,"
"##MN-00 00 50 0107 02760 7113 644176 023744 200"
"173.809468"
"$GPRMC,192535,A,2420.8904,N,08200.0587,W,2.5,347.4,220615,5.4,"
"##MN-00 00 50 0108 02759 7110 922344 023745 200"
"173.809514"
"$GPRMC,192539,A,2420.8932,N,08200.0594,W,2.5,347.1,220615,5.4,"
"##MN-00 00 50 0109 02763 7106 677920 023738 200"
"173.80956"
"$GPRMC,192543,A,2420.8960,N,08200.0601,W,2.5,347.2,220615,5.4,"
"##MN-00 00 50 0110 02763 7103 874112 023753 200"
"173.809606"
"$GPRMC,192547,A,2420.8987,N,08200.0607,W,2.5,347.5,220615,5.4,"
"##MN-00 00 50 0111 02763 7101 107280 023747 200"
"173.809653"
"$GPRMC,192551,A,2420.9014,N,08200.0614,W,2.4,347.5,220615,5.4,"
"##MN-00 00 50 0112 02763 7098 559560 023737 200"
"173.809699"
"$GPRMC,192555,A,2420.9043,N,08200.0623,W,2.4,347.5,220615,5.4,"
"##MN-00 00 50 0113 02765 7095 114800 023742 200"
"173.809745"
"$GPRMC,192559,A,2420.9070,N,08200.0625,W,2.4,347.3,220615,5.4,"
"##MN-00 00 50 0114 02766 7092 350376 023745 200"
"173.809792"
"$GPRMC,192603,A,2420.9099,N,08200.0632,W,2.4,346.7,220615,5.4,"
"##MN-00 00 50 0115 02767 7089 278168 023748 200"
"173.809838"
"$GPRMC,192607,A,2420.9128,N,08200.0637,W,2.4,346.4,220615,5.4,"
"##MN-00 00 50 0116 02767 7086 836032 023765 200"
"173.809884"
"$GPRMC,192611,A,2420.9155,N,08200.0643,W,2.4,346.3,220615,5.4,"
"##MN-00 00 50 0117 02770 7083 558992 023761 200"
"173.809931"
"$GPRMC,192615,A,2420.9186,N,08200.0651,W,2.4,346.8,220615,5.4,"
"##MN-00 00 50 0118 02771 7080 858920 023722 200"
"173.809977"
"$GPRMC,192619,A,2420.9211,N,08200.0658,W,2.4,346.7,220615,5.4,"
"##MN-00 00 50 0119 02770 7077 654192 023735 200"
"173.810023"
"$GPRMC,192623,A,2420.9236,N,08200.0665,W,2.4,346.0,220615,5.4,"
"##MN-00 00 50 0120 02772 7074 668920 023752 200"
"173.810069"
"$GPRMC,192627,A,2420.9261,N,08200.0672,W,2.4,345.7,220615,5.4,"
"##MN-00 00 50 0121 02771 7071 435232 023738 200"
"173.810116"
"$GPRMC,192631,A,2420.9286,N,08200.0679,W,2.4,345.8,220615,5.4,"
"##MN-00 00 50 0122 02773 7068 415624 023751 200"
"173.810162"
"$GPRMC,192635,A,2420.9318,N,08200.0690,W,2.4,346.4,220615,5.4,"
"##MN-00 00 50 0123 02773 7065 617840 023744 200"
"173.810208"
"$GPRMC,192639,A,2420.9343,N,08200.0691,W,2.4,346.7,220615,5.4,"
"##MN+00 00 50 0124 02774 7062 570944 023751 200"
"173.810255"
"$GPRMC,192643,A,2420.9369,N,08200.0694,W,2.4,347.4,220615,5.4,"
"##MN+00 00 50 0126 02774 7060 486512 023771 200"
"173.810301"
"$GPRMC,192647,A,2420.9394,N,08200.0699,W,2.4,348.2,220615,5.4,"
"##MN+00 00 50 0127 02775 7056 323456 023745 200"
"173.810347"
"$GPRMC,192651,A,2420.9417,N,08200.0704,W,2.4,348.5,220615,5.4,"
"##MN-00 00 55 0128 02776 7054 437496 023756 200"
"173.810393"
"#increment_net"
"$GPRMC,192655,A,2420.9444,N,08200.0708,W,2.4,350.0,220615,5.4,"
"##MN-00 00 52 0129 02775 7051 071552 023746 200"
"173.81044"
"$GPRMC,192659,A,2420.9470,N,08200.0715,W,2.5,350.4,220615,5.4,"
"##MN-00 00 51 0130 02778 7048 994520 023744 200"
"173.810486"
"$GPRMC,192703,A,2420.9500,N,08200.0719,W,2.4,350.8,220615,5.4,"
"##MN-00 00 51 0131 02776 7045 303072 023760 200"
"173.810532"
"$GPRMC,192707,A,2420.9525,N,08200.0723,W,2.4,351.2,220615,5.4,"
"##MN-00 00 55 0132 02779 7042 297344 023773 200"
"173.810579"
"$GPRMC,192711,A,2420.9550,N,08200.0728,W,2.4,351.3,220615,5.4,"
"##MN-00 00 54 0133 02779 7039 052960 023774 200"
"173.810625"
"$GPRMC,192715,A,2420.9574,N,08200.0731,W,2.4,351.6,220615,5.4,"
"##MN-00 00 55 0134 02779 7037 457504 023727 200"
"173.810671"
"$GPRMC,192719,A,2420.9597,N,08200.0734,W,2.4,351.7,220615,5.4,"
"##MN-00 00 52 0135 02780 7034 290408 023750 200"
"173.810718"
"$GPRMC,192723,A,2420.9626,N,08200.0738,W,2.4,351.8,220615,5.4,"
"##MN-00 00 54 0136 02780 7031 044192 023749 200"
"173.810764"
"$GPRMC,192727,A,2420.9651,N,08200.0742,W,2.4,352.2,220615,5.4,"
"##MN-00 00 56 0137 02782 7028 686952 023741 200"
"173.81081"
"$GPRMC,192731,A,2420.9683,N,08200.0746,W,2.4,352.9,220615,5.4,"
"##MN-00 00 54 0138 02781 7025 282096 023750 200"
"173.810857"
"$GPRMC,192735,A,2420.9708,N,08200.0751,W,2.5,353.4,220615,5.4,"
"##MN-00 00 56 0139 02781 7022 033640 023753 200"
"173.810903"
"$GPRMC,192739,A,2420.9733,N,08200.0756,W,2.5,353.3,220615,5.4,"
"##MN-00 00 55 0140 02783 7020 029296 023746 200"
"173.810949"
"$GPRMC,192743,A,2420.9760,N,08200.0762,W,2.5,352.9,220615,5.4,"
"##MN-00 00 55 0141 02781 7017 430704 023762 200"
"173.810995"
"$GPRMC,192747,A,2420.9789,N,08200.0766,W,2.5,352.4,220615,5.4,"
"##MN-00 00 55 0142 02784 7014 508528 023750 200"
"173.811042"
"$GPRMC,192751,A,2420.9820,N,08200.0771,W,2.5,352.3,220615,5.4,"
"##MN-00 00 53 0143 02783 7011 421864 023748 200"
"173.811088"
"$GPRMC,192755,A,2420.9847,N,08200.0777,W,2.5,352.1,220615,5.4,"
"##MN-00 00 52 0144 02785 7008 015232 023745 200"
"173.811134"
"$GPRMC,192759,A,2420.9875,N,08200.0780,W,2.5,351.9,220615,5.4,"
"##MN-00 00 52 0145 02783 7005 254848 023749 200"
"173.811181"
"$GPRMC,192803,A,2420.9904,N,08200.0785,W,2.5,352.0,220615,5.4,"
"##MN-00 00 52 0146 02783 7003 009056 023766 200"
"173.811227"
"$GPRMC,192807,A,2420.9930,N,08200.0791,W,2.5,352.0,220615,5.4,"
"##MN-00 00 54 0147 02785 7000 402888 023764 200"
"173.811273"
"$GPRMC,192811,A,2420.9959,N,08200.0794,W,2.5,351.4,220615,5.4,"
"##MN-00 00 55 0148 02786 6997 763656 023763 200"
"173.811319"
"$GPRMC,192815,A,2420.9984,N,08200.0798,W,2.5,351.4,220615,5.4,"
"##MN-00 00 55 0149 02785 6994 045280 023770 200"
"173.811366"
"$GPRMC,192819,A,2421.0009,N,08200.0801,W,2.4,352.2,220615,5.4,"
"##MN-00 00 56 0150 02786 6992 925112 023749 200"
"173.811412"
"$GPRMC,192823,A,2421.0041,N,08200.0805,W,2.4,353.8,220615,5.4,"
"##MN-00 00 52 0151 02787 6989 041824 023758 200"
"173.811458"
"$GPRMC,192827,A,2421.0067,N,08200.0806,W,2.4,354.9,220615,5.4,"
"##MN-00 00 52 0152 02786 6986 755840 023740 200"
"173.811505"
"$GPRMC,192831,A,2421.0098,N,08200.0809,W,2.4,355.0,220615,5.4,"
"##MN-00 00 52 0153 02788 6983 794288 023757 200"
"173.811551"
"$GPRMC,192835,A,2421.0127,N,08200.0813,W,2.5,355.5,220615,5.4,"
"##MN-00 00 54 0154 02787 6981 748792 023754 200"
"173.811597"
"$GPRMC,192839,A,2421.0156,N,08200.0816,W,2.5,355.8,220615,5.4,"
"##MN-00 00 55 0155 02787 6978 027776 023755 200"
"173.811644"
"$GPRMC,192843,A,2421.0183,N,08200.0817,W,2.5,356.4,220615,5.4,"
"##MN-00 00 53 0156 02787 6975 025096 023747 200"
"173.81169"
"$GPRMC,192847,A,2421.0212,N,08200.0818,W,2.5,357.2,220615,5.4,"
"##MN-00 00 52 0157 02790 6972 022448 023756 200"
"173.811736"
"$GPRMC,192851,A,2421.0243,N,08200.0820,W,2.5,357.9,220615,5.4,"
"##MN-00 00 51 0158 02790 6970 017584 023771 200"
"173.811782"
"$GPRMC,192855,A,2421.0272,N,08200.0822,W,2.5,358.0,220615,5.4,"
"##MN-00 00 51 0159 02789 6967 015392 023750 200"
"173.811829"
"$GPRMC,192859,A,2421.0298,N,08200.0824,W,2.5,357.4,220615,5.4,"
"##MN-00 00 52 0160 02787 6964 009632 023751 200"
"173.811887"
"$GPRMC,192903,A,2421.0324,N,08200.0827,W,2.5,356.4,220615,5.4,"
"##MN+00 00 52 0161 02788 6962 604704 023758 200"
"173.811933"
"$GPRMC,192907,A,2421.0354,N,08200.0831,W,2.5,355.9,220615,5.4,"
"##MN+00 00 52 0162 02788 6959 003088 023762 200"
"173.811979"
"$GPRMC,192911,A,2421.0381,N,08200.0833,W,2.5,355.2,220615,5.4,"
"##MN+00 00 55 0163 02790 6956 992840 023768 200"
"173.812025"
"$GPRMC,192915,A,2421.0406,N,08200.0837,W,2.5,354.8,220615,5.4,"
"##MN-00 00 56 0164 02791 6954 989792 023788 200"
"173.812072"
"#increment_net"
"$GPRMC,192919,A,2421.0434,N,08200.0842,W,2.5,354.1,220615,5.4,"
"##MN-00 00 52 0165 02789 6951 989384 023767 200"
"173.812118"
"$GPRMC,192923,A,2421.0460,N,08200.0845,W,2.5,353.5,220615,5.4,"
"##MN-00 00 51 0166 02791 6948 988960 023782 200"
"173.812164"
"$GPRMC,192927,A,2421.0486,N,08200.0849,W,2.5,353.4,220615,5.4,"
"##MN-00 00 50 0167 02790 6946 988160 023776 200"
"173.812211"
"$GPRMC,192931,A,2421.0515,N,08200.0853,W,2.5,353.5,220615,5.4,"
"##MN-00 00 50 0168 02793 6943 984624 023765 200"
"173.812257"
"$GPRMC,192935,A,2421.0542,N,08200.0854,W,2.5,353.6,220615,5.4,"
"##MN-00 00 50 0169 02791 6940 859984 023761 200"
"173.812303"
"$GPRMC,192939,A,2421.0568,N,08200.0858,W,2.5,353.5,220615,5.4,"
"##MN-00 00 50 0170 02791 6938 977568 023777 200"
"173.81235"
"$GPRMC,192943,A,2421.0596,N,08200.0861,W,2.5,353.5,220615,5.4,"
"##MN-00 00 50 0171 02790 6935 973168 023765 200"
"173.812396"
"$GPRMC,192947,A,2421.0634,N,08200.0864,W,2.5,353.9,220615,5.4,"
"##MN-00 00 50 0172 02793 6932 569152 023778 200"
"173.812442"
"$GPRMC,192951,A,2421.0662,N,08200.0867,W,2.5,354.2,220615,5.4,"
"##MN-00 00 50 0173 02790 6930 967008 023780 200"
"173.812488"
"$GPRMC,192955,A,2421.0691,N,08200.0868,W,2.5,354.8,220615,5.4,"
"##MN-00 00 50 0174 02791 6927 961712 023779 200"
"173.812535"
"$GPRMC,192959,A,2421.0720,N,08200.0871,W,2.5,355.0,220615,5.4,"
"##MN-00 00 50 0175 02794 6924 960816 023783 200"
"173.812581"
"$GPRMC,193004,A,2421.0757,N,08200.0874,W,2.5,355.6,220615,5.4,"
"##MN-00 00 51 0176 02793 6922 674344 023782 200"
"173.812627"
"$GPRMC,193008,A,2421.0785,N,08200.0876,W,2.5,355.8,220615,5.4,"
"##MN-00 00 54 0177 02791 6919 953776 023779 200"
"173.812674"
"$GPRMC,193012,A,2421.0814,N,08200.0879,W,2.6,356.2,220615,5.4,"
"##MN-00 00 51 0178 02793 6917 951608 023792 200"
"173.81272"
"$GPRMC,193016,A,2421.0843,N,08200.0880,W,2.5,356.2,220615,5.4,"
"##MN-00 00 51 0179 02794 6914 947648 023786 200"
"173.812766"
"$GPRMC,193020,A,2421.0872,N,08200.0882,W,2.5,356.1,220615,5.4,"
"##MN-00 00 51 0180 02792 6912 824280 023789 200"
"173.812812"
"$GPRMC,193024,A,2421.0900,N,08200.0885,W,2.6,356.2,220615,5.4,"
"##MN-00 00 51 0181 02795 6909 935216 023795 200"
"173.812859"
"$GPRMC,193028,A,2421.0926,N,08200.0887,W,2.5,355.9,220615,5.4,"
"##MN-00 00 51 0182 02791 6907 932120 023786 200"
"173.812905"
"$GPRMC,193032,A,2421.0956,N,08200.0888,W,2.5,355.4,220615,5.4,"
"##MN-00 00 51 0184 02793 6904 932624 023796 200"
"173.812951"
"$GPRMC,193036,A,2421.0984,N,08200.0890,W,2.5,355.0,220615,5.4,"
"##MN-00 00 54 0185 02794 6901 933088 023792 200"
"173.812998"
"$GPRMC,193040,A,2421.1013,N,08200.0893,W,2.5,355.3,220615,5.4,"
"##MN-00 00 53 0186 02792 6899 650648 023799 200"
"173.813044"
"$GPRMC,193044,A,2421.1044,N,08200.0896,W,2.6,355.4,220615,5.4,"
"##MN-00 00 51 0187 02793 6896 927392 023789 200"
"173.81309"
"$GPRMC,193048,A,2421.1071,N,08200.0899,W,2.5,355.2,220615,5.4,"
"##MN-00 00 51 0188 02794 6894 804920 023798 200"
"173.813137"
"$GPRMC,193052,A,2421.1099,N,08200.0900,W,2.5,354.9,220615,5.4,"
"##MN-00 00 51 0189 02795 6891 919424 023801 200"
"173.813183"
"$GPRMC,193056,A,2421.1128,N,08200.0903,W,2.5,354.6,220615,5.4,"
"##MN-00 00 51 0190 02794 6889 636080 023804 200"
"173.813229"
"$GPRMC,193100,A,2421.1153,N,08200.0906,W,2.5,354.3,220615,5.4,"
"##MN-00 00 51 0191 02794 6886 915104 023796 200"
"173.813275"
"$GPRMC,193104,A,2421.1178,N,08200.0910,W,2.5,354.2,220615,5.4,"
"##MN-00 00 51 0192 02794 6884 912448 023807 200"
"173.813322"
"$GPRMC,193108,A,2421.1207,N,08200.0914,W,2.5,354.3,220615,5.4,"
"##MN-00 00 50 0193 02794 6881 907984 023806 200"
"173.813368"
"$GPRMC,193112,A,2421.1234,N,08200.0917,W,2.5,354.6,220615,5.4,"
"##MN-00 00 50 0194 02793 6879 904904 023815 200"
"173.813414"
"$GPRMC,193116,A,2421.1261,N,08200.0919,W,2.5,354.5,220615,5.4,"
"##MN-00 00 50 0195 02793 6876 664016 023804 200"
"173.813461"
"$GPRMC,193120,A,2421.1288,N,08200.0921,W,2.5,354.8,220615,5.4,"
"##MN-00 00 51 0196 02795 6874 897424 023819 200"
"173.813507"
"$GPRMC,193124,A,2421.1319,N,08200.0925,W,2.5,354.9,220615,5.4,"
"##MN-00 00 50 0197 02793 6871 893864 023813 200"
"173.813553"
"$GPRMC,193128,A,2421.1346,N,08200.0929,W,2.5,355.2,220615,5.4,"
"##MN-00 00 51 0198 02793 6869 889488 023823 200"
"173.8136"
"$GPRMC,193132,A,2421.1377,N,08200.0932,W,2.5,354.9,220615,5.4,"
"##MN-00 00 55 0199 02793 6866 880600 023839 200"
"173.813646"
"$GPRMC,193136,A,2421.1407,N,08200.0934,W,2.5,355.2,220615,5.4,"
"##MN-00 00 55 0200 02794 6864 076048 023847 200"
"173.813692"
"$GPRMC,193140,A,2421.1435,N,08200.0936,W,2.5,355.1,220615,5.4,"
"##MN-00 00 55 0201 02794 6861 595936 023819 200"
"173.813738"
"$GPRMC,193144,A,2421.1464,N,08200.0938,W,2.5,354.9,220615,5.4,"
"##MN-00 00 51 0202 02794 6859 636656 023831 200"
"173.813785"
"$GPRMC,193148,A,2421.1492,N,08200.0941,W,2.5,355.4,220615,5.4,"
"##MN-00 00 51 0203 02794 6857 875840 023825 200"
"173.813831"
"$GPRMC,193152,A,2421.1523,N,08200.0943,W,2.5,356.0,220615,5.4,"
"##MN-00 00 51 0204 02794 6854 887008 023815 200"
"173.813877"
"$GPRMC,193156,A,2421.1552,N,08200.0946,W,2.5,356.5,220615,5.4,"
"##MN-00 00 50 0205 02794 6852 471360 023823 200"
"173.813924"
"$GPRMC,193200,A,2421.1583,N,08200.0948,W,2.5,356.5,220615,5.4,"
"##MN-00 00 50 0206 02794 6849 314960 023815 200"
"173.81397"
"$GPRMC,193204,A,2421.1613,N,08200.0951,W,2.5,356.8,220615,5.4,"
"##MN-00 00 50 0207 02794 6847 750416 023831 200"
"173.814016"
"$GPRMC,193208,A,2421.1642,N,08200.0954,W,2.5,357.0,220615,5.4,"
"##MN-00 00 50 0208 02794 6844 865776 023830 200"
"173.814063"
"$GPRMC,193212,A,2421.1671,N,08200.0957,W,2.5,357.0,220615,5.4,"
"##MN-00 00 50 0209 02795 6842 302576 023829 200"
"173.814109"
"$GPRMC,193216,A,2421.1699,N,08200.0957,W,2.5,356.7,220615,5.4,"
"##MN-00 00 50 0210 02793 6840 857808 023828 200"
"173.814155"
"$GPRMC,193220,A,2421.1727,N,08200.0959,W,2.5,356.3,220615,5.4,"
"##MN-00 00 50 0211 02794 6838 857008 023836 200"
"173.814201"
"$GPRMC,193224,A,2421.1754,N,08200.0961,W,2.5,356.0,220615,5.4,"
"##MN-00 00 50 0212 02794 6835 733192 023838 200"
"173.814248"
"$GPRMC,193228,A,2421.1781,N,08200.0965,W,2.5,356.4,220615,5.4,"
"##MN-00 00 50 0213 02796 6833 849040 023840 200"
"173.814294"
"$GPRMC,193232,A,2421.1808,N,08200.0966,W,2.5,356.3,220615,5.4,"
"##MN-00 00 50 0214 02792 6830 448136 023847 200"
"173.81434"
"$GPRMC,193236,A,2421.1836,N,08200.0967,W,2.5,355.8,220615,5.4,"
"##MN-00 00 50 0215 02794 6828 845552 023827 200"
"173.814387"
"$GPRMC,193240,A,2421.1863,N,08200.0969,W,2.5,355.6,220615,5.4,"
"##MN-00 00 51 0216 02794 6826 561736 023848 200"
"173.814433"
"$GPRMC,193244,A,2421.1890,N,08200.0972,W,2.5,355.7,220615,5.4,"
"##MN-00 00 54 0217 02793 6823 597968 023843 200"
"173.814479"
"$GPRMC,193248,A,2421.1917,N,08200.0975,W,2.5,355.7,220615,5.4,"
"##MN-00 00 51 0218 02794 6821 558232 023834 200"
"173.814525"
"$GPRMC,193252,A,2421.1945,N,08200.0976,W,2.5,355.2,220615,5.4,"
"##MN-00 00 51 0219 02794 6818 827840 023851 200"
"173.814572"
"$GPRMC,193256,A,2421.1971,N,08200.0979,W,2.4,355.4,220615,5.4,"
"##MN-00 00 51 0220 02795 6816 579392 023869 200"
"173.814618"
"$GPRMC,193300,A,2421.1999,N,08200.0982,W,2.4,355.2,220615,5.4,"
"##MN-00 00 51 0221 02794 6814 540032 023868 200"
"173.814664"
"$GPRMC,193304,A,2421.2025,N,08200.0984,W,2.4,354.8,220615,5.4,"
"##MN-00 00 51 0222 02794 6812 820768 023870 200"
"173.814711"
"$GPRMC,193308,A,2421.2052,N,08200.0986,W,2.4,355.0,220615,5.4,"
"##MN-00 00 51 0223 02795 6810 699664 023857 200"
"173.814757"
"$GPRMC,193312,A,2421.2082,N,08200.0990,W,2.4,354.6,220615,5.4,"
"##MN+00 00 54 0224 02795 6807 261168 023854 200"
"173.814803"
"$GPRMC,193316,A,2421.2110,N,08200.0993,W,2.4,354.4,220615,5.4,"
"##MN+00 00 52 0225 02795 6805 300088 023861 200"
"173.81485"
"$GPRMC,193320,A,2421.2137,N,08200.0995,W,2.4,354.5,220615,5.4,"
"##MN+00 00 51 0226 02795 6803 819984 023847 200"
"173.814896"
"#increment_net"
"$GPRMC,193324,A,2421.2166,N,08200.0998,W,2.4,354.8,220615,5.4,"
"##MN-00 00 56 0227 02793 6801 816880 023839 200"
"173.814942"
"$GPRMC,193328,A,2421.2193,N,08200.1001,W,2.4,354.3,220615,5.4,"
"##MN-00 00 52 0228 02794 6798 655992 023848 200"
"173.814988"
"$GPRMC,193332,A,2421.2220,N,08200.1002,W,2.4,354.5,220615,5.4,"
"##MN-00 00 51 0229 02796 6796 006560 023845 200"
"173.815035"
"$GPRMC,193336,A,2421.2249,N,08200.1005,W,2.5,354.8,220615,5.4,"
"##MN-00 00 51 0230 02795 6794 681600 023847 200"
"173.815081"
"$GPRMC,193340,A,2421.2276,N,08200.1007,W,2.4,355.2,220615,5.4,"
"##MN-00 00 50 0231 02796 6791 244432 023851 200"
"173.815139"
"$GPRMC,193344,A,2421.2299,N,08200.1009,W,2.4,356.2,220615,5.4,"
"##MN-00 00 50 0232 02795 6789 398288 023849 200"
"173.815185"
"$GPRMC,193348,A,2421.2323,N,08200.1011,W,2.4,357.0,220615,5.4,"
"##MN-00 00 50 0233 02795 6787 552128 023854 200"
"173.815231"
"$GPRMC,193352,A,2421.2347,N,08200.1012,W,2.4,357.2,220615,5.4,"
"##MN-00 00 50 0234 02797 6785 392144 023852 200"
"173.815278"
"$GPRMC,193356,A,2421.2368,N,08200.1013,W,2.4,357.6,220615,5.4,"
"##MN-00 00 50 0235 02796 6783 791808 023855 200"
"173.815324"
"$GPRMC,193400,A,2421.2408,N,08200.1016,W,2.5,357.2,220615,5.4,"
"##MN-00 00 50 0236 02795 6780 912008 023865 200"
"173.81537"
"$GPRMC,193404,A,2421.2435,N,08200.1017,W,2.5,357.2,220615,5.4,"
"##MN-00 00 50 0237 02798 6778 907632 023853 200"
"173.815417"
"$GPRMC,193408,A,2421.2464,N,08200.1020,W,2.5,357.8,220615,5.4,"
"##MN-00 00 50 0238 02795 6776 224224 023846 200"
"173.815463"
"$GPRMC,193412,A,2421.2495,N,08200.1022,W,2.5,358.2,220615,5.4,"
"##MN-00 00 50 0239 02797 6774 781160 023860 200"
"173.815509"
"$GPRMC,193416,A,2421.2519,N,08200.1022,W,2.4,358.3,220615,5.4,"
"##MN-00 00 50 0239 02797 6771 020784 023881 200"
"173.815556"
"$GPRMC,193420,A,2421.2551,N,08200.1023,W,2.4,357.8,220615,5.4,"
"##MN-00 00 50 0240 02798 6770 013208 023878 200"
"173.815602"
"$GPRMC,193424,A,2421.2581,N,08200.1025,W,2.5,356.5,220615,5.4,"
"##MN-00 00 50 0241 02796 6767 200272 023878 200"
"173.815648"
"$GPRMC,193428,A,2421.2610,N,08200.1028,W,2.4,356.0,220615,5.4,"
"##MN-00 00 50 0242 02798 6765 642848 023880 200"
"173.815694"
"$GPRMC,193432,A,2421.2636,N,08200.1030,W,2.4,355.8,220615,5.4,"
"##MN-00 00 50 0243 02798 6763 013760 023876 200"
"173.815741"
"$GPRMC,193436,A,2421.2661,N,08200.1031,W,2.4,355.6,220615,5.4,"
"##MN-00 00 50 0244 02797 6761 610200 023881 200"
"173.815787"
"$GPRMC,193440,A,2421.2689,N,08200.1034,W,2.4,355.1,220615,5.4,"
"##MN-00 00 50 0245 02798 6759 619496 023859 200"
"173.815833"
"$GPRMC,193444,A,2421.2711,N,08200.1037,W,2.4,354.1,220615,5.4,"
"##MN-00 00 50 0246 02799 6757 158000 023860 200"
"173.81588"
"$GPRMC,193448,A,2421.2736,N,08200.1041,W,2.4,353.3,220615,5.4,"
"##MN-00 00 50 0247 02797 6754 614664 023868 200"
"173.815926"
"$GPRMC,193452,A,2421.2760,N,08200.1046,W,2.4,353.5,220615,5.4,"
"##MN-00 00 50 0248 02800 6752 022640 023850 200"
"173.815972"
"$GPRMC,193457,A,2421.2790,N,08200.1051,W,2.4,352.8,220615,5.4,"
"##MN-00 00 50 0249 02798 6750 854712 023861 200"
"173.816019"
"$GPRMC,193500,A,2421.2811,N,08200.1055,W,2.4,353.0,220615,5.4,"
"##MN-00 00 50 0250 02799 6748 631408 023859 200"
"173.816065"
"$GPRMC,193505,A,2421.2849,N,08200.1056,W,2.4,352.6,220615,5.4,"
"##MN-00 00 50 0251 02799 6746 745872 023865 200"
"173.816111"
"$GPRMC,193509,A,2421.2878,N,08200.1059,W,2.4,353.0,220615,5.4,"
"##MN-00 00 50 0252 02798 6744 721608 023867 200"
"173.816157"
"$GPRMC,193512,A,2421.2898,N,08200.1062,W,2.4,353.4,220615,5.4,"
"##MN-00 00 50 0253 02798 6742 751296 023864 200"
"173.816204"
"$GPRMC,193517,A,2421.2932,N,08200.1066,W,2.4,354.5,220615,5.4,"
"##MN-00 00 50 0254 02801 6740 588520 023871 200"
"173.81625"
"$GPRMC,193521,A,2421.2961,N,08200.1067,W,2.4,354.3,220615,5.4,"
"##MN-00 00 50 0255 02800 6738 190688 023882 200"
"173.816296"
"$GPRMC,193525,A,2421.2988,N,08200.1069,W,2.4,354.2,220615,5.4,"
"##MN-00 00 51 0256 02799 6736 581952 023873 200"
"173.816343"
"$GPRMC,193529,A,2421.3015,N,08200.1073,W,2.4,354.5,220615,5.4,"
"##MN+00 00 51 0257 02801 6733 336216 023871 200"
"173.816389"
"$GPRMC,193533,A,2421.3040,N,08200.1076,W,2.4,354.6,220615,5.4,"
"##MN+00 00 50 0258 02800 6731 489600 023877 200"
"173.816435"
"$GPRMC,193537,A,2421.3068,N,08200.1077,W,2.4,354.7,220615,5.4,"
"##MN+00 00 50 0259 02800 6730 851664 023877 200"
"173.816482"
"#increment_net"
"$GPRMC,193541,A,2421.3096,N,08200.1080,W,2.4,355.0,220615,5.4,"
"##MN-00 00 54 0260 02798 6727 167824 023868 200"
"173.816528"
"$GPRMC,193545,A,2421.3123,N,08200.1080,W,2.4,355.6,220615,5.4,"
"##MN-00 00 50 0261 02800 6725 597496 023877 200"
"173.816574"
"$GPRMC,193549,A,2421.3152,N,08200.1084,W,2.4,355.9,220615,5.4,"
"##MN-00 00 50 0262 02800 6723 708832 023897 200"
"173.81662"
"$GPRMC,193553,A,2421.3181,N,08200.1085,W,2.4,355.8,220615,5.4,"
"##MN-00 00 49 0263 02800 6721 428568 023902 200"
"173.816667"
"$GPRMC,193557,A,2421.3208,N,08200.1087,W,2.4,355.7,220615,5.4,"
"##MN-00 00 50 0264 02800 6719 707104 023899 200"
"173.816713"
"$GPRMC,193601,A,2421.3232,N,08200.1091,W,2.4,355.4,220615,5.4,"
"##MN-00 00 50 0265 02801 6717 586848 023896 200"
"173.816759"
"$GPRMC,193605,A,2421.3263,N,08200.1092,W,2.4,355.2,220615,5.4,"
"##MN-00 00 50 0266 02800 6715 428184 023894 200"
"173.816806"
"$GPRMC,193609,A,2421.3290,N,08200.1096,W,2.4,355.2,220615,5.4,"
"##MN-00 00 50 0267 02801 6713 959136 023905 200"
"173.816852"
"$GPRMC,193613,A,2421.3318,N,08200.1099,W,2.4,355.1,220615,5.4,"
"##MN-00 00 50 0268 02802 6711 586928 023894 200"
"173.816898"
"$GPRMC,193617,A,2421.3342,N,08200.1102,W,2.4,355.0,220615,5.4,"
"##MN-00 00 50 0269 02800 6709 150192 023892 200"
"173.816944"
"$GPRMC,193621,A,2421.3368,N,08200.1105,W,2.4,354.8,220615,5.4,"
"##MN-00 00 50 0270 02801 6707 712496 023875 200"
"173.816991"
"$GPRMC,193625,A,2421.3397,N,08200.1109,W,2.4,354.2,220615,5.4,"
"##MN-00 00 50 0271 02801 6705 701920 023871 200"
"173.817037"
"$GPRMC,193629,A,2421.3422,N,08200.1113,W,2.4,354.1,220615,5.4,"
"##MN-00 00 50 0272 02798 6703 430136 023872 200"
"173.817083"
"$GPRMC,193633,A,2421.3449,N,08200.1114,W,2.4,354.2,220615,5.4,"
"##MN-00 00 51 0273 02800 6701 459664 023873 200"
"173.81713"
"$GPRMC,193637,A,2421.3481,N,08200.1117,W,2.4,353.9,220615,5.4,"
"##MN-00 00 50 0274 02800 6699 299216 023880 200"
"173.817176"
"$GPRMC,193641,A,2421.3510,N,08200.1120,W,2.4,354.0,220615,5.4,"
"##MN-00 00 50 0275 02801 6697 414640 023881 200"
"173.817222"
"$GPRMC,193645,A,2421.3542,N,08200.1124,W,2.4,354.1,220615,5.4,"
"##MN-00 00 50 0276 02800 6695 942416 023871 200"
"173.817269"
"$GPRMC,193649,A,2421.3571,N,08200.1128,W,2.5,353.8,220615,5.4,"
"##MN-00 00 51 0277 02798 6693 289488 023880 200"
"173.817315"
"$GPRMC,193653,A,2421.3597,N,08200.1132,W,2.4,353.4,220615,5.4,"
"##MN-00 00 51 0278 02800 6691 937136 023877 200"
"173.817361"
"$GPRMC,193657,A,2421.3622,N,08200.1136,W,2.4,353.5,220615,5.4,"
"##MN-00 00 50 0279 02800 6689 690048 023893 200"
"173.817407"
"$GPRMC,193701,A,2421.3647,N,08200.1140,W,2.4,353.7,220615,5.4,"
"##MN-00 00 50 0280 02799 6687 118416 023893 200"
"173.817454"
"$GPRMC,193705,A,2421.3675,N,08200.1143,W,2.4,353.9,220615,5.4,"
"##MN-00 00 50 0281 02802 6686 930968 023885 200"
"173.8175"
"$GPRMC,193709,A,2421.3701,N,08200.1146,W,2.4,353.5,220615,5.4,"
"##MN-00 00 51 0282 02800 6683 555664 023894 200"
"173.817546"
"$GPRMC,193713,A,2421.3727,N,08200.1149,W,2.4,353.6,220615,5.4,"
"##MN-00 00 50 0283 02799 6682 683536 023888 200"
"173.817593"
"$GPRMC,193717,A,2421.3752,N,08200.1153,W,2.4,353.5,220615,5.4,"
"##MN-00 00 50 0284 02800 6680 668400 023896 200"
"173.817639"
"$GPRMC,193721,A,2421.3777,N,08200.1157,W,2.4,353.7,220615,5.4,"
"##MN-00 00 51 0285 02801 6678 673744 023892 200"
"173.817685"
"$GPRMC,193725,A,2421.3799,N,08200.1163,W,2.4,354.2,220615,5.4,"
"##MN-00 00 50 0285 02800 6676 507872 023902 200"
"173.817731"
"$GPRMC,193729,A,2421.3823,N,08200.1165,W,2.3,354.2,220615,5.4,"
"##MN-00 00 50 0286 02800 6674 408320 023909 200"
"173.817778"
"$GPRMC,193733,A,2421.3842,N,08200.1166,W,2.3,354.7,220615,5.4,"
"##MN-00 00 50 0287 02801 6672 777960 023907 200"
"173.817824"
"$GPRMC,193737,A,2421.3878,N,08200.1166,W,2.4,355.3,220615,5.4,"
"##MN+00 00 50 0288 02800 6670 347408 023905 200"
"173.81787"
"$GPRMC,193741,A,2421.3907,N,08200.1168,W,2.4,355.9,220615,5.4,"
"##MN+00 00 50 0289 02801 6668 776664 023906 200"
"173.817917"
"$GPRMC,193745,A,2421.3936,N,08200.1170,W,2.4,356.5,220615,5.4,"
"##MN+00 00 50 0290 02800 6667 530032 023897 200"
"173.817963"
"$GPRMC,193749,A,2421.3965,N,08200.1170,W,2.4,356.9,220615,5.4,"
"##MN-00 00 52 0291 02802 6665 095600 023897 200"
"173.818009"
"#increment_net"
"$GPRMC,193753,A,2421.3992,N,08200.1172,W,2.4,357.3,220615,5.4,"
"##MN-00 00 49 0292 02801 6663 378520 023913 200"
"173.818056"
"$GPRMC,193757,A,2421.4019,N,08200.1173,W,2.4,357.6,220615,5.4,"
"##MN-00 00 49 0293 02798 6661 412144 023909 200"
"173.818102"
"$GPRMC,193801,A,2421.4044,N,08200.1174,W,2.4,358.0,220615,5.4,"
"##MN-00 00 48 0294 02801 6659 623872 023901 200"
"173.818148"
"$GPRMC,193805,A,2421.4073,N,08200.1174,W,2.4,358.4,220615,5.4,"
"##MN-00 00 48 0295 02798 6657 902832 023901 200"
"173.818194"
"$GPRMC,193809,A,2421.4099,N,08200.1174,W,2.4,358.4,220615,5.4,"
"##MN-00 00 48 0296 02800 6656 902904 023887 200"
"173.818252"
"$GPRMC,193813,A,2421.4126,N,08200.1175,W,2.4,358.1,220615,5.4,"
"##MN-00 00 48 0297 02800 6654 657576 023889 200"
"173.818299"
"$GPRMC,193817,A,2421.4155,N,08200.1178,W,2.5,358.2,220615,5.4,"
"##MN-00 00 48 0298 02798 6652 080576 023897 200"
"173.818345"
"$GPRMC,193821,A,2421.4182,N,08200.1178,W,2.5,358.3,220615,5.4,"
"##MN-00 00 48 0299 02799 6650 368432 023892 200"
"173.818391"
"$GPRMC,193825,A,2421.4211,N,08200.1179,W,2.5,358.0,220615,5.4,"
"##MN-00 00 47 0300 02801 6648 637664 023890 200"
"173.818437"
"$GPRMC,193829,A,2421.4239,N,08200.1180,W,2.5,357.9,220615,5.4,"
"##MN-00 00 48 0301 02799 6646 362672 023890 200"
"173.818484"
"$GPRMC,193833,A,2421.4267,N,08200.1181,W,2.5,357.5,220615,5.4,"
"##MN-00 00 48 0302 02800 6645 396272 023889 200"
"173.81853"
"$GPRMC,193837,A,2421.4294,N,08200.1185,W,2.4,356.9,220615,5.4,"
"##MN-00 00 48 0303 02800 6643 477600 023892 200"
"173.818576"
"$GPRMC,193841,A,2421.4321,N,08200.1186,W,2.4,356.8,220615,5.4,"
"##MN-00 00 48 0304 02798 6641 625264 023881 200"
"173.818623"
"$GPRMC,193845,A,2421.4346,N,08200.1188,W,2.4,356.7,220615,5.4,"
"##MN-00 00 47 0305 02800 6639 225624 023885 200"
"173.818669"
"$GPRMC,193849,A,2421.4370,N,08200.1189,W,2.4,356.3,220615,5.4,"
"##MN-00 00 47 0306 02801 6637 628320 023888 200"
"173.818715"
"$GPRMC,193853,A,2421.4399,N,08200.1192,W,2.4,356.6,220615,5.4,"
"##MN-00 00 47 0307 02799 6636 878192 023900 200"
"173.818762"
"$GPRMC,193857,A,2421.4430,N,08200.1196,W,2.4,356.1,220615,5.4,"
"##MN-00 00 50 0308 02799 6634 746824 023907 200"
"173.818808"
"$GPRMC,193901,A,2421.4458,N,08200.1199,W,2.4,355.9,220615,5.4,"
"##MN-00 00 48 0309 02799 6632 063872 023879 200"
"173.818854"
"$GPRMC,193905,A,2421.4485,N,08200.1200,W,2.4,355.8,220615,5.4,"
"##MN-00 00 48 0310 02801 6630 741048 023897 200"
"173.8189"
"$GPRMC,193910,A,2421.4517,N,08200.1201,W,2.4,355.6,220615,5.4,"
"##MN-00 00 47 0311 02800 6629 611264 023877 200"
"173.818947"
"$GPRMC,193914,A,2421.4543,N,08200.1203,W,2.5,355.5,220615,5.4,"
"##MN-00 00 47 0312 02799 6627 489528 023892 200"
"173.818993"
"$GPRMC,193917,A,2421.4567,N,08200.1204,W,2.4,355.1,220615,5.4,"
"##MN-00 00 47 0313 02799 6625 317088 023889 200"
"173.819039"
"$GPRMC,193921,A,2421.4597,N,08200.1205,W,2.4,355.6,220615,5.4,"
"##MN-00 00 47 0314 02799 6623 352848 023888 200"
"173.819086"
"$GPRMC,193925,A,2421.4628,N,08200.1206,W,2.4,356.0,220615,5.4,"
"##MN-00 00 47 0315 02798 6621 198632 023899 200"
"173.819132"
"$GPRMC,193929,A,2421.4655,N,08200.1207,W,2.4,356.6,220615,5.4,"
"##MN-00 00 47 0316 02800 6620 848064 023895 200"
"173.819178"
"$GPRMC,193934,A,2421.4690,N,08200.1207,W,2.4,357.9,220615,5.4,"
"##MN-00 00 48 0317 02800 6618 593472 023896 200"
"173.819225"
"$GPRMC,193938,A,2421.4716,N,08200.1208,W,2.4,358.6,220615,5.4,"
"##MN+00 00 47 0318 02801 6616 036480 023891 200"
"173.819271"
"$GPRMC,193942,A,2421.4744,N,08200.1207,W,2.4,359.6,220615,5.4,"
"##MN+00 00 46 0319 02800 6614 594352 023900 200"
"173.819317"
"$GPRMC,193946,A,2421.4771,N,08200.1206,W,2.4,0.5,220615,5.4,W*"
"##MN+00 00 47 0320 02800 6613 355712 023898 200"
"173.819363"
"$GPRMC,193950,A,2421.4796,N,08200.1205,W,2.4,0.7,220615,5.4,W*"
"##MN-00 00 53 0321 02799 6611 315944 023908 200"
"173.81941"
"#increment_net"
"$GPRMC,193954,A,2421.4824,N,08200.1206,W,2.4,0.9,220615,5.4,W*"
"##MN-00 00 50 0322 02801 6610 594480 023894 200"
"173.819456"
"$GPRMC,193958,A,2421.4850,N,08200.1200,W,2.4,1.0,220615,5.4,W*"
"##MN-00 00 50 0323 02803 6608 847312 023873 200"
"173.819502"
"$GPRMC,194002,A,2421.4875,N,08200.1196,W,2.4,1.2,220615,5.4,W*"
"##MN-00 00 51 0324 02801 6606 594496 023864 200"
"173.819549"
"$GPRMC,194006,A,2421.4903,N,08200.1192,W,2.5,1.7,220615,5.4,W*"
"##MN-00 00 50 0325 02801 6604 594560 023877 200"
"173.819595"
"$GPRMC,194010,A,2421.4930,N,08200.1190,W,2.5,2.1,220615,5.4,W*"
"##MN-00 00 49 0326 02800 6603 591880 023876 200"
"173.819641"
"$GPRMC,194014,A,2421.4958,N,08200.1188,W,2.5,2.2,220615,5.4,W*"
"##MN-00 00 50 0327 02802 6601 584752 023887 200"
"173.819688"
"$GPRMC,194018,A,2421.4984,N,08200.1187,W,2.5,1.9,220615,5.4,W*"
"##MN-00 00 49 0328 02798 6599 588720 023884 200"
"173.819734"
"$GPRMC,194022,A,2421.5011,N,08200.1189,W,2.5,2.5,220615,5.4,W*"
"##MN-00 00 49 0329 02799 6598 576736 023893 200"
"173.81978"
"$GPRMC,194026,A,2421.5040,N,08200.1189,W,2.5,2.9,220615,5.4,W*"
"##MN-00 00 50 0330 02801 6596 579016 023890 200"
"173.819826"
"$GPRMC,194030,A,2421.5067,N,08200.1186,W,2.5,2.8,220615,5.4,W*"
"##MN-00 00 50 0331 02800 6595 579056 023882 200"
"173.819873"
"$GPRMC,194034,A,2421.5096,N,08200.1186,W,2.5,2.8,220615,5.4,W*"
"##MN-00 00 50 0332 02800 6593 572416 023884 200"
"173.819919"
"$GPRMC,194038,A,2421.5125,N,08200.1186,W,2.5,2.3,220615,5.4,W*"
"##MN-00 00 51 0333 02802 6591 565736 023887 200"
"173.819965"
"$GPRMC,194042,A,2421.5154,N,08200.1186,W,2.5,1.6,220615,5.4,W*"
"##MN-00 00 50 0334 02799 6589 029696 023885 200"
"173.820012"
"$GPRMC,194046,A,2421.5179,N,08200.1183,W,2.5,1.4,220615,5.4,W*"
"##MN-00 00 51 0335 02799 6588 567112 023904 200"
"173.820058"
"$GPRMC,194050,A,2421.5207,N,08200.1181,W,2.5,1.4,220615,5.4,W*"
"##MN-00 00 51 0336 02798 6586 565344 023901 200"
"173.820104"
"$GPRMC,194054,A,2421.5233,N,08200.1179,W,2.5,2.1,220615,5.4,W*"
"##MN-00 00 50 0336 02798 6585 439304 023899 200"
"173.82015"
"$GPRMC,194058,A,2421.5261,N,08200.1178,W,2.5,2.6,220615,5.4,W*"
"##MN-00 00 50 0337 02799 6583 578736 023897 200"
"173.820197"
"$GPRMC,194102,A,2421.5287,N,08200.1178,W,2.5,2.6,220615,5.4,W*"
"##MN-00 00 51 0338 02799 6582 560936 023896 200"
"173.820243"
"$GPRMC,194106,A,2421.5316,N,08200.1178,W,2.5,3.5,220615,5.4,W*"
"##MN-00 00 49 0339 02799 6580 552928 023891 200"
"173.820289"
"$GPRMC,194110,A,2421.5345,N,08200.1174,W,2.5,4.9,220615,5.4,W*"
"##MN-00 00 49 0340 02799 6578 549384 023902 200"
"173.820336"
"$GPRMC,194114,A,2421.5372,N,08200.1171,W,2.5,6.4,220615,5.4,W*"
"##MN-00 00 51 0341 02799 6576 792960 023909 200"
"173.820382"
"$GPRMC,194118,A,2421.5403,N,08200.1167,W,2.5,7.5,220615,5.4,W*"
"##MN-00 00 50 0342 02799 6575 538688 023904 200"
"173.820428"
"$GPRMC,194122,A,2421.5432,N,08200.1161,W,2.5,8.1,220615,5.4,W*"
"##MN-00 00 50 0343 02796 6573 538272 023906 200"
"173.820475"
"$GPRMC,194126,A,2421.5463,N,08200.1155,W,2.5,8.6,220615,5.4,W*"
"##MN-00 00 51 0344 02797 6572 537856 023907 200"
"173.820521"
"$GPRMC,194130,A,2421.5492,N,08200.1151,W,2.5,8.7,220615,5.4,W*"
"##MN-00 00 50 0345 02798 6570 418560 023917 200"
"173.820567"
"$GPRMC,194134,A,2421.5518,N,08200.1145,W,2.5,8.9,220615,5.4,W*"
"##MN-00 00 51 0346 02799 6569 030384 023904 200"
"173.820613"
"$GPRMC,194138,A,2421.5542,N,08200.1141,W,2.5,9.3,220615,5.4,W*"
"##MN-00 00 50 0347 02799 6567 414600 023907 200"
"173.82066"
"$GPRMC,194142,A,2421.5566,N,08200.1138,W,2.5,9.2,220615,5.4,W*"
"##MN-00 00 50 0348 02796 6566 540688 023913 200"
"173.820706"
"$GPRMC,194146,A,2421.5591,N,08200.1134,W,2.5,9.4,220615,5.4,W*"
"##MN-00 00 50 0349 02797 6564 542008 023923 200"
"173.820752"
"$GPRMC,194150,A,2421.5619,N,08200.1127,W,2.5,9.7,220615,5.4,W*"
"##MN+00 00 50 0350 02796 6562 782952 023928 200"
"173.820799"
"$GPRMC,194154,A,2421.5645,N,08200.1122,W,2.5,9.8,220615,5.4,W*"
"##MN+00 00 50 0351 02798 6561 538080 023911 200"
"173.820845"
"$GPRMC,194158,A,2421.5672,N,08200.1116,W,2.5,10.5,220615,5.4,W"
"##MN+00 00 50 0352 02799 6559 538120 023867 200"
"173.820891"
"$GPRMC,194202,A,2421.5699,N,08200.1109,W,2.5,11.5,220615,5.4,W"
"##MN-00 00 55 0353 02797 6558 299456 023867 200"
"173.820937"
"$GPRMC,194206,A,2421.5725,N,08200.1103,W,2.4,11.9,220615,5.4,W"
"##MN-00 00 49 0354 02798 6556 665504 023878 200"
"173.820984"
"#increment_net"
"$GPRMC,194210,A,2421.5753,N,08200.1096,W,2.5,12.6,220615,5.4,W"
"##MN-00 00 48 0355 02798 6555 531968 023868 200"
"173.82103"
"$GPRMC,194214,A,2421.5782,N,08200.1089,W,2.5,12.2,220615,5.4,W"
"##MN-00 00 45 0356 02798 6553 532416 023877 200"
"173.821076"
"$GPRMC,194218,A,2421.5810,N,08200.1082,W,2.5,12.3,220615,5.4,W"
"##MN-00 00 45 0357 02802 6552 539984 023892 200"
"173.821123"
"$GPRMC,194222,A,2421.5840,N,08200.1075,W,2.5,12.4,220615,5.4,W"
"##MN-00 00 47 0358 02801 6550 528416 023896 200"
"173.821169"
"$GPRMC,194226,A,2421.5868,N,08200.1068,W,2.5,12.6,220615,5.4,W"
"##MN-00 00 43 0359 02804 6548 525768 023897 200"
"173.821215"
"$GPRMC,194230,A,2421.5898,N,08200.1061,W,2.6,12.4,220615,5.4,W"
"##MN-00 00 43 0360 02805 6547 020976 023900 200"
"173.821262"
"$GPRMC,194234,A,2421.5927,N,08200.1052,W,2.6,12.3,220615,5.4,W"
"##MN-00 00 43 0362 02806 6546 519160 023895 200"
"173.821308"
"$GPRMC,194238,A,2421.5956,N,08200.1043,W,2.6,12.2,220615,5.4,W"
"##MN-00 00 43 0363 02807 6544 520512 023898 200"
"173.821354"
"$GPRMC,194242,A,2421.5985,N,08200.1036,W,2.6,12.5,220615,5.4,W"
"##MN-00 00 42 0364 02807 6543 517384 023906 200"
"173.821412"
"$GPRMC,194246,A,2421.6016,N,08200.1029,W,2.6,12.9,220615,5.4,W"
"##MN-00 00 43 0365 02808 6541 512480 023902 200"
"173.821458"
"$GPRMC,194250,A,2421.6045,N,08200.1021,W,2.7,13.1,220615,5.4,W"
"##MN-00 00 42 0366 02811 6539 390944 023898 200"
"173.821505"
"$GPRMC,194254,A,2421.6075,N,08200.1014,W,2.8,12.9,220615,5.4,W"
"##MN-00 00 43 0367 02812 6538 507184 023920 200"
"173.821551"
"$GPRMC,194258,A,2421.6104,N,08200.1006,W,2.7,13.2,220615,5.4,W"
"##MN-00 00 42 0368 02812 6537 508120 023913 200"
"173.821597"
"$GPRMC,194302,A,2421.6135,N,08200.0999,W,2.7,13.4,220615,5.4,W"
"##MN-00 00 42 0369 02810 6535 505456 023908 200"
"173.821644"
"$GPRMC,194306,A,2421.6165,N,08200.0991,W,2.7,13.2,220615,5.4,W"
"##MN-00 00 43 0370 02811 6534 509952 023914 200"
"173.82169"
"$GPRMC,194310,A,2421.6194,N,08200.0984,W,2.7,13.4,220615,5.4,W"
"##MN-00 00 43 0371 02813 6532 751304 023904 200"
"173.821736"
"$GPRMC,194314,A,2421.6225,N,08200.0978,W,2.8,13.5,220615,5.4,W"
"##MN-00 00 42 0373 02811 6531 501984 023919 200"
"173.821782"
"$GPRMC,194318,A,2421.6255,N,08200.0970,W,2.8,14.0,220615,5.4,W"
"##MN-00 00 43 0374 02809 6530 498024 023917 200"
"173.821829"
"$GPRMC,194322,A,2421.6283,N,08200.0957,W,2.8,14.5,220615,5.4,W"
"##MN-00 00 43 0375 02810 6528 490416 023924 200"
"173.821875"
"$GPRMC,194326,A,2421.6312,N,08200.0950,W,2.7,14.1,220615,5.4,W"
"##MN-00 00 43 0376 02810 6527 486408 023931 200"
"173.821921"
"$GPRMC,194330,A,2421.6341,N,08200.0943,W,2.7,14.2,220615,5.4,W"
"##MN-00 00 43 0377 02811 6525 482416 023938 200"
"173.821968"
"$GPRMC,194334,A,2421.6370,N,08200.0933,W,2.7,13.9,220615,5.4,W"
"##MN-00 00 43 0378 02810 6523 481520 023931 200"
"173.822014"
"$GPRMC,194338,A,2421.6399,N,08200.0924,W,2.7,14.0,220615,5.4,W"
"##MN-00 00 44 0379 02809 6522 481528 023950 200"
"173.82206"
"$GPRMC,194342,A,2421.6429,N,08200.0917,W,2.7,13.7,220615,5.4,W"
"##MN-00 00 44 0380 02808 6521 482400 023938 200"
"173.822107"
"$GPRMC,194346,A,2421.6458,N,08200.0911,W,2.7,13.7,220615,5.4,W"
"##MN-00 00 43 0381 02808 6519 481096 023936 200"
"173.822153"
"$GPRMC,194350,A,2421.6487,N,08200.0903,W,2.7,13.8,220615,5.4,W"
"##MN-00 00 44 0383 02807 6518 481536 023944 200"
"173.822199"
"$GPRMC,194355,A,2421.6525,N,08200.0894,W,2.7,13.4,220615,5.4,W"
"##MN-00 00 44 0384 02804 6517 482000 023942 200"
"173.822245"
"$GPRMC,194359,A,2421.6554,N,08200.0886,W,2.7,13.5,220615,5.4,W"
"##MN-00 00 44 0385 02804 6515 481584 023937 200"
"173.822292"
"$GPRMC,194403,A,2421.6584,N,08200.0879,W,2.7,13.2,220615,5.4,W"
"##MN-00 00 44 0386 02800 6513 481104 023938 200"
"173.822338"
"$GPRMC,194406,A,2421.6606,N,08200.0872,W,2.7,12.7,220615,5.4,W"
"##MN-00 00 44 0387 02803 6512 482480 023941 200"
"173.822384"
"$GPRMC,194410,A,2421.6637,N,08200.0865,W,2.8,13.1,220615,5.4,W"
"##MN-00 00 44 0388 02800 6511 481152 023928 200"
"173.822431"
"$GPRMC,194415,A,2421.6674,N,08200.0855,W,2.8,12.9,220615,5.4,W"
"##MN-00 00 44 0390 02796 6509 481576 023920 200"
"173.822477"
"$GPRMC,194419,A,2421.6704,N,08200.0848,W,2.8,12.3,220615,5.4,W"
"##MN-00 00 45 0391 02797 6508 481584 023893 200"
"173.822523"
"$GPRMC,194423,A,2421.6734,N,08200.0842,W,2.8,11.6,220615,5.4,W"
"##MN-00 00 45 0392 02795 6507 481616 023887 200"
"173.822569"
"$GPRMC,194427,A,2421.6765,N,08200.0836,W,2.8,11.2,220615,5.4,W"
"##MN-00 00 45 0393 02795 6506 481648 023899 200"
"173.822616"
"$GPRMC,194431,A,2421.6794,N,08200.0830,W,2.8,10.8,220615,5.4,W"
"##MN-00 00 45 0394 02791 6504 482080 023896 200"
"173.822662"
"$GPRMC,194435,A,2421.6825,N,08200.0823,W,2.8,11.0,220615,5.4,W"
"##MN-00 00 48 0395 02790 6503 237584 023901 200"
"173.822708"
"$GPRMC,194439,A,2421.6855,N,08200.0818,W,2.8,11.2,220615,5.4,W"
"##MN-00 00 46 0397 02786 6501 473208 023916 200"
"173.822755"
"$GPRMC,194443,A,2421.6884,N,08200.0813,W,2.8,10.7,220615,5.4,W"
"##MN-00 00 46 0398 02783 6500 477184 023924 200"
"173.822801"
"$GPRMC,194447,A,2421.6915,N,08200.0806,W,2.8,11.1,220615,5.4,W"
"##MN-00 00 46 0399 02783 6499 470472 023905 200"
"173.822847"
"$GPRMC,194451,A,2421.6945,N,08200.0795,W,2.8,11.7,220615,5.4,W"
"##MN-00 00 46 0400 02782 6497 468264 023918 200"
"173.822894"
"$GPRMC,194455,A,2421.6974,N,08200.0785,W,2.8,11.8,220615,5.4,W"
"##MN-00 00 46 0401 02780 6496 466480 023916 200"
"173.82294"
"$GPRMC,194459,A,2421.7003,N,08200.0774,W,2.8,11.8,220615,5.4,W"
"##MN-00 00 46 0402 02778 6494 460296 023907 200"
"173.822986"
"$GPRMC,194503,A,2421.7034,N,08200.0764,W,2.8,12.1,220615,5.4,W"
"##MN-00 00 46 0404 02776 6493 459344 023921 200"
"173.823032"
"$GPRMC,194507,A,2421.7064,N,08200.0753,W,2.8,12.6,220615,5.4,W"
"##MN-00 00 46 0405 02776 6492 465552 023916 200"
"173.823079"
"$GPRMC,194511,A,2421.7094,N,08200.0745,W,2.8,13.2,220615,5.4,W"
"##MN-00 00 46 0406 02771 6490 461952 023924 200"
"173.823125"
"$GPRMC,194515,A,2421.7125,N,08200.0741,W,2.8,13.3,220615,5.4,W"
"##MN-00 00 46 0407 02772 6489 457872 023927 200"
"173.823171"
"$GPRMC,194519,A,2421.7155,N,08200.0733,W,2.8,13.4,220615,5.4,W"
"##MN-00 00 46 0408 02769 6488 466304 023920 200"
"173.823218"
"$GPRMC,194523,A,2421.7187,N,08200.0726,W,2.8,13.5,220615,5.4,W"
"##MN-00 00 46 0409 02769 6487 583320 023917 200"
"173.823264"
"$GPRMC,194527,A,2421.7216,N,08200.0718,W,2.8,13.5,220615,5.4,W"
"##MN-00 00 46 0410 02765 6486 446184 023931 200"
"173.82331"
"$GPRMC,194531,A,2421.7240,N,08200.0713,W,2.8,13.3,220615,5.4,W"
"##MN-00 00 46 0411 02764 6484 464400 023919 200"
"173.823356"
"$GPRMC,194535,A,2421.7278,N,08200.0705,W,2.8,12.7,220615,5.4,W"
"##MN-00 00 46 0412 02762 6483 447888 023915 200"
"173.823403"
"$GPRMC,194539,A,2421.7311,N,08200.0701,W,2.8,12.0,220615,5.4,W"
"##MN-00 00 46 0413 02761 6481 470576 023940 200"
"173.823449"
"$GPRMC,194543,A,2421.7336,N,08200.0695,W,2.8,11.7,220615,5.4,W"
"##MN-00 00 46 0414 02758 6480 699352 023920 200"
