" Tow: 10WS-A   RVWS/WS15161"
" Date: 22/06/2015"
" Temperature Probe #  4762    Conductivity Probe #  710"
" Pressure Probe #  159"
" Flow Meter Calibration  4.71 (m/count)  "
"173.658669"
"$GPRMC,154824,A,2419.5584,N,08202.3967,W,2.1,354.1,220615,5.4,"
"##MN-00 00 40 0015 01553 4864 451616 205050 196"
"173.658715"
"$GPRMC,154829,A,2419.5615,N,08202.3972,W,2.1,353.8,220615,5.4,"
"##MN-00 00 40 0016 01551 4868 441124 205015 196"
"173.658762"
"$GPRMC,154833,A,2419.5638,N,08202.3977,W,2.1,353.1,220615,5.4,"
"##MN-00 00 40 0017 01551 4872 441085 205005 196"
"173.658808"
"$GPRMC,154837,A,2419.5662,N,08202.3979,W,2.1,352.7,220615,5.4,"
"##MN-00 00 40 0018 01551 4875 441082 205003 196"
"173.658854"
"$GPRMC,154841,A,2419.5684,N,08202.3985,W,2.0,351.9,220615,5.4,"
"##MN-00 00 40 0019 01552 4878 441075 205001 196"
"173.6589"
"$GPRMC,154845,A,2419.5705,N,08202.3989,W,2.0,351.7,220615,5.4,"
"##MN-00 00 22 0020 01553 4881 441134 205007 196"
"173.658947"
"$GPRMC,154849,A,2419.5728,N,08202.3992,W,2.0,352.1,220615,5.4,"
"##MN-00 00 22 0021 01555 4885 441194 205012 196"
"173.658993"
"$GPRMC,154853,A,2419.5753,N,08202.3996,W,2.1,351.7,220615,5.4,"
"##MN-00 00 23 0022 01555 4888 441204 205078 196"
"173.659039"
"$GPRMC,154857,A,2419.5778,N,08202.3998,W,2.1,351.0,220615,5.4,"
"##MN-00 00 23 0023 01555 4892 441297 205035 196"
"173.659086"
"$GPRMC,154901,A,2419.5800,N,08202.4001,W,2.1,351.1,220615,5.4,"
"##MN-00 00 23 0024 01562 4896 441337 205048 196"
"173.659132"
"$GPRMC,154905,A,2419.5825,N,08202.4003,W,2.1,351.5,220615,5.4,"
"##MN-00 00 22 0025 01565 4899 441309 205044 196"
"173.659178"
"$GPRMC,154909,A,2419.5849,N,08202.4006,W,2.1,352.9,220615,5.4,"
"##MN-00 00 22 0026 01567 4903 441361 205049 196"
"173.659225"
"$GPRMC,154913,A,2419.5871,N,08202.4010,W,2.1,353.3,220615,5.4,"
"##MN-00 00 22 0027 01568 4906 441428 205053 196"
"173.659271"
"$GPRMC,154917,A,2419.5893,N,08202.4013,W,2.1,353.4,220615,5.4,"
"##MN-00 00 22 0028 01572 4909 441504 205061 196"
"173.659317"
"$GPRMC,154921,A,2419.5916,N,08202.4017,W,2.1,354.0,220615,5.4,"
"##MN-00 00 22 0029 01574 4913 441570 205077 196"
"173.659363"
"$GPRMC,154925,A,2419.5938,N,08202.4018,W,2.1,354.1,220615,5.4,"
"##MN-00 00 22 0030 01579 4916 441681 205097 196"
"173.659421"
"$GPRMC,154929,A,2419.5959,N,08202.4021,W,2.1,354.3,220615,5.4,"
"##MN-00 00 22 0031 01579 4920 441727 205097 196"
"173.659468"
"$GPRMC,154933,A,2419.5981,N,08202.4021,W,2.1,354.3,220615,5.4,"
"##MN-00 00 22 0032 01583 4924 441778 205110 196"
"173.659514"
"$GPRMC,154937,A,2419.6003,N,08202.4024,W,2.2,354.1,220615,5.4,"
"##MN-00 00 22 0033 01586 4927 441896 205125 196"
"173.65956"
"$GPRMC,154941,A,2419.6028,N,08202.4026,W,2.2,354.0,220615,5.4,"
"##MN-00 00 22 0034 01586 4931 441943 205139 196"
"173.659606"
"$GPRMC,154945,A,2419.6053,N,08202.4029,W,2.2,354.1,220615,5.4,"
"##MN-00 00 22 0035 01589 4934 442041 205160 196"
"173.659653"
"$GPRMC,154949,A,2419.6078,N,08202.4031,W,2.2,354.7,220615,5.4,"
"##MN-00 00 22 0036 01593 4938 442055 205159 196"
"173.659699"
"$GPRMC,154953,A,2419.6096,N,08202.4036,W,2.2,354.4,220615,5.4,"
"##MN-00 00 22 0037 01596 4941 442071 205155 196"
"173.659745"
"$GPRMC,154957,A,2419.6120,N,08202.4037,W,2.2,354.6,220615,5.4,"
"##MN-00 00 22 0038 01597 4945 442069 205152 196"
"173.659792"
"$GPRMC,155001,A,2419.6143,N,08202.4040,W,2.2,354.2,220615,5.4,"
"##MN-00 00 22 0039 01598 4948 442045 205150 196"
"173.659838"
"$GPRMC,155005,A,2419.6169,N,08202.4045,W,2.1,353.8,220615,5.4,"
"##MN-00 00 22 0040 01603 4952 442070 205148 196"
"173.659884"
"$GPRMC,155009,A,2419.6196,N,08202.4051,W,2.1,353.6,220615,5.4,"
"##MN-00 00 22 0042 01606 4955 442087 205148 196"
"173.659931"
"$GPRMC,155013,A,2419.6222,N,08202.4057,W,2.1,353.2,220615,5.4,"
"##MN-00 00 22 0043 01608 4959 442102 205145 196"
"173.659977"
"$GPRMC,155017,A,2419.6244,N,08202.4059,W,2.1,352.7,220615,5.4,"
"##MN-00 00 22 0044 01612 4962 442132 205145 196"
"173.660023"
"$GPRMC,155021,A,2419.6266,N,08202.4060,W,2.1,352.5,220615,5.4,"
"##MN-00 00 22 0045 01614 4966 442125 205144 196"
"173.660069"
"$GPRMC,155025,A,2419.6292,N,08202.4064,W,2.1,352.8,220615,5.4,"
"##MN-00 00 22 0046 01617 4969 442139 205148 196"
"173.660116"
"$GPRMC,155029,A,2419.6319,N,08202.4068,W,2.2,352.8,220615,5.4,"
"##MN-00 00 22 0047 01619 4972 442176 205154 196"
"173.660162"
"$GPRMC,155033,A,2419.6342,N,08202.4072,W,2.2,353.2,220615,5.4,"
"##MN-00 00 22 0048 01623 4976 442211 205155 196"
"173.660208"
"$GPRMC,155037,A,2419.6367,N,08202.4077,W,2.2,352.8,220615,5.4,"
"##MN-00 00 22 0049 01628 4980 442213 205153 196"
"173.660255"
"$GPRMC,155041,A,2419.6392,N,08202.4080,W,2.1,352.3,220615,5.4,"
"##MN-00 00 22 0050 01630 4983 442237 205153 196"
"173.660417"
"$GPRMC,155055,A,2419.6472,N,08202.4089,W,2.1,352.7,220615,5.4,"
"##MN-00 00 22 0054 01638 4995 442346 205154 196"
"173.660463"
"$GPRMC,155100,A,2419.6500,N,08202.4090,W,2.1,353.5,220615,5.4,"
"##MN-00 00 22 0056 01639 4999 442445 205137 196"
"173.660509"
"$GPRMC,155104,A,2419.6523,N,08202.4093,W,2.1,354.0,220615,5.4,"
"##MN-00 00 22 0057 01642 5002 442463 205128 196"
"173.660556"
"$GPRMC,155108,A,2419.6544,N,08202.4091,W,2.1,354.1,220615,5.4,"
"##MN-00 00 23 0058 01646 5005 442498 205117 196"
"173.660602"
"$GPRMC,155112,A,2419.6566,N,08202.4093,W,2.1,354.2,220615,5.4,"
"##MN-00 00 22 0059 01650 5009 442511 205112 196"
"173.660648"
"$GPRMC,155116,A,2419.6588,N,08202.4097,W,2.1,354.2,220615,5.4,"
"##MN-00 00 21 0060 01652 5012 442558 205106 196"
"173.660694"
"$GPRMC,155120,A,2419.6613,N,08202.4101,W,2.1,353.8,220615,5.4,"
"##MN-00 00 24 0061 01654 5016 442638 205096 196"
"173.660741"
"$GPRMC,155124,A,2419.6635,N,08202.4102,W,2.1,353.4,220615,5.4,"
"##MN-00 00 48 0062 01659 5019 442683 205087 196"
"173.660787"
"$GPRMC,155128,A,2419.6660,N,08202.4107,W,2.1,353.9,220615,5.4,"
"##MN-00 00 21 0063 01662 5023 442725 205080 196"
"173.660833"
"$GPRMC,155132,A,2419.6685,N,08202.4110,W,2.1,354.2,220615,5.4,"
"##MN+00 00 21 0064 01663 5026 442763 205072 196"
"173.66088"
"$GPRMC,155136,A,2419.6711,N,08202.4116,W,2.1,354.2,220615,5.4,"
"##MN+00 00 54 0066 01666 5029 442787 205060 196"
"173.660926"
"$GPRMC,155140,A,2419.6729,N,08202.4113,W,2.1,353.7,220615,5.4,"
"##MN+00 00 22 0067 01662 5032 442803 205055 196"
"173.660972"
"$GPRMC,155144,A,2419.6751,N,08202.4119,W,2.1,353.8,220615,5.4,"
"##MN-00 00 22 0068 01663 5036 442806 205058 196"
"173.661019"
"$GPRMC,155148,A,2419.6775,N,08202.4124,W,2.1,353.1,220615,5.4,"
"##MN+00 00 22 0069 01664 5039 442798 205055 196"
"173.661065"
"$GPRMC,155152,A,2419.6797,N,08202.4127,W,2.0,353.5,220615,5.4,"
"##MN+00 00 21 0070 01667 5042 442809 205055 197"
"173.661111"
"$GPRMC,155156,A,2419.6821,N,08202.4130,W,2.1,353.9,220615,5.4,"
"##MN+00 00 21 0072 01667 5046 442826 205049 196"
"173.661157"
"$GPRMC,155200,A,2419.6844,N,08202.4134,W,2.0,354.6,220615,5.4,"
"##MN-00 00 21 0073 01669 5049 442832 205045 196"
"173.661204"
"#increment_net"
"$GPRMC,155204,A,2419.6866,N,08202.4134,W,2.0,354.4,220615,5.4,"
"##MN-00 00 21 0074 01668 5052 442826 205042 197"
"173.66125"
"$GPRMC,155208,A,2419.6888,N,08202.4134,W,2.0,354.8,220615,5.4,"
"##MN-00 00 21 0075 01670 5055 442823 205040 196"
"173.661296"
"$GPRMC,155212,A,2419.6912,N,08202.4138,W,2.0,354.8,220615,5.4,"
"##MN-00 00 21 0076 01669 5059 442828 205040 196"
"173.661343"
"$GPRMC,155216,A,2419.6935,N,08202.4140,W,2.0,354.8,220615,5.4,"
"##MN-00 00 21 0077 01670 5062 442833 205038 197"
"173.661389"
"$GPRMC,155220,A,2419.6959,N,08202.4143,W,2.0,355.1,220615,5.4,"
"##MN-00 00 21 0078 01671 5065 442839 205033 196"
"173.661435"
"$GPRMC,155224,A,2419.6982,N,08202.4144,W,2.1,355.5,220615,5.4,"
"##MN-00 00 21 0080 01671 5069 442835 205032 196"
"173.661481"
"$GPRMC,155228,A,2419.7003,N,08202.4144,W,2.0,355.5,220615,5.4,"
"##MN-00 00 22 0081 01671 5072 442826 205036 196"
"173.661528"
"$GPRMC,155232,A,2419.7027,N,08202.4145,W,2.0,355.4,220615,5.4,"
"##MN+00 00 21 0082 01673 5075 442832 205035 197"
"173.661574"
"$GPRMC,155236,A,2419.7050,N,08202.4145,W,2.1,356.0,220615,5.4,"
"##MN+00 00 21 0083 01672 5078 442828 205033 196"
"173.66162"
"$GPRMC,155240,A,2419.7072,N,08202.4144,W,2.1,356.0,220615,5.4,"
"##MN+00 00 21 0084 01673 5081 442820 205035 197"
"173.661667"
"$GPRMC,155244,A,2419.7096,N,08202.4146,W,2.1,355.9,220615,5.4,"
"##MN-00 00 21 0086 01672 5085 442813 205038 196"
"173.661713"
"$GPRMC,155248,A,2419.7121,N,08202.4148,W,2.1,356.4,220615,5.4,"
"##MN-00 00 50 0087 01672 5088 442799 205043 197"
"173.661759"
"$GPRMC,155252,A,2419.7144,N,08202.4151,W,2.1,356.2,220615,5.4,"
"##MN-00 00 49 0088 01672 5091 442806 205044 196"
"173.661806"
"$GPRMC,155256,A,2419.7169,N,08202.4151,W,2.1,356.7,220615,5.4,"
"##MN-00 00 21 0089 01672 5094 442808 205044 196"
"173.661852"
"$GPRMC,155300,A,2419.7191,N,08202.4152,W,2.1,356.7,220615,5.4,"
"##MN+00 00 22 0090 01672 5097 442819 205039 196"
"173.661898"
"$GPRMC,155304,A,2419.7215,N,08202.4155,W,2.1,356.4,220615,5.4,"
"##MN+00 00 21 0091 01676 5101 442830 205034 196"
"173.661944"
"$GPRMC,155308,A,2419.7234,N,08202.4155,W,2.1,356.8,220615,5.4,"
"##MN+00 00 21 0093 01674 5104 442845 205029 196"
"173.661991"
"$GPRMC,155312,A,2419.7255,N,08202.4156,W,2.1,356.4,220615,5.4,"
"##MN-00 00 20 0094 01673 5107 442842 205026 196"
"173.662037"
"#increment_net"
"$GPRMC,155316,A,2419.7280,N,08202.4160,W,2.1,355.9,220615,5.4,"
"##MN-00 00 21 0095 01669 5110 442837 205027 196"
"173.662083"
"$GPRMC,155320,A,2419.7303,N,08202.4160,W,2.1,356.4,220615,5.4,"
"##MN-00 00 21 0096 01672 5113 442819 205030 196"
"173.66213"
"$GPRMC,155324,A,2419.7323,N,08202.4157,W,2.1,356.2,220615,5.4,"
"##MN-00 00 21 0097 01671 5116 442804 205037 196"
"173.662176"
"$GPRMC,155328,A,2419.7349,N,08202.4162,W,2.1,356.8,220615,5.4,"
"##MN-00 00 21 0098 01671 5120 442811 205038 196"
"173.662222"
"$GPRMC,155332,A,2419.7375,N,08202.4168,W,2.1,356.6,220615,5.4,"
"##MN-00 00 21 0100 01671 5122 442813 205039 196"
"173.662269"
"$GPRMC,155336,A,2419.7399,N,08202.4171,W,2.1,356.7,220615,5.4,"
"##MN-00 00 21 0101 01669 5126 442816 205039 196"
"173.662315"
"$GPRMC,155340,A,2419.7419,N,08202.4170,W,2.0,356.3,220615,5.4,"
"##MN-00 00 21 0102 01669 5129 442816 205037 196"
"173.662361"
"$GPRMC,155344,A,2419.7437,N,08202.4174,W,2.0,355.9,220615,5.4,"
"##MN-00 00 21 0103 01669 5132 442815 205036 196"
"173.662407"
"$GPRMC,155348,A,2419.7466,N,08202.4175,W,1.9,355.5,220615,5.4,"
"##MN+00 00 21 0104 01670 5135 442807 205037 196"
"173.662454"
"$GPRMC,155352,A,2419.7488,N,08202.4176,W,2.0,355.0,220615,5.4,"
"##MN+00 00 20 0106 01669 5138 442790 205042 196"
"173.6625"
"$GPRMC,155356,A,2419.7506,N,08202.4181,W,2.0,355.2,220615,5.4,"
"##MN+00 00 20 0107 01668 5141 442795 205042 196"
"173.662558"
"$GPRMC,155400,A,2419.7529,N,08202.4176,W,1.9,355.8,220615,5.4,"
"##MN-00 00 21 0108 01671 5144 442806 205040 197"
"173.662604"
"$GPRMC,155404,A,2419.7552,N,08202.4181,W,1.9,356.2,220615,5.4,"
"##MN-00 00 21 0109 01670 5147 442805 205038 197"
"173.66265"
"$GPRMC,155408,A,2419.7574,N,08202.4184,W,1.9,356.7,220615,5.4,"
"##MN-00 00 21 0110 01670 5150 442815 205032 196"
"173.662697"
"$GPRMC,155412,A,2419.7595,N,08202.4182,W,1.9,356.8,220615,5.4,"
"##MN+00 00 20 0111 01672 5153 442818 205030 196"
"173.662743"
"$GPRMC,155416,A,2419.7618,N,08202.4187,W,1.9,356.9,220615,5.4,"
"##MN+00 00 20 0112 01671 5157 442809 205030 196"
"173.662789"
"$GPRMC,155420,A,2419.7643,N,08202.4189,W,1.9,356.6,220615,5.4,"
"##MN+00 00 52 0114 01675 5160 442818 205029 197"
"173.662836"
"#increment_net"
"$GPRMC,155424,A,2419.7664,N,08202.4191,W,1.9,356.6,220615,5.4,"
"##MN-00 00 21 0115 01675 5162 442828 205027 197"
"173.662882"
"$GPRMC,155428,A,2419.7689,N,08202.4194,W,1.9,356.5,220615,5.4,"
"##MN-00 00 20 0116 01673 5165 442826 205025 196"
"173.662928"
"$GPRMC,155432,A,2419.7707,N,08202.4191,W,2.0,355.9,220615,5.4,"
"##MN-00 00 20 0117 01674 5169 442818 205025 197"
"173.662975"
"$GPRMC,155436,A,2419.7733,N,08202.4194,W,2.0,355.5,220615,5.4,"
"##MN-00 00 20 0118 01669 5171 442805 205027 196"
"173.663021"
"$GPRMC,155440,A,2419.7755,N,08202.4196,W,2.0,355.6,220615,5.4,"
"##MN-00 00 20 0119 01668 5174 442799 205031 196"
"173.663067"
"$GPRMC,155444,A,2419.7780,N,08202.4199,W,2.0,355.1,220615,5.4,"
"##MN-00 00 20 0121 01667 5177 442795 205033 196"
"173.663113"
"$GPRMC,155448,A,2419.7802,N,08202.4199,W,1.9,355.2,220615,5.4,"
"##MN-00 00 21 0122 01667 5180 442776 205035 196"
"173.66316"
"$GPRMC,155452,A,2419.7823,N,08202.4198,W,2.0,355.9,220615,5.4,"
"##MN-00 00 20 0123 01666 5183 442764 205039 196"
"173.663206"
"$GPRMC,155456,A,2419.7845,N,08202.4198,W,2.0,356.9,220615,5.4,"
"##MN+00 00 20 0124 01665 5186 442757 205040 196"
"173.663252"
"$GPRMC,155500,A,2419.7869,N,08202.4198,W,2.0,357.0,220615,5.4,"
"##MN+00 00 21 0126 01668 5189 442754 205040 196"
"173.663299"
"$GPRMC,155504,A,2419.7892,N,08202.4202,W,1.9,356.5,220615,5.4,"
"##MN+00 00 21 0127 01667 5192 442768 205036 196"
"173.663345"
"$GPRMC,155508,A,2419.7919,N,08202.4209,W,1.9,356.5,220615,5.4,"
"##MN-00 00 21 0128 01663 5195 442770 205033 196"
"173.663391"
"$GPRMC,155512,A,2419.7943,N,08202.4213,W,2.0,356.0,220615,5.4,"
"##MN-00 00 21 0129 01665 5198 442775 205034 197"
"173.663437"
"$GPRMC,155516,A,2419.7964,N,08202.4213,W,1.9,355.2,220615,5.4,"
"##MN-00 00 21 0130 01665 5201 442762 205034 196"
"173.663484"
"$GPRMC,155520,A,2419.7984,N,08202.4213,W,1.9,355.1,220615,5.4,"
"##MN+00 00 21 0132 01664 5203 442764 205034 196"
"173.66353"
"$GPRMC,155524,A,2419.8006,N,08202.4213,W,2.0,354.9,220615,5.4,"
"##MN+00 00 21 0133 01665 5207 442752 205035 196"
"173.663576"
"$GPRMC,155528,A,2419.8028,N,08202.4216,W,2.0,354.4,220615,5.4,"
"##MN+00 00 21 0134 01666 5209 442750 205037 196"
"173.663623"
"#increment_net"
"$GPRMC,155533,A,2419.8055,N,08202.4219,W,2.0,353.9,220615,5.4,"
"##MN-00 00 53 0135 01664 5212 442760 205034 196"
"173.663669"
"$GPRMC,155536,A,2419.8073,N,08202.4224,W,2.0,354.0,220615,5.4,"
"##MN-00 00 21 0137 01663 5215 442759 205035 196"
"173.663715"
"$GPRMC,155540,A,2419.8097,N,08202.4227,W,2.0,354.0,220615,5.4,"
"##MN-00 00 22 0138 01663 5218 442743 205039 196"
"173.663762"
"$GPRMC,155544,A,2419.8120,N,08202.4230,W,2.1,354.0,220615,5.4,"
"##MN-00 00 21 0139 01662 5220 442724 205044 196"
"173.663808"
"$GPRMC,155548,A,2419.8143,N,08202.4231,W,2.0,353.8,220615,5.4,"
"##MN-00 00 21 0140 01663 5223 442716 205049 196"
"173.663854"
"$GPRMC,155552,A,2419.8162,N,08202.4230,W,2.0,354.3,220615,5.4,"
"##MN-00 00 20 0141 01662 5226 442691 205054 196"
"173.6639"
"$GPRMC,155557,A,2419.8191,N,08202.4235,W,2.0,355.4,220615,5.4,"
"##MN-00 00 20 0143 01661 5229 442691 205052 196"
"173.663947"
"$GPRMC,155601,A,2419.8214,N,08202.4238,W,2.0,355.5,220615,5.4,"
"##MN-00 00 20 0144 01659 5232 442706 205050 196"
"173.663993"
"$GPRMC,155605,A,2419.8237,N,08202.4239,W,2.0,355.4,220615,5.4,"
"##MN-00 00 20 0145 01659 5235 442708 205046 196"
"173.664039"
"$GPRMC,155609,A,2419.8260,N,08202.4243,W,2.0,355.2,220615,5.4,"
"##MN+00 00 20 0147 01659 5238 442705 205043 196"
"173.664086"
"$GPRMC,155613,A,2419.8284,N,08202.4246,W,2.0,355.1,220615,5.4,"
"##MN+00 00 20 0148 01659 5240 442703 205043 196"
"173.664132"
"$GPRMC,155617,A,2419.8306,N,08202.4249,W,2.1,355.4,220615,5.4,"
"##MN+00 00 20 0149 01661 5243 442709 205043 196"
"173.664178"
"$GPRMC,155621,A,2419.8328,N,08202.4249,W,2.0,355.1,220615,5.4,"
"##MN-00 00 20 0150 01660 5245 442707 205040 196"
"173.664225"
"$GPRMC,155625,A,2419.8351,N,08202.4250,W,2.0,355.5,220615,5.4,"
"##MN+00 00 20 0151 01659 5248 442723 205040 196"
"173.664271"
"$GPRMC,155629,A,2419.8375,N,08202.4252,W,2.0,355.3,220615,5.4,"
"##MN+00 00 20 0153 01661 5251 442705 205043 196"
"173.664317"
"$GPRMC,155633,A,2419.8398,N,08202.4254,W,2.0,355.6,220615,5.4,"
"##MN+00 00 52 0154 01664 5254 442708 205044 196"
"173.664363"
"#increment_net"
"$GPRMC,155637,A,2419.8422,N,08202.4257,W,2.0,355.6,220615,5.4,"
"##MN-00 00 21 0155 01666 5256 442721 205034 196"
"173.66441"
"$GPRMC,155641,A,2419.8445,N,08202.4261,W,2.0,354.8,220615,5.4,"
"##MN-00 00 53 0157 01672 5259 442737 205025 196"
"173.664456"
"$GPRMC,155645,A,2419.8469,N,08202.4263,W,2.0,354.0,220615,5.4,"
"##MN-00 00 21 0158 01678 5262 442778 205013 196"
"173.664502"
"$GPRMC,155649,A,2419.8494,N,08202.4269,W,2.1,353.5,220615,5.4,"
"##MN-00 00 21 0160 01685 5264 442799 205000 196"
"173.664549"
"$GPRMC,155653,A,2419.8517,N,08202.4274,W,2.1,352.8,220615,5.4,"
"##MN-00 00 20 0161 01686 5267 442833 204988 196"
"173.664595"
"$GPRMC,155657,A,2419.8542,N,08202.4281,W,2.1,352.1,220615,5.4,"
"##MN-00 00 18 0163 01689 5270 442888 204970 196"
"173.664641"
"$GPRMC,155701,A,2419.8564,N,08202.4286,W,2.1,351.0,220615,5.4,"
"##MN-00 00 19 0165 01686 5272 442911 204963 196"
"173.664688"
"$GPRMC,155705,A,2419.8586,N,08202.4293,W,2.2,350.4,220615,5.4,"
"##MN-00 00 18 0166 01687 5275 442920 204960 196"
"173.664734"
"$GPRMC,155709,A,2419.8609,N,08202.4299,W,2.2,349.8,220615,5.4,"
"##MN-00 00 18 0168 01684 5278 442933 204959 196"
"173.66478"
"$GPRMC,155713,A,2419.8631,N,08202.4306,W,2.2,349.1,220615,5.4,"
"##MN-00 00 19 0169 01685 5280 442921 204963 196"
"173.664826"
"$GPRMC,155717,A,2419.8654,N,08202.4313,W,2.2,347.4,220615,5.4,"
"##MN-00 00 19 0171 01682 5283 442909 204968 196"
"173.664873"
"$GPRMC,155721,A,2419.8678,N,08202.4318,W,2.2,346.5,220615,5.4,"
"##MN-00 00 18 0173 01680 5286 442899 204973 196"
"173.664919"
"$GPRMC,155725,A,2419.8701,N,08202.4325,W,2.1,345.9,220615,5.4,"
"##MN-00 00 18 0174 01678 5288 442880 204977 196"
"173.664965"
"$GPRMC,155729,A,2419.8725,N,08202.4332,W,2.1,344.9,220615,5.4,"
"##MN-00 00 21 0176 01676 5291 442873 204980 196"
"173.665012"
"$GPRMC,155733,A,2419.8750,N,08202.4339,W,2.1,343.9,220615,5.4,"
"##MN-00 00 21 0177 01671 5294 442854 204984 196"
"173.665058"
"$GPRMC,155737,A,2419.8773,N,08202.4346,W,2.2,343.6,220615,5.4,"
"##MN-00 00 21 0179 01667 5296 442840 204991 196"
"173.665104"
"$GPRMC,155741,A,2419.8797,N,08202.4353,W,2.1,343.4,220615,5.4,"
"##MN-00 00 21 0180 01665 5299 442813 205000 196"
"173.66515"
"$GPRMC,155745,A,2419.8820,N,08202.4361,W,2.1,343.2,220615,5.4,"
"##MN-00 00 21 0182 01659 5302 442786 205008 196"
"173.665197"
"$GPRMC,155749,A,2419.8842,N,08202.4366,W,2.1,343.8,220615,5.4,"
"##MN-00 00 21 0184 01657 5304 442760 205016 196"
"173.665243"
"$GPRMC,155753,A,2419.8867,N,08202.4373,W,2.1,344.1,220615,5.4,"
"##MN-00 00 21 0185 01651 5306 442743 205021 196"
"173.665289"
"$GPRMC,155757,A,2419.8891,N,08202.4382,W,2.2,344.7,220615,5.4,"
"##MN-00 00 21 0187 01648 5309 442719 205030 196"
"173.665336"
"$GPRMC,155801,A,2419.8915,N,08202.4390,W,2.2,345.0,220615,5.4,"
"##MN-00 00 21 0188 01645 5311 442691 205038 196"
"173.665382"
"$GPRMC,155805,A,2419.8940,N,08202.4398,W,2.1,345.3,220615,5.4,"
"##MN-00 00 21 0190 01638 5314 442637 205049 196"
"173.665428"
"$GPRMC,155809,A,2419.8964,N,08202.4405,W,2.2,345.8,220615,5.4,"
"##MN-00 00 21 0192 01633 5316 442604 205055 196"
"173.665475"
"$GPRMC,155813,A,2419.8989,N,08202.4411,W,2.2,346.2,220615,5.4,"
"##MN-00 00 21 0193 01631 5319 442560 205064 196"
"173.665521"
"$GPRMC,155817,A,2419.9016,N,08202.4418,W,2.2,346.7,220615,5.4,"
"##MN-00 00 21 0195 01628 5321 442539 205067 196"
"173.665567"
"$GPRMC,155821,A,2419.9041,N,08202.4423,W,2.2,347.8,220615,5.4,"
"##MN-00 00 21 0196 01623 5324 442527 205072 196"
"173.665613"
"$GPRMC,155825,A,2419.9065,N,08202.4429,W,2.2,348.4,220615,5.4,"
"##MN-00 00 21 0198 01618 5326 442454 205079 196"
"173.66566"
"$GPRMC,155829,A,2419.9090,N,08202.4436,W,2.3,348.8,220615,5.4,"
"##MN-00 00 21 0200 01614 5329 442391 205087 196"
"173.665706"
"$GPRMC,155833,A,2419.9113,N,08202.4440,W,2.3,349.3,220615,5.4,"
"##MN-00 00 19 0201 01612 5332 442345 205094 196"
"173.665752"
"$GPRMC,155837,A,2419.9138,N,08202.4444,W,2.3,349.7,220615,5.4,"
"##MN-00 00 19 0203 01603 5334 442279 205101 196"
"173.66581"
"$GPRMC,155841,A,2419.9164,N,08202.4448,W,2.3,350.9,220615,5.4,"
"##MN-00 00 19 0205 01603 5336 442218 205107 196"
"173.665856"
"$GPRMC,155845,A,2419.9188,N,08202.4454,W,2.3,351.3,220615,5.4,"
"##MN-00 00 19 0206 01600 5339 442153 205109 196"
"173.665903"
"$GPRMC,155849,A,2419.9211,N,08202.4458,W,2.3,351.5,220615,5.4,"
"##MN-00 00 19 0208 01597 5341 442104 205106 196"
"173.665949"
"$GPRMC,155853,A,2419.9238,N,08202.4462,W,2.2,351.3,220615,5.4,"
"##MN-00 00 19 0209 01592 5344 442067 205104 196"
"173.665995"
"$GPRMC,155857,A,2419.9261,N,08202.4465,W,2.2,351.5,220615,5.4,"
"##MN-00 00 19 0211 01587 5346 442012 205093 196"
"173.666042"
"$GPRMC,155901,A,2419.9286,N,08202.4469,W,2.2,351.2,220615,5.4,"
"##MN-00 00 19 0213 01587 5349 441950 205083 196"
"173.666088"
"$GPRMC,155905,A,2419.9312,N,08202.4472,W,2.2,350.8,220615,5.4,"
"##MN-00 00 19 0214 01581 5351 441920 205078 196"
"173.666134"
"$GPRMC,155909,A,2419.9337,N,08202.4477,W,2.2,350.6,220615,5.4,"
"##MN-00 00 19 0216 01580 5353 441827 205058 196"
"173.666181"
"$GPRMC,155913,A,2419.9359,N,08202.4487,W,2.2,350.8,220615,5.4,"
"##MN-00 00 19 0217 01575 5356 441716 205033 196"
"173.666227"
"$GPRMC,155917,A,2419.9383,N,08202.4494,W,2.2,350.2,220615,5.4,"
"##MN-00 00 19 0219 01572 5358 441645 205029 196"
"173.666273"
"$GPRMC,155921,A,2419.9406,N,08202.4501,W,2.2,349.1,220615,5.4,"
"##MN-00 00 19 0221 01566 5360 441559 205006 196"
"173.666319"
"$GPRMC,155925,A,2419.9431,N,08202.4508,W,2.2,348.2,220615,5.4,"
"##MN-00 00 19 0222 01564 5363 441381 204977 196"
"173.666366"
"$GPRMC,155929,A,2419.9455,N,08202.4512,W,2.2,348.0,220615,5.4,"
"##MN-00 00 19 0224 01559 5365 441243 204946 196"
"173.666412"
"$GPRMC,155933,A,2419.9481,N,08202.4517,W,2.2,347.5,220615,5.4,"
"##MN-00 00 19 0225 01556 5368 441094 204916 196"
"173.666458"
"$GPRMC,155937,A,2419.9505,N,08202.4523,W,2.2,347.8,220615,5.4,"
"##MN-00 00 19 0227 01553 5370 440902 204884 196"
"173.666505"
"$GPRMC,155941,A,2419.9529,N,08202.4527,W,2.2,347.9,220615,5.4,"
"##MN-00 00 19 0228 01551 5373 440868 204887 196"
"173.666551"
"$GPRMC,155945,A,2419.9553,N,08202.4534,W,2.2,348.0,220615,5.4,"
"##MN-00 00 19 0230 01551 5375 440828 204872 196"
"173.666597"
"$GPRMC,155949,A,2419.9576,N,08202.4541,W,2.2,347.8,220615,5.4,"
"##MN-00 00 50 0231 01548 5377 440765 204860 196"
