" Tow: 10WS-B   RVWS/WS15161"
" Date: 22/06/2015"
" Temperature Probe #  4762    Conductivity Probe #  710"
" Pressure Probe #  159"
" Flow Meter Calibration  4.71 (m/count)  "
"173.691956"
"$GPRMC,163620,A,2421.9521,N,08202.9158,W,2.9,348.8,220615,5.4,"
"##MN-00 00 56 0000 01540 5435 420340 827675 196"
"173.692002"
"$GPRMC,163625,A,2421.9561,N,08202.9169,W,2.9,348.4,220615,5.4,"
"##MN-00 00 56 0000 01540 5436 422778 827821 196"
"173.692049"
"$GPRMC,163629,A,2421.9592,N,08202.9174,W,2.8,349.3,220615,5.4,"
"##MN-00 00 56 0000 01541 5437 421368 827752 196"
"173.692095"
"$GPRMC,163633,A,2421.9623,N,08202.9181,W,2.8,349.4,220615,5.4,"
"##MN-00 00 46 0001 01541 5438 421611 582210 196"
"173.692141"
"$GPRMC,163637,A,2421.9654,N,08202.9187,W,2.8,349.7,220615,5.4,"
"##MN-00 00 05 0002 01541 5439 439062 213150 196"
"173.692187"
"$GPRMC,163641,A,2421.9684,N,08202.9192,W,2.8,350.5,220615,5.4,"
"##MN-00 00 06 0002 01540 5441 439381 204018 196"
"173.692234"
"$GPRMC,163645,A,2421.9712,N,08202.9195,W,2.6,351.0,220615,5.4,"
"##MN-00 00 06 0003 01541 5442 439461 210055 196"
"173.69228"
"$GPRMC,163649,A,2421.9740,N,08202.9198,W,2.5,351.6,220615,5.4,"
"##MN-00 00 05 0004 01540 5443 439656 204597 196"
"173.692326"
"$GPRMC,163653,A,2421.9766,N,08202.9200,W,2.4,352.1,220615,5.4,"
"##MN-00 00 05 0005 01543 5444 439770 204375 196"
"173.692373"
"$GPRMC,163657,A,2421.9792,N,08202.9204,W,2.4,352.5,220615,5.4,"
"##MN-00 00 05 0006 01545 5445 439770 204319 196"
"173.692419"
"$GPRMC,163701,A,2421.9818,N,08202.9206,W,2.3,353.7,220615,5.4,"
"##MN-00 00 05 0007 01545 5446 439746 204334 196"
"173.692465"
"$GPRMC,163705,A,2421.9843,N,08202.9209,W,2.3,354.2,220615,5.4,"
"##MN-00 00 05 0008 01549 5448 439837 204472 196"
"173.692512"
"$GPRMC,163709,A,2421.9868,N,08202.9212,W,2.3,355.1,220615,5.4,"
"##MN-00 00 05 0009 01552 5449 439938 204448 196"
"173.692558"
"$GPRMC,163713,A,2421.9893,N,08202.9213,W,2.2,355.2,220615,5.4,"
"##MN-00 00 05 0010 01553 5450 439984 204700 196"
"173.692604"
"$GPRMC,163717,A,2421.9915,N,08202.9216,W,2.2,355.3,220615,5.4,"
"##MN-00 00 05 0011 01557 5451 440026 204491 196"
"173.69265"
"$GPRMC,163721,A,2421.9940,N,08202.9216,W,2.2,355.9,220615,5.4,"
"##MN-00 00 05 0012 01561 5452 440090 204512 196"
"173.692697"
"$GPRMC,163725,A,2421.9965,N,08202.9220,W,2.2,356.1,220615,5.4,"
"##MN-00 00 05 0013 01562 5454 440237 204542 196"
"173.692743"
"$GPRMC,163729,A,2421.9988,N,08202.9221,W,2.2,355.8,220615,5.4,"
"##MN-00 00 05 0014 01567 5455 440550 204582 196"
"173.692789"
"$GPRMC,163733,A,2422.0013,N,08202.9224,W,2.2,355.4,220615,5.4,"
"##MN-00 00 05 0015 01569 5457 440901 204596 196"
"173.692836"
"$GPRMC,163737,A,2422.0036,N,08202.9225,W,2.2,355.7,220615,5.4,"
"##MN-00 00 05 0017 01571 5458 441107 204641 196"
"173.692882"
"$GPRMC,163741,A,2422.0060,N,08202.9227,W,2.2,355.3,220615,5.4,"
"##MN-00 00 05 0018 01574 5460 441231 204694 196"
"173.692928"
"$GPRMC,163745,A,2422.0085,N,08202.9229,W,2.1,355.4,220615,5.4,"
"##MN-00 00 05 0019 01576 5461 441319 204701 196"
"173.692975"
"$GPRMC,163749,A,2422.0107,N,08202.9232,W,2.1,355.0,220615,5.4,"
"##MN-00 00 05 0020 01581 5463 441339 204741 196"
"173.693021"
"$GPRMC,163753,A,2422.0131,N,08202.9234,W,2.1,354.9,220615,5.4,"
"##MN-00 00 05 0021 01584 5464 441374 204755 196"
"173.693067"
"$GPRMC,163757,A,2422.0154,N,08202.9236,W,2.1,355.1,220615,5.4,"
"##MN-00 00 05 0022 01584 5465 441409 204768 196"
"173.693113"
"$GPRMC,163801,A,2422.0178,N,08202.9238,W,2.1,354.9,220615,5.4,"
"##MN-00 00 05 0023 01588 5467 441429 204753 196"
"173.69316"
"$GPRMC,163805,A,2422.0201,N,08202.9241,W,2.1,354.4,220615,5.4,"
"##MN-00 00 05 0024 01594 5469 441466 204751 196"
"173.693218"
"$GPRMC,163809,A,2422.0224,N,08202.9245,W,2.1,354.1,220615,5.4,"
"##MN-00 00 05 0025 01597 5470 441511 204742 196"
"173.693264"
"$GPRMC,163813,A,2422.0246,N,08202.9247,W,2.1,353.8,220615,5.4,"
"##MN-00 00 05 0027 01599 5472 441572 204732 196"
"173.69331"
"$GPRMC,163817,A,2422.0269,N,08202.9249,W,2.1,354.3,220615,5.4,"
"##MN-00 00 05 0028 01601 5474 441584 204720 196"
"173.693357"
"$GPRMC,163821,A,2422.0291,N,08202.9252,W,2.1,354.1,220615,5.4,"
"##MN-00 00 05 0029 01605 5476 441630 204713 196"
"173.693403"
"$GPRMC,163825,A,2422.0313,N,08202.9256,W,2.1,354.0,220615,5.4,"
"##MN-00 00 05 0030 01606 5477 441666 204706 196"
"173.693449"
"$GPRMC,163829,A,2422.0336,N,08202.9259,W,2.1,354.5,220615,5.4,"
"##MN-00 00 05 0031 01613 5478 441739 204704 196"
"173.693495"
"$GPRMC,163833,A,2422.0359,N,08202.9261,W,2.1,354.4,220615,5.4,"
"##MN-00 00 05 0032 01617 5480 441758 204697 196"
"173.693542"
"$GPRMC,163837,A,2422.0381,N,08202.9264,W,2.1,354.2,220615,5.4,"
"##MN-00 00 05 0033 01618 5481 441797 204694 196"
"173.693588"
"$GPRMC,163841,A,2422.0405,N,08202.9266,W,2.1,354.3,220615,5.4,"
"##MN-00 00 05 0034 01620 5483 441817 204695 196"
"173.693634"
"$GPRMC,163845,A,2422.0428,N,08202.9270,W,2.1,354.2,220615,5.4,"
"##MN-00 00 05 0035 01626 5485 441836 204687 196"
"173.693681"
"$GPRMC,163849,A,2422.0453,N,08202.9271,W,2.1,354.4,220615,5.4,"
"##MN-00 00 05 0036 01626 5486 441894 204685 196"
"173.693727"
"$GPRMC,163853,A,2422.0475,N,08202.9272,W,2.1,354.6,220615,5.4,"
"##MN-00 00 05 0037 01631 5488 441934 204681 196"
"173.693773"
"$GPRMC,163857,A,2422.0499,N,08202.9274,W,2.1,355.5,220615,5.4,"
"##MN-00 00 05 0038 01635 5490 441983 204675 196"
"173.693819"
"$GPRMC,163901,A,2422.0522,N,08202.9277,W,2.1,355.2,220615,5.4,"
"##MN-00 00 05 0040 01637 5492 442048 204683 196"
"173.693866"
"$GPRMC,163905,A,2422.0546,N,08202.9277,W,2.1,355.0,220615,5.4,"
"##MN-00 00 05 0041 01641 5493 442103 204680 196"
"173.693912"
"$GPRMC,163909,A,2422.0569,N,08202.9279,W,2.1,355.1,220615,5.4,"
"##MN-00 00 05 0042 01644 5495 442140 204678 196"
"173.693958"
"$GPRMC,163913,A,2422.0594,N,08202.9282,W,2.1,354.9,220615,5.4,"
"##MN-00 00 05 0043 01646 5496 442165 204672 196"
"173.694005"
"$GPRMC,163917,A,2422.0616,N,08202.9285,W,2.1,355.5,220615,5.4,"
"##MN-00 00 05 0044 01649 5498 442201 204669 196"
"173.694051"
"$GPRMC,163921,A,2422.0641,N,08202.9288,W,2.1,355.6,220615,5.4,"
"##MN-00 00 06 0045 01654 5499 442217 204667 196"
"173.694097"
"$GPRMC,163925,A,2422.0666,N,08202.9289,W,2.1,355.7,220615,5.4,"
"##MN+00 00 06 0046 01652 5501 442248 204672 196"
"173.694144"
"$GPRMC,163929,A,2422.0690,N,08202.9292,W,2.1,356.3,220615,5.4,"
"##MN+00 00 06 0047 01654 5503 442252 204667 196"
"173.69419"
"$GPRMC,163933,A,2422.0714,N,08202.9293,W,2.1,356.4,220615,5.4,"
"##MN+00 00 06 0048 01656 5505 442255 204670 196"
"173.694236"
"$GPRMC,163937,A,2422.0737,N,08202.9296,W,2.1,356.2,220615,5.4,"
"##MN+00 00 05 0050 01653 5506 442267 204669 196"
"173.694282"
"$GPRMC,163942,A,2422.0766,N,08202.9298,W,2.1,355.0,220615,5.4,"
"##MN+00 00 05 0051 01654 5508 442268 204675 196"
"173.694329"
"$GPRMC,163946,A,2422.0789,N,08202.9299,W,2.1,355.4,220615,5.4,"
"##MN+00 00 05 0052 01657 5510 442281 204674 196"
"173.694375"
"$GPRMC,163949,A,2422.0806,N,08202.9301,W,2.1,356.9,220615,5.4,"
"##MN-00 00 04 0053 01657 5512 442298 204672 196"
"173.694421"
"#increment_net"
"$GPRMC,163954,A,2422.0835,N,08202.9301,W,2.1,356.8,220615,5.4,"
"##MN-00 00 05 0054 01659 5513 442294 204670 196"
"173.694468"
"$GPRMC,163958,A,2422.0858,N,08202.9303,W,2.1,356.2,220615,5.4,"
"##MN-00 00 06 0055 01660 5515 442301 204669 196"
"173.694514"
"$GPRMC,164002,A,2422.0880,N,08202.9304,W,2.1,355.8,220615,5.4,"
"##MN-00 00 06 0056 01659 5516 442304 204668 196"
"173.69456"
"$GPRMC,164006,A,2422.0905,N,08202.9308,W,2.1,355.5,220615,5.4,"
"##MN-00 00 06 0057 01659 5518 442325 204668 196"
"173.694606"
"$GPRMC,164010,A,2422.0929,N,08202.9311,W,2.1,355.2,220615,5.4,"
"##MN-00 00 06 0058 01660 5519 442338 204666 196"
"173.694653"
"$GPRMC,164014,A,2422.0951,N,08202.9312,W,2.1,355.0,220615,5.4,"
"##MN-00 00 06 0060 01659 5521 442349 204666 196"
"173.694699"
"$GPRMC,164018,A,2422.0974,N,08202.9314,W,2.1,355.9,220615,5.4,"
"##MN-00 00 05 0061 01659 5523 442342 204668 196"
"173.694745"
"$GPRMC,164022,A,2422.0998,N,08202.9317,W,2.1,355.1,220615,5.4,"
"##MN-00 00 06 0062 01659 5524 442327 204667 196"
"173.694792"
"$GPRMC,164026,A,2422.1021,N,08202.9318,W,2.1,354.1,220615,5.4,"
"##MN+00 00 06 0063 01660 5526 442320 204666 196"
"173.694838"
"$GPRMC,164030,A,2422.1044,N,08202.9319,W,2.1,354.9,220615,5.4,"
"##MN+00 00 05 0064 01659 5528 442329 204667 196"
"173.694884"
"$GPRMC,164034,A,2422.1066,N,08202.9322,W,2.1,355.3,220615,5.4,"
"##MN+00 00 06 0065 01659 5529 442353 204667 196"
"173.694931"
"$GPRMC,164038,A,2422.1089,N,08202.9325,W,2.0,355.0,220615,5.4,"
"##MN-00 00 05 0066 01659 5530 442357 204667 196"
"173.694977"
"$GPRMC,164042,A,2422.1111,N,08202.9325,W,2.1,354.8,220615,5.4,"
"##MN+00 00 06 0067 01659 5532 442366 204668 196"
"173.695023"
"$GPRMC,164046,A,2422.1133,N,08202.9327,W,2.0,354.6,220615,5.4,"
"##MN+00 00 07 0068 01666 5534 442367 204667 196"
"173.695069"
"$GPRMC,164050,A,2422.1157,N,08202.9329,W,2.1,354.8,220615,5.4,"
"##MN+00 00 06 0069 01663 5536 442375 204669 196"
"173.695116"
"#increment_net"
"$GPRMC,164054,A,2422.1180,N,08202.9332,W,2.1,355.4,220615,5.4,"
"##MN-00 00 06 0071 01663 5537 442388 204670 196"
"173.695162"
"$GPRMC,164058,A,2422.1201,N,08202.9334,W,2.1,355.0,220615,5.4,"
"##MN-00 00 06 0072 01662 5539 442385 204670 196"
"173.695208"
"$GPRMC,164102,A,2422.1225,N,08202.9337,W,2.1,354.6,220615,5.4,"
"##MN-00 00 06 0073 01662 5541 442376 204670 196"
"173.695255"
"$GPRMC,164106,A,2422.1248,N,08202.9339,W,2.1,354.7,220615,5.4,"
"##MN-00 00 06 0074 01661 5542 442382 204671 196"
"173.695301"
"$GPRMC,164110,A,2422.1272,N,08202.9342,W,2.1,355.6,220615,5.4,"
"##MN-00 00 06 0075 01660 5544 442377 204670 196"
"173.695347"
"$GPRMC,164114,A,2422.1295,N,08202.9344,W,2.1,356.3,220615,5.4,"
"##MN-00 00 06 0076 01660 5545 442345 204670 196"
"173.695393"
"$GPRMC,164118,A,2422.1317,N,08202.9346,W,2.1,356.0,220615,5.4,"
"##MN+00 00 06 0078 01657 5546 442348 204669 196"
"173.69544"
"$GPRMC,164122,A,2422.1341,N,08202.9348,W,2.1,356.6,220615,5.4,"
"##MN+00 00 06 0079 01658 5548 442342 204669 196"
"173.695486"
"$GPRMC,164126,A,2422.1364,N,08202.9349,W,2.1,356.9,220615,5.4,"
"##MN+00 00 06 0080 01659 5550 442343 204669 196"
"173.695532"
"$GPRMC,164130,A,2422.1388,N,08202.9350,W,2.1,357.0,220615,5.4,"
"##MN-00 00 06 0081 01659 5551 442356 204668 196"
"173.695579"
"$GPRMC,164134,A,2422.1411,N,08202.9352,W,2.0,356.8,220615,5.4,"
"##MN-00 00 05 0082 01659 5553 442352 204668 196"
"173.695625"
"$GPRMC,164138,A,2422.1432,N,08202.9353,W,2.0,356.7,220615,5.4,"
"##MN-00 00 05 0083 01659 5554 442361 204667 196"
"173.695671"
"$GPRMC,164142,A,2422.1456,N,08202.9353,W,2.0,357.2,220615,5.4,"
"##MN+00 00 05 0084 01658 5556 442367 204667 196"
"173.695718"
"$GPRMC,164146,A,2422.1479,N,08202.9354,W,2.0,357.0,220615,5.4,"
"##MN+00 00 05 0085 01659 5557 442366 204667 196"
"173.695764"
"$GPRMC,164150,A,2422.1501,N,08202.9355,W,2.0,356.7,220615,5.4,"
"##MN+00 00 07 0086 01662 5560 442357 204667 196"
"173.69581"
"#increment_net"
"$GPRMC,164154,A,2422.1523,N,08202.9357,W,2.0,356.1,220615,5.4,"
"##MN-00 00 51 0087 01659 5560 442360 204667 196"
"173.695856"
"$GPRMC,164158,A,2422.1544,N,08202.9360,W,2.0,355.8,220615,5.4,"
"##MN-00 00 06 0089 01659 5562 442357 204667 196"
"173.695903"
"$GPRMC,164202,A,2422.1568,N,08202.9360,W,2.1,355.7,220615,5.4,"
"##MN-00 00 06 0090 01659 5563 442354 204666 196"
"173.695949"
"$GPRMC,164206,A,2422.1591,N,08202.9361,W,2.0,355.6,220615,5.4,"
"##MN-00 00 06 0091 01658 5565 442349 204666 196"
"173.695995"
"$GPRMC,164210,A,2422.1608,N,08202.9362,W,2.1,355.6,220615,5.4,"
"##MN-00 00 06 0092 01658 5567 442345 204666 196"
"173.696042"
"$GPRMC,164214,A,2422.1630,N,08202.9364,W,2.0,355.6,220615,5.4,"
"##MN-00 00 06 0093 01657 5568 442342 204666 196"
"173.696088"
"$GPRMC,164218,A,2422.1656,N,08202.9368,W,2.0,356.0,220615,5.4,"
"##MN+00 00 06 0094 01654 5570 442345 204665 196"
"173.696134"
"$GPRMC,164222,A,2422.1678,N,08202.9368,W,2.0,356.1,220615,5.4,"
"##MN+00 00 06 0096 01657 5571 442358 204666 196"
"173.696181"
"$GPRMC,164226,A,2422.1696,N,08202.9368,W,2.0,356.4,220615,5.4,"
"##MN+00 00 06 0097 01658 5573 442358 204665 196"
"173.696227"
"$GPRMC,164230,A,2422.1724,N,08202.9371,W,2.1,356.4,220615,5.4,"
"##MN-00 00 06 0098 01657 5574 442354 204665 196"
"173.696273"
"$GPRMC,164234,A,2422.1747,N,08202.9371,W,2.1,357.0,220615,5.4,"
"##MN-00 00 06 0099 01656 5576 442351 204666 196"
"173.696319"
"$GPRMC,164238,A,2422.1771,N,08202.9373,W,2.1,357.5,220615,5.4,"
"##MN+00 00 06 0100 01655 5577 442340 204666 196"
"173.696366"
"$GPRMC,164242,A,2422.1793,N,08202.9375,W,2.1,358.3,220615,5.4,"
"##MN+00 00 06 0101 01658 5579 442345 204665 196"
"173.696412"
"$GPRMC,164246,A,2422.1815,N,08202.9376,W,2.1,358.1,220615,5.4,"
"##MN+00 00 07 0102 01660 5580 442363 204665 196"
"173.69647"
"#increment_net"
"$GPRMC,164250,A,2422.1839,N,08202.9379,W,2.1,357.9,220615,5.4,"
"##MN-00 00 06 0104 01660 5582 442365 204664 196"
"173.696516"
"$GPRMC,164254,A,2422.1862,N,08202.9379,W,2.0,357.3,220615,5.4,"
"##MN-00 00 06 0105 01658 5583 442363 204664 196"
"173.696563"
"$GPRMC,164258,A,2422.1884,N,08202.9381,W,2.0,356.9,220615,5.4,"
"##MN-00 00 06 0106 01659 5585 442364 204665 196"
"173.696609"
"$GPRMC,164302,A,2422.1906,N,08202.9376,W,2.1,356.7,220615,5.4,"
"##MN-00 00 06 0107 01657 5586 442350 204665 196"
"173.696655"
"$GPRMC,164306,A,2422.1931,N,08202.9374,W,2.0,356.3,220615,5.4,"
"##MN-00 00 06 0108 01658 5588 442329 204665 196"
"173.696701"
"$GPRMC,164310,A,2422.1955,N,08202.9376,W,2.1,356.5,220615,5.4,"
"##MN-00 00 06 0109 01655 5589 442317 204665 196"
"173.696748"
"$GPRMC,164314,A,2422.1978,N,08202.9378,W,2.0,356.1,220615,5.4,"
"##MN-00 00 06 0111 01656 5591 442313 204665 196"
"173.696794"
"$GPRMC,164318,A,2422.2000,N,08202.9382,W,2.0,356.3,220615,5.4,"
"##MN+00 00 06 0112 01657 5592 442308 204664 196"
"173.69684"
"$GPRMC,164322,A,2422.2021,N,08202.9384,W,2.0,356.0,220615,5.4,"
"##MN+00 00 06 0113 01658 5593 442315 204664 196"
"173.696887"
"$GPRMC,164326,A,2422.2043,N,08202.9379,W,2.0,356.2,220615,5.4,"
"##MN+00 00 06 0114 01656 5595 442324 204664 196"
"173.696933"
"$GPRMC,164330,A,2422.2065,N,08202.9382,W,2.0,356.1,220615,5.4,"
"##MN-00 00 06 0115 01656 5597 442325 204664 196"
"173.696979"
"$GPRMC,164334,A,2422.2087,N,08202.9387,W,2.0,355.6,220615,5.4,"
"##MN-00 00 06 0117 01658 5598 442333 204663 196"
"173.697025"
"$GPRMC,164338,A,2422.2110,N,08202.9389,W,2.0,355.3,220615,5.4,"
"##MN+00 00 06 0118 01656 5600 442328 204663 196"
"173.697072"
"$GPRMC,164342,A,2422.2130,N,08202.9393,W,2.1,355.3,220615,5.4,"
"##MN+00 00 06 0119 01657 5601 442329 204663 196"
"173.697118"
"$GPRMC,164346,A,2422.2152,N,08202.9393,W,2.1,355.5,220615,5.4,"
"##MN+00 00 06 0120 01659 5603 442341 204663 196"
"173.697164"
"#increment_net"
"$GPRMC,164350,A,2422.2175,N,08202.9395,W,2.0,355.1,220615,5.4,"
"##MN-00 00 06 0121 01660 5604 442349 204663 196"
"173.697211"
"$GPRMC,164354,A,2422.2198,N,08202.9397,W,2.1,354.6,220615,5.4,"
"##MN-00 00 07 0123 01667 5606 442355 204662 196"
"173.697257"
"$GPRMC,164358,A,2422.2220,N,08202.9395,W,2.1,354.5,220615,5.4,"
"##MN-00 00 06 0124 01673 5607 442369 204663 196"
"173.697303"
"$GPRMC,164402,A,2422.2245,N,08202.9399,W,2.1,354.5,220615,5.4,"
"##MN-00 00 06 0126 01679 5608 442414 204667 196"
"173.69735"
"$GPRMC,164406,A,2422.2269,N,08202.9401,W,2.1,354.3,220615,5.4,"
"##MN-00 00 06 0127 01681 5610 442451 204675 196"
"173.697396"
"$GPRMC,164410,A,2422.2292,N,08202.9406,W,2.2,353.9,220615,5.4,"
"##MN-00 00 06 0129 01685 5612 442483 204679 196"
"173.697442"
"$GPRMC,164414,A,2422.2318,N,08202.9409,W,2.2,354.1,220615,5.4,"
"##MN-00 00 05 0130 01682 5613 442518 204681 196"
"173.697488"
"$GPRMC,164418,A,2422.2342,N,08202.9411,W,2.2,353.8,220615,5.4,"
"##MN-00 00 05 0132 01680 5614 442531 204683 196"
"173.697535"
"$GPRMC,164422,A,2422.2368,N,08202.9407,W,2.2,353.4,220615,5.4,"
"##MN-00 00 05 0133 01678 5616 442533 204684 196"
"173.697581"
"$GPRMC,164426,A,2422.2390,N,08202.9408,W,2.3,353.8,220615,5.4,"
"##MN-00 00 05 0135 01677 5617 442526 204683 196"
"173.697627"
"$GPRMC,164430,A,2422.2415,N,08202.9411,W,2.3,354.1,220615,5.4,"
"##MN-00 00 05 0136 01673 5619 442494 204680 196"
"173.697674"
"$GPRMC,164434,A,2422.2440,N,08202.9413,W,2.3,353.5,220615,5.4,"
"##MN-00 00 06 0138 01672 5620 442470 204677 196"
"173.69772"
"$GPRMC,164438,A,2422.2466,N,08202.9418,W,2.3,352.7,220615,5.4,"
"##MN-00 00 06 0139 01668 5622 442432 204672 196"
"173.697766"
"$GPRMC,164442,A,2422.2493,N,08202.9422,W,2.3,352.6,220615,5.4,"
"##MN-00 00 06 0141 01665 5623 442402 204668 196"
"173.697812"
"$GPRMC,164447,A,2422.2526,N,08202.9429,W,2.3,353.8,220615,5.4,"
"##MN-00 00 06 0142 01663 5624 442380 204665 196"
"173.697859"
"$GPRMC,164450,A,2422.2545,N,08202.9436,W,2.3,353.7,220615,5.4,"
"##MN-00 00 06 0144 01659 5626 442366 204663 196"
"173.697905"
"$GPRMC,164455,A,2422.2578,N,08202.9443,W,2.3,354.2,220615,5.4,"
"##MN-00 00 05 0145 01655 5627 442339 204661 196"
"173.697951"
"$GPRMC,164459,A,2422.2605,N,08202.9449,W,2.3,353.5,220615,5.4,"
"##MN-00 00 06 0147 01652 5629 442316 204661 196"
"173.697998"
"$GPRMC,164503,A,2422.2632,N,08202.9454,W,2.3,353.5,220615,5.4,"
"##MN-00 00 06 0148 01647 5630 442294 204661 196"
"173.698044"
"$GPRMC,164507,A,2422.2657,N,08202.9458,W,2.3,353.6,220615,5.4,"
"##MN-00 00 07 0150 01644 5631 442267 204660 196"
"173.69809"
"$GPRMC,164511,A,2422.2683,N,08202.9462,W,2.3,353.5,220615,5.4,"
"##MN-00 00 06 0151 01642 5633 442240 204660 196"
"173.698137"
"$GPRMC,164515,A,2422.2708,N,08202.9465,W,2.3,352.5,220615,5.4,"
"##MN-00 00 06 0153 01636 5634 442199 204662 196"
"173.698183"
"$GPRMC,164519,A,2422.2732,N,08202.9468,W,2.3,352.3,220615,5.4,"
"##MN-00 00 06 0154 01633 5636 442164 204662 196"
"173.698229"
"$GPRMC,164523,A,2422.2757,N,08202.9469,W,2.3,352.5,220615,5.4,"
"##MN-00 00 06 0156 01631 5637 442132 204666 196"
"173.698275"
"$GPRMC,164527,A,2422.2782,N,08202.9476,W,2.3,352.9,220615,5.4,"
"##MN-00 00 06 0157 01624 5639 442085 204671 196"
"173.698322"
"$GPRMC,164531,A,2422.2805,N,08202.9471,W,2.3,352.2,220615,5.4,"
"##MN-00 00 06 0159 01620 5640 442033 204674 196"
"173.698368"
"$GPRMC,164535,A,2422.2831,N,08202.9479,W,2.3,351.8,220615,5.4,"
"##MN-00 00 06 0161 01616 5641 441981 204672 196"
"173.698414"
"$GPRMC,164539,A,2422.2858,N,08202.9484,W,2.3,351.7,220615,5.4,"
"##MN-00 00 06 0162 01613 5642 441923 204671 196"
"173.698461"
"$GPRMC,164543,A,2422.2885,N,08202.9487,W,2.3,351.9,220615,5.4,"
"##MN-00 00 06 0164 01609 5644 441869 204671 196"
"173.698507"
"$GPRMC,164547,A,2422.2910,N,08202.9491,W,2.3,351.8,220615,5.4,"
"##MN-00 00 06 0165 01603 5645 441811 204673 196"
"173.698553"
"$GPRMC,164551,A,2422.2935,N,08202.9498,W,2.3,351.8,220615,5.4,"
"##MN-00 00 06 0167 01600 5647 441734 204674 196"
"173.698599"
"$GPRMC,164555,A,2422.2961,N,08202.9501,W,2.3,352.5,220615,5.4,"
"##MN-00 00 06 0168 01597 5648 441619 204680 196"
"173.698646"
"$GPRMC,164559,A,2422.2986,N,08202.9501,W,2.3,353.1,220615,5.4,"
"##MN-00 00 06 0170 01592 5649 441502 204691 196"
"173.698692"
"$GPRMC,164603,A,2422.3013,N,08202.9506,W,2.3,353.4,220615,5.4,"
"##MN-00 00 06 0172 01589 5650 441384 204709 196"
"173.698738"
"$GPRMC,164607,A,2422.3037,N,08202.9501,W,2.3,353.5,220615,5.4,"
"##MN-00 00 06 0173 01585 5652 441273 204708 196"
"173.698785"
"$GPRMC,164611,A,2422.3062,N,08202.9505,W,2.3,354.2,220615,5.4,"
"##MN-00 00 06 0175 01582 5653 441205 204707 196"
"173.698831"
"$GPRMC,164615,A,2422.3087,N,08202.9504,W,2.3,354.2,220615,5.4,"
"##MN-00 00 06 0176 01577 5654 441165 204703 196"
"173.698877"
"$GPRMC,164619,A,2422.3112,N,08202.9505,W,2.3,354.0,220615,5.4,"
"##MN-00 00 06 0178 01574 5656 441111 204703 196"
"173.698924"
"$GPRMC,164623,A,2422.3138,N,08202.9507,W,2.3,354.3,220615,5.4,"
"##MN-00 00 06 0180 01571 5657 441101 204704 196"
"173.69897"
"$GPRMC,164627,A,2422.3163,N,08202.9510,W,2.3,353.5,220615,5.4,"
"##MN-00 00 06 0181 01569 5658 441060 204693 196"
"173.699016"
"$GPRMC,164631,A,2422.3190,N,08202.9516,W,2.3,354.4,220615,5.4,"
"##MN-00 00 06 0183 01563 5659 440867 204640 196"
"173.699063"
"$GPRMC,164635,A,2422.3216,N,08202.9521,W,2.3,353.4,220615,5.4,"
"##MN-00 00 06 0184 01560 5661 440565 204580 196"
"173.699109"
"$GPRMC,164639,A,2422.3239,N,08202.9521,W,2.3,353.4,220615,5.4,"
"##MN-00 00 06 0186 01558 5662 440278 204528 196"
"173.699155"
"$GPRMC,164643,A,2422.3266,N,08202.9527,W,2.3,352.6,220615,5.4,"
"##MN-00 00 06 0187 01553 5664 440086 204469 196"
"173.699201"
"$GPRMC,164647,A,2422.3290,N,08202.9531,W,2.3,351.6,220615,5.4,"
"##MN-00 00 06 0189 01550 5665 439823 204416 196"
"173.699248"
"$GPRMC,164651,A,2422.3315,N,08202.9537,W,2.2,350.7,220615,5.4,"
"##MN-00 00 06 0190 01548 5667 439550 204379 196"
"173.699294"
"$GPRMC,164655,A,2422.3340,N,08202.9541,W,2.2,350.4,220615,5.4,"
"##MN-00 00 07 0192 01547 5668 439384 204326 196"
"173.69934"
"$GPRMC,164659,A,2422.3365,N,08202.9548,W,2.2,349.8,220615,5.4,"
"##MN-00 00 07 0193 01546 5669 439254 204305 196"
"173.699387"
"$GPRMC,164703,A,2422.3389,N,08202.9556,W,2.2,348.4,220615,5.4,"
"##MN-00 00 07 0194 01547 5671 439227 204306 196"
"173.699433"
"$GPRMC,164707,A,2422.3412,N,08202.9560,W,2.2,347.5,220615,5.4,"
"##MN-00 00 07 0196 01545 5672 439229 204290 196"
"173.699479"
"$GPRMC,164711,A,2422.3434,N,08202.9566,W,2.2,347.0,220615,5.4,"
"##MN-00 00 07 0197 01545 5673 439260 204301 196"
"173.699525"
"$GPRMC,164715,A,2422.3458,N,08202.9572,W,2.2,346.1,220615,5.4,"
"##MN-00 00 07 0199 01546 5675 439252 204290 196"
"173.699572"
"$GPRMC,164719,A,2422.3481,N,08202.9584,W,2.2,344.9,220615,5.4,"
"##MN-00 00 07 0200 01544 5676 439242 204291 196"
"173.699618"
"$GPRMC,164723,A,2422.3505,N,08202.9592,W,2.2,344.6,220615,5.4,"
"##MN-00 00 07 0201 01545 5677 439213 204284 196"
"173.699664"
"$GPRMC,164727,A,2422.3528,N,08202.9603,W,2.2,345.3,220615,5.4,"
"##MN-00 00 07 0203 01544 5679 439205 204285 196"
"173.699722"
"$GPRMC,164731,A,2422.3550,N,08202.9610,W,2.2,345.5,220615,5.4,"
"##MN-00 00 07 0204 01543 5680 439224 204288 196"
