" Tow: 13-OF-N-OUT   RVWS/WS15161"
" Date: 15/06/2015"
" Temperature Probe #  4762    Conductivity Probe #  710"
" Pressure Probe #  159"
" Flow Meter Calibration  4.71 (m/count)  "
"166.352072"
"$GPRMC,082651,A,2421.3257,N,08050.2176,W,0.9,302.0,150615,6.2,"
"##MN-00 00 32 0004 01535 5781 453194 784745 206"
"166.352118"
"$GPRMC,082656,A,2421.3264,N,08050.2189,W,1.0,302.8,150615,6.2,"
"##MN-00 00 32 0004 01536 5781 463109 827895 206"
"166.352164"
"$GPRMC,082700,A,2421.3271,N,08050.2197,W,1.0,303.4,150615,6.2,"
"##MN-00 00 31 0004 01535 5781 462776 827895 206"
"166.352211"
"$GPRMC,082704,A,2421.3275,N,08050.2207,W,1.0,302.8,150615,6.2,"
"##MN-00 00 32 0004 01535 5781 462523 827895 206"
"166.352257"
"$GPRMC,082708,A,2421.3282,N,08050.2218,W,1.0,301.9,150615,6.2,"
"##MN-00 00 32 0004 01535 5782 462893 827895 206"
"166.352303"
"$GPRMC,082712,A,2421.3286,N,08050.2225,W,1.0,301.5,150615,6.2,"
"##MN-00 00 32 0004 01536 5782 463040 827896 206"
"166.35235"
"$GPRMC,082716,A,2421.3290,N,08050.2236,W,1.0,298.9,150615,6.2,"
"##MN-00 00 30 0004 01534 5782 464100 827896 206"
"166.352396"
"$GPRMC,082720,A,2421.3295,N,08050.2252,W,1.0,296.5,150615,6.2,"
"##MN-00 00 31 0004 01536 5782 464084 827896 206"
"166.352442"
"$GPRMC,082724,A,2421.3299,N,08050.2262,W,0.9,293.5,150615,6.2,"
"##MN-00 00 31 0004 01535 5782 463871 827896 206"
"166.352488"
"$GPRMC,082728,A,2421.3300,N,08050.2273,W,1.0,289.3,150615,6.2,"
"##MN-00 00 30 0004 01536 5782 463949 827896 206"
"166.352535"
"$GPRMC,082732,A,2421.3302,N,08050.2283,W,0.9,286.0,150615,6.2,"
"##MN-00 00 30 0004 01534 5782 463122 827896 206"
"166.352581"
"$GPRMC,082736,A,2421.3301,N,08050.2292,W,0.9,282.1,150615,6.2,"
"##MN-00 00 32 0004 01534 5783 462424 827896 206"
"166.352639"
"$GPRMC,082740,A,2421.3303,N,08050.2305,W,0.9,278.0,150615,6.2,"
"##MN-00 00 33 0004 01535 5783 461715 827895 206"
"166.352685"
"$GPRMC,082744,A,2421.3300,N,08050.2316,W,0.9,273.8,150615,6.2,"
"##MN-00 00 31 0004 01536 5783 462099 827896 206"
"166.352731"
"$GPRMC,082748,A,2421.3299,N,08050.2327,W,0.8,270.8,150615,6.2,"
"##MN-00 00 31 0004 01536 5783 462027 827896 206"
"166.352778"
"$GPRMC,082752,A,2421.3300,N,08050.2337,W,0.8,268.6,150615,6.2,"
"##MN-00 00 32 0004 01536 5783 461217 827897 206"
"166.352824"
"$GPRMC,082756,A,2421.3300,N,08050.2346,W,0.8,267.6,150615,6.2,"
"##MN-00 00 25 0004 01535 5783 461879 827897 206"
"166.35287"
"$GPRMC,082800,A,2421.3298,N,08050.2356,W,0.8,267.0,150615,6.2,"
"##MN-00 00 38 0004 01535 5784 461928 827897 206"
"166.352917"
"$GPRMC,082804,A,2421.3300,N,08050.2366,W,0.8,267.0,150615,6.2,"
"##MN-00 00 30 0004 01535 5783 461474 827897 206"
"166.352963"
"$GPRMC,082808,A,2421.3300,N,08050.2377,W,0.8,267.2,150615,6.2,"
"##MN-00 00 22 0004 01535 5784 461208 827897 206"
"166.353009"
"$GPRMC,082812,A,2421.3300,N,08050.2385,W,0.8,268.6,150615,6.2,"
"##MN-00 00 22 0004 01536 5784 460619 827897 206"
"166.353056"
"$GPRMC,082816,A,2421.3301,N,08050.2392,W,0.8,270.8,150615,6.2,"
"##MN-00 00 23 0004 01533 5784 459645 827898 206"
"166.353102"
"$GPRMC,082820,A,2421.3304,N,08050.2399,W,0.8,274.2,150615,6.2,"
"##MN-00 00 23 0004 01535 5784 458264 827898 206"
"166.353148"
"$GPRMC,082824,A,2421.3307,N,08050.2404,W,0.6,277.5,150615,6.2,"
"##MN-00 00 23 0004 01535 5784 457176 827899 206"
"166.353194"
"$GPRMC,082828,A,2421.3311,N,08050.2408,W,0.6,282.5,150615,6.2,"
"##MN-00 00 23 0004 01535 5784 456507 827899 206"
"166.353241"
"$GPRMC,082832,A,2421.3315,N,08050.2413,W,0.6,288.7,150615,6.2,"
"##MN-00 00 23 0004 01535 5785 449426 381442 206"
"166.353287"
"$GPRMC,082836,A,2421.3321,N,08050.2421,W,0.6,296.3,150615,6.2,"
"##MN-00 00 23 0004 01536 5785 446420 287068 206"
"166.353333"
"$GPRMC,082840,A,2421.3326,N,08050.2424,W,0.7,301.7,150615,6.2,"
"##MN-00 00 23 0005 01534 5785 444123 227917 206"
"166.35338"
"$GPRMC,082844,A,2421.3333,N,08050.2429,W,0.6,306.8,150615,6.2,"
"##MN-00 00 05 0006 01535 5785 443784 225675 206"
"166.353426"
"$GPRMC,082848,A,2421.3339,N,08050.2435,W,0.7,311.6,150615,6.2,"
"##MN-00 00 06 0006 01536 5785 443651 208977 206"
"166.353472"
"$GPRMC,082852,A,2421.3344,N,08050.2442,W,0.6,316.4,150615,6.2,"
"##MN-00 00 04 0007 01537 5785 443617 204910 206"
"166.353519"
"$GPRMC,082856,A,2421.3351,N,08050.2445,W,0.6,319.8,150615,6.2,"
"##MN-00 00 05 0008 01536 5785 443572 204740 206"
"166.353565"
"$GPRMC,082900,A,2421.3358,N,08050.2449,W,0.6,322.0,150615,6.2,"
"##MN-00 00 06 0009 01536 5786 443580 204695 206"
"166.353611"
"$GPRMC,082904,A,2421.3364,N,08050.2451,W,0.5,324.9,150615,6.2,"
"##MN-00 00 05 0009 01540 5786 443599 204535 206"
"166.353657"
"$GPRMC,082908,A,2421.3368,N,08050.2453,W,0.5,327.1,150615,6.2,"
"##MN-00 00 05 0010 01538 5786 443648 204551 206"
"166.353704"
"$GPRMC,082912,A,2421.3373,N,08050.2457,W,0.5,328.4,150615,6.2,"
"##MN-00 00 06 0011 01542 5787 443634 204551 206"
"166.35375"
"$GPRMC,082916,A,2421.3380,N,08050.2461,W,0.5,329.2,150615,6.2,"
"##MN-00 00 06 0012 01545 5787 443607 204539 206"
"166.353796"
"$GPRMC,082920,A,2421.3386,N,08050.2468,W,0.5,329.5,150615,6.2,"
"##MN-00 00 06 0012 01546 5787 443578 204528 206"
"166.353843"
"$GPRMC,082924,A,2421.3389,N,08050.2467,W,0.4,330.2,150615,6.2,"
"##MN-00 00 06 0013 01549 5787 443561 204533 206"
"166.353889"
"$GPRMC,082928,A,2421.3394,N,08050.2472,W,0.4,330.9,150615,6.2,"
"##MN-00 00 06 0014 01549 5788 443534 204506 206"
"166.353935"
"$GPRMC,082932,A,2421.3396,N,08050.2478,W,0.4,331.7,150615,6.2,"
"##MN-00 00 06 0015 01556 5788 443548 204484 206"
"166.353981"
"$GPRMC,082936,A,2421.3398,N,08050.2480,W,0.4,331.9,150615,6.2,"
"##MN-00 00 06 0016 01558 5788 443551 204474 206"
"166.354028"
"$GPRMC,082940,A,2421.3401,N,08050.2482,W,0.4,332.8,150615,6.2,"
"##MN-00 00 06 0017 01555 5789 443545 204468 206"
"166.354074"
"$GPRMC,082944,A,2421.3405,N,08050.2483,W,0.4,334.7,150615,6.2,"
"##MN-00 00 06 0017 01562 5789 443543 204465 206"
"166.35412"
"$GPRMC,082948,A,2421.3407,N,08050.2484,W,0.4,335.6,150615,6.2,"
"##MN-00 00 06 0018 01564 5790 443531 204462 206"
"166.354167"
"$GPRMC,082952,A,2421.3409,N,08050.2487,W,0.4,336.3,150615,6.2,"
"##MN-00 00 06 0019 01564 5790 443519 204458 206"
"166.354213"
"$GPRMC,082956,A,2421.3409,N,08050.2489,W,0.3,337.3,150615,6.2,"
"##MN-00 00 06 0020 01569 5790 443531 204455 206"
"166.354259"
"$GPRMC,083000,A,2421.3412,N,08050.2491,W,0.3,336.4,150615,6.2,"
"##MN-00 00 06 0021 01573 5791 443547 204457 206"
"166.354306"
"$GPRMC,083004,A,2421.3414,N,08050.2491,W,0.4,338.2,150615,6.2,"
"##MN-00 00 06 0022 01577 5792 443544 204456 206"
"166.354352"
"$GPRMC,083008,A,2421.3418,N,08050.2490,W,0.4,340.0,150615,6.2,"
"##MN-00 00 06 0023 01582 5792 443531 204452 206"
"166.354398"
"$GPRMC,083012,A,2421.3425,N,08050.2490,W,0.4,341.4,150615,6.2,"
"##MN-00 00 06 0023 01586 5793 443550 204450 206"
"166.354444"
"$GPRMC,083016,A,2421.3432,N,08050.2493,W,0.4,342.8,150615,6.2,"
"##MN-00 00 06 0024 01589 5793 443546 204447 206"
"166.354491"
"$GPRMC,083020,A,2421.3434,N,08050.2496,W,0.4,342.9,150615,6.2,"
"##MN-00 00 07 0025 01590 5794 443522 204443 206"
"166.354537"
"$GPRMC,083024,A,2421.3437,N,08050.2500,W,0.5,342.4,150615,6.2,"
"##MN-00 00 07 0026 01592 5794 443524 204442 206"
"166.354583"
"$GPRMC,083028,A,2421.3443,N,08050.2500,W,0.4,342.7,150615,6.2,"
"##MN-00 00 06 0027 01595 5795 443519 204440 206"
"166.35463"
"$GPRMC,083032,A,2421.3448,N,08050.2502,W,0.4,342.8,150615,6.2,"
"##MN-00 00 06 0028 01600 5795 443516 204438 206"
"166.354676"
"$GPRMC,083036,A,2421.3452,N,08050.2504,W,0.4,344.4,150615,6.2,"
"##MN-00 00 06 0029 01599 5796 443523 204436 206"
"166.354722"
"$GPRMC,083040,A,2421.3456,N,08050.2507,W,0.4,345.7,150615,6.2,"
"##MN-00 00 07 0030 01604 5797 443507 204433 206"
"166.354769"
"$GPRMC,083044,A,2421.3459,N,08050.2508,W,0.3,346.3,150615,6.2,"
"##MN-00 00 06 0030 01608 5797 443500 204432 206"
"166.354815"
"$GPRMC,083049,A,2421.3465,N,08050.2507,W,0.3,347.0,150615,6.2,"
"##MN-00 00 06 0031 01608 5798 443499 204429 206"
"166.354861"
"$GPRMC,083053,A,2421.3467,N,08050.2507,W,0.2,347.5,150615,6.2,"
"##MN-00 00 06 0032 01613 5798 443503 204426 206"
"166.354907"
"$GPRMC,083057,A,2421.3468,N,08050.2508,W,0.2,348.2,150615,6.2,"
"##MN-00 00 07 0033 01617 5799 443529 204431 206"
"166.354954"
"$GPRMC,083101,A,2421.3470,N,08050.2509,W,0.3,343.1,150615,6.2,"
"##MN-00 00 06 0034 01620 5800 443543 204431 206"
"166.355"
"$GPRMC,083105,A,2421.3472,N,08050.2507,W,0.3,338.8,150615,6.2,"
"##MN-00 00 06 0035 01623 5800 443532 204430 206"
"166.355046"
"$GPRMC,083109,A,2421.3474,N,08050.2505,W,0.2,337.4,150615,6.2,"
"##MN-00 00 07 0036 01629 5801 443534 204428 206"
"166.355093"
"$GPRMC,083113,A,2421.3474,N,08050.2504,W,0.2,341.5,150615,6.2,"
"##MN-00 00 07 0037 01630 5801 443527 204426 206"
"166.355139"
"$GPRMC,083117,A,2421.3475,N,08050.2505,W,0.2,349.2,150615,6.2,"
"##MN-00 00 07 0037 01632 5802 443511 204424 206"
"166.355185"
"$GPRMC,083121,A,2421.3475,N,08050.2504,W,0.2,352.0,150615,6.2,"
"##MN-00 00 06 0038 01632 5802 443507 204423 206"
"166.355231"
"$GPRMC,083125,A,2421.3474,N,08050.2504,W,0.2,349.4,150615,6.2,"
"##MN-00 00 07 0039 01635 5803 443527 204424 206"
"166.355278"
"$GPRMC,083129,A,2421.3472,N,08050.2500,W,0.3,354.8,150615,6.2,"
"##MN-00 00 07 0040 01637 5804 443524 204423 206"
"166.355324"
"$GPRMC,083133,A,2421.3470,N,08050.2497,W,0.3,18.1,150615,6.2,W"
"##MN-00 00 07 0041 01641 5804 443520 204423 206"
"166.35537"
"$GPRMC,083137,A,2421.3469,N,08050.2495,W,0.3,40.9,150615,6.2,W"
"##MN-00 00 07 0042 01643 5805 443528 204423 206"
"166.355417"
"$GPRMC,083141,A,2421.3464,N,08050.2490,W,0.3,61.1,150615,6.2,W"
"##MN-00 00 06 0043 01646 5806 443536 204423 206"
"166.355463"
"$GPRMC,083145,A,2421.3461,N,08050.2485,W,0.3,76.9,150615,6.2,W"
"##MN-00 00 07 0044 01650 5806 443530 204420 206"
"166.355509"
"$GPRMC,083149,A,2421.3457,N,08050.2482,W,0.3,88.2,150615,6.2,W"
"##MN-00 00 07 0044 01651 5807 443507 204411 206"
"166.355556"
"$GPRMC,083153,A,2421.3454,N,08050.2480,W,0.3,98.0,150615,6.2,W"
"##MN-00 00 07 0045 01658 5808 443474 204403 206"
"166.355602"
"$GPRMC,083157,A,2421.3452,N,08050.2477,W,0.3,106.8,150615,6.2,"
"##MN-00 00 07 0046 01661 5808 443473 204402 206"
"166.355648"
"$GPRMC,083201,A,2421.3446,N,08050.2475,W,0.3,114.9,150615,6.2,"
"##MN-00 00 07 0047 01662 5809 443497 204405 206"
"166.355694"
"$GPRMC,083205,A,2421.3443,N,08050.2473,W,0.3,121.6,150615,6.2,"
"##MN-00 00 06 0048 01669 5810 443511 204406 206"
"166.355741"
"$GPRMC,083209,A,2421.3439,N,08050.2469,W,0.3,125.5,150615,6.2,"
"##MN-00 00 06 0049 01672 5811 443515 204410 206"
"166.355787"
"$GPRMC,083213,A,2421.3436,N,08050.2466,W,0.3,129.5,150615,6.2,"
"##MN-00 00 07 0050 01673 5811 443515 204409 206"
"166.355845"
"$GPRMC,083217,A,2421.3432,N,08050.2463,W,0.3,132.6,150615,6.2,"
"##MN-00 00 07 0051 01676 5812 443504 204409 206"
"166.355891"
"$GPRMC,083221,A,2421.3428,N,08050.2463,W,0.3,135.7,150615,6.2,"
"##MN-00 00 07 0052 01678 5812 443506 204409 206"
"166.355937"
"$GPRMC,083225,A,2421.3425,N,08050.2461,W,0.2,137.4,150615,6.2,"
"##MN-00 00 06 0052 01684 5813 443503 204408 206"
"166.355984"
"$GPRMC,083229,A,2421.3423,N,08050.2460,W,0.3,140.2,150615,6.2,"
"##MN-00 00 06 0053 01681 5814 443499 204407 206"
"166.35603"
"$GPRMC,083233,A,2421.3420,N,08050.2457,W,0.4,136.9,150615,6.2,"
"##MN-00 00 07 0054 01686 5814 443497 204407 206"
"166.356076"
"$GPRMC,083237,A,2421.3420,N,08050.2456,W,0.4,129.1,150615,6.2,"
"##MN-00 00 06 0055 01692 5815 443494 204406 206"
"166.356123"
"$GPRMC,083241,A,2421.3419,N,08050.2456,W,0.3,125.4,150615,6.2,"
"##MN-00 00 06 0056 01695 5815 443486 204403 206"
"166.356169"
"$GPRMC,083245,A,2421.3417,N,08050.2452,W,0.3,123.5,150615,6.2,"
"##MN-00 00 06 0057 01699 5816 443474 204400 206"
"166.356215"
"$GPRMC,083249,A,2421.3416,N,08050.2449,W,0.4,116.6,150615,6.2,"
"##MN-00 00 06 0058 01701 5817 443467 204397 206"
"166.356262"
"$GPRMC,083253,A,2421.3413,N,08050.2448,W,0.4,108.7,150615,6.2,"
"##MN-00 00 06 0059 01704 5817 443455 204394 206"
"166.356308"
"$GPRMC,083257,A,2421.3414,N,08050.2454,W,0.3,105.8,150615,6.2,"
"##MN-00 00 07 0059 01703 5818 443451 204391 206"
"166.356354"
"$GPRMC,083301,A,2421.3416,N,08050.2456,W,0.3,103.3,150615,6.2,"
"##MN-00 00 07 0060 01711 5818 443436 204386 206"
"166.3564"
"$GPRMC,083305,A,2421.3412,N,08050.2452,W,0.2,102.5,150615,6.2,"
"##MN-00 00 07 0061 01711 5819 443434 204386 206"
"166.356447"
"$GPRMC,083309,A,2421.3410,N,08050.2447,W,0.2,103.5,150615,6.2,"
"##MN-00 00 07 0062 01715 5820 443445 204386 206"
"166.356493"
"$GPRMC,083313,A,2421.3414,N,08050.2447,W,0.2,104.9,150615,6.2,"
"##MN-00 00 06 0063 01717 5821 443450 204388 206"
"166.356539"
"$GPRMC,083317,A,2421.3412,N,08050.2447,W,0.2,107.0,150615,6.2,"
"##MN-00 00 06 0064 01721 5821 443473 204392 206"
"166.356586"
"$GPRMC,083321,A,2421.3409,N,08050.2446,W,0.2,106.5,150615,6.2,"
"##MN-00 00 06 0065 01725 5822 443493 204400 206"
"166.356632"
"$GPRMC,083325,A,2421.3407,N,08050.2446,W,0.2,106.0,150615,6.2,"
"##MN-00 00 06 0065 01725 5822 443477 204395 206"
"166.356678"
"$GPRMC,083329,A,2421.3405,N,08050.2445,W,0.2,108.4,150615,6.2,"
"##MN-00 00 06 0066 01725 5823 443483 204396 206"
"166.356725"
"$GPRMC,083333,A,2421.3402,N,08050.2442,W,0.2,114.3,150615,6.2,"
"##MN-00 00 06 0067 01729 5824 443447 204391 206"
"166.356771"
"$GPRMC,083337,A,2421.3400,N,08050.2436,W,0.3,115.9,150615,6.2,"
"##MN-00 00 06 0068 01732 5824 443415 204382 206"
"166.356817"
"$GPRMC,083341,A,2421.3398,N,08050.2428,W,0.3,113.7,150615,6.2,"
"##MN-00 00 07 0069 01734 5825 443403 204379 206"
"166.356863"
"$GPRMC,083345,A,2421.3398,N,08050.2422,W,0.3,111.9,150615,6.2,"
"##MN-00 00 07 0070 01740 5826 443401 204375 206"
"166.35691"
"$GPRMC,083349,A,2421.3395,N,08050.2420,W,0.3,112.4,150615,6.2,"
"##MN-00 00 07 0071 01743 5827 443398 204373 206"
"166.356956"
"$GPRMC,083353,A,2421.3394,N,08050.2419,W,0.3,113.2,150615,6.2,"
"##MN-00 00 07 0072 01748 5828 443444 204375 206"
"166.357002"
"$GPRMC,083357,A,2421.3393,N,08050.2418,W,0.3,114.2,150615,6.2,"
"##MN-00 00 07 0072 01752 5828 443469 204385 206"
"166.357049"
"$GPRMC,083401,A,2421.3391,N,08050.2417,W,0.3,116.3,150615,6.2,"
"##MN-00 00 07 0073 01754 5829 443478 204392 206"
"166.357095"
"$GPRMC,083405,A,2421.3391,N,08050.2415,W,0.3,114.8,150615,6.2,"
"##MN-00 00 07 0074 01756 5829 443478 204390 206"
"166.357141"
"$GPRMC,083409,A,2421.3389,N,08050.2413,W,0.3,115.0,150615,6.2,"
"##MN-00 00 07 0075 01758 5830 443457 204385 206"
"166.357188"
"$GPRMC,083413,A,2421.3383,N,08050.2414,W,0.3,118.0,150615,6.2,"
"##MN-00 00 07 0076 01760 5830 443452 204381 206"
"166.357234"
"$GPRMC,083417,A,2421.3380,N,08050.2413,W,0.3,120.2,150615,6.2,"
"##MN-00 00 07 0077 01762 5831 443499 204397 206"
"166.35728"
"$GPRMC,083421,A,2421.3379,N,08050.2412,W,0.3,122.6,150615,6.2,"
"##MN-00 00 07 0078 01767 5832 443536 204403 206"
"166.357326"
"$GPRMC,083425,A,2421.3377,N,08050.2411,W,0.3,125.1,150615,6.2,"
"##MN-00 00 07 0078 01769 5833 443485 204395 206"
"166.357373"
"$GPRMC,083429,A,2421.3378,N,08050.2413,W,0.3,127.1,150615,6.2,"
"##MN-00 00 07 0079 01775 5833 443463 204387 206"
"166.357419"
"$GPRMC,083433,A,2421.3376,N,08050.2407,W,0.2,125.6,150615,6.2,"
"##MN-00 00 07 0080 01775 5834 443467 204385 206"
"166.357465"
"$GPRMC,083437,A,2421.3376,N,08050.2406,W,0.2,124.9,150615,6.2,"
"##MN-00 00 07 0081 01780 5834 443475 204387 206"
"166.357512"
"$GPRMC,083441,A,2421.3374,N,08050.2403,W,0.2,125.4,150615,6.2,"
"##MN-00 00 06 0082 01783 5835 443483 204390 206"
"166.357558"
"$GPRMC,083445,A,2421.3373,N,08050.2401,W,0.2,125.6,150615,6.2,"
"##MN-00 00 06 0083 01785 5836 443498 204390 206"
"166.357604"
"$GPRMC,083449,A,2421.3375,N,08050.2402,W,0.2,121.7,150615,6.2,"
"##MN-00 00 06 0084 01789 5836 443498 204391 206"
"166.35765"
"$GPRMC,083454,A,2421.3376,N,08050.2400,W,0.3,108.3,150615,6.2,"
"##MN-00 00 06 0084 01790 5837 443494 204391 206"
"166.357697"
"$GPRMC,083457,A,2421.3376,N,08050.2400,W,0.3,101.7,150615,6.2,"
"##MN-00 00 06 0085 01793 5838 443474 204386 206"
"166.357743"
"$GPRMC,083502,A,2421.3376,N,08050.2397,W,0.3,96.8,150615,6.2,W"
"##MN-00 00 06 0086 01795 5839 443443 204379 206"
"166.357789"
"$GPRMC,083505,A,2421.3372,N,08050.2399,W,0.2,96.0,150615,6.2,W"
"##MN-00 00 06 0087 01796 5839 443426 204373 206"
"166.357836"
"$GPRMC,083510,A,2421.3369,N,08050.2397,W,0.2,97.2,150615,6.2,W"
"##MN-00 00 06 0088 01804 5839 443420 204373 206"
"166.357882"
"$GPRMC,083514,A,2421.3367,N,08050.2393,W,0.3,103.1,150615,6.2,"
"##MN-00 00 06 0089 01805 5840 443456 204380 206"
"166.357928"
"$GPRMC,083518,A,2421.3369,N,08050.2387,W,0.3,103.7,150615,6.2,"
"##MN-00 00 06 0090 01808 5841 443426 204372 206"
"166.357975"
"$GPRMC,083522,A,2421.3367,N,08050.2383,W,0.3,105.4,150615,6.2,"
"##MN-00 00 06 0091 01811 5842 443450 204379 206"
"166.358021"
"$GPRMC,083526,A,2421.3365,N,08050.2380,W,0.3,108.8,150615,6.2,"
"##MN-00 00 06 0091 01815 5842 443455 204377 206"
"166.358067"
"$GPRMC,083530,A,2421.3364,N,08050.2376,W,0.2,110.3,150615,6.2,"
"##MN-00 00 06 0092 01818 5843 443453 204376 206"
"166.358113"
"$GPRMC,083534,A,2421.3362,N,08050.2377,W,0.2,113.9,150615,6.2,"
"##MN-00 00 06 0093 01822 5843 443445 204375 206"
"166.35816"
"$GPRMC,083538,A,2421.3362,N,08050.2377,W,0.2,118.0,150615,6.2,"
"##MN-00 00 06 0094 01825 5844 443535 204383 206"
"166.358206"
"$GPRMC,083542,A,2421.3358,N,08050.2369,W,0.3,122.3,150615,6.2,"
"##MN-00 00 06 0095 01826 5845 443619 204415 206"
"166.358252"
"$GPRMC,083546,A,2421.3357,N,08050.2364,W,0.3,123.2,150615,6.2,"
"##MN-00 00 06 0096 01829 5845 443670 204434 206"
"166.358299"
"$GPRMC,083550,A,2421.3355,N,08050.2364,W,0.3,125.0,150615,6.2,"
"##MN-00 00 06 0096 01832 5846 443737 204446 206"
"166.358345"
"$GPRMC,083554,A,2421.3355,N,08050.2366,W,0.3,125.6,150615,6.2,"
"##MN-00 00 06 0097 01835 5847 443792 204457 206"
"166.358391"
"$GPRMC,083558,A,2421.3353,N,08050.2363,W,0.3,128.1,150615,6.2,"
"##MN-00 00 06 0098 01841 5847 444016 204476 206"
"166.358437"
"$GPRMC,083602,A,2421.3351,N,08050.2361,W,0.2,131.3,150615,6.2,"
"##MN-00 00 06 0099 01844 5848 444338 204510 206"
"166.358484"
"$GPRMC,083606,A,2421.3351,N,08050.2359,W,0.2,133.4,150615,6.2,"
"##MN-00 00 06 0100 01848 5848 444632 204643 206"
"166.35853"
"$GPRMC,083610,A,2421.3351,N,08050.2358,W,0.2,137.3,150615,6.2,"
"##MN-00 00 06 0101 01849 5849 444879 204681 206"
"166.358576"
"$GPRMC,083614,A,2421.3351,N,08050.2359,W,0.2,139.5,150615,6.2,"
"##MN-00 00 06 0102 01854 5850 445952 204847 206"
"166.358623"
"$GPRMC,083618,A,2421.3348,N,08050.2355,W,0.2,137.4,150615,6.2,"
"##MN-00 00 06 0102 01857 5850 448463 205516 206"
"166.358669"
"$GPRMC,083622,A,2421.3346,N,08050.2355,W,0.2,134.3,150615,6.2,"
"##MN-00 00 07 0103 01859 5851 452412 206321 206"
"166.358715"
"$GPRMC,083626,A,2421.3340,N,08050.2357,W,0.2,132.4,150615,6.2,"
"##MN-00 00 07 0104 01861 5852 453749 206536 206"
"166.358762"
"$GPRMC,083630,A,2421.3336,N,08050.2357,W,0.2,132.1,150615,6.2,"
"##MN-00 00 07 0105 01867 5852 454369 206707 206"
"166.358808"
"$GPRMC,083634,A,2421.3336,N,08050.2357,W,0.2,134.9,150615,6.2,"
"##MN-00 00 07 0106 01869 5853 454864 206813 206"
"166.358854"
"$GPRMC,083638,A,2421.3336,N,08050.2357,W,0.2,135.8,150615,6.2,"
"##MN-00 00 07 0107 01871 5853 455672 206951 206"
"166.3589"
"$GPRMC,083642,A,2421.3336,N,08050.2356,W,0.2,139.4,150615,6.2,"
"##MN-00 00 07 0107 01877 5854 456263 207037 206"
"166.358947"
"$GPRMC,083646,A,2421.3333,N,08050.2357,W,0.2,147.6,150615,6.2,"
"##MN-00 00 07 0108 01877 5855 457018 207268 206"
"166.359005"
"$GPRMC,083650,A,2421.3331,N,08050.2359,W,0.2,157.2,150615,6.2,"
"##MN-00 00 07 0109 01877 5855 457333 207445 206"
"166.359051"
"$GPRMC,083654,A,2421.3332,N,08050.2359,W,0.2,163.8,150615,6.2,"
"##MN-00 00 07 0110 01885 5855 457467 207465 206"
"166.359097"
"$GPRMC,083658,A,2421.3331,N,08050.2359,W,0.2,167.6,150615,6.2,"
"##MN-00 00 07 0111 01888 5856 457521 207523 206"
"166.359144"
"$GPRMC,083702,A,2421.3329,N,08050.2358,W,0.2,168.2,150615,6.2,"
"##MN-00 00 07 0111 01890 5856 457545 207526 206"
"166.35919"
"$GPRMC,083706,A,2421.3327,N,08050.2357,W,0.3,168.8,150615,6.2,"
"##MN-00 00 07 0112 01892 5856 457590 207503 206"
"166.359236"
"$GPRMC,083710,A,2421.3329,N,08050.2354,W,0.2,167.6,150615,6.2,"
"##MN-00 00 07 0113 01894 5857 457954 207585 206"
"166.359282"
"$GPRMC,083714,A,2421.3329,N,08050.2352,W,0.3,162.0,150615,6.2,"
"##MN-00 00 07 0114 01900 5857 458573 207728 206"
"166.359329"
"$GPRMC,083718,A,2421.3327,N,08050.2351,W,0.2,158.6,150615,6.2,"
"##MN-00 00 07 0115 01902 5857 459274 207813 206"
"166.359375"
"$GPRMC,083722,A,2421.3326,N,08050.2349,W,0.3,152.2,150615,6.2,"
"##MN-00 00 07 0116 01908 5858 459717 207941 206"
"166.359421"
"$GPRMC,083726,A,2421.3322,N,08050.2347,W,0.3,145.7,150615,6.2,"
"##MN-00 00 07 0116 01912 5858 460105 208048 206"
"166.359468"
"$GPRMC,083730,A,2421.3322,N,08050.2344,W,0.3,140.0,150615,6.2,"
"##MN-00 00 07 0117 01917 5858 460343 208115 206"
"166.359514"
"$GPRMC,083734,A,2421.3319,N,08050.2341,W,0.3,134.0,150615,6.2,"
"##MN-00 00 07 0118 01919 5858 460766 208142 206"
"166.35956"
"$GPRMC,083738,A,2421.3317,N,08050.2339,W,0.3,131.6,150615,6.2,"
"##MN-00 00 07 0119 01927 5859 461540 208229 206"
"166.359606"
"$GPRMC,083742,A,2421.3315,N,08050.2337,W,0.2,131.2,150615,6.2,"
"##MN-00 00 07 0120 01929 5859 462302 208428 206"
"166.359653"
"$GPRMC,083746,A,2421.3313,N,08050.2335,W,0.2,131.3,150615,6.2,"
"##MN-00 00 07 0121 01933 5858 462670 208552 206"
"166.359699"
"$GPRMC,083750,A,2421.3312,N,08050.2333,W,0.2,132.4,150615,6.2,"
"##MN-00 00 07 0121 01935 5859 462815 208516 206"
"166.359745"
"$GPRMC,083754,A,2421.3309,N,08050.2331,W,0.3,134.1,150615,6.2,"
"##MN-00 00 07 0122 01937 5859 462958 208536 206"
"166.359792"
"$GPRMC,083758,A,2421.3305,N,08050.2327,W,0.3,136.3,150615,6.2,"
"##MN-00 00 07 0123 01942 5859 463267 208563 206"
"166.359838"
"$GPRMC,083802,A,2421.3302,N,08050.2324,W,0.3,137.1,150615,6.2,"
"##MN-00 00 07 0124 01946 5859 463458 208573 206"
"166.359884"
"$GPRMC,083806,A,2421.3300,N,08050.2324,W,0.3,137.6,150615,6.2,"
"##MN-00 00 07 0125 01947 5859 463623 208588 206"
"166.359931"
"$GPRMC,083810,A,2421.3297,N,08050.2327,W,0.2,138.1,150615,6.2,"
"##MN-00 00 07 0125 01950 5859 463783 208610 206"
"166.359977"
"$GPRMC,083814,A,2421.3295,N,08050.2327,W,0.2,139.3,150615,6.2,"
"##MN-00 00 07 0126 01950 5859 463951 208683 206"
"166.360023"
"$GPRMC,083818,A,2421.3294,N,08050.2328,W,0.3,137.4,150615,6.2,"
"##MN-00 00 07 0127 01952 5859 464043 208684 206"
"166.360069"
"$GPRMC,083822,A,2421.3294,N,08050.2330,W,0.3,135.2,150615,6.2,"
"##MN-00 00 07 0128 01954 5858 464302 208759 206"
"166.360116"
"$GPRMC,083826,A,2421.3295,N,08050.2330,W,0.2,131.7,150615,6.2,"
"##MN-00 00 07 0129 01960 5858 464584 208799 206"
"166.360162"
"$GPRMC,083830,A,2421.3297,N,08050.2328,W,0.2,132.0,150615,6.2,"
"##MN-00 00 07 0130 01962 5858 464651 208809 206"
"166.360208"
"$GPRMC,083834,A,2421.3297,N,08050.2327,W,0.2,134.3,150615,6.2,"
"##MN-00 00 10 0130 01966 5858 464710 208827 206"
"166.360255"
"$GPRMC,083838,A,2421.3297,N,08050.2327,W,0.2,132.0,150615,6.2,"
"##MN-00 00 36 0131 01968 5858 464864 208851 206"
"166.360301"
"$GPRMC,083842,A,2421.3296,N,08050.2326,W,0.2,130.5,150615,6.2,"
"##MN-00 00 10 0132 01973 5857 465026 208859 206"
"166.360347"
"$GPRMC,083846,A,2421.3295,N,08050.2326,W,0.2,128.6,150615,6.2,"
"##MN-00 00 10 0133 01975 5857 465168 208903 206"
"166.360394"
"$GPRMC,083850,A,2421.3297,N,08050.2324,W,0.2,131.1,150615,6.2,"
"##MN-00 00 10 0133 01978 5857 465256 208915 206"
"166.36044"
"$GPRMC,083854,A,2421.3297,N,08050.2323,W,0.2,134.5,150615,6.2,"
"##MN-00 00 11 0134 01986 5857 465349 208938 206"
"166.360486"
"$GPRMC,083858,A,2421.3296,N,08050.2323,W,0.3,135.6,150615,6.2,"
"##MN-00 00 10 0135 01988 5856 465481 208943 206"
"166.360532"
"$GPRMC,083902,A,2421.3293,N,08050.2320,W,0.3,133.1,150615,6.2,"
"##MN-00 00 11 0136 01989 5856 465699 209051 206"
"166.360579"
"$GPRMC,083906,A,2421.3290,N,08050.2316,W,0.3,133.3,150615,6.2,"
"##MN-00 00 11 0137 01997 5856 465950 209083 206"
"166.360625"
"$GPRMC,083910,A,2421.3288,N,08050.2313,W,0.3,136.4,150615,6.2,"
"##MN-00 00 11 0137 01998 5856 466248 209146 206"
"166.360671"
"$GPRMC,083914,A,2421.3286,N,08050.2313,W,0.3,139.6,150615,6.2,"
"##MN-00 00 11 0138 02001 5855 466503 209189 206"
"166.360718"
"$GPRMC,083918,A,2421.3286,N,08050.2309,W,0.3,143.2,150615,6.2,"
"##MN-00 00 11 0139 02006 5855 466851 209266 206"
"166.360764"
"$GPRMC,083922,A,2421.3284,N,08050.2312,W,0.2,145.3,150615,6.2,"
"##MN-00 00 11 0140 02010 5854 467359 209364 206"
"166.36081"
"$GPRMC,083926,A,2421.3280,N,08050.2312,W,0.2,146.6,150615,6.2,"
"##MN-00 00 11 0141 02012 5854 467759 209466 206"
"166.360856"
"$GPRMC,083930,A,2421.3277,N,08050.2312,W,0.3,152.5,150615,6.2,"
"##MN-00 00 11 0141 02017 5853 468126 209532 206"
"166.360903"
"$GPRMC,083934,A,2421.3273,N,08050.2312,W,0.3,154.3,150615,6.2,"
"##MN-00 00 11 0142 02017 5853 468363 209594 206"
"166.360949"
"$GPRMC,083938,A,2421.3270,N,08050.2312,W,0.2,154.2,150615,6.2,"
"##MN-00 00 11 0143 02020 5852 468581 209636 206"
"166.360995"
"$GPRMC,083942,A,2421.3268,N,08050.2310,W,0.3,155.4,150615,6.2,"
"##MN-00 00 12 0144 02028 5852 468691 209642 206"
"166.361042"
"$GPRMC,083946,A,2421.3266,N,08050.2309,W,0.3,154.6,150615,6.2,"
"##MN-00 00 12 0145 02030 5852 468647 209611 206"
"166.361088"
"$GPRMC,083951,A,2421.3265,N,08050.2306,W,0.2,152.6,150615,6.2,"
"##MN-00 00 11 0145 02036 5851 468630 209573 206"
"166.361134"
"$GPRMC,083955,A,2421.3264,N,08050.2304,W,0.3,151.0,150615,6.2,"
"##MN-00 00 12 0146 02041 5851 468744 209559 206"
"166.361181"
"$GPRMC,083959,A,2421.3264,N,08050.2303,W,0.2,151.1,150615,6.2,"
"##MN-00 00 52 0147 02045 5850 468851 209562 206"
"166.361227"
"$GPRMC,084003,A,2421.3264,N,08050.2300,W,0.2,151.1,150615,6.2,"
"##MN-00 00 51 0148 02047 5850 469073 209600 206"
"166.361273"
"$GPRMC,084007,A,2421.3257,N,08050.2301,W,0.3,148.1,150615,6.2,"
"##MN-00 00 52 0148 02050 5849 469423 209682 206"
"166.361319"
"$GPRMC,084011,A,2421.3253,N,08050.2301,W,0.3,147.1,150615,6.2,"
"##MN-00 00 52 0149 02054 5849 469771 209720 206"
"166.361366"
"$GPRMC,084015,A,2421.3253,N,08050.2301,W,0.4,139.2,150615,6.2,"
"##MN-00 00 52 0150 02059 5848 469959 209770 206"
"166.361412"
"$GPRMC,084019,A,2421.3257,N,08050.2301,W,0.5,122.7,150615,6.2,"
"##MN-00 00 52 0151 02061 5847 470090 209804 206"
"166.361458"
"$GPRMC,084023,A,2421.3259,N,08050.2298,W,0.5,111.8,150615,6.2,"
"##MN-00 00 52 0152 02065 5847 470144 209802 206"
"166.361505"
"$GPRMC,084027,A,2421.3259,N,08050.2297,W,0.3,110.2,150615,6.2,"
"##MN-00 00 50 0152 02065 5846 470211 209827 206"
"166.361551"
"$GPRMC,084031,A,2421.3258,N,08050.2298,W,0.3,112.2,150615,6.2,"
"##MN-00 00 52 0153 02070 5846 470241 209834 206"
"166.361597"
"$GPRMC,084035,A,2421.3257,N,08050.2298,W,0.2,115.9,150615,6.2,"
"##MN-00 00 53 0154 02075 5845 470303 209846 206"
"166.361644"
"$GPRMC,084039,A,2421.3256,N,08050.2298,W,0.2,125.0,150615,6.2,"
"##MN-00 00 52 0155 02073 5844 470401 209872 206"
"166.36169"
"$GPRMC,084043,A,2421.3252,N,08050.2298,W,0.2,134.6,150615,6.2,"
"##MN-00 00 53 0156 02076 5843 470480 209885 206"
"166.361736"
"$GPRMC,084047,A,2421.3252,N,08050.2299,W,0.2,142.9,150615,6.2,"
"##MN-00 00 09 0156 02082 5843 470552 209890 206"
"166.361782"
"$GPRMC,084051,A,2421.3250,N,08050.2296,W,0.2,150.2,150615,6.2,"
"##MN-00 00 53 0157 02085 5842 470658 209915 206"
"166.361829"
"$GPRMC,084055,A,2421.3248,N,08050.2294,W,0.2,154.7,150615,6.2,"
"##MN-00 00 53 0158 02090 5842 470839 209964 206"
"166.361875"
"$GPRMC,084059,A,2421.3248,N,08050.2294,W,0.3,159.6,150615,6.2,"
"##MN-00 00 53 0159 02094 5841 471220 210012 206"
"166.361921"
"$GPRMC,084103,A,2421.3246,N,08050.2292,W,0.3,167.5,150615,6.2,"
"##MN-00 00 51 0160 02098 5840 471539 210087 206"
"166.361968"
"$GPRMC,084107,A,2421.3243,N,08050.2291,W,0.2,171.2,150615,6.2,"
"##MN-00 00 52 0160 02098 5839 472100 210204 206"
"166.362014"
"$GPRMC,084111,A,2421.3241,N,08050.2291,W,0.3,173.3,150615,6.2,"
"##MN-00 00 53 0161 02104 5839 472605 210286 206"
"166.36206"
"$GPRMC,084115,A,2421.3239,N,08050.2292,W,0.2,173.8,150615,6.2,"
"##MN-00 00 52 0162 02108 5838 472918 210329 206"
"166.362106"
"$GPRMC,084119,A,2421.3237,N,08050.2294,W,0.3,173.3,150615,6.2,"
"##MN-00 00 52 0163 02110 5837 473222 210368 206"
"166.362164"
"$GPRMC,084123,A,2421.3234,N,08050.2290,W,0.3,172.9,150615,6.2,"
"##MN-00 00 52 0163 02115 5836 473601 210474 206"
"166.362211"
"$GPRMC,084127,A,2421.3232,N,08050.2290,W,0.3,172.0,150615,6.2,"
"##MN-00 00 52 0164 02116 5835 473963 210551 206"
"166.362257"
"$GPRMC,084131,A,2421.3228,N,08050.2287,W,0.3,170.4,150615,6.2,"
"##MN-00 00 52 0165 02123 5835 474161 210557 205"
"166.362303"
"$GPRMC,084135,A,2421.3223,N,08050.2284,W,0.3,168.4,150615,6.2,"
"##MN-00 00 53 0166 02126 5834 474530 210602 206"
"166.36235"
"$GPRMC,084139,A,2421.3219,N,08050.2284,W,0.5,173.2,150615,6.2,"
"##MN-00 00 53 0166 02127 5833 475061 210796 206"
"166.362396"
"$GPRMC,084143,A,2421.3219,N,08050.2285,W,0.6,181.4,150615,6.2,"
"##MN-00 00 53 0167 02130 5832 475566 210896 206"
"166.362442"
"$GPRMC,084147,A,2421.3217,N,08050.2284,W,0.4,185.3,150615,6.2,"
"##MN-00 00 10 0168 02134 5831 476534 211101 205"
"166.362488"
"$GPRMC,084151,A,2421.3214,N,08050.2284,W,0.4,187.6,150615,6.2,"
"##MN-00 00 50 0169 02140 5831 477240 211156 205"
"166.362535"
"$GPRMC,084155,A,2421.3210,N,08050.2282,W,0.3,186.9,150615,6.2,"
"##MN-00 00 54 0169 02144 5830 478018 211323 206"
"166.362581"
"$GPRMC,084159,A,2421.3208,N,08050.2283,W,0.2,184.8,150615,6.2,"
"##MN-00 00 52 0170 02146 5829 478850 211439 206"
"166.362627"
"$GPRMC,084203,A,2421.3207,N,08050.2283,W,0.2,182.0,150615,6.2,"
"##MN-00 00 54 0171 02148 5827 479412 211558 206"
"166.362674"
"$GPRMC,084207,A,2421.3204,N,08050.2281,W,0.2,179.1,150615,6.2,"
"##MN-00 00 54 0172 02156 5826 479999 211628 206"
"166.36272"
"$GPRMC,084211,A,2421.3203,N,08050.2280,W,0.3,176.2,150615,6.2,"
"##MN-00 00 52 0172 02158 5826 480609 211775 206"
"166.362766"
"$GPRMC,084215,A,2421.3201,N,08050.2283,W,0.3,177.8,150615,6.2,"
"##MN-00 00 54 0173 02159 5825 481007 211839 206"
"166.362813"
"$GPRMC,084219,A,2421.3196,N,08050.2287,W,0.3,184.2,150615,6.2,"
"##MN-00 00 54 0174 02168 5824 481379 211932 206"
"166.362859"
"$GPRMC,084223,A,2421.3195,N,08050.2287,W,0.3,187.1,150615,6.2,"
"##MN-00 00 54 0175 02171 5823 481828 211999 205"
"166.362905"
"$GPRMC,084227,A,2421.3192,N,08050.2287,W,0.3,194.7,150615,6.2,"
"##MN-00 00 54 0175 02173 5822 482160 212040 206"
"166.362951"
"$GPRMC,084231,A,2421.3192,N,08050.2285,W,0.3,199.6,150615,6.2,"
"##MN-00 00 53 0176 02180 5820 482691 212135 206"
"166.362998"
"$GPRMC,084235,A,2421.3192,N,08050.2284,W,0.2,207.1,150615,6.2,"
"##MN-00 00 54 0177 02182 5819 483422 212248 205"
"166.363044"
"$GPRMC,084239,A,2421.3194,N,08050.2283,W,0.2,219.6,150615,6.2,"
"##MN-00 00 53 0178 02187 5818 484666 212546 205"
"166.36309"
"$GPRMC,084243,A,2421.3198,N,08050.2285,W,0.2,226.7,150615,6.2,"
"##MN-00 00 53 0178 02195 5817 485914 212717 205"
"166.363137"
"$GPRMC,084247,A,2421.3201,N,08050.2283,W,0.2,235.2,150615,6.2,"
"##MN-00 00 53 0179 02195 5816 486647 212828 206"
"166.363183"
"$GPRMC,084251,A,2421.3203,N,08050.2287,W,0.2,241.8,150615,6.2,"
"##MN-00 00 53 0180 02201 5815 487661 213006 205"
"166.363229"
"$GPRMC,084255,A,2421.3206,N,08050.2290,W,0.2,246.6,150615,6.2,"
"##MN-00 00 52 0181 02205 5814 488323 213206 206"
"166.363275"
"$GPRMC,084259,A,2421.3210,N,08050.2290,W,0.2,251.9,150615,6.2,"
"##MN-00 00 53 0181 02209 5813 488893 213270 205"
"166.363322"
"$GPRMC,084303,A,2421.3213,N,08050.2291,W,0.3,258.1,150615,6.2,"
"##MN-00 00 52 0182 02212 5811 489528 213501 205"
"166.363368"
"$GPRMC,084307,A,2421.3217,N,08050.2291,W,0.3,260.5,150615,6.2,"
"##MN-00 00 52 0183 02217 5810 490160 213570 206"
"166.363414"
"$GPRMC,084311,A,2421.3217,N,08050.2295,W,0.2,261.3,150615,6.2,"
"##MN-00 00 52 0184 02219 5809 490998 213720 205"
"166.363461"
"$GPRMC,084315,A,2421.3214,N,08050.2296,W,0.3,258.7,150615,6.2,"
"##MN-00 00 53 0184 02226 5807 491872 213817 206"
"166.363507"
"$GPRMC,084319,A,2421.3214,N,08050.2295,W,0.3,251.5,150615,6.2,"
"##MN-00 00 51 0185 02229 5806 492679 214059 205"
"166.363553"
"$GPRMC,084323,A,2421.3214,N,08050.2294,W,0.3,245.0,150615,6.2,"
"##MN-00 00 54 0186 02235 5805 493180 214184 205"
"166.3636"
"$GPRMC,084327,A,2421.3210,N,08050.2296,W,0.3,238.5,150615,6.2,"
"##MN-00 00 53 0187 02239 5803 493782 214230 205"
"166.363646"
"$GPRMC,084331,A,2421.3208,N,08050.2296,W,0.2,231.3,150615,6.2,"
"##MN-00 00 52 0187 02243 5801 493929 214204 205"
"166.363692"
"$GPRMC,084335,A,2421.3210,N,08050.2294,W,0.2,222.1,150615,6.2,"
"##MN-00 00 53 0188 02250 5800 494021 214170 205"
"166.363738"
"$GPRMC,084339,A,2421.3208,N,08050.2293,W,0.2,216.0,150615,6.2,"
"##MN-00 00 52 0189 02253 5799 494147 214155 205"
"166.363785"
"$GPRMC,084343,A,2421.3201,N,08050.2296,W,0.2,210.7,150615,6.2,"
"##MN-00 00 53 0189 02257 5797 494169 214104 205"
"166.363831"
"$GPRMC,084347,A,2421.3200,N,08050.2294,W,0.3,207.6,150615,6.2,"
"##MN-00 00 53 0190 02266 5795 494054 214059 205"
"166.363877"
"$GPRMC,084351,A,2421.3197,N,08050.2293,W,0.3,207.5,150615,6.2,"
"##MN-00 00 54 0191 02271 5794 493829 213968 205"
"166.363924"
"$GPRMC,084355,A,2421.3195,N,08050.2294,W,0.3,205.5,150615,6.2,"
"##MN-00 00 52 0191 02273 5792 493531 213850 205"
"166.36397"
"$GPRMC,084359,A,2421.3193,N,08050.2294,W,0.2,205.3,150615,6.2,"
"##MN-00 00 52 0192 02281 5791 493416 213812 205"
"166.364016"
"$GPRMC,084404,A,2421.3184,N,08050.2298,W,0.3,211.3,150615,6.2,"
"##MN-00 00 52 0193 02278 5789 493435 213793 205"
"166.364063"
"$GPRMC,084408,A,2421.3188,N,08050.2301,W,0.3,216.6,150615,6.2,"
"##MN+00 00 51 0193 02278 5787 493470 213742 205"
"166.364109"
"$GPRMC,084411,A,2421.3191,N,08050.2301,W,0.3,220.4,150615,6.2,"
"##MN+00 00 50 0194 02282 5786 493497 213730 205"
"166.364155"
"$GPRMC,084415,A,2421.3192,N,08050.2303,W,0.2,226.3,150615,6.2,"
"##MN+00 00 51 0195 02284 5784 493508 213726 205"
"166.364201"
"$GPRMC,084419,A,2421.3192,N,08050.2305,W,0.3,234.6,150615,6.2,"
"##MN-00 00 51 0196 02285 5782 493520 213718 205"
"166.364248"
"$GPRMC,084424,A,2421.3194,N,08050.2301,W,0.2,241.3,150615,6.2,"
"##MN+00 00 51 0196 02287 5780 493541 213705 205"
"166.364294"
"$GPRMC,084428,A,2421.3194,N,08050.2298,W,0.2,247.9,150615,6.2,"
"##MN+00 00 51 0197 02287 5779 493574 213682 205"
"166.36434"
"$GPRMC,084432,A,2421.3194,N,08050.2299,W,0.2,252.3,150615,6.2,"
"##MN+00 00 60 0198 02291 5777 493820 213696 205"
"166.364387"
"$GPRMC,084436,A,2421.3193,N,08050.2301,W,0.2,256.3,150615,6.2,"
"##MN-00 00 55 0198 02292 5775 494207 213746 205"
"166.364433"
"#increment_net"
"$GPRMC,084440,A,2421.3195,N,08050.2301,W,0.2,261.1,150615,6.2,"
"##MN-00 00 53 0199 02291 5773 494760 213867 205"
"166.364479"
"$GPRMC,084444,A,2421.3193,N,08050.2304,W,0.2,260.8,150615,6.2,"
"##MN-00 00 52 0200 02293 5771 495011 213911 206"
"166.364525"
"$GPRMC,084448,A,2421.3194,N,08050.2305,W,0.2,262.8,150615,6.2,"
"##MN-00 00 50 0201 02292 5769 495376 213988 205"
"166.364572"
"$GPRMC,084452,A,2421.3195,N,08050.2307,W,0.2,262.7,150615,6.2,"
"##MN-00 00 50 0202 02294 5767 495531 214015 205"
"166.364618"
"$GPRMC,084456,A,2421.3193,N,08050.2309,W,0.3,261.4,150615,6.2,"
"##MN-00 00 49 0202 02292 5766 495707 214045 205"
"166.364664"
"$GPRMC,084500,A,2421.3192,N,08050.2310,W,0.3,261.0,150615,6.2,"
"##MN-00 00 49 0203 02291 5763 495742 214061 205"
"166.364711"
"$GPRMC,084504,A,2421.3190,N,08050.2312,W,0.3,259.6,150615,6.2,"
"##MN-00 00 50 0204 02287 5762 495559 214014 205"
"166.364757"
"$GPRMC,084508,A,2421.3192,N,08050.2311,W,0.2,258.2,150615,6.2,"
"##MN-00 00 50 0205 02285 5760 494995 213948 205"
"166.364803"
"$GPRMC,084512,A,2421.3192,N,08050.2311,W,0.2,257.9,150615,6.2,"
"##MN-00 00 52 0206 02282 5758 494704 213904 205"
"166.36485"
"$GPRMC,084516,A,2421.3193,N,08050.2312,W,0.2,255.2,150615,6.2,"
"##MN-00 00 49 0206 02284 5756 494336 213818 205"
"166.364896"
"$GPRMC,084520,A,2421.3196,N,08050.2311,W,0.2,254.9,150615,6.2,"
"##MN-00 00 49 0207 02283 5754 493972 213752 205"
"166.364942"
"$GPRMC,084524,A,2421.3196,N,08050.2309,W,0.3,254.5,150615,6.2,"
"##MN-00 00 49 0208 02280 5752 493744 213720 205"
"166.364988"
"$GPRMC,084528,A,2421.3195,N,08050.2309,W,0.2,250.7,150615,6.2,"
"##MN-00 00 50 0209 02279 5750 493625 213713 205"
"166.365035"
"$GPRMC,084532,A,2421.3194,N,08050.2306,W,0.3,242.0,150615,6.2,"
"##MN-00 00 50 0210 02278 5748 493548 213712 205"
"166.365081"
"$GPRMC,084536,A,2421.3194,N,08050.2305,W,0.3,233.9,150615,6.2,"
"##MN-00 00 50 0210 02275 5746 493504 213711 205"
"166.365127"
"$GPRMC,084540,A,2421.3192,N,08050.2303,W,0.3,221.2,150615,6.2,"
"##MN-00 00 49 0211 02276 5744 493485 213723 205"
"166.365174"
"$GPRMC,084544,A,2421.3192,N,08050.2299,W,0.3,209.1,150615,6.2,"
"##MN-00 00 49 0212 02274 5742 493477 213735 205"
"166.36522"
"$GPRMC,084548,A,2421.3190,N,08050.2295,W,0.3,201.8,150615,6.2,"
"##MN-00 00 50 0213 02272 5740 493442 213763 205"
"166.365266"
"$GPRMC,084552,A,2421.3185,N,08050.2296,W,0.3,202.8,150615,6.2,"
"##MN-00 00 49 0214 02271 5738 493397 213783 205"
"166.365312"
"$GPRMC,084556,A,2421.3182,N,08050.2296,W,0.2,202.3,150615,6.2,"
"##MN-00 00 49 0215 02272 5736 493333 213776 205"
"166.365359"
"$GPRMC,084600,A,2421.3183,N,08050.2295,W,0.2,204.9,150615,6.2,"
"##MN-00 00 49 0215 02270 5734 493292 213775 205"
"166.365417"
"$GPRMC,084604,A,2421.3181,N,08050.2296,W,0.2,210.4,150615,6.2,"
"##MN-00 00 49 0216 02267 5731 493293 213783 205"
"166.365463"
"$GPRMC,084608,A,2421.3185,N,08050.2294,W,0.2,215.0,150615,6.2,"
"##MN-00 00 50 0217 02263 5729 493322 213792 205"
"166.365509"
"$GPRMC,084612,A,2421.3185,N,08050.2294,W,0.2,216.5,150615,6.2,"
"##MN-00 00 49 0218 02263 5727 493402 213823 205"
"166.365556"
"$GPRMC,084616,A,2421.3183,N,08050.2295,W,0.2,220.7,150615,6.2,"
"##MN-00 00 48 0219 02263 5726 493555 213852 205"
"166.365602"
"$GPRMC,084620,A,2421.3183,N,08050.2295,W,0.2,225.3,150615,6.2,"
"##MN-00 00 51 0219 02257 5723 493777 213963 205"
"166.365648"
"$GPRMC,084624,A,2421.3183,N,08050.2293,W,0.2,224.2,150615,6.2,"
"##MN-00 00 48 0220 02258 5721 494055 214040 205"
"166.365694"
"$GPRMC,084628,A,2421.3183,N,08050.2293,W,0.2,224.0,150615,6.2,"
"##MN-00 00 48 0221 02255 5719 494121 214085 205"
"166.365741"
"$GPRMC,084632,A,2421.3185,N,08050.2291,W,0.2,225.9,150615,6.2,"
"##MN-00 00 49 0222 02248 5717 494067 214093 205"
"166.365787"
"$GPRMC,084636,A,2421.3181,N,08050.2291,W,0.2,225.5,150615,6.2,"
"##MN-00 00 51 0223 02247 5715 494059 214123 205"
"166.365833"
"$GPRMC,084640,A,2421.3181,N,08050.2290,W,0.3,230.4,150615,6.2,"
"##MN-00 00 48 0224 02248 5713 494085 214152 205"
"166.36588"
"$GPRMC,084644,A,2421.3183,N,08050.2289,W,0.3,236.5,150615,6.2,"
"##MN-00 00 49 0224 02242 5711 494126 214178 205"
"166.365926"
"$GPRMC,084648,A,2421.3183,N,08050.2288,W,0.3,242.3,150615,6.2,"
"##MN-00 00 50 0225 02241 5709 494158 214208 205"
"166.365972"
"$GPRMC,084652,A,2421.3185,N,08050.2294,W,0.3,248.1,150615,6.2,"
"##MN-00 00 49 0226 02240 5707 494224 214251 205"
"166.366019"
"$GPRMC,084656,A,2421.3188,N,08050.2293,W,0.4,257.5,150615,6.2,"
"##MN-00 00 48 0227 02238 5705 494388 214363 205"
"166.366065"
"$GPRMC,084700,A,2421.3188,N,08050.2292,W,0.4,264.1,150615,6.2,"
"##MN-00 00 48 0228 02237 5703 494434 214395 205"
"166.366111"
"$GPRMC,084704,A,2421.3191,N,08050.2290,W,0.3,267.0,150615,6.2,"
"##MN-00 00 48 0229 02233 5701 494157 214414 205"
"166.366157"
"$GPRMC,084708,A,2421.3191,N,08050.2290,W,0.2,271.2,150615,6.2,"
"##MN-00 00 49 0230 02228 5699 493895 214404 205"
"166.366204"
"$GPRMC,084712,A,2421.3192,N,08050.2290,W,0.2,276.7,150615,6.2,"
"##MN-00 00 48 0230 02227 5697 493551 214370 205"
"166.36625"
"$GPRMC,084716,A,2421.3190,N,08050.2290,W,0.2,277.0,150615,6.2,"
"##MN-00 00 49 0231 02223 5695 493244 214298 205"
"166.366296"
"$GPRMC,084720,A,2421.3192,N,08050.2290,W,0.2,276.8,150615,6.2,"
"##MN-00 00 48 0232 02217 5693 492898 214223 205"
"166.366343"
"$GPRMC,084724,A,2421.3192,N,08050.2288,W,0.2,270.3,150615,6.2,"
"##MN-00 00 49 0233 02214 5690 492298 214169 205"
"166.366389"
"$GPRMC,084728,A,2421.3192,N,08050.2288,W,0.2,266.1,150615,6.2,"
"##MN-00 00 49 0234 02211 5688 491680 214068 205"
"166.366435"
"$GPRMC,084732,A,2421.3192,N,08050.2287,W,0.2,259.6,150615,6.2,"
"##MN-00 00 49 0235 02206 5686 491228 213975 205"
"166.366481"
"$GPRMC,084736,A,2421.3192,N,08050.2287,W,0.2,256.1,150615,6.2,"
"##MN-00 00 47 0235 02203 5684 490535 213797 205"
"166.366528"
"$GPRMC,084740,A,2421.3195,N,08050.2284,W,0.2,255.5,150615,6.2,"
"##MN-00 00 50 0236 02199 5683 489584 213619 205"
"166.366574"
"$GPRMC,084744,A,2421.3196,N,08050.2283,W,0.2,254.8,150615,6.2,"
"##MN-00 00 49 0237 02195 5680 489059 213578 205"
"166.36662"
"$GPRMC,084748,A,2421.3198,N,08050.2282,W,0.2,254.6,150615,6.2,"
"##MN-00 00 49 0238 02191 5678 488674 213558 205"
"166.366667"
"$GPRMC,084752,A,2421.3196,N,08050.2281,W,0.2,252.5,150615,6.2,"
"##MN-00 00 50 0239 02186 5676 488252 213481 205"
"166.366713"
"$GPRMC,084756,A,2421.3193,N,08050.2281,W,0.2,249.3,150615,6.2,"
"##MN-00 00 48 0240 02183 5674 487853 213375 205"
"166.366759"
"$GPRMC,084800,A,2421.3190,N,08050.2283,W,0.1,247.3,150615,6.2,"
"##MN-00 00 49 0241 02178 5672 487257 213237 205"
"166.366806"
"$GPRMC,084804,A,2421.3192,N,08050.2283,W,0.1,247.3,150615,6.2,"
"##MN-00 00 48 0241 02173 5670 485616 212879 205"
"166.366852"
"$GPRMC,084808,A,2421.3192,N,08050.2283,W,0.3,238.9,150615,6.2,"
"##MN-00 00 51 0242 02168 5668 484586 212807 205"
"166.366898"
"$GPRMC,084812,A,2421.3193,N,08050.2282,W,0.3,237.7,150615,6.2,"
"##MN-00 00 50 0243 02165 5666 483406 212552 205"
"166.366944"
"$GPRMC,084816,A,2421.3196,N,08050.2283,W,0.2,239.7,150615,6.2,"
"##MN-00 00 49 0244 02162 5664 482678 212307 205"
"166.366991"
"$GPRMC,084820,A,2421.3196,N,08050.2283,W,0.2,239.8,150615,6.2,"
"##MN-00 00 51 0245 02157 5662 482260 212248 205"
"166.367037"
"$GPRMC,084824,A,2421.3201,N,08050.2281,W,0.2,239.2,150615,6.2,"
"##MN-00 00 48 0246 02157 5660 481844 212130 205"
"166.367083"
"$GPRMC,084828,A,2421.3203,N,08050.2280,W,0.1,238.8,150615,6.2,"
"##MN-00 00 49 0247 02150 5658 481605 212077 205"
"166.36713"
"$GPRMC,084832,A,2421.3200,N,08050.2277,W,0.1,238.8,150615,6.2,"
"##MN-00 00 51 0247 02145 5656 481337 212035 205"
"166.367176"
"$GPRMC,084836,A,2421.3199,N,08050.2274,W,0.2,225.0,150615,6.2,"
"##MN-00 00 50 0248 02140 5654 481014 212031 205"
"166.367222"
"$GPRMC,084840,A,2421.3201,N,08050.2273,W,0.2,216.1,150615,6.2,"
"##MN-00 00 50 0249 02140 5652 480533 211996 205"
"166.367269"
"$GPRMC,084844,A,2421.3200,N,08050.2268,W,0.2,208.8,150615,6.2,"
"##MN-00 00 48 0250 02134 5651 480075 211862 205"
"166.367315"
"$GPRMC,084848,A,2421.3203,N,08050.2268,W,0.2,200.3,150615,6.2,"
"##MN-00 00 49 0251 02128 5649 479495 211689 205"
"166.367361"
"$GPRMC,084852,A,2421.3203,N,08050.2270,W,0.2,198.8,150615,6.2,"
"##MN-00 00 50 0252 02125 5647 478500 211571 205"
"166.367407"
"$GPRMC,084857,A,2421.3204,N,08050.2269,W,0.2,201.4,150615,6.2,"
"##MN-00 00 50 0253 02121 5645 477929 211486 205"
"166.367454"
"$GPRMC,084900,A,2421.3206,N,08050.2270,W,0.2,204.7,150615,6.2,"
"##MN-00 00 50 0254 02115 5644 476398 211238 205"
"166.3675"
"$GPRMC,084904,A,2421.3210,N,08050.2269,W,0.3,206.3,150615,6.2,"
"##MN-00 00 51 0254 02113 5642 475351 211105 205"
"166.367546"
"$GPRMC,084908,A,2421.3208,N,08050.2263,W,0.3,213.8,150615,6.2,"
"##MN-00 00 51 0255 02111 5640 474772 210884 205"
"166.367593"
"$GPRMC,084912,A,2421.3210,N,08050.2264,W,0.2,217.4,150615,6.2,"
"##MN-00 00 50 0256 02103 5639 474136 210818 205"
"166.367639"
"$GPRMC,084917,A,2421.3208,N,08050.2259,W,0.2,215.1,150615,6.2,"
"##MN-00 00 51 0257 02101 5637 473738 210771 205"
"166.367685"
"$GPRMC,084920,A,2421.3210,N,08050.2256,W,0.2,215.4,150615,6.2,"
"##MN-00 00 51 0258 02097 5636 473066 210562 205"
"166.367731"
"$GPRMC,084925,A,2421.3204,N,08050.2255,W,0.2,215.5,150615,6.2,"
"##MN-00 00 50 0259 02093 5634 472232 210346 205"
"166.367778"
"$GPRMC,084929,A,2421.3206,N,08050.2254,W,0.3,216.4,150615,6.2,"
"##MN+00 00 53 0259 02090 5633 471735 210236 205"
"166.367824"
"$GPRMC,084933,A,2421.3208,N,08050.2252,W,0.3,215.2,150615,6.2,"
"##MN+00 00 50 0260 02088 5631 471251 210139 205"
"166.36787"
"$GPRMC,084937,A,2421.3210,N,08050.2250,W,0.3,208.4,150615,6.2,"
"##MN+00 00 50 0261 02083 5630 471017 210156 205"
"166.367917"
"$GPRMC,084941,A,2421.3207,N,08050.2249,W,0.2,203.1,150615,6.2,"
"##MN+00 00 50 0262 02078 5628 470863 210064 205"
"166.367963"
"$GPRMC,084945,A,2421.3203,N,08050.2248,W,0.2,195.3,150615,6.2,"
"##MN+00 00 50 0263 02073 5627 470737 210060 205"
"166.368009"
"$GPRMC,084949,A,2421.3202,N,08050.2247,W,0.2,185.0,150615,6.2,"
"##MN+00 00 57 0264 02074 5625 470592 209995 205"
"166.368056"
"$GPRMC,084953,A,2421.3199,N,08050.2247,W,0.2,168.8,150615,6.2,"
"##MN-00 00 49 0265 02069 5624 470487 209934 205"
"166.368102"
"#increment_net"
"$GPRMC,084957,A,2421.3200,N,08050.2243,W,0.3,164.8,150615,6.2,"
"##MN-00 00 50 0265 02063 5623 470457 209928 205"
"166.368148"
"$GPRMC,085001,A,2421.3201,N,08050.2240,W,0.2,161.5,150615,6.2,"
"##MN-00 00 51 0266 02056 5622 470419 209924 205"
"166.368194"
"$GPRMC,085005,A,2421.3201,N,08050.2235,W,0.2,156.3,150615,6.2,"
"##MN-00 00 51 0267 02053 5620 470373 209913 205"
"166.368241"
"$GPRMC,085009,A,2421.3203,N,08050.2236,W,0.2,148.9,150615,6.2,"
"##MN-00 00 50 0268 02048 5619 470264 209879 205"
"166.368287"
"$GPRMC,085013,A,2421.3203,N,08050.2234,W,0.2,140.7,150615,6.2,"
"##MN-00 00 50 0269 02046 5618 470179 209872 205"
"166.368333"
"$GPRMC,085017,A,2421.3201,N,08050.2233,W,0.2,124.7,150615,6.2,"
"##MN-00 00 48 0270 02042 5617 470111 209851 205"
"166.36838"
"$GPRMC,085021,A,2421.3203,N,08050.2232,W,0.3,113.9,150615,6.2,"
"##MN-00 00 48 0271 02035 5616 469870 209804 205"
"166.368426"
"$GPRMC,085025,A,2421.3203,N,08050.2231,W,0.3,103.7,150615,6.2,"
"##MN-00 00 49 0272 02032 5615 469557 209757 205"
"166.368472"
"$GPRMC,085029,A,2421.3204,N,08050.2229,W,0.3,95.5,150615,6.2,W"
"##MN-00 00 51 0273 02029 5614 469286 209718 205"
"166.368519"
"$GPRMC,085033,A,2421.3205,N,08050.2230,W,0.3,89.6,150615,6.2,W"
"##MN-00 00 53 0274 02027 5612 469111 209674 205"
"166.368565"
"$GPRMC,085037,A,2421.3210,N,08050.2226,W,0.2,83.6,150615,6.2,W"
"##MN-00 00 51 0275 02023 5611 469034 209684 205"
"166.368611"
"$GPRMC,085041,A,2421.3214,N,08050.2225,W,0.2,78.5,150615,6.2,W"
"##MN-00 00 49 0275 02018 5610 469054 209734 205"
"166.368669"
"$GPRMC,085045,A,2421.3217,N,08050.2222,W,0.3,73.6,150615,6.2,W"
"##MN-00 00 52 0276 02016 5610 468854 209728 205"
"166.368715"
"$GPRMC,085049,A,2421.3221,N,08050.2216,W,0.2,72.1,150615,6.2,W"
"##MN-00 00 50 0277 02015 5608 468492 209687 205"
"166.368762"
"$GPRMC,085053,A,2421.3224,N,08050.2210,W,0.3,70.6,150615,6.2,W"
"##MN-00 00 49 0278 02013 5608 467894 209622 205"
"166.368808"
"$GPRMC,085057,A,2421.3227,N,08050.2206,W,0.3,70.1,150615,6.2,W"
"##MN-00 00 50 0279 02008 5607 467454 209486 205"
"166.368854"
"$GPRMC,085101,A,2421.3226,N,08050.2205,W,0.3,69.6,150615,6.2,W"
"##MN-00 00 51 0280 02007 5606 467098 209408 205"
"166.3689"
"$GPRMC,085105,A,2421.3224,N,08050.2205,W,0.2,69.7,150615,6.2,W"
"##MN-00 00 52 0281 02002 5605 466897 209399 205"
"166.368947"
"$GPRMC,085109,A,2421.3222,N,08050.2205,W,0.3,71.5,150615,6.2,W"
"##MN-00 00 50 0281 01999 5604 466672 209324 205"
"166.368993"
"$GPRMC,085113,A,2421.3221,N,08050.2205,W,0.3,71.9,150615,6.2,W"
"##MN-00 00 52 0282 01997 5603 466455 209271 205"
"166.369039"
"$GPRMC,085117,A,2421.3224,N,08050.2201,W,0.2,72.5,150615,6.2,W"
"##MN-00 00 50 0283 01993 5602 466353 209253 205"
"166.369086"
"$GPRMC,085121,A,2421.3225,N,08050.2199,W,0.3,72.3,150615,6.2,W"
"##MN-00 00 53 0284 01987 5601 466244 209220 205"
"166.369132"
"$GPRMC,085125,A,2421.3228,N,08050.2197,W,0.4,71.3,150615,6.2,W"
"##MN-00 00 50 0285 01988 5601 466161 209196 205"
"166.369178"
"$GPRMC,085129,A,2421.3230,N,08050.2195,W,0.5,71.7,150615,6.2,W"
"##MN-00 00 49 0286 01984 5600 466085 209168 205"
"166.369225"
"$GPRMC,085133,A,2421.3235,N,08050.2192,W,0.4,71.4,150615,6.2,W"
"##MN-00 00 50 0287 01980 5599 466036 209160 205"
"166.369271"
"$GPRMC,085137,A,2421.3237,N,08050.2191,W,0.3,71.6,150615,6.2,W"
"##MN-00 00 51 0288 01979 5598 465990 209148 205"
"166.369317"
"$GPRMC,085141,A,2421.3237,N,08050.2190,W,0.3,71.8,150615,6.2,W"
"##MN-00 00 51 0289 01977 5597 465723 209095 205"
"166.369363"
"$GPRMC,085145,A,2421.3236,N,08050.2189,W,0.3,72.4,150615,6.2,W"
"##MN-00 00 49 0290 01972 5597 465270 209001 205"
"166.36941"
"$GPRMC,085149,A,2421.3239,N,08050.2183,W,0.3,72.4,150615,6.2,W"
"##MN-00 00 49 0290 01967 5596 464839 208911 205"
"166.369456"
"$GPRMC,085153,A,2421.3239,N,08050.2176,W,0.3,71.9,150615,6.2,W"
"##MN-00 00 51 0291 01966 5595 464534 208860 205"
"166.369502"
"$GPRMC,085157,A,2421.3238,N,08050.2172,W,0.4,72.2,150615,6.2,W"
"##MN-00 00 52 0292 01962 5595 464358 208836 205"
"166.369549"
"$GPRMC,085201,A,2421.3237,N,08050.2167,W,0.4,73.0,150615,6.2,W"
"##MN-00 00 51 0293 01961 5594 464207 208809 205"
"166.369595"
"$GPRMC,085205,A,2421.3237,N,08050.2162,W,0.4,73.9,150615,6.2,W"
"##MN-00 00 51 0294 01959 5593 464108 208788 205"
"166.369641"
"$GPRMC,085209,A,2421.3241,N,08050.2155,W,0.5,75.1,150615,6.2,W"
"##MN-00 00 52 0295 01955 5593 464009 208758 205"
"166.369688"
"$GPRMC,085213,A,2421.3245,N,08050.2151,W,0.5,75.9,150615,6.2,W"
"##MN-00 00 54 0296 01953 5592 463893 208752 205"
"166.369734"
"$GPRMC,085217,A,2421.3243,N,08050.2151,W,0.4,74.8,150615,6.2,W"
"##MN-00 00 50 0297 01950 5592 463718 208733 205"
"166.36978"
"$GPRMC,085221,A,2421.3245,N,08050.2148,W,0.3,75.1,150615,6.2,W"
"##MN-00 00 50 0297 01945 5591 463562 208776 205"
"166.369826"
"$GPRMC,085225,A,2421.3246,N,08050.2145,W,0.3,74.7,150615,6.2,W"
"##MN-00 00 52 0298 01943 5591 463439 208807 205"
"166.369873"
"$GPRMC,085229,A,2421.3246,N,08050.2143,W,0.3,74.9,150615,6.2,W"
"##MN-00 00 51 0299 01940 5591 463260 208818 205"
"166.369919"
"$GPRMC,085233,A,2421.3246,N,08050.2142,W,0.3,73.9,150615,6.2,W"
"##MN-00 00 50 0300 01937 5590 463105 208776 205"
"166.369965"
"$GPRMC,085237,A,2421.3245,N,08050.2139,W,0.2,72.9,150615,6.2,W"
"##MN-00 00 52 0301 01931 5590 462734 208707 205"
"166.370012"
"$GPRMC,085241,A,2421.3246,N,08050.2139,W,0.3,70.8,150615,6.2,W"
"##MN-00 00 54 0302 01928 5589 461937 208581 205"
"166.370058"
"$GPRMC,085245,A,2421.3246,N,08050.2136,W,0.3,68.0,150615,6.2,W"
"##MN-00 00 50 0303 01926 5588 461234 208363 205"
"166.370104"
"$GPRMC,085249,A,2421.3249,N,08050.2135,W,0.2,66.1,150615,6.2,W"
"##MN-00 00 49 0304 01920 5588 460681 208286 205"
"166.37015"
"$GPRMC,085253,A,2421.3246,N,08050.2133,W,0.2,64.0,150615,6.2,W"
"##MN-00 00 52 0305 01914 5588 460313 208236 205"
"166.370197"
"$GPRMC,085257,A,2421.3253,N,08050.2128,W,0.2,60.8,150615,6.2,W"
"##MN-00 00 52 0305 01913 5588 460050 208151 205"
"166.370243"
"$GPRMC,085301,A,2421.3257,N,08050.2124,W,0.3,57.5,150615,6.2,W"
"##MN-00 00 52 0306 01909 5587 459944 208152 205"
"166.370289"
"$GPRMC,085305,A,2421.3256,N,08050.2121,W,0.3,55.7,150615,6.2,W"
"##MN-00 00 51 0307 01903 5587 459797 208076 205"
"166.370336"
"$GPRMC,085309,A,2421.3252,N,08050.2120,W,0.4,57.0,150615,6.2,W"
"##MN+00 00 55 0308 01900 5586 459573 208044 205"
"166.370382"
"$GPRMC,085313,A,2421.3250,N,08050.2115,W,0.4,61.4,150615,6.2,W"
"##MN+00 00 51 0309 01898 5586 459297 207971 205"
"166.370428"
"$GPRMC,085317,A,2421.3250,N,08050.2114,W,0.4,63.7,150615,6.2,W"
"##MN+00 00 51 0310 01894 5585 458771 207842 205"
"166.370475"
"$GPRMC,085321,A,2421.3250,N,08050.2111,W,0.3,66.4,150615,6.2,W"
"##MN+00 00 52 0311 01892 5585 458146 207737 205"
"166.370521"
"$GPRMC,085325,A,2421.3253,N,08050.2110,W,0.3,70.1,150615,6.2,W"
"##MN+00 00 53 0312 01889 5585 457942 207749 205"
"166.370567"
"$GPRMC,085329,A,2421.3253,N,08050.2105,W,0.2,71.8,150615,6.2,W"
"##MN+00 00 52 0313 01891 5585 457824 207688 205"
"166.370613"
"$GPRMC,085333,A,2421.3255,N,08050.2102,W,0.3,73.6,150615,6.2,W"
"##MN-00 00 55 0313 01888 5585 457810 207656 205"
"166.37066"
"$GPRMC,085338,A,2421.3259,N,08050.2098,W,0.3,75.3,150615,6.2,W"
"##MN-00 00 51 0314 01887 5584 457853 207677 205"
"166.370706"
"$GPRMC,085342,A,2421.3261,N,08050.2095,W,0.3,76.6,150615,6.2,W"
"##MN-00 00 51 0315 01883 5584 457554 207602 205"
"166.370752"
"#increment_net"
"$GPRMC,085346,A,2421.3263,N,08050.2091,W,0.4,77.5,150615,6.2,W"
"##MN-00 00 50 0316 01880 5584 457080 207503 205"
"166.370799"
"$GPRMC,085349,A,2421.3260,N,08050.2088,W,0.3,77.8,150615,6.2,W"
"##MN-00 00 50 0317 01876 5584 456773 207422 205"
"166.370845"
"$GPRMC,085354,A,2421.3260,N,08050.2083,W,0.2,79.8,150615,6.2,W"
"##MN-00 00 50 0318 01871 5584 456347 207401 205"
"166.370891"
"$GPRMC,085357,A,2421.3260,N,08050.2083,W,0.2,80.7,150615,6.2,W"
"##MN-00 00 50 0319 01868 5584 456131 207356 205"
"166.370938"
"$GPRMC,085402,A,2421.3266,N,08050.2078,W,0.2,83.2,150615,6.2,W"
"##MN-00 00 50 0320 01865 5584 455832 207284 205"
"166.370984"
"$GPRMC,085406,A,2421.3266,N,08050.2079,W,0.2,82.3,150615,6.2,W"
"##MN-00 00 51 0321 01861 5583 455212 207195 205"
"166.37103"
"$GPRMC,085410,A,2421.3268,N,08050.2075,W,0.3,80.0,150615,6.2,W"
"##MN-00 00 51 0322 01858 5583 454433 207016 205"
"166.371076"
"$GPRMC,085414,A,2421.3273,N,08050.2077,W,0.3,76.3,150615,6.2,W"
"##MN-00 00 51 0323 01857 5583 453231 206812 205"
"166.371123"
"$GPRMC,085418,A,2421.3275,N,08050.2076,W,0.3,72.9,150615,6.2,W"
"##MN-00 00 52 0324 01852 5584 452842 206708 205"
"166.371169"
"$GPRMC,085422,A,2421.3274,N,08050.2075,W,0.3,72.6,150615,6.2,W"
"##MN-00 00 50 0325 01851 5584 452261 206603 205"
"166.371215"
"$GPRMC,085426,A,2421.3271,N,08050.2071,W,0.4,65.5,150615,6.2,W"
"##MN-00 00 50 0326 01849 5583 450132 205984 205"
"166.371262"
"$GPRMC,085430,A,2421.3271,N,08050.2070,W,0.4,61.3,150615,6.2,W"
"##MN-00 00 50 0327 01845 5584 447671 205634 205"
"166.371308"
"$GPRMC,085434,A,2421.3275,N,08050.2069,W,0.4,59.0,150615,6.2,W"
"##MN-00 00 49 0328 01843 5584 446320 205294 205"
"166.371354"
"$GPRMC,085438,A,2421.3279,N,08050.2066,W,0.4,59.5,150615,6.2,W"
"##MN-00 00 49 0329 01841 5584 445458 204944 205"
"166.3714"
"$GPRMC,085442,A,2421.3268,N,08050.2062,W,0.3,61.2,150615,6.2,W"
"##MN-00 00 49 0330 01838 5584 444902 204870 205"
"166.371447"
"$GPRMC,085446,A,2421.3266,N,08050.2063,W,0.4,61.9,150615,6.2,W"
"##MN-00 00 49 0331 01835 5585 444488 204765 205"
"166.371493"
"$GPRMC,085450,A,2421.3271,N,08050.2059,W,0.4,63.0,150615,6.2,W"
"##MN-00 00 49 0332 01831 5585 444210 204638 205"
"166.371539"
"$GPRMC,085454,A,2421.3279,N,08050.2052,W,0.3,62.6,150615,6.2,W"
"##MN-00 00 49 0333 01829 5585 443885 204571 205"
"166.371586"
"$GPRMC,085458,A,2421.3277,N,08050.2047,W,0.3,62.2,150615,6.2,W"
"##MN-00 00 49 0334 01825 5585 443727 204516 205"
"166.371632"
"$GPRMC,085502,A,2421.3279,N,08050.2044,W,0.4,61.2,150615,6.2,W"
"##MN-00 00 49 0335 01821 5586 443669 204479 205"
"166.371678"
"$GPRMC,085506,A,2421.3279,N,08050.2040,W,0.4,63.1,150615,6.2,W"
"##MN-00 00 18 0336 01818 5586 443602 204461 205"
"166.371725"
"$GPRMC,085510,A,2421.3280,N,08050.2036,W,0.4,65.2,150615,6.2,W"
"##MN-00 00 49 0337 01817 5586 443560 204447 205"
"166.371771"
"$GPRMC,085514,A,2421.3286,N,08050.2031,W,0.4,64.2,150615,6.2,W"
"##MN-00 00 49 0338 01813 5587 443553 204451 205"
"166.371817"
"$GPRMC,085518,A,2421.3290,N,08050.2028,W,0.5,66.5,150615,6.2,W"
"##MN-00 00 49 0339 01809 5587 443607 204460 205"
"166.371863"
"$GPRMC,085522,A,2421.3289,N,08050.2025,W,0.4,67.2,150615,6.2,W"
"##MN-00 00 49 0340 01809 5588 443590 204431 205"
"166.371921"
"$GPRMC,085526,A,2421.3293,N,08050.2021,W,0.4,68.1,150615,6.2,W"
"##MN-00 00 49 0341 01804 5588 443572 204426 205"
"166.371968"
"$GPRMC,085530,A,2421.3293,N,08050.2018,W,0.4,68.7,150615,6.2,W"
"##MN-00 00 08 0342 01799 5589 443455 204393 205"
"166.372014"
"$GPRMC,085534,A,2421.3293,N,08050.2013,W,0.4,70.7,150615,6.2,W"
"##MN-00 00 48 0343 01796 5590 443415 204388 205"
"166.37206"
"$GPRMC,085538,A,2421.3292,N,08050.2009,W,0.5,75.0,150615,6.2,W"
"##MN-00 00 07 0344 01794 5590 443408 204385 205"
"166.372106"
"$GPRMC,085542,A,2421.3290,N,08050.2004,W,0.5,77.7,150615,6.2,W"
"##MN-00 00 48 0345 01791 5591 443413 204383 205"
"166.372153"
"$GPRMC,085546,A,2421.3290,N,08050.1999,W,0.5,80.0,150615,6.2,W"
"##MN-00 00 07 0346 01789 5592 443376 204374 205"
"166.372199"
"$GPRMC,085550,A,2421.3289,N,08050.1993,W,0.4,81.5,150615,6.2,W"
"##MN-00 00 08 0347 01789 5592 443339 204364 205"
"166.372245"
"$GPRMC,085554,A,2421.3293,N,08050.1988,W,0.4,83.3,150615,6.2,W"
"##MN-00 00 49 0348 01784 5593 443322 204359 205"
"166.372292"
"$GPRMC,085558,A,2421.3295,N,08050.1984,W,0.4,84.2,150615,6.2,W"
"##MN-00 00 48 0349 01783 5594 443353 204363 205"
"166.372338"
"$GPRMC,085602,A,2421.3292,N,08050.1980,W,0.4,83.5,150615,6.2,W"
"##MN-00 00 49 0350 01779 5595 443365 204366 205"
"166.372384"
"$GPRMC,085606,A,2421.3288,N,08050.1977,W,0.4,82.9,150615,6.2,W"
"##MN-00 00 49 0351 01776 5596 443358 204366 205"
"166.372431"
"$GPRMC,085610,A,2421.3289,N,08050.1973,W,0.3,83.0,150615,6.2,W"
"##MN-00 00 07 0352 01774 5596 443342 204362 205"
"166.372477"
"$GPRMC,085614,A,2421.3288,N,08050.1969,W,0.3,83.2,150615,6.2,W"
"##MN-00 00 49 0353 01770 5597 443310 204352 205"
"166.372523"
"$GPRMC,085618,A,2421.3290,N,08050.1967,W,0.3,82.7,150615,6.2,W"
"##MN-00 00 50 0354 01768 5598 443287 204347 205"
"166.372569"
"$GPRMC,085622,A,2421.3295,N,08050.1962,W,0.3,82.0,150615,6.2,W"
"##MN-00 00 49 0355 01763 5599 443274 204344 205"
"166.372616"
"$GPRMC,085626,A,2421.3297,N,08050.1958,W,0.3,81.0,150615,6.2,W"
"##MN-00 00 50 0356 01759 5600 443278 204343 205"
"166.372662"
"$GPRMC,085630,A,2421.3297,N,08050.1955,W,0.3,80.9,150615,6.2,W"
"##MN-00 00 50 0357 01759 5601 443273 204341 205"
"166.372708"
"$GPRMC,085634,A,2421.3294,N,08050.1955,W,0.3,81.0,150615,6.2,W"
"##MN-00 00 49 0358 01757 5602 443258 204336 205"
"166.372755"
"$GPRMC,085638,A,2421.3295,N,08050.1953,W,0.3,80.6,150615,6.2,W"
"##MN-00 00 49 0359 01753 5603 443267 204338 205"
"166.372801"
"$GPRMC,085642,A,2421.3294,N,08050.1949,W,0.4,79.3,150615,6.2,W"
"##MN-00 00 09 0360 01749 5604 443237 204329 205"
"166.372847"
"$GPRMC,085646,A,2421.3289,N,08050.1947,W,0.4,79.8,150615,6.2,W"
"##MN-00 00 49 0361 01746 5605 443225 204330 205"
"166.372894"
"$GPRMC,085650,A,2421.3286,N,08050.1944,W,0.4,79.4,150615,6.2,W"
"##MN-00 00 08 0362 01744 5606 443224 204329 205"
"166.37294"
"$GPRMC,085654,A,2421.3287,N,08050.1943,W,0.3,78.0,150615,6.2,W"
"##MN-00 00 48 0363 01741 5607 443202 204321 205"
"166.372986"
"$GPRMC,085658,A,2421.3289,N,08050.1942,W,0.3,77.1,150615,6.2,W"
"##MN-00 00 50 0364 01737 5607 443204 204324 205"
"166.373032"
"$GPRMC,085702,A,2421.3293,N,08050.1940,W,0.4,75.4,150615,6.2,W"
"##MN-00 00 49 0365 01734 5608 443222 204328 205"
"166.373079"
"$GPRMC,085706,A,2421.3296,N,08050.1937,W,0.3,72.9,150615,6.2,W"
"##MN-00 00 50 0366 01733 5609 443185 204322 205"
"166.373125"
"$GPRMC,085710,A,2421.3300,N,08050.1931,W,0.4,70.7,150615,6.2,W"
"##MN-00 00 49 0367 01731 5611 443175 204318 205"
"166.373171"
"$GPRMC,085714,A,2421.3304,N,08050.1926,W,0.3,68.4,150615,6.2,W"
"##MN+00 00 49 0368 01727 5612 443162 204316 205"
"166.373218"
"$GPRMC,085718,A,2421.3307,N,08050.1922,W,0.3,67.0,150615,6.2,W"
"##MN+00 00 08 0369 01727 5612 443167 204316 205"
"166.373264"
"$GPRMC,085722,A,2421.3308,N,08050.1915,W,0.4,65.8,150615,6.2,W"
"##MN+00 00 50 0370 01725 5614 443167 204316 205"
"166.37331"
"$GPRMC,085726,A,2421.3308,N,08050.1909,W,0.4,65.4,150615,6.2,W"
"##MN-00 00 08 0371 01723 5615 443148 204309 205"
"166.373357"
"$GPRMC,085730,A,2421.3307,N,08050.1904,W,0.4,66.1,150615,6.2,W"
"##MN-00 00 08 0372 01721 5616 443135 204306 205"
"166.373403"
"$GPRMC,085734,A,2421.3307,N,08050.1899,W,0.4,67.4,150615,6.2,W"
"##MN-00 00 50 0373 01722 5617 443131 204306 205"
"166.373449"
"$GPRMC,085738,A,2421.3307,N,08050.1896,W,0.5,69.3,150615,6.2,W"
"##MN-00 00 49 0374 01717 5618 443128 204305 205"
"166.373495"
"$GPRMC,085742,A,2421.3308,N,08050.1892,W,0.4,71.4,150615,6.2,W"
"##MN-00 00 07 0375 01716 5619 443129 204306 205"
"166.373542"
"$GPRMC,085746,A,2421.3311,N,08050.1888,W,0.3,73.4,150615,6.2,W"
"##MN+00 00 06 0376 01713 5620 443134 204308 205"
"166.373588"
"$GPRMC,085750,A,2421.3314,N,08050.1882,W,0.3,76.4,150615,6.2,W"
"##MN+00 00 09 0377 01709 5621 443152 204312 205"
"166.373634"
"$GPRMC,085754,A,2421.3308,N,08050.1879,W,0.4,77.9,150615,6.2,W"
"##MN+00 00 63 0378 01710 5622 443151 204311 205"
"166.373681"
"$GPRMC,085758,A,2421.3307,N,08050.1874,W,0.3,81.3,150615,6.2,W"
"##MN-00 00 57 0378 01704 5623 443146 204309 205"
"166.373727"
"#increment_net"
"$GPRMC,085802,A,2421.3311,N,08050.1872,W,0.4,84.1,150615,6.2,W"
"##MN-00 00 55 0379 01701 5624 443147 204311 205"
"166.373773"
