" Tow: 13-OF-D-OUT   RVWS/WS15161"
" Date: 15/06/2015"
" Temperature Probe #  4762    Conductivity Probe #  710"
" Pressure Probe #  159"
" Flow Meter Calibration  4.71 (m/count)  "
"166.482419"
"$GPRMC,103948,A,2424.0984,N,08054.8540,W,0.8,300.6,150615,6.2,"
"##MN-00 00 57 0007 01584 5515 459788 206019 204"
"166.482697"
"$GPRMC,113456,A,2426.8754,N,08059.0005,W,1.6,322.9,150615,6.1,"
"##MN-00 00 58 0014 01580 5529 446949 205623 204"
"166.482743"
"$GPRMC,113501,A,2426.8770,N,08059.0020,W,1.6,323.4,150615,6.1,"
"##MN-00 00 57 0015 01579 5531 446942 205615 204"
"166.482789"
"$GPRMC,113505,A,2426.8784,N,08059.0033,W,1.6,324.6,150615,6.1,"
"##MN-00 00 55 0016 01579 5533 446912 205604 204"
"166.482836"
"$GPRMC,113509,A,2426.8799,N,08059.0043,W,1.6,323.9,150615,6.1,"
"##MN-00 00 57 0017 01579 5535 446890 205604 204"
"166.482882"
"$GPRMC,113513,A,2426.8813,N,08059.0056,W,1.6,323.5,150615,6.1,"
"##MN-00 00 57 0018 01583 5537 446876 205598 204"
"166.482928"
"$GPRMC,113517,A,2426.8828,N,08059.0070,W,1.7,323.8,150615,6.1,"
"##MN-00 00 56 0019 01582 5539 446884 205600 204"
"166.482975"
"$GPRMC,113521,A,2426.8842,N,08059.0083,W,1.7,323.8,150615,6.1,"
"##MN-00 00 55 0020 01579 5541 446892 205601 204"
"166.483021"
"$GPRMC,113525,A,2426.8857,N,08059.0097,W,1.7,324.2,150615,6.1,"
"##MN-00 00 57 0021 01579 5543 446900 205602 204"
"166.483067"
"$GPRMC,113529,A,2426.8871,N,08059.0109,W,1.7,324.3,150615,6.1,"
"##MN-00 00 61 0022 01581 5544 446886 205598 204"
"166.483113"
"$GPRMC,113533,A,2426.8888,N,08059.0121,W,1.7,324.8,150615,6.1,"
"##MN-00 00 57 0023 01580 5546 446877 205594 204"
"166.48316"
"$GPRMC,113537,A,2426.8904,N,08059.0133,W,1.7,325.4,150615,6.1,"
"##MN-00 00 57 0024 01579 5547 446871 205592 204"
"166.483206"
"$GPRMC,113541,A,2426.8920,N,08059.0142,W,1.6,325.9,150615,6.1,"
"##MN-00 00 57 0025 01578 5549 446870 205592 204"
"166.483252"
"$GPRMC,113545,A,2426.8936,N,08059.0153,W,1.7,325.9,150615,6.1,"
"##MN-00 00 57 0026 01582 5551 446884 205596 204"
"166.483299"
"$GPRMC,113549,A,2426.8951,N,08059.0166,W,1.7,326.1,150615,6.1,"
"##MN-00 00 55 0027 01580 5553 446919 205605 204"
"166.483345"
"$GPRMC,113553,A,2426.8968,N,08059.0175,W,1.7,326.5,150615,6.1,"
"##MN-00 00 57 0028 01585 5554 446932 205604 204"
"166.483391"
"$GPRMC,113557,A,2426.8983,N,08059.0186,W,1.7,326.3,150615,6.1,"
"##MN-00 00 57 0029 01587 5556 446910 205597 204"
"166.483437"
"$GPRMC,113601,A,2426.8997,N,08059.0199,W,1.7,326.0,150615,6.1,"
"##MN-00 00 58 0030 01589 5557 446893 205595 204"
"166.483484"
"$GPRMC,113605,A,2426.9014,N,08059.0211,W,1.7,324.9,150615,6.1,"
"##MN-00 00 58 0030 01592 5559 446893 205593 204"
"166.48353"
"$GPRMC,113609,A,2426.9027,N,08059.0224,W,1.7,323.5,150615,6.1,"
"##MN-00 00 58 0031 01599 5560 446895 205593 204"
"166.483576"
"$GPRMC,113613,A,2426.9043,N,08059.0238,W,1.7,322.1,150615,6.1,"
"##MN-00 00 57 0032 01599 5562 446897 205592 204"
"166.483623"
"$GPRMC,113617,A,2426.9057,N,08059.0249,W,1.7,321.8,150615,6.1,"
"##MN-00 00 57 0033 01601 5563 446909 205595 204"
"166.483669"
"$GPRMC,113621,A,2426.9070,N,08059.0262,W,1.6,321.7,150615,6.1,"
"##MN-00 00 58 0034 01602 5565 446926 205598 204"
"166.483715"
"$GPRMC,113625,A,2426.9088,N,08059.0275,W,1.7,321.5,150615,6.1,"
"##MN-00 00 56 0035 01608 5566 446942 205602 204"
"166.483762"
"$GPRMC,113629,A,2426.9105,N,08059.0287,W,1.7,321.3,150615,6.1,"
"##MN-00 00 57 0036 01607 5568 446943 205602 204"
"166.483808"
"$GPRMC,113633,A,2426.9122,N,08059.0300,W,1.7,321.1,150615,6.1,"
"##MN-00 00 58 0037 01610 5569 446935 205601 204"
"166.483854"
"$GPRMC,113637,A,2426.9137,N,08059.0312,W,1.7,321.6,150615,6.1,"
"##MN-00 00 57 0038 01615 5570 446943 205600 204"
"166.4839"
"$GPRMC,113641,A,2426.9153,N,08059.0325,W,1.7,322.7,150615,6.1,"
"##MN-00 00 57 0039 01615 5571 446934 205596 204"
"166.483947"
"$GPRMC,113645,A,2426.9171,N,08059.0339,W,1.7,323.2,150615,6.1,"
"##MN-00 00 56 0040 01620 5573 446931 205596 204"
"166.483993"
"$GPRMC,113649,A,2426.9188,N,08059.0351,W,1.7,323.2,150615,6.1,"
"##MN-00 00 59 0041 01623 5574 446893 205588 204"
"166.484039"
"$GPRMC,113653,A,2426.9203,N,08059.0365,W,1.7,322.8,150615,6.1,"
"##MN-00 00 56 0042 01628 5576 446865 205573 204"
"166.484086"
"$GPRMC,113657,A,2426.9220,N,08059.0376,W,1.7,322.9,150615,6.1,"
"##MN-00 00 57 0043 01631 5577 446917 205585 204"
"166.484132"
"$GPRMC,113701,A,2426.9235,N,08059.0388,W,1.7,323.2,150615,6.1,"
"##MN-00 00 57 0044 01632 5578 446931 205588 204"
"166.484178"
"$GPRMC,113705,A,2426.9250,N,08059.0401,W,1.7,323.3,150615,6.1,"
"##MN-00 00 57 0045 01635 5579 446910 205587 203"
"166.484225"
"$GPRMC,113709,A,2426.9268,N,08059.0413,W,1.7,323.5,150615,6.1,"
"##MN-00 00 57 0046 01635 5581 446899 205584 204"
"166.484271"
"$GPRMC,113713,A,2426.9283,N,08059.0426,W,1.7,323.7,150615,6.1,"
"##MN-00 00 57 0047 01639 5582 446901 205585 204"
"166.484317"
"$GPRMC,113717,A,2426.9300,N,08059.0438,W,1.8,323.0,150615,6.1,"
"##MN-00 00 56 0047 01643 5583 446902 205585 204"
"166.484363"
"$GPRMC,113721,A,2426.9315,N,08059.0452,W,1.8,322.5,150615,6.1,"
"##MN-00 00 57 0048 01644 5584 446907 205585 204"
"166.48441"
"$GPRMC,113725,A,2426.9330,N,08059.0466,W,1.8,322.6,150615,6.1,"
"##MN-00 00 57 0049 01646 5586 446905 205584 204"
"166.484456"
"$GPRMC,113729,A,2426.9346,N,08059.0478,W,1.8,321.9,150615,6.1,"
"##MN-00 00 58 0050 01648 5587 446895 205583 204"
"166.484502"
"$GPRMC,113733,A,2426.9362,N,08059.0492,W,1.7,321.0,150615,6.1,"
"##MN-00 00 56 0051 01649 5588 446888 205578 204"
"166.484549"
"$GPRMC,113737,A,2426.9373,N,08059.0502,W,1.8,321.3,150615,6.1,"
"##MN-00 00 58 0052 01652 5589 446888 205577 204"
"166.484595"
"$GPRMC,113742,A,2426.9393,N,08059.0518,W,1.7,321.0,150615,6.1,"
"##MN-00 00 57 0053 01657 5591 446877 205575 204"
"166.484641"
"$GPRMC,113745,A,2426.9408,N,08059.0531,W,1.7,320.8,150615,6.1,"
"##MN-00 00 57 0054 01659 5592 446892 205577 204"
"166.484687"
"$GPRMC,113749,A,2426.9423,N,08059.0546,W,1.7,321.0,150615,6.1,"
"##MN-00 00 57 0055 01663 5593 446883 205569 204"
"166.484734"
"$GPRMC,113754,A,2426.9442,N,08059.0561,W,1.7,321.1,150615,6.1,"
"##MN-00 00 57 0056 01667 5594 446863 205566 204"
"166.48478"
"$GPRMC,113758,A,2426.9455,N,08059.0571,W,1.7,322.5,150615,6.1,"
"##MN-00 00 57 0057 01670 5595 446828 205550 204"
"166.484826"
"$GPRMC,113802,A,2426.9470,N,08059.0583,W,1.7,323.3,150615,6.1,"
"##MN-00 00 56 0058 01671 5596 446806 205545 204"
"166.484873"
"$GPRMC,113806,A,2426.9489,N,08059.0598,W,1.7,324.0,150615,6.1,"
"##MN-00 00 57 0059 01673 5598 446816 205550 204"
"166.484919"
"$GPRMC,113810,A,2426.9505,N,08059.0611,W,1.7,324.3,150615,6.1,"
"##MN-00 00 59 0060 01677 5599 446815 205551 204"
"166.484965"
"$GPRMC,113814,A,2426.9521,N,08059.0622,W,1.7,324.6,150615,6.1,"
"##MN-00 00 57 0061 01680 5600 446799 205542 204"
"166.485023"
"$GPRMC,113818,A,2426.9536,N,08059.0636,W,1.7,324.8,150615,6.1,"
"##MN-00 00 57 0062 01686 5601 446787 205532 204"
"166.485069"
"$GPRMC,113822,A,2426.9554,N,08059.0647,W,1.7,324.7,150615,6.1,"
"##MN-00 00 57 0063 01686 5602 446798 205536 204"
"166.485116"
"$GPRMC,113826,A,2426.9570,N,08059.0658,W,1.7,324.8,150615,6.1,"
"##MN-00 00 58 0064 01688 5604 446763 205527 204"
"166.485162"
"$GPRMC,113830,A,2426.9585,N,08059.0672,W,1.7,324.3,150615,6.1,"
"##MN-00 00 56 0065 01692 5604 446749 205519 204"
"166.485208"
"$GPRMC,113834,A,2426.9601,N,08059.0684,W,1.8,323.8,150615,6.1,"
"##MN-00 00 58 0066 01695 5606 446784 205533 204"
"166.485255"
"$GPRMC,113838,A,2426.9617,N,08059.0697,W,1.8,323.9,150615,6.1,"
"##MN-00 00 56 0067 01699 5607 446769 205522 204"
"166.485301"
"$GPRMC,113842,A,2426.9633,N,08059.0708,W,1.8,323.8,150615,6.1,"
"##MN-00 00 57 0068 01700 5608 446759 205518 204"
"166.485347"
"$GPRMC,113846,A,2426.9651,N,08059.0719,W,1.8,323.6,150615,6.1,"
"##MN-00 00 58 0069 01704 5609 446767 205522 204"
"166.485394"
"$GPRMC,113850,A,2426.9666,N,08059.0731,W,1.7,323.5,150615,6.1,"
"##MN-00 00 56 0070 01708 5610 446695 205511 204"
"166.48544"
"$GPRMC,113854,A,2426.9683,N,08059.0744,W,1.7,322.9,150615,6.1,"
"##MN-00 00 57 0071 01711 5611 446642 205472 204"
"166.485486"
"$GPRMC,113858,A,2426.9698,N,08059.0758,W,1.8,322.7,150615,6.1,"
"##MN-00 00 56 0072 01710 5612 446609 205451 204"
"166.485532"
"$GPRMC,113902,A,2426.9712,N,08059.0771,W,1.8,321.8,150615,6.1,"
"##MN-00 00 59 0073 01712 5613 446582 205439 204"
"166.485579"
"$GPRMC,113906,A,2426.9727,N,08059.0784,W,1.7,320.3,150615,6.1,"
"##MN-00 00 58 0074 01716 5615 446549 205417 204"
"166.485625"
"$GPRMC,113910,A,2426.9740,N,08059.0798,W,1.7,320.2,150615,6.1,"
"##MN-00 00 57 0074 01722 5616 446486 205394 204"
"166.485671"
"$GPRMC,113914,A,2426.9756,N,08059.0809,W,1.7,321.4,150615,6.1,"
"##MN-00 00 57 0075 01725 5617 446409 205369 204"
"166.485718"
"$GPRMC,113918,A,2426.9771,N,08059.0821,W,1.7,321.4,150615,6.1,"
"##MN-00 00 57 0076 01727 5618 446292 205312 204"
"166.485764"
"$GPRMC,113922,A,2426.9785,N,08059.0835,W,1.7,321.2,150615,6.1,"
"##MN-00 00 57 0077 01730 5619 446208 205250 204"
"166.48581"
"$GPRMC,113926,A,2426.9799,N,08059.0847,W,1.7,321.3,150615,6.1,"
"##MN-00 00 57 0078 01732 5620 446199 205214 204"
"166.485856"
"$GPRMC,113930,A,2426.9814,N,08059.0860,W,1.7,321.3,150615,6.1,"
"##MN-00 00 57 0079 01735 5621 446209 205198 204"
"166.485903"
"$GPRMC,113934,A,2426.9829,N,08059.0874,W,1.7,321.0,150615,6.1,"
"##MN-00 00 56 0080 01737 5623 446210 205183 204"
"166.485949"
"$GPRMC,113938,A,2426.9845,N,08059.0886,W,1.7,320.8,150615,6.1,"
"##MN-00 00 57 0081 01740 5623 446214 205177 204"
"166.485995"
"$GPRMC,113942,A,2426.9861,N,08059.0900,W,1.8,321.5,150615,6.1,"
"##MN-00 00 56 0082 01746 5624 446223 205174 204"
"166.486042"
"$GPRMC,113946,A,2426.9876,N,08059.0912,W,1.8,321.9,150615,6.1,"
"##MN-00 00 57 0083 01745 5625 446233 205172 204"
"166.486088"
"$GPRMC,113950,A,2426.9893,N,08059.0925,W,1.8,322.6,150615,6.1,"
"##MN-00 00 57 0084 01747 5626 446245 205173 204"
"166.486134"
"$GPRMC,113954,A,2426.9908,N,08059.0939,W,1.8,323.7,150615,6.1,"
"##MN-00 00 58 0085 01749 5628 446250 205174 204"
"166.486181"
"$GPRMC,113958,A,2426.9926,N,08059.0951,W,1.8,324.6,150615,6.1,"
"##MN-00 00 58 0086 01754 5628 446266 205175 204"
"166.486227"
"$GPRMC,114002,A,2426.9941,N,08059.0962,W,1.8,325.4,150615,6.1,"
"##MN-00 00 57 0087 01756 5630 446281 205176 204"
"166.486273"
"$GPRMC,114006,A,2426.9958,N,08059.0975,W,1.8,326.4,150615,6.1,"
"##MN-00 00 56 0088 01758 5631 446289 205177 204"
"166.486319"
"$GPRMC,114010,A,2426.9977,N,08059.0987,W,1.8,326.7,150615,6.1,"
"##MN-00 00 57 0089 01760 5632 446292 205177 204"
"166.486366"
"$GPRMC,114014,A,2426.9995,N,08059.0999,W,1.8,326.6,150615,6.1,"
"##MN-00 00 56 0090 01761 5633 446292 205177 204"
"166.486412"
"$GPRMC,114018,A,2427.0013,N,08059.1012,W,1.8,326.7,150615,6.1,"
"##MN-00 00 57 0091 01764 5634 446295 205177 204"
"166.486458"
"$GPRMC,114022,A,2427.0030,N,08059.1026,W,1.8,326.0,150615,6.1,"
"##MN-00 00 57 0092 01767 5635 446302 205178 204"
"166.486505"
"$GPRMC,114026,A,2427.0048,N,08059.1038,W,1.8,325.4,150615,6.1,"
"##MN-00 00 57 0093 01769 5636 446315 205178 204"
"166.486551"
"$GPRMC,114030,A,2427.0063,N,08059.1051,W,1.8,325.1,150615,6.1,"
"##MN-00 00 56 0094 01774 5637 446368 205183 204"
"166.486597"
"$GPRMC,114034,A,2427.0081,N,08059.1066,W,1.9,324.6,150615,6.1,"
"##MN-00 00 57 0095 01774 5638 446449 205183 204"
"166.486644"
"$GPRMC,114038,A,2427.0096,N,08059.1080,W,1.8,323.5,150615,6.1,"
"##MN-00 00 58 0095 01779 5639 446502 205181 204"
"166.48669"
"$GPRMC,114042,A,2427.0113,N,08059.1094,W,1.8,323.1,150615,6.1,"
"##MN-00 00 57 0096 01782 5640 446542 205179 204"
"166.486736"
"$GPRMC,114046,A,2427.0128,N,08059.1106,W,1.8,323.1,150615,6.1,"
"##MN-00 00 57 0097 01784 5641 446606 205181 204"
"166.486782"
"$GPRMC,114050,A,2427.0143,N,08059.1120,W,1.8,322.6,150615,6.1,"
"##MN-00 00 57 0098 01790 5642 446665 205179 204"
"166.486829"
"$GPRMC,114054,A,2427.0159,N,08059.1132,W,1.7,322.2,150615,6.1,"
"##MN-00 00 57 0099 01793 5643 446713 205176 204"
"166.486875"
"$GPRMC,114058,A,2427.0174,N,08059.1145,W,1.7,322.1,150615,6.1,"
"##MN-00 00 57 0100 01798 5644 446737 205171 204"
"166.486921"
"$GPRMC,114102,A,2427.0190,N,08059.1157,W,1.7,321.6,150615,6.1,"
"##MN-00 00 57 0101 01801 5645 446763 205169 204"
"166.486968"
"$GPRMC,114106,A,2427.0206,N,08059.1171,W,1.7,322.1,150615,6.1,"
"##MN-00 00 58 0102 01803 5646 446814 205158 204"
"166.487014"
"$GPRMC,114110,A,2427.0222,N,08059.1183,W,1.7,322.6,150615,6.1,"
"##MN-00 00 57 0103 01809 5647 446866 205143 204"
"166.48706"
"$GPRMC,114114,A,2427.0237,N,08059.1196,W,1.7,321.7,150615,6.1,"
"##MN-00 00 57 0104 01810 5648 446939 205124 204"
"166.487106"
"$GPRMC,114118,A,2427.0253,N,08059.1210,W,1.7,322.3,150615,6.1,"
"##MN-00 00 58 0105 01816 5650 447007 205113 204"
"166.487153"
"$GPRMC,114122,A,2427.0269,N,08059.1222,W,1.7,322.4,150615,6.1,"
"##MN-00 00 57 0106 01821 5651 447037 205105 204"
"166.487199"
"$GPRMC,114126,A,2427.0284,N,08059.1236,W,1.8,322.3,150615,6.1,"
"##MN-00 00 56 0107 01823 5651 447066 205100 204"
"166.487245"
"$GPRMC,114130,A,2427.0298,N,08059.1247,W,1.7,322.5,150615,6.1,"
"##MN-00 00 56 0107 01827 5652 447091 205096 204"
"166.487292"
"$GPRMC,114134,A,2427.0315,N,08059.1259,W,1.7,322.5,150615,6.1,"
"##MN-00 00 57 0108 01834 5653 447122 205091 204"
"166.487338"
"$GPRMC,114138,A,2427.0330,N,08059.1272,W,1.7,322.4,150615,6.1,"
"##MN-00 00 57 0109 01836 5654 447266 205084 204"
"166.487384"
"$GPRMC,114142,A,2427.0345,N,08059.1283,W,1.7,322.9,150615,6.1,"
"##MN-00 00 56 0110 01841 5656 447428 205075 204"
"166.487431"
"$GPRMC,114146,A,2427.0362,N,08059.1294,W,1.7,323.9,150615,6.1,"
"##MN-00 00 54 0111 01843 5656 447551 205060 204"
"166.487477"
"$GPRMC,114150,A,2427.0378,N,08059.1308,W,1.8,324.6,150615,6.1,"
"##MN-00 00 56 0112 01846 5657 447626 205055 204"
"166.487523"
"$GPRMC,114154,A,2427.0394,N,08059.1319,W,1.8,324.7,150615,6.1,"
"##MN-00 00 57 0113 01851 5658 447695 205061 204"
"166.487569"
"$GPRMC,114158,A,2427.0409,N,08059.1333,W,1.8,324.3,150615,6.1,"
"##MN-00 00 57 0114 01855 5659 447743 205062 204"
"166.487616"
"$GPRMC,114202,A,2427.0424,N,08059.1345,W,1.8,324.8,150615,6.1,"
"##MN-00 00 56 0114 01857 5660 447889 205082 204"
"166.487662"
"$GPRMC,114206,A,2427.0443,N,08059.1358,W,1.8,326.1,150615,6.1,"
"##MN-00 00 57 0115 01862 5661 448138 205084 204"
"166.487708"
"$GPRMC,114210,A,2427.0460,N,08059.1369,W,1.8,326.4,150615,6.1,"
"##MN-00 00 56 0116 01867 5662 448312 205130 204"
"166.487755"
"$GPRMC,114214,A,2427.0477,N,08059.1383,W,1.8,326.1,150615,6.1,"
"##MN-00 00 56 0117 01869 5663 448398 205144 204"
"166.487801"
"$GPRMC,114218,A,2427.0493,N,08059.1395,W,1.8,325.5,150615,6.1,"
"##MN-00 00 55 0118 01874 5664 448460 205163 204"
"166.487847"
"$GPRMC,114222,A,2427.0508,N,08059.1409,W,1.8,324.3,150615,6.1,"
"##MN-00 00 56 0119 01877 5665 448541 205173 204"
"166.487894"
"$GPRMC,114227,A,2427.0526,N,08059.1427,W,1.7,322.5,150615,6.1,"
"##MN-00 00 56 0120 01883 5666 448626 205192 203"
"166.48794"
"$GPRMC,114231,A,2427.0542,N,08059.1441,W,1.8,322.0,150615,6.1,"
"##MN-00 00 56 0120 01887 5667 448699 205208 204"
"166.487986"
"$GPRMC,114235,A,2427.0557,N,08059.1454,W,1.8,321.1,150615,6.1,"
"##MN-00 00 55 0121 01889 5668 448792 205236 204"
"166.488032"
"$GPRMC,114239,A,2427.0571,N,08059.1468,W,1.7,319.9,150615,6.1,"
"##MN-00 00 55 0122 01894 5668 448858 205244 204"
"166.488079"
"$GPRMC,114243,A,2427.0587,N,08059.1481,W,1.8,319.3,150615,6.1,"
"##MN-00 00 56 0123 01895 5669 448914 205263 204"
"166.488125"
"$GPRMC,114247,A,2427.0604,N,08059.1493,W,1.8,319.5,150615,6.1,"
"##MN-00 00 55 0124 01899 5670 448984 205265 204"
"166.488171"
"$GPRMC,114251,A,2427.0620,N,08059.1507,W,1.8,319.4,150615,6.1,"
"##MN-00 00 56 0125 01903 5672 449037 205279 204"
"166.488229"
"$GPRMC,114255,A,2427.0634,N,08059.1521,W,1.8,320.0,150615,6.1,"
"##MN-00 00 55 0126 01906 5672 449086 205288 204"
"166.488275"
"$GPRMC,114259,A,2427.0651,N,08059.1535,W,1.8,319.9,150615,6.1,"
"##MN-00 00 55 0126 01911 5673 449323 205349 203"
"166.488322"
"$GPRMC,114303,A,2427.0667,N,08059.1548,W,1.8,319.7,150615,6.1,"
"##MN-00 00 55 0127 01915 5674 449510 205385 204"
"166.488368"
"$GPRMC,114307,A,2427.0683,N,08059.1562,W,1.8,319.3,150615,6.1,"
"##MN-00 00 55 0128 01919 5674 449484 205382 203"
"166.488414"
"$GPRMC,114311,A,2427.0696,N,08059.1577,W,1.8,319.2,150615,6.1,"
"##MN-00 00 55 0129 01924 5675 449569 205390 204"
"166.488461"
"$GPRMC,114315,A,2427.0713,N,08059.1591,W,1.8,319.6,150615,6.1,"
"##MN-00 00 56 0130 01928 5676 449528 205398 203"
"166.488507"
"$GPRMC,114319,A,2427.0730,N,08059.1607,W,1.8,320.3,150615,6.1,"
"##MN-00 00 54 0131 01931 5677 449464 205388 204"
"166.488553"
"$GPRMC,114323,A,2427.0746,N,08059.1620,W,1.9,321.2,150615,6.1,"
"##MN-00 00 55 0132 01935 5678 449632 205430 204"
"166.4886"
"$GPRMC,114327,A,2427.0763,N,08059.1634,W,1.9,321.7,150615,6.1,"
"##MN-00 00 54 0132 01937 5679 449807 205449 204"
"166.488646"
"$GPRMC,114331,A,2427.0777,N,08059.1645,W,1.9,321.9,150615,6.1,"
"##MN-00 00 55 0133 01939 5680 449929 205473 204"
"166.488692"
"$GPRMC,114335,A,2427.0793,N,08059.1659,W,1.9,322.3,150615,6.1,"
"##MN-00 00 55 0134 01943 5681 450096 205546 204"
"166.488738"
"$GPRMC,114339,A,2427.0810,N,08059.1674,W,1.9,323.2,150615,6.1,"
"##MN-00 00 55 0135 01946 5681 450314 205590 204"
"166.488785"
"$GPRMC,114343,A,2427.0828,N,08059.1688,W,1.9,324.1,150615,6.1,"
"##MN-00 00 55 0136 01951 5682 450464 205614 204"
"166.488831"
"$GPRMC,114347,A,2427.0847,N,08059.1703,W,1.9,324.1,150615,6.1,"
"##MN-00 00 55 0137 01953 5683 450553 205647 204"
"166.488877"
"$GPRMC,114351,A,2427.0865,N,08059.1717,W,1.9,324.4,150615,6.1,"
"##MN-00 00 55 0137 01957 5684 450655 205669 204"
"166.488924"
"$GPRMC,114355,A,2427.0885,N,08059.1732,W,1.9,324.7,150615,6.1,"
"##MN-00 00 55 0138 01958 5685 450773 205706 204"
"166.48897"
"$GPRMC,114359,A,2427.0902,N,08059.1746,W,1.9,324.3,150615,6.1,"
"##MN-00 00 56 0139 01962 5686 451074 205740 204"
"166.489016"
"$GPRMC,114403,A,2427.0922,N,08059.1760,W,1.9,323.8,150615,6.1,"
"##MN-00 00 55 0140 01967 5686 451234 205810 204"
"166.489063"
"$GPRMC,114407,A,2427.0938,N,08059.1775,W,1.9,323.5,150615,6.1,"
"##MN-00 00 55 0141 01971 5687 451340 205816 204"
"166.489109"
"$GPRMC,114411,A,2427.0955,N,08059.1790,W,1.9,323.0,150615,6.1,"
"##MN-00 00 56 0142 01970 5687 451735 205929 204"
"166.489155"
"$GPRMC,114415,A,2427.0972,N,08059.1806,W,1.9,322.6,150615,6.1,"
"##MN-00 00 55 0142 01973 5688 452542 206124 204"
"166.489201"
"$GPRMC,114419,A,2427.0988,N,08059.1821,W,1.9,322.0,150615,6.1,"
"##MN-00 00 56 0143 01976 5689 453222 206238 204"
"166.489248"
"$GPRMC,114423,A,2427.1006,N,08059.1835,W,1.9,321.7,150615,6.1,"
"##MN-00 00 55 0144 01981 5689 453703 206412 204"
"166.489294"
"$GPRMC,114427,A,2427.1023,N,08059.1850,W,1.9,321.1,150615,6.1,"
"##MN-00 00 56 0145 01982 5690 454202 206555 204"
"166.48934"
"$GPRMC,114431,A,2427.1039,N,08059.1865,W,1.9,320.8,150615,6.1,"
"##MN-00 00 56 0146 01985 5691 454667 206615 204"
"166.489387"
"$GPRMC,114435,A,2427.1053,N,08059.1882,W,1.9,320.5,150615,6.1,"
"##MN-00 00 55 0147 01988 5691 455006 206663 203"
"166.489433"
"$GPRMC,114439,A,2427.1068,N,08059.1897,W,1.8,320.3,150615,6.1,"
"##MN-00 00 55 0148 01990 5692 455435 206667 204"
"166.489479"
"$GPRMC,114443,A,2427.1085,N,08059.1912,W,1.8,319.6,150615,6.1,"
"##MN-00 00 54 0149 01992 5693 455751 206786 204"
"166.489525"
"$GPRMC,114447,A,2427.1100,N,08059.1927,W,1.9,319.9,150615,6.1,"
"##MN-00 00 54 0149 01994 5694 455989 206865 203"
"166.489572"
"$GPRMC,114451,A,2427.1117,N,08059.1941,W,1.9,320.0,150615,6.1,"
"##MN-00 00 55 0150 01996 5694 456124 206909 204"
"166.489618"
"$GPRMC,114455,A,2427.1133,N,08059.1956,W,1.9,319.5,150615,6.1,"
"##MN-00 00 55 0151 02001 5695 456183 206944 204"
"166.489664"
"$GPRMC,114459,A,2427.1149,N,08059.1972,W,1.9,319.3,150615,6.1,"
"##MN-00 00 54 0152 02004 5695 456187 206949 204"
"166.489711"
"$GPRMC,114503,A,2427.1165,N,08059.1985,W,1.9,319.8,150615,6.1,"
"##MN-00 00 55 0153 02004 5696 456184 206982 204"
"166.489757"
"$GPRMC,114507,A,2427.1180,N,08059.1998,W,1.8,320.4,150615,6.1,"
"##MN-00 00 55 0154 02009 5696 456208 207004 203"
"166.489803"
"$GPRMC,114511,A,2427.1198,N,08059.2012,W,1.8,320.2,150615,6.1,"
"##MN-00 00 55 0155 02013 5697 456275 207019 204"
"166.48985"
"$GPRMC,114515,A,2427.1214,N,08059.2025,W,1.8,321.2,150615,6.1,"
"##MN-00 00 55 0156 02015 5698 456375 207045 203"
"166.489896"
"$GPRMC,114519,A,2427.1230,N,08059.2039,W,1.8,321.6,150615,6.1,"
"##MN-00 00 55 0157 02017 5698 456513 207080 203"
"166.489942"
"$GPRMC,114523,A,2427.1248,N,08059.2052,W,1.9,322.4,150615,6.1,"
"##MN-00 00 55 0157 02019 5698 456618 207083 204"
"166.489988"
"$GPRMC,114527,A,2427.1266,N,08059.2066,W,1.9,323.3,150615,6.1,"
"##MN-00 00 54 0158 02022 5699 456778 207140 204"
"166.490035"
"$GPRMC,114531,A,2427.1287,N,08059.2078,W,1.9,324.8,150615,6.1,"
"##MN-00 00 54 0159 02025 5700 456955 207165 204"
"166.490081"
"$GPRMC,114535,A,2427.1308,N,08059.2090,W,2.0,325.9,150615,6.1,"
"##MN-00 00 55 0160 02030 5700 457104 207194 203"
"166.490127"
"$GPRMC,114539,A,2427.1327,N,08059.2103,W,2.0,325.9,150615,6.1,"
"##MN-00 00 55 0161 02029 5701 457482 207279 204"
"166.490174"
"$GPRMC,114543,A,2427.1345,N,08059.2117,W,1.9,325.5,150615,6.1,"
"##MN-00 00 55 0162 02034 5701 458272 207449 203"
"166.49022"
"$GPRMC,114547,A,2427.1362,N,08059.2132,W,1.9,324.8,150615,6.1,"
"##MN-00 00 55 0163 02039 5702 458869 207543 204"
"166.490266"
"$GPRMC,114551,A,2427.1380,N,08059.2144,W,1.9,325.0,150615,6.1,"
"##MN-00 00 55 0164 02040 5702 459150 207598 203"
"166.490312"
"$GPRMC,114555,A,2427.1393,N,08059.2154,W,1.9,325.6,150615,6.1,"
"##MN-00 00 56 0164 02045 5702 459429 207617 204"
"166.490359"
"$GPRMC,114559,A,2427.1411,N,08059.2168,W,1.9,325.0,150615,6.1,"
"##MN-00 00 55 0165 02050 5703 459842 207716 203"
"166.490405"
"$GPRMC,114603,A,2427.1425,N,08059.2182,W,1.9,323.5,150615,6.1,"
"##MN-00 00 55 0166 02053 5703 460062 207771 204"
"166.490451"
"$GPRMC,114607,A,2427.1440,N,08059.2197,W,1.8,321.8,150615,6.1,"
"##MN-00 00 55 0167 02055 5703 460219 207815 203"
"166.490498"
"$GPRMC,114611,A,2427.1461,N,08059.2215,W,1.9,321.4,150615,6.1,"
"##MN-00 00 55 0168 02060 5704 460463 207838 204"
"166.490544"
"$GPRMC,114615,A,2427.1476,N,08059.2230,W,1.8,320.4,150615,6.1,"
"##MN-00 00 55 0169 02065 5704 460700 207879 203"
"166.49059"
"$GPRMC,114619,A,2427.1492,N,08059.2244,W,1.8,320.1,150615,6.1,"
"##MN-00 00 54 0170 02065 5704 460806 207915 204"
"166.490637"
"$GPRMC,114623,A,2427.1508,N,08059.2259,W,1.8,318.7,150615,6.1,"
"##MN-00 00 54 0170 02072 5705 460954 207931 204"
"166.490683"
"$GPRMC,114627,A,2427.1523,N,08059.2273,W,1.8,317.9,150615,6.1,"
"##MN-00 00 54 0171 02073 5705 461097 207988 204"
"166.490729"
"$GPRMC,114631,A,2427.1539,N,08059.2290,W,1.8,317.6,150615,6.1,"
"##MN-00 00 54 0172 02077 5705 461201 208037 203"
"166.490775"
"$GPRMC,114635,A,2427.1552,N,08059.2305,W,1.8,316.9,150615,6.1,"
"##MN-00 00 55 0173 02080 5705 461242 208054 204"
"166.490822"
"$GPRMC,114640,A,2427.1569,N,08059.2321,W,1.8,315.6,150615,6.1,"
"##MN-00 00 55 0174 02086 5706 461255 208061 204"
"166.490868"
"$GPRMC,114644,A,2427.1580,N,08059.2335,W,1.8,315.4,150615,6.1,"
"##MN-00 00 54 0175 02088 5706 461256 208066 204"
"166.490914"
"$GPRMC,114648,A,2427.1591,N,08059.2349,W,1.7,314.6,150615,6.1,"
"##MN-00 00 54 0176 02090 5706 461257 208069 203"
"166.490961"
"$GPRMC,114652,A,2427.1605,N,08059.2364,W,1.7,313.5,150615,6.1,"
"##MN-00 00 55 0176 02096 5706 461266 208080 204"
"166.491007"
"$GPRMC,114656,A,2427.1615,N,08059.2379,W,1.7,312.3,150615,6.1,"
"##MN-00 00 54 0177 02103 5706 461335 208085 203"
"166.491053"
"$GPRMC,114700,A,2427.1626,N,08059.2392,W,1.7,310.9,150615,6.1,"
"##MN-00 00 55 0178 02107 5707 461414 208094 203"
"166.4911"
"$GPRMC,114704,A,2427.1638,N,08059.2407,W,1.7,309.8,150615,6.1,"
"##MN-00 00 54 0179 02112 5707 461481 208101 204"
"166.491146"
"$GPRMC,114708,A,2427.1648,N,08059.2421,W,1.7,309.2,150615,6.1,"
"##MN-00 00 55 0180 02114 5707 461534 208122 203"
"166.491192"
"$GPRMC,114712,A,2427.1659,N,08059.2438,W,1.7,308.7,150615,6.1,"
"##MN-00 00 54 0180 02120 5707 461648 208151 203"
"166.491238"
"$GPRMC,114716,A,2427.1671,N,08059.2454,W,1.7,308.5,150615,6.1,"
"##MN-00 00 54 0181 02120 5707 461867 208153 203"
"166.491285"
"$GPRMC,114720,A,2427.1682,N,08059.2471,W,1.7,308.3,150615,6.1,"
"##MN-00 00 55 0182 02127 5707 462016 208172 204"
"166.491331"
"$GPRMC,114724,A,2427.1695,N,08059.2486,W,1.7,308.3,150615,6.1,"
"##MN-00 00 54 0183 02133 5708 462189 208252 203"
"166.491377"
"$GPRMC,114728,A,2427.1707,N,08059.2501,W,1.7,308.0,150615,6.1,"
"##MN-00 00 51 0184 02131 5708 462270 208272 203"
"166.491424"
"$GPRMC,114732,A,2427.1720,N,08059.2518,W,1.8,307.3,150615,6.1,"
"##MN-00 00 54 0184 02137 5708 462382 208307 203"
"166.491481"
"$GPRMC,114736,A,2427.1731,N,08059.2536,W,1.7,307.6,150615,6.1,"
"##MN-00 00 55 0185 02143 5708 462497 208323 203"
"166.491528"
"$GPRMC,114740,A,2427.1743,N,08059.2551,W,1.7,307.8,150615,6.1,"
"##MN-00 00 54 0186 02145 5708 462724 208351 203"
"166.491574"
"$GPRMC,114744,A,2427.1754,N,08059.2568,W,1.7,308.6,150615,6.1,"
"##MN-00 00 54 0187 02149 5708 463234 208417 203"
"166.49162"
"$GPRMC,114748,A,2427.1768,N,08059.2583,W,1.7,309.5,150615,6.1,"
"##MN-00 00 55 0187 02153 5708 464020 208479 203"
"166.491667"
"$GPRMC,114752,A,2427.1782,N,08059.2601,W,1.7,310.2,150615,6.1,"
"##MN-00 00 54 0188 02156 5708 465188 208703 203"
"166.491713"
"$GPRMC,114756,A,2427.1794,N,08059.2619,W,1.8,310.3,150615,6.1,"
"##MN-00 00 54 0189 02161 5708 465700 208795 204"
"166.491759"
"$GPRMC,114800,A,2427.1805,N,08059.2635,W,1.8,310.5,150615,6.1,"
"##MN-00 00 53 0190 02163 5708 466388 209012 203"
"166.491806"
"$GPRMC,114804,A,2427.1819,N,08059.2652,W,1.8,310.3,150615,6.1,"
"##MN-00 00 53 0191 02165 5708 466887 209079 203"
"166.491852"
"$GPRMC,114808,A,2427.1834,N,08059.2670,W,1.8,310.3,150615,6.1,"
"##MN-00 00 54 0192 02168 5708 467429 209100 203"
"166.491898"
"$GPRMC,114812,A,2427.1848,N,08059.2688,W,1.8,310.7,150615,6.1,"
"##MN-00 00 53 0192 02170 5708 467808 209248 203"
"166.491944"
"$GPRMC,114816,A,2427.1863,N,08059.2706,W,1.8,311.1,150615,6.1,"
"##MN-00 00 52 0193 02172 5708 468215 209364 203"
"166.491991"
"$GPRMC,114820,A,2427.1873,N,08059.2718,W,1.8,311.7,150615,6.1,"
"##MN-00 00 54 0194 02171 5708 468561 209450 203"
"166.492037"
"$GPRMC,114824,A,2427.1888,N,08059.2735,W,1.8,311.8,150615,6.1,"
"##MN-00 00 53 0195 02177 5708 468771 209503 203"
"166.492083"
"$GPRMC,114828,A,2427.1901,N,08059.2753,W,1.8,310.7,150615,6.1,"
"##MN-00 00 53 0196 02180 5708 469133 209556 203"
"166.49213"
"$GPRMC,114832,A,2427.1913,N,08059.2771,W,1.8,309.4,150615,6.1,"
"##MN-00 00 52 0197 02183 5708 469957 209733 203"
"166.492176"
"$GPRMC,114836,A,2427.1926,N,08059.2789,W,1.8,309.2,150615,6.1,"
"##MN-00 00 54 0197 02183 5707 470630 210004 203"
"166.492222"
"$GPRMC,114840,A,2427.1938,N,08059.2805,W,1.7,308.2,150615,6.1,"
"##MN-00 00 54 0198 02189 5708 471341 210054 203"
"166.492269"
"$GPRMC,114844,A,2427.1949,N,08059.2825,W,1.8,307.6,150615,6.1,"
"##MN-00 00 53 0199 02191 5707 471786 210204 203"
"166.492315"
"$GPRMC,114848,A,2427.1963,N,08059.2843,W,1.8,307.1,150615,6.1,"
"##MN-00 00 52 0200 02193 5707 472082 210294 203"
"166.492361"
"$GPRMC,114852,A,2427.1974,N,08059.2858,W,1.8,306.8,150615,6.1,"
"##MN-00 00 54 0201 02198 5707 472359 210298 203"
"166.492407"
"$GPRMC,114856,A,2427.1985,N,08059.2873,W,1.8,306.8,150615,6.1,"
"##MN-00 00 54 0201 02203 5707 472590 210378 203"
"166.492454"
"$GPRMC,114900,A,2427.1998,N,08059.2892,W,1.8,306.9,150615,6.1,"
"##MN-00 00 54 0202 02203 5706 472702 210379 203"
"166.4925"
"$GPRMC,114904,A,2427.2009,N,08059.2910,W,1.7,306.9,150615,6.1,"
"##MN-00 00 54 0203 02208 5706 472744 210376 203"
"166.492546"
"$GPRMC,114908,A,2427.2021,N,08059.2926,W,1.7,306.7,150615,6.1,"
"##MN-00 00 53 0204 02213 5706 472757 210434 203"
"166.492593"
"$GPRMC,114912,A,2427.2031,N,08059.2939,W,1.7,306.5,150615,6.1,"
"##MN-00 00 54 0205 02215 5706 472776 210444 203"
"166.492639"
"$GPRMC,114916,A,2427.2042,N,08059.2955,W,1.7,305.9,150615,6.1,"
"##MN-00 00 54 0205 02220 5705 472788 210466 203"
"166.492685"
"$GPRMC,114920,A,2427.2054,N,08059.2973,W,1.7,305.7,150615,6.1,"
"##MN-00 00 54 0206 02225 5705 472817 210469 203"
"166.492731"
"$GPRMC,114924,A,2427.2065,N,08059.2991,W,1.7,305.9,150615,6.1,"
"##MN-00 00 52 0207 02226 5705 472844 210476 203"
"166.492778"
"$GPRMC,114928,A,2427.2078,N,08059.3009,W,1.8,306.4,150615,6.1,"
"##MN-00 00 52 0208 02228 5704 472873 210480 203"
"166.492824"
"$GPRMC,114932,A,2427.2090,N,08059.3025,W,1.8,306.9,150615,6.1,"
"##MN-00 00 53 0209 02230 5704 472989 210501 203"
"166.49287"
"$GPRMC,114936,A,2427.2105,N,08059.3043,W,1.8,308.3,150615,6.1,"
"##MN-00 00 53 0209 02233 5703 473262 210556 203"
"166.492917"
"$GPRMC,114940,A,2427.2118,N,08059.3060,W,1.8,309.3,150615,6.1,"
"##MN-00 00 53 0210 02235 5703 473650 210638 203"
"166.492963"
"$GPRMC,114944,A,2427.2132,N,08059.3078,W,1.8,310.6,150615,6.1,"
"##MN-00 00 54 0211 02237 5703 474321 210711 203"
"166.493009"
"$GPRMC,114948,A,2427.2146,N,08059.3096,W,1.8,310.8,150615,6.1,"
"##MN-00 00 54 0212 02240 5702 474850 210861 203"
"166.493056"
"$GPRMC,114952,A,2427.2159,N,08059.3115,W,1.9,310.4,150615,6.1,"
"##MN-00 00 53 0213 02241 5702 475567 211014 203"
"166.493102"
"$GPRMC,114956,A,2427.2176,N,08059.3133,W,1.9,311.4,150615,6.1,"
"##MN-00 00 53 0214 02239 5701 476064 211034 203"
"166.493148"
"$GPRMC,115000,A,2427.2190,N,08059.3151,W,1.9,311.7,150615,6.1,"
"##MN-00 00 54 0214 02242 5700 476633 211224 203"
"166.493194"
"$GPRMC,115004,A,2427.2202,N,08059.3168,W,1.9,311.4,150615,6.1,"
"##MN-00 00 54 0215 02247 5700 477210 211336 203"
"166.493241"
"$GPRMC,115008,A,2427.2215,N,08059.3187,W,1.8,310.8,150615,6.1,"
"##MN-00 00 55 0216 02251 5700 478377 211547 203"
"166.493287"
"$GPRMC,115012,A,2427.2230,N,08059.3204,W,1.9,311.2,150615,6.1,"
"##MN-00 00 55 0217 02250 5699 480130 211741 203"
"166.493333"
"$GPRMC,115016,A,2427.2242,N,08059.3220,W,1.8,310.8,150615,6.1,"
"##MN-00 00 54 0217 02255 5698 481727 212046 203"
"166.49338"
"$GPRMC,115020,A,2427.2253,N,08059.3237,W,1.8,310.3,150615,6.1,"
"##MN-00 00 55 0218 02258 5698 482282 212259 203"
"166.493426"
"$GPRMC,115024,A,2427.2263,N,08059.3251,W,1.8,310.7,150615,6.1,"
"##MN-00 00 53 0219 02260 5697 482845 212523 203"
"166.493472"
"$GPRMC,115028,A,2427.2276,N,08059.3266,W,1.8,310.4,150615,6.1,"
"##MN-00 00 55 0220 02261 5696 483103 212598 203"
"166.493519"
"$GPRMC,115032,A,2427.2287,N,08059.3284,W,1.8,309.9,150615,6.1,"
"##MN-00 00 54 0221 02268 5696 483338 212630 203"
"166.493565"
"$GPRMC,115036,A,2427.2298,N,08059.3300,W,1.7,309.3,150615,6.1,"
"##MN-00 00 54 0221 02269 5695 483468 212597 203"
"166.493611"
"$GPRMC,115040,A,2427.2310,N,08059.3317,W,1.7,308.7,150615,6.1,"
"##MN-00 00 54 0222 02271 5694 483678 212659 203"
"166.493657"
"$GPRMC,115044,A,2427.2321,N,08059.3335,W,1.7,308.5,150615,6.1,"
"##MN-00 00 52 0223 02270 5694 483948 212752 203"
"166.493704"
"$GPRMC,115048,A,2427.2334,N,08059.3352,W,1.7,307.7,150615,6.1,"
"##MN-00 00 52 0224 02269 5693 484018 212797 203"
"166.49375"
"$GPRMC,115052,A,2427.2346,N,08059.3367,W,1.7,306.9,150615,6.1,"
"##MN-00 00 52 0225 02268 5692 483997 212798 203"
"166.493796"
"$GPRMC,115056,A,2427.2357,N,08059.3385,W,1.7,307.1,150615,6.1,"
"##MN-00 00 53 0226 02269 5691 483905 212784 203"
"166.493843"
"$GPRMC,115100,A,2427.2372,N,08059.3401,W,1.7,307.8,150615,6.1,"
"##MN-00 00 52 0227 02268 5690 483941 212782 203"
"166.493889"
"$GPRMC,115104,A,2427.2385,N,08059.3418,W,1.7,307.9,150615,6.1,"
"##MN-00 00 53 0228 02265 5689 483932 212786 203"
"166.493935"
"$GPRMC,115108,A,2427.2399,N,08059.3436,W,1.7,308.5,150615,6.1,"
"##MN+00 00 53 0229 02266 5689 483854 212794 203"
"166.493981"
"$GPRMC,115112,A,2427.2411,N,08059.3452,W,1.7,309.5,150615,6.1,"
"##MN+00 00 54 0230 02263 5688 483751 212782 203"
"166.494028"
"$GPRMC,115116,A,2427.2424,N,08059.3466,W,1.7,309.3,150615,6.1,"
"##MN+00 00 53 0231 02263 5687 483756 212778 203"
"166.494074"
"$GPRMC,115120,A,2427.2437,N,08059.3483,W,1.7,310.5,150615,6.1,"
"##MN-00 00 54 0231 02264 5686 483840 212792 203"
"166.49412"
"$GPRMC,115124,A,2427.2450,N,08059.3497,W,1.7,311.9,150615,6.1,"
"##MN+00 00 54 0232 02264 5685 483813 212789 203"
"166.494167"
"$GPRMC,115128,A,2427.2462,N,08059.3512,W,1.7,313.0,150615,6.1,"
"##MN+00 00 54 0233 02261 5684 483810 212791 203"
"166.494213"
"$GPRMC,115133,A,2427.2480,N,08059.3531,W,1.7,313.9,150615,6.1,"
"##MN+00 00 64 0234 02268 5683 483831 212800 203"
"166.494259"
"#increment_net"
"$GPRMC,115136,A,2427.2490,N,08059.3544,W,1.7,313.8,150615,6.1,"
"##MN-00 00 59 0235 02268 5682 483864 212804 203"
"166.494306"
"$GPRMC,115140,A,2427.2504,N,08059.3559,W,1.7,313.8,150615,6.1,"
"##MN-00 00 56 0236 02268 5681 483875 212811 203"
"166.494352"
"$GPRMC,115145,A,2427.2520,N,08059.3578,W,1.7,313.2,150615,6.1,"
"##MN-00 00 55 0237 02268 5680 483823 212800 203"
"166.494398"
"$GPRMC,115148,A,2427.2530,N,08059.3589,W,1.7,313.1,150615,6.1,"
"##MN-00 00 56 0238 02268 5679 483763 212791 203"
"166.494444"
"$GPRMC,115153,A,2427.2547,N,08059.3611,W,1.7,312.7,150615,6.1,"
"##MN-00 00 55 0238 02268 5678 483684 212777 203"
"166.494491"
"$GPRMC,115157,A,2427.2562,N,08059.3628,W,1.7,312.0,150615,6.1,"
"##MN-00 00 54 0239 02267 5677 483651 212766 203"
"166.494537"
"$GPRMC,115201,A,2427.2574,N,08059.3645,W,1.7,311.4,150615,6.1,"
"##MN-00 00 54 0240 02262 5676 483616 212758 203"
"166.494583"
"$GPRMC,115205,A,2427.2585,N,08059.3660,W,1.7,310.7,150615,6.1,"
"##MN-00 00 54 0241 02261 5675 483446 212708 203"
"166.49463"
"$GPRMC,115209,A,2427.2596,N,08059.3674,W,1.7,310.1,150615,6.1,"
"##MN-00 00 55 0242 02259 5673 483127 212658 203"
"166.494676"
"$GPRMC,115213,A,2427.2607,N,08059.3689,W,1.7,310.0,150615,6.1,"
"##MN-00 00 55 0243 02257 5673 482941 212627 203"
"166.494734"
"$GPRMC,115217,A,2427.2618,N,08059.3704,W,1.7,310.4,150615,6.1,"
"##MN-00 00 54 0244 02256 5672 482619 212578 203"
"166.49478"
"$GPRMC,115221,A,2427.2632,N,08059.3721,W,1.7,310.2,150615,6.1,"
"##MN-00 00 55 0245 02252 5670 481754 212448 203"
"166.494826"
"$GPRMC,115225,A,2427.2646,N,08059.3739,W,1.7,310.7,150615,6.1,"
"##MN-00 00 54 0246 02250 5669 479888 212116 203"
"166.494873"
"$GPRMC,115229,A,2427.2660,N,08059.3755,W,1.7,311.5,150615,6.1,"
"##MN-00 00 55 0247 02248 5668 478338 211807 203"
"166.494919"
"$GPRMC,115233,A,2427.2672,N,08059.3772,W,1.7,311.1,150615,6.1,"
"##MN-00 00 54 0248 02248 5667 477748 211639 203"
"166.494965"
"$GPRMC,115237,A,2427.2685,N,08059.3787,W,1.7,311.3,150615,6.1,"
"##MN-00 00 55 0249 02243 5666 477389 211534 203"
"166.495012"
"$GPRMC,115241,A,2427.2700,N,08059.3804,W,1.7,310.9,150615,6.1,"
"##MN-00 00 54 0250 02240 5665 477222 211490 203"
"166.495058"
"$GPRMC,115245,A,2427.2711,N,08059.3819,W,1.7,311.6,150615,6.1,"
"##MN-00 00 54 0251 02240 5663 477044 211467 203"
"166.495104"
"$GPRMC,115249,A,2427.2722,N,08059.3831,W,1.7,311.3,150615,6.1,"
"##MN-00 00 55 0251 02238 5662 476968 211438 203"
"166.49515"
"$GPRMC,115253,A,2427.2733,N,08059.3845,W,1.7,311.4,150615,6.1,"
"##MN-00 00 55 0252 02235 5661 476533 211418 203"
"166.495197"
"$GPRMC,115257,A,2427.2747,N,08059.3862,W,1.7,312.1,150615,6.1,"
"##MN-00 00 54 0253 02237 5660 475983 211285 203"
"166.495243"
"$GPRMC,115301,A,2427.2761,N,08059.3878,W,1.7,311.7,150615,6.1,"
"##MN-00 00 54 0254 02234 5659 475252 211106 203"
"166.495289"
"$GPRMC,115305,A,2427.2773,N,08059.3895,W,1.7,311.1,150615,6.1,"
"##MN-00 00 54 0255 02230 5658 474819 210970 203"
"166.495336"
"$GPRMC,115309,A,2427.2787,N,08059.3912,W,1.7,310.5,150615,6.1,"
"##MN-00 00 55 0256 02231 5657 474429 210939 203"
"166.495382"
"$GPRMC,115313,A,2427.2800,N,08059.3927,W,1.7,310.2,150615,6.1,"
"##MN-00 00 54 0257 02232 5656 474172 210803 203"
"166.495428"
"$GPRMC,115317,A,2427.2813,N,08059.3945,W,1.7,310.5,150615,6.1,"
"##MN-00 00 54 0258 02229 5655 473934 210770 203"
"166.495475"
"$GPRMC,115321,A,2427.2827,N,08059.3960,W,1.7,311.2,150615,6.1,"
"##MN-00 00 53 0259 02229 5654 473763 210709 203"
"166.495521"
"$GPRMC,115325,A,2427.2840,N,08059.3975,W,1.7,311.4,150615,6.1,"
"##MN-00 00 54 0260 02225 5653 473272 210667 203"
"166.495567"
"$GPRMC,115329,A,2427.2852,N,08059.3992,W,1.7,310.7,150615,6.1,"
"##MN-00 00 54 0261 02226 5652 472832 210551 203"
"166.495613"
"$GPRMC,115333,A,2427.2863,N,08059.4008,W,1.7,310.0,150615,6.1,"
"##MN-00 00 53 0262 02225 5650 472514 210479 203"
"166.49566"
"$GPRMC,115337,A,2427.2878,N,08059.4024,W,1.7,310.6,150615,6.1,"
"##MN-00 00 55 0263 02222 5650 472267 210429 203"
"166.495706"
"$GPRMC,115341,A,2427.2891,N,08059.4040,W,1.7,310.2,150615,6.1,"
"##MN-00 00 53 0264 02222 5648 472100 210372 203"
"166.495752"
"$GPRMC,115345,A,2427.2902,N,08059.4055,W,1.7,309.0,150615,6.1,"
"##MN-00 00 53 0264 02220 5648 471908 210339 203"
"166.495799"
"$GPRMC,115349,A,2427.2914,N,08059.4072,W,1.7,309.3,150615,6.1,"
"##MN-00 00 52 0265 02218 5647 471727 210307 203"
"166.495845"
"$GPRMC,115353,A,2427.2924,N,08059.4082,W,1.7,310.4,150615,6.1,"
"##MN-00 00 52 0266 02218 5646 471547 210249 203"
"166.495891"
"$GPRMC,115357,A,2427.2935,N,08059.4097,W,1.7,309.9,150615,6.1,"
"##MN-00 00 53 0267 02218 5645 471416 210223 203"
"166.495938"
"$GPRMC,115401,A,2427.2948,N,08059.4113,W,1.6,309.3,150615,6.1,"
"##MN-00 00 53 0268 02215 5644 471365 210217 203"
"166.495984"
"$GPRMC,115405,A,2427.2961,N,08059.4130,W,1.6,309.8,150615,6.1,"
"##MN-00 00 53 0269 02215 5643 471328 210205 203"
"166.49603"
"$GPRMC,115409,A,2427.2971,N,08059.4147,W,1.6,309.2,150615,6.1,"
"##MN-00 00 52 0270 02212 5642 471260 210190 203"
"166.496076"
"$GPRMC,115413,A,2427.2980,N,08059.4162,W,1.7,308.3,150615,6.1,"
"##MN-00 00 52 0271 02211 5641 471212 210172 203"
"166.496123"
"$GPRMC,115417,A,2427.2990,N,08059.4176,W,1.6,307.7,150615,6.1,"
"##MN-00 00 52 0272 02208 5641 471192 210159 203"
"166.496169"
"$GPRMC,115421,A,2427.3001,N,08059.4192,W,1.6,307.2,150615,6.1,"
"##MN-00 00 52 0273 02205 5640 471063 210146 203"
"166.496215"
"$GPRMC,115425,A,2427.3014,N,08059.4210,W,1.7,307.7,150615,6.1,"
"##MN-00 00 54 0274 02203 5639 470911 210111 203"
"166.496262"
"$GPRMC,115429,A,2427.3025,N,08059.4227,W,1.7,307.6,150615,6.1,"
"##MN-00 00 54 0275 02201 5638 470766 210080 203"
"166.496308"
"$GPRMC,115433,A,2427.3039,N,08059.4245,W,1.7,307.6,150615,6.1,"
"##MN-00 00 52 0276 02199 5637 470568 210044 203"
"166.496354"
"$GPRMC,115437,A,2427.3049,N,08059.4260,W,1.7,307.7,150615,6.1,"
"##MN-00 00 52 0277 02197 5637 470327 209987 203"
"166.4964"
"$GPRMC,115441,A,2427.3060,N,08059.4272,W,1.7,307.2,150615,6.1,"
"##MN-00 00 52 0278 02192 5636 470143 209938 203"
"166.496447"
"$GPRMC,115445,A,2427.3068,N,08059.4282,W,1.6,307.7,150615,6.1,"
"##MN-00 00 52 0279 02192 5635 470043 209935 203"
"166.496493"
"$GPRMC,115449,A,2427.3079,N,08059.4296,W,1.6,308.1,150615,6.1,"
"##MN-00 00 52 0280 02191 5634 469991 209940 203"
"166.496539"
"$GPRMC,115453,A,2427.3091,N,08059.4310,W,1.6,309.2,150615,6.1,"
"##MN-00 00 52 0281 02189 5633 469873 209903 203"
"166.496586"
"$GPRMC,115457,A,2427.3104,N,08059.4326,W,1.6,310.0,150615,6.1,"
"##MN-00 00 52 0282 02185 5633 469651 209854 203"
"166.496632"
"$GPRMC,115501,A,2427.3118,N,08059.4343,W,1.7,310.9,150615,6.1,"
"##MN-00 00 52 0283 02183 5632 469495 209831 203"
"166.496678"
"$GPRMC,115505,A,2427.3130,N,08059.4360,W,1.7,311.4,150615,6.1,"
"##MN-00 00 54 0284 02177 5631 469074 209711 203"
"166.496725"
"$GPRMC,115509,A,2427.3144,N,08059.4375,W,1.7,311.4,150615,6.1,"
"##MN-00 00 53 0285 02177 5630 468344 209608 203"
"166.496771"
"$GPRMC,115513,A,2427.3156,N,08059.4393,W,1.7,311.3,150615,6.1,"
"##MN-00 00 53 0286 02174 5630 467769 209566 203"
"166.496817"
"$GPRMC,115517,A,2427.3170,N,08059.4412,W,1.7,310.9,150615,6.1,"
"##MN-00 00 53 0287 02170 5629 467148 209387 203"
"166.496863"
"$GPRMC,115521,A,2427.3185,N,08059.4429,W,1.6,311.5,150615,6.1,"
"##MN-00 00 54 0288 02170 5628 466551 209267 203"
"166.49691"
"$GPRMC,115525,A,2427.3199,N,08059.4445,W,1.6,311.8,150615,6.1,"
"##MN-00 00 53 0288 02168 5627 465837 209131 203"
"166.496956"
"$GPRMC,115529,A,2427.3213,N,08059.4462,W,1.7,312.1,150615,6.1,"
"##MN-00 00 52 0289 02164 5627 465123 208982 203"
"166.497002"
"$GPRMC,115533,A,2427.3225,N,08059.4478,W,1.7,312.0,150615,6.1,"
"##MN-00 00 52 0290 02162 5626 464194 208769 203"
"166.497049"
"$GPRMC,115537,A,2427.3238,N,08059.4495,W,1.7,311.8,150615,6.1,"
"##MN-00 00 52 0291 02158 5626 463624 208656 203"
"166.497095"
"$GPRMC,115541,A,2427.3250,N,08059.4512,W,1.7,311.1,150615,6.1,"
"##MN-00 00 54 0292 02155 5625 463091 208523 203"
"166.497141"
"$GPRMC,115545,A,2427.3263,N,08059.4527,W,1.7,310.9,150615,6.1,"
"##MN-00 00 54 0293 02157 5624 462879 208478 203"
"166.497187"
"$GPRMC,115549,A,2427.3275,N,08059.4542,W,1.7,311.0,150615,6.1,"
"##MN-00 00 52 0294 02153 5624 462753 208466 203"
"166.497234"
"$GPRMC,115553,A,2427.3288,N,08059.4557,W,1.7,311.1,150615,6.1,"
"##MN-00 00 53 0295 02150 5623 462522 208396 203"
"166.49728"
"$GPRMC,115557,A,2427.3300,N,08059.4574,W,1.7,310.4,150615,6.1,"
"##MN-00 00 54 0296 02147 5623 462343 208381 203"
"166.497326"
"$GPRMC,115601,A,2427.3311,N,08059.4588,W,1.7,310.4,150615,6.1,"
"##MN-00 00 53 0297 02148 5622 462223 208326 203"
"166.497373"
"$GPRMC,115605,A,2427.3322,N,08059.4603,W,1.6,310.1,150615,6.1,"
"##MN-00 00 52 0298 02145 5622 462078 208283 203"
"166.497419"
"$GPRMC,115610,A,2427.3336,N,08059.4621,W,1.6,309.8,150615,6.1,"
"##MN-00 00 54 0299 02142 5621 461967 208274 203"
"166.497465"
"$GPRMC,115614,A,2427.3347,N,08059.4636,W,1.6,308.7,150615,6.1,"
"##MN-00 00 54 0300 02143 5621 461855 208244 203"
"166.497512"
"$GPRMC,115618,A,2427.3354,N,08059.4650,W,1.6,308.0,150615,6.1,"
"##MN-00 00 54 0301 02140 5620 461778 208218 203"
"166.497558"
"$GPRMC,115622,A,2427.3365,N,08059.4662,W,1.6,308.2,150615,6.1,"
"##MN-00 00 54 0302 02139 5620 461698 208202 203"
"166.497604"
"$GPRMC,115626,A,2427.3376,N,08059.4675,W,1.6,309.1,150615,6.1,"
"##MN-00 00 53 0303 02138 5619 461453 208166 203"
"166.49765"
"$GPRMC,115630,A,2427.3386,N,08059.4690,W,1.6,309.5,150615,6.1,"
"##MN-00 00 52 0304 02133 5619 461300 208124 203"
"166.497697"
"$GPRMC,115634,A,2427.3398,N,08059.4707,W,1.6,310.3,150615,6.1,"
"##MN-00 00 54 0305 02133 5619 461019 208072 203"
"166.497743"
"$GPRMC,115638,A,2427.3412,N,08059.4722,W,1.6,310.0,150615,6.1,"
"##MN-00 00 52 0306 02130 5618 460591 207958 203"
"166.497789"
"$GPRMC,115642,A,2427.3426,N,08059.4737,W,1.6,310.2,150615,6.1,"
"##MN-00 00 52 0307 02127 5618 460044 207875 203"
"166.497836"
"$GPRMC,115646,A,2427.3438,N,08059.4754,W,1.7,310.8,150615,6.1,"
"##MN-00 00 53 0308 02126 5617 459661 207774 203"
"166.497882"
"$GPRMC,115650,A,2427.3451,N,08059.4769,W,1.7,311.2,150615,6.1,"
"##MN-00 00 53 0309 02122 5617 459443 207781 203"
"166.497928"
"$GPRMC,115654,A,2427.3463,N,08059.4785,W,1.7,311.8,150615,6.1,"
"##MN-00 00 52 0310 02119 5617 459304 207720 203"
"166.497986"
"$GPRMC,115658,A,2427.3477,N,08059.4801,W,1.7,312.8,150615,6.1,"
"##MN-00 00 53 0311 02113 5617 459118 207666 203"
"166.498032"
"$GPRMC,115702,A,2427.3491,N,08059.4816,W,1.7,313.0,150615,6.1,"
"##MN-00 00 55 0312 02110 5616 458981 207654 203"
"166.498079"
"$GPRMC,115706,A,2427.3502,N,08059.4831,W,1.6,312.1,150615,6.1,"
"##MN-00 00 54 0312 02107 5616 458867 207635 203"
"166.498125"
"$GPRMC,115710,A,2427.3513,N,08059.4848,W,1.7,311.3,150615,6.1,"
"##MN-00 00 54 0313 02105 5616 458738 207600 203"
"166.498171"
"$GPRMC,115714,A,2427.3527,N,08059.4863,W,1.6,311.2,150615,6.1,"
"##MN-00 00 54 0314 02104 5616 458643 207592 203"
"166.498218"
"$GPRMC,115718,A,2427.3541,N,08059.4877,W,1.6,312.4,150615,6.1,"
"##MN-00 00 53 0315 02100 5615 458582 207561 203"
"166.498264"
"$GPRMC,115722,A,2427.3553,N,08059.4892,W,1.6,311.9,150615,6.1,"
"##MN-00 00 53 0316 02099 5615 458527 207545 203"
"166.49831"
"$GPRMC,115726,A,2427.3564,N,08059.4906,W,1.6,311.8,150615,6.1,"
"##MN-00 00 53 0317 02096 5615 458477 207540 203"
"166.498357"
"$GPRMC,115730,A,2427.3578,N,08059.4921,W,1.6,311.4,150615,6.1,"
"##MN+00 00 53 0318 02093 5615 458392 207512 203"
"166.498403"
"$GPRMC,115734,A,2427.3589,N,08059.4936,W,1.6,311.5,150615,6.1,"
"##MN+00 00 54 0319 02088 5615 458298 207486 203"
"166.498449"
"$GPRMC,115738,A,2427.3603,N,08059.4951,W,1.6,311.6,150615,6.1,"
"##MN+00 00 53 0320 02086 5615 458165 207477 203"
"166.498495"
"$GPRMC,115742,A,2427.3615,N,08059.4967,W,1.6,312.1,150615,6.1,"
"##MN+00 00 52 0321 02082 5615 458051 207451 203"
"166.498542"
"$GPRMC,115746,A,2427.3626,N,08059.4982,W,1.7,312.0,150615,6.1,"
"##MN+00 00 62 0322 02079 5614 457931 207417 203"
"166.498588"
"#increment_net"
"$GPRMC,115750,A,2427.3640,N,08059.4998,W,1.7,311.6,150615,6.1,"
"##MN+00 00 57 0323 02078 5614 457781 207396 203"
"166.498634"
"$GPRMC,115754,A,2427.3651,N,08059.5014,W,1.7,311.3,150615,6.1,"
"##MN-00 00 51 0324 02073 5614 457686 207374 203"
"166.498681"
"$GPRMC,115758,A,2427.3665,N,08059.5030,W,1.7,311.8,150615,6.1,"
"##MN-00 00 51 0325 02066 5614 457529 207333 203"
"166.498727"
"$GPRMC,115802,A,2427.3678,N,08059.5047,W,1.7,311.6,150615,6.1,"
"##MN-00 00 53 0326 02062 5614 457098 207233 203"
"166.498773"
"$GPRMC,115806,A,2427.3690,N,08059.5061,W,1.7,311.7,150615,6.1,"
"##MN-00 00 53 0327 02061 5614 456584 207166 203"
"166.498819"
"$GPRMC,115810,A,2427.3704,N,08059.5076,W,1.7,311.8,150615,6.1,"
"##MN-00 00 52 0328 02056 5614 456247 207109 203"
"166.498866"
"$GPRMC,115814,A,2427.3716,N,08059.5091,W,1.7,312.2,150615,6.1,"
"##MN-00 00 54 0329 02053 5614 456150 207077 203"
"166.498912"
"$GPRMC,115818,A,2427.3727,N,08059.5105,W,1.6,311.4,150615,6.1,"
"##MN-00 00 52 0330 02051 5614 456085 207051 203"
"166.498958"
"$GPRMC,115822,A,2427.3737,N,08059.5121,W,1.6,311.3,150615,6.1,"
"##MN-00 00 54 0331 02046 5614 456037 207035 203"
"166.499005"
"$GPRMC,115826,A,2427.3748,N,08059.5135,W,1.6,310.7,150615,6.1,"
"##MN-00 00 54 0332 02044 5614 455981 207022 203"
"166.499051"
"$GPRMC,115830,A,2427.3759,N,08059.5150,W,1.6,309.7,150615,6.1,"
"##MN-00 00 52 0333 02041 5614 455890 207007 203"
"166.499097"
"$GPRMC,115834,A,2427.3770,N,08059.5166,W,1.6,309.4,150615,6.1,"
"##MN-00 00 53 0334 02037 5614 455719 206972 203"
"166.499144"
"$GPRMC,115838,A,2427.3781,N,08059.5181,W,1.6,309.6,150615,6.1,"
"##MN-00 00 54 0335 02032 5614 455564 206936 203"
"166.49919"
"$GPRMC,115842,A,2427.3794,N,08059.5196,W,1.6,309.4,150615,6.1,"
"##MN-00 00 53 0336 02031 5615 455444 206907 203"
"166.499236"
"$GPRMC,115846,A,2427.3806,N,08059.5211,W,1.6,310.4,150615,6.1,"
"##MN-00 00 52 0337 02030 5615 455280 206884 203"
"166.499282"
"$GPRMC,115850,A,2427.3817,N,08059.5225,W,1.6,310.9,150615,6.1,"
"##MN-00 00 52 0338 02027 5615 455131 206821 203"
"166.499329"
"$GPRMC,115854,A,2427.3830,N,08059.5240,W,1.6,311.5,150615,6.1,"
"##MN-00 00 50 0339 02022 5615 454932 206768 203"
"166.499375"
"$GPRMC,115858,A,2427.3842,N,08059.5256,W,1.6,312.1,150615,6.1,"
"##MN-00 00 52 0340 02020 5615 454618 206699 203"
"166.499421"
"$GPRMC,115902,A,2427.3855,N,08059.5269,W,1.6,312.2,150615,6.1,"
"##MN-00 00 53 0341 02015 5615 454290 206635 203"
"166.499468"
"$GPRMC,115906,A,2427.3866,N,08059.5285,W,1.6,312.4,150615,6.1,"
"##MN-00 00 52 0343 02015 5615 454007 206583 203"
"166.499514"
"$GPRMC,115910,A,2427.3878,N,08059.5300,W,1.6,312.3,150615,6.1,"
"##MN-00 00 53 0343 02013 5615 453756 206500 203"
"166.49956"
"$GPRMC,115914,A,2427.3891,N,08059.5314,W,1.6,312.3,150615,6.1,"
"##MN-00 00 53 0344 02008 5616 453513 206454 203"
"166.499606"
"$GPRMC,115918,A,2427.3902,N,08059.5329,W,1.6,312.4,150615,6.1,"
"##MN-00 00 52 0345 02007 5616 453184 206348 203"
"166.499653"
"$GPRMC,115922,A,2427.3914,N,08059.5344,W,1.6,312.1,150615,6.1,"
"##MN-00 00 54 0346 02004 5616 452747 206205 203"
"166.499699"
"$GPRMC,115926,A,2427.3927,N,08059.5359,W,1.7,311.6,150615,6.1,"
"##MN-00 00 52 0348 02000 5616 452171 206100 203"
"166.499745"
"$GPRMC,115930,A,2427.3938,N,08059.5374,W,1.7,311.5,150615,6.1,"
"##MN-00 00 52 0349 01996 5616 451901 206028 203"
"166.499792"
"$GPRMC,115934,A,2427.3949,N,08059.5390,W,1.6,310.2,150615,6.1,"
"##MN-00 00 52 0350 01994 5617 451660 205996 203"
"166.499838"
"$GPRMC,115938,A,2427.3961,N,08059.5405,W,1.6,309.5,150615,6.1,"
"##MN-00 00 51 0351 01991 5617 451277 205953 203"
"166.499884"
"$GPRMC,115942,A,2427.3972,N,08059.5420,W,1.6,309.7,150615,6.1,"
"##MN-00 00 53 0352 01985 5617 450831 205762 203"
"166.499931"
"$GPRMC,115946,A,2427.3986,N,08059.5437,W,1.6,309.8,150615,6.1,"
"##MN-00 00 55 0353 01984 5618 450145 205576 203"
"166.499977"
"$GPRMC,115950,A,2427.3997,N,08059.5452,W,1.6,309.7,150615,6.1,"
"##MN-00 00 52 0354 01983 5618 449690 205466 203"
"166.500023"
"$GPRMC,115954,A,2427.4010,N,08059.5467,W,1.6,310.0,150615,6.1,"
"##MN-00 00 52 0355 01981 5618 449587 205452 203"
"166.500069"
"$GPRMC,115958,A,2427.4023,N,08059.5482,W,1.6,310.1,150615,6.1,"
"##MN-00 00 53 0356 01975 5618 449544 205435 203"
"166.500116"
"$GPRMC,120002,A,2427.4034,N,08059.5499,W,1.6,310.0,150615,6.1,"
"##MN-00 00 52 0357 01971 5619 449501 205423 203"
"166.500162"
"$GPRMC,120006,A,2427.4048,N,08059.5513,W,1.7,310.5,150615,6.1,"
"##MN-00 00 52 0358 01970 5619 449465 205401 203"
"166.500208"
"$GPRMC,120010,A,2427.4061,N,08059.5529,W,1.7,311.0,150615,6.1,"
"##MN-00 00 52 0359 01963 5619 449393 205377 203"
"166.500255"
"$GPRMC,120014,A,2427.4073,N,08059.5545,W,1.7,310.4,150615,6.1,"
"##MN-00 00 54 0360 01963 5620 449348 205363 203"
"166.500301"
"$GPRMC,120018,A,2427.4086,N,08059.5560,W,1.7,310.0,150615,6.1,"
"##MN-00 00 52 0361 01958 5620 449321 205369 203"
"166.500347"
"$GPRMC,120022,A,2427.4097,N,08059.5575,W,1.7,310.6,150615,6.1,"
"##MN-00 00 52 0362 01955 5621 449300 205351 203"
"166.500394"
"$GPRMC,120026,A,2427.4108,N,08059.5590,W,1.7,311.5,150615,6.1,"
"##MN-00 00 51 0363 01950 5621 449269 205338 203"
"166.50044"
"$GPRMC,120030,A,2427.4119,N,08059.5607,W,1.7,311.9,150615,6.1,"
"##MN-00 00 52 0364 01948 5622 449214 205323 203"
"166.500486"
"$GPRMC,120034,A,2427.4130,N,08059.5622,W,1.7,311.7,150615,6.1,"
"##MN-00 00 54 0365 01946 5622 449067 205282 203"
"166.500532"
"$GPRMC,120038,A,2427.4142,N,08059.5637,W,1.7,311.3,150615,6.1,"
"##MN-00 00 52 0366 01943 5623 448898 205252 203"
"166.500579"
"$GPRMC,120042,A,2427.4153,N,08059.5652,W,1.7,312.7,150615,6.1,"
"##MN-00 00 51 0367 01938 5623 448867 205245 203"
"166.500625"
"$GPRMC,120046,A,2427.4167,N,08059.5668,W,1.7,314.0,150615,6.1,"
"##MN-00 00 54 0368 01937 5624 448832 205234 203"
"166.500671"
"$GPRMC,120050,A,2427.4180,N,08059.5681,W,1.7,314.0,150615,6.1,"
"##MN-00 00 53 0369 01934 5624 448829 205231 203"
"166.500718"
"$GPRMC,120055,A,2427.4195,N,08059.5701,W,1.7,314.3,150615,6.1,"
"##MN-00 00 54 0370 01931 5625 448837 205232 203"
"166.500764"
"$GPRMC,120059,A,2427.4207,N,08059.5715,W,1.7,314.0,150615,6.1,"
"##MN-00 00 53 0371 01929 5625 448829 205226 203"
"166.50081"
"$GPRMC,120103,A,2427.4221,N,08059.5730,W,1.7,313.5,150615,6.1,"
"##MN-00 00 55 0372 01924 5626 448829 205226 203"
"166.500856"
"$GPRMC,120107,A,2427.4232,N,08059.5744,W,1.7,312.0,150615,6.1,"
"##MN-00 00 55 0373 01922 5626 448833 205226 203"
"166.500903"
"$GPRMC,120111,A,2427.4243,N,08059.5760,W,1.7,311.2,150615,6.1,"
"##MN-00 00 54 0374 01921 5627 448843 205228 203"
"166.500949"
"$GPRMC,120115,A,2427.4254,N,08059.5774,W,1.6,310.4,150615,6.1,"
"##MN-00 00 54 0375 01918 5627 448850 205230 203"
"166.500995"
"$GPRMC,120119,A,2427.4265,N,08059.5788,W,1.6,309.8,150615,6.1,"
"##MN-00 00 54 0376 01916 5628 448860 205232 203"
"166.501042"
"$GPRMC,120123,A,2427.4276,N,08059.5802,W,1.6,309.3,150615,6.1,"
"##MN-00 00 54 0377 01916 5629 448872 205235 203"
"166.501088"
"$GPRMC,120127,A,2427.4289,N,08059.5817,W,1.6,309.5,150615,6.1,"
"##MN-00 00 54 0378 01913 5629 448890 205239 203"
"166.501134"
"$GPRMC,120131,A,2427.4301,N,08059.5831,W,1.6,309.4,150615,6.1,"
"##MN+00 00 54 0379 01913 5630 448903 205240 203"
"166.501192"
"$GPRMC,120135,A,2427.4311,N,08059.5846,W,1.6,309.7,150615,6.1,"
"##MN+00 00 54 0380 01909 5630 448896 205241 203"
"166.501238"
"$GPRMC,120139,A,2427.4322,N,08059.5861,W,1.6,310.1,150615,6.1,"
"##MN+00 00 55 0381 01906 5632 448901 205244 203"
"166.501285"
"$GPRMC,120143,A,2427.4333,N,08059.5876,W,1.6,311.0,150615,6.1,"
"##MN-00 00 55 0382 01905 5632 448918 205248 203"
"166.501331"
"$GPRMC,120147,A,2427.4343,N,08059.5886,W,1.6,311.3,150615,6.1,"
"##MN-00 00 53 0383 01904 5633 448929 205251 203"
"166.501377"
"$GPRMC,120151,A,2427.4355,N,08059.5905,W,1.6,311.6,150615,6.1,"
"##MN+00 00 54 0384 01901 5633 448927 205255 203"
"166.501424"
"$GPRMC,120155,A,2427.4368,N,08059.5921,W,1.6,311.9,150615,6.1,"
"##MN+00 00 56 0385 01898 5634 448911 205255 203"
"166.50147"
"$GPRMC,120159,A,2427.4380,N,08059.5936,W,1.7,311.8,150615,6.1,"
"##MN+00 00 63 0386 01901 5634 448844 205247 203"
"166.501516"
"#increment_net"
"$GPRMC,120203,A,2427.4391,N,08059.5952,W,1.6,311.7,150615,6.1,"
"##MN-00 00 57 0387 01896 5635 448815 205242 203"
"166.501563"
"$GPRMC,120207,A,2427.4402,N,08059.5964,W,1.7,311.5,150615,6.1,"
"##MN-00 00 53 0388 01895 5636 448790 205236 203"
"166.501609"
"$GPRMC,120211,A,2427.4419,N,08059.5983,W,1.7,311.3,150615,6.1,"
"##MN-00 00 54 0389 01889 5637 448756 205234 203"
"166.501655"
"$GPRMC,120215,A,2427.4431,N,08059.5997,W,1.7,311.4,150615,6.1,"
"##MN-00 00 56 0390 01887 5637 448558 205182 203"
"166.501701"
"$GPRMC,120219,A,2427.4445,N,08059.6013,W,1.7,311.6,150615,6.1,"
"##MN-00 00 56 0391 01885 5638 448256 205119 203"
"166.501748"
"$GPRMC,120223,A,2427.4458,N,08059.6029,W,1.7,312.6,150615,6.1,"
"##MN-00 00 52 0392 01884 5639 448163 205101 203"
"166.501794"
"$GPRMC,120227,A,2427.4471,N,08059.6044,W,1.7,313.7,150615,6.1,"
"##MN-00 00 52 0393 01881 5639 447986 205059 203"
"166.50184"
"$GPRMC,120231,A,2427.4485,N,08059.6059,W,1.7,314.2,150615,6.1,"
"##MN-00 00 51 0394 01876 5640 447906 205048 203"
"166.501887"
"$GPRMC,120235,A,2427.4498,N,08059.6073,W,1.7,313.3,150615,6.1,"
"##MN-00 00 52 0395 01874 5641 447904 205072 203"
"166.501933"
"$GPRMC,120239,A,2427.4510,N,08059.6091,W,1.7,312.6,150615,6.1,"
"##MN-00 00 54 0396 01873 5641 447903 205096 203"
"166.501979"
"$GPRMC,120243,A,2427.4524,N,08059.6106,W,1.7,311.9,150615,6.1,"
"##MN-00 00 53 0398 01868 5642 447909 205116 203"
"166.502025"
"$GPRMC,120247,A,2427.4536,N,08059.6121,W,1.7,311.8,150615,6.1,"
"##MN-00 00 54 0399 01866 5643 447877 205135 203"
"166.502072"
"$GPRMC,120251,A,2427.4550,N,08059.6138,W,1.7,311.7,150615,6.1,"
"##MN-00 00 56 0400 01863 5643 447857 205144 203"
"166.502118"
"$GPRMC,120255,A,2427.4561,N,08059.6153,W,1.7,311.4,150615,6.1,"
"##MN-00 00 53 0401 01860 5644 447841 205150 203"
"166.502164"
"$GPRMC,120259,A,2427.4574,N,08059.6170,W,1.7,311.0,150615,6.1,"
"##MN-00 00 52 0402 01857 5645 447825 205154 203"
"166.502211"
"$GPRMC,120303,A,2427.4586,N,08059.6183,W,1.7,311.0,150615,6.1,"
"##MN-00 00 53 0403 01857 5645 447769 205154 203"
"166.502257"
"$GPRMC,120307,A,2427.4599,N,08059.6199,W,1.6,311.1,150615,6.1,"
"##MN-00 00 53 0404 01853 5646 447733 205162 203"
"166.502303"
"$GPRMC,120311,A,2427.4611,N,08059.6214,W,1.6,310.8,150615,6.1,"
"##MN-00 00 52 0405 01850 5647 447727 205167 203"
"166.50235"
"$GPRMC,120315,A,2427.4623,N,08059.6229,W,1.6,310.0,150615,6.1,"
"##MN-00 00 52 0406 01848 5648 447716 205169 203"
"166.502396"
"$GPRMC,120319,A,2427.4636,N,08059.6244,W,1.7,309.3,150615,6.1,"
"##MN-00 00 52 0407 01844 5648 447718 205171 203"
"166.502442"
"$GPRMC,120323,A,2427.4648,N,08059.6261,W,1.6,309.5,150615,6.1,"
"##MN-00 00 52 0408 01842 5649 447723 205176 203"
"166.502488"
"$GPRMC,120327,A,2427.4662,N,08059.6275,W,1.7,309.5,150615,6.1,"
"##MN-00 00 52 0409 01838 5650 447736 205182 203"
"166.502535"
"$GPRMC,120331,A,2427.4675,N,08059.6290,W,1.7,310.0,150615,6.1,"
"##MN-00 00 51 0410 01836 5651 447730 205188 203"
"166.502581"
"$GPRMC,120335,A,2427.4688,N,08059.6306,W,1.7,310.9,150615,6.1,"
"##MN-00 00 52 0411 01833 5652 447715 205196 203"
"166.502627"
"$GPRMC,120339,A,2427.4699,N,08059.6322,W,1.7,311.2,150615,6.1,"
"##MN-00 00 54 0412 01830 5652 447703 205206 203"
"166.502674"
"$GPRMC,120343,A,2427.4712,N,08059.6337,W,1.7,311.3,150615,6.1,"
"##MN-00 00 52 0413 01828 5653 447686 205209 203"
"166.50272"
"$GPRMC,120347,A,2427.4723,N,08059.6353,W,1.7,311.4,150615,6.1,"
"##MN-00 00 52 0415 01824 5654 447670 205215 203"
"166.502766"
"$GPRMC,120351,A,2427.4735,N,08059.6369,W,1.7,311.4,150615,6.1,"
"##MN-00 00 52 0416 01822 5655 447636 205220 203"
"166.502813"
"$GPRMC,120355,A,2427.4749,N,08059.6385,W,1.7,311.4,150615,6.1,"
"##MN-00 00 52 0417 01817 5656 447595 205226 203"
"166.502859"
"$GPRMC,120359,A,2427.4763,N,08059.6400,W,1.7,311.4,150615,6.1,"
"##MN-00 00 53 0418 01815 5656 447516 205227 203"
"166.502905"
"$GPRMC,120403,A,2427.4774,N,08059.6416,W,1.7,311.3,150615,6.1,"
"##MN-00 00 54 0419 01811 5657 447433 205224 203"
"166.502951"
"$GPRMC,120407,A,2427.4788,N,08059.6431,W,1.7,311.5,150615,6.1,"
"##MN-00 00 53 0420 01808 5657 447320 205214 203"
"166.502998"
"$GPRMC,120411,A,2427.4799,N,08059.6447,W,1.7,312.3,150615,6.1,"
"##MN-00 00 53 0421 01806 5658 447214 205211 203"
"166.503044"
"$GPRMC,120415,A,2427.4813,N,08059.6463,W,1.7,312.0,150615,6.1,"
"##MN-00 00 54 0422 01801 5659 447120 205215 203"
"166.50309"
"$GPRMC,120419,A,2427.4825,N,08059.6481,W,1.7,311.0,150615,6.1,"
"##MN-00 00 55 0424 01799 5660 447017 205217 203"
"166.503137"
"$GPRMC,120423,A,2427.4838,N,08059.6499,W,1.8,310.4,150615,6.1,"
"##MN-00 00 55 0425 01795 5661 446907 205210 203"
"166.503183"
"$GPRMC,120427,A,2427.4850,N,08059.6514,W,1.7,310.4,150615,6.1,"
"##MN-00 00 54 0426 01792 5662 446769 205215 203"
"166.503229"
"$GPRMC,120431,A,2427.4863,N,08059.6529,W,1.7,310.8,150615,6.1,"
"##MN-00 00 54 0427 01791 5662 446636 205222 203"
"166.503275"
"$GPRMC,120435,A,2427.4875,N,08059.6544,W,1.7,311.0,150615,6.1,"
"##MN-00 00 55 0428 01786 5663 446479 205210 203"
"166.503322"
"$GPRMC,120439,A,2427.4888,N,08059.6561,W,1.7,311.0,150615,6.1,"
"##MN-00 00 55 0429 01784 5664 446358 205218 203"
"166.503368"
"$GPRMC,120443,A,2427.4901,N,08059.6577,W,1.7,311.0,150615,6.1,"
"##MN-00 00 55 0430 01778 5665 446285 205202 203"
"166.503414"
"$GPRMC,120447,A,2427.4914,N,08059.6593,W,1.7,310.8,150615,6.1,"
"##MN-00 00 54 0432 01775 5665 446220 205193 203"
"166.503461"
"$GPRMC,120451,A,2427.4926,N,08059.6608,W,1.7,311.0,150615,6.1,"
"##MN-00 00 54 0433 01774 5667 446198 205196 203"
"166.503507"
"$GPRMC,120455,A,2427.4937,N,08059.6623,W,1.7,311.2,150615,6.1,"
"##MN-00 00 54 0434 01771 5667 446208 205224 203"
"166.503553"
"$GPRMC,120459,A,2427.4951,N,08059.6640,W,1.7,311.1,150615,6.1,"
"##MN-00 00 55 0435 01767 5668 446232 205239 203"
"166.5036"
"$GPRMC,120503,A,2427.4964,N,08059.6655,W,1.7,310.7,150615,6.1,"
"##MN-00 00 55 0436 01762 5669 446223 205232 203"
"166.503646"
"$GPRMC,120507,A,2427.4977,N,08059.6671,W,1.7,309.9,150615,6.1,"
"##MN-00 00 52 0437 01762 5670 446229 205245 203"
"166.503692"
"$GPRMC,120511,A,2427.4987,N,08059.6687,W,1.7,309.7,150615,6.1,"
"##MN-00 00 54 0438 01759 5670 446298 205288 203"
"166.503738"
"$GPRMC,120516,A,2427.5002,N,08059.6706,W,1.7,309.3,150615,6.1,"
"##MN-00 00 59 0440 01756 5672 446333 205290 203"
"166.503785"
"$GPRMC,120519,A,2427.5012,N,08059.6719,W,1.7,309.2,150615,6.1,"
"##MN-00 00 58 0441 01754 5672 446321 205288 203"
"166.503831"
"$GPRMC,120524,A,2427.5027,N,08059.6738,W,1.7,309.0,150615,6.1,"
"##MN-00 00 55 0442 01752 5673 446332 205292 203"
"166.503877"
"$GPRMC,120528,A,2427.5038,N,08059.6753,W,1.7,309.0,150615,6.1,"
"##MN-00 00 55 0443 01750 5674 446342 205294 203"
"166.503924"
"$GPRMC,120532,A,2427.5049,N,08059.6767,W,1.6,309.3,150615,6.1,"
"##MN-00 00 56 0444 01748 5675 446375 205306 203"
"166.50397"
"$GPRMC,120536,A,2427.5060,N,08059.6781,W,1.6,309.9,150615,6.1,"
"##MN-00 00 54 0445 01745 5675 446369 205304 203"
"166.504016"
"$GPRMC,120540,A,2427.5073,N,08059.6796,W,1.6,310.0,150615,6.1,"
"##MN-00 00 54 0446 01746 5676 446349 205301 203"
"166.504062"
"$GPRMC,120544,A,2427.5085,N,08059.6810,W,1.6,309.7,150615,6.1,"
"##MN-00 00 54 0447 01743 5677 446373 205312 203"
"166.504109"
"$GPRMC,120548,A,2427.5095,N,08059.6825,W,1.6,309.4,150615,6.1,"
"##MN-00 00 55 0448 01743 5678 446376 205311 203"
"166.504155"
"$GPRMC,120552,A,2427.5107,N,08059.6839,W,1.6,309.9,150615,6.1,"
"##MN-00 00 54 0450 01740 5679 446358 205300 203"
"166.504201"
"$GPRMC,120556,A,2427.5120,N,08059.6854,W,1.6,311.2,150615,6.1,"
"##MN-00 00 53 0451 01737 5680 446324 205286 203"
"166.504248"
"$GPRMC,120600,A,2427.5132,N,08059.6869,W,1.6,311.6,150615,6.1,"
"##MN-00 00 56 0452 01734 5680 446329 205292 203"
"166.504294"
"$GPRMC,120604,A,2427.5145,N,08059.6884,W,1.7,311.8,150615,6.1,"
"##MN-00 00 56 0453 01732 5682 446401 205318 203"
"166.504352"
