" Tow: 14OF-D-IN   RVWS/WS15161"
" Date: 15/06/2015"
" Temperature Probe #  4762    Conductivity Probe #  710"
" Pressure Probe #  159"
" Flow Meter Calibration  4.71 (m/count)  "
"166.546238"
"$GPRMC,130631,A,2426.5045,N,08057.8411,W,2.3,119.4,150615,6.1,"
"##MN-00 00 37 0624 01545 6121 000037 803879 202"
"166.546285"
"$GPRMC,130636,A,2426.5029,N,08057.8380,W,2.4,118.7,150615,6.1,"
"##MN-00 00 37 0624 01541 6122 446369 205586 202"
"166.546331"
"$GPRMC,130640,A,2426.5015,N,08057.8359,W,2.4,118.7,150615,6.1,"
"##MN-00 00 36 0625 01541 6122 446379 205520 202"
"166.546377"
"$GPRMC,130644,A,2426.5002,N,08057.8338,W,2.3,120.2,150615,6.1,"
"##MN-00 00 36 0625 01544 6122 446369 205506 202"
"166.546424"
"$GPRMC,130648,A,2426.4989,N,08057.8318,W,2.2,122.0,150615,6.1,"
"##MN-00 00 32 0626 01542 6123 446361 205497 202"
"166.54647"
"$GPRMC,130652,A,2426.4980,N,08057.8299,W,2.1,123.2,150615,6.1,"
"##MN-00 00 35 0626 01546 6123 446368 205497 202"
"166.546516"
"$GPRMC,130656,A,2426.4969,N,08057.8279,W,2.1,124.0,150615,6.1,"
"##MN-00 00 35 0627 01547 6124 446368 205496 202"
"166.546563"
"$GPRMC,130700,A,2426.4958,N,08057.8259,W,2.0,124.7,150615,6.1,"
"##MN-00 00 32 0627 01545 6124 446359 205491 202"
"166.546736"
"$GPRMC,130714,A,2426.4913,N,08057.8191,W,1.8,126.1,150615,6.1,"
"##MN-00 00 33 0628 01549 6125 446350 205455 202"
"166.546782"
"$GPRMC,130718,A,2426.4901,N,08057.8169,W,1.8,126.0,150615,6.1,"
"##MN-00 00 32 0628 01549 6125 446332 205437 202"
"166.546829"
"$GPRMC,130722,A,2426.4891,N,08057.8152,W,1.9,126.1,150615,6.1,"
"##MN-00 00 33 0629 01545 6125 446329 205435 202"
"166.546875"
"$GPRMC,130726,A,2426.4879,N,08057.8132,W,1.8,125.7,150615,6.1,"
"##MN-00 00 32 0629 01545 6125 446323 205432 202"
"166.546921"
"$GPRMC,130730,A,2426.4869,N,08057.8115,W,1.9,125.2,150615,6.1,"
"##MN-00 00 31 0630 01547 6125 446332 205434 202"
"166.546968"
"$GPRMC,130734,A,2426.4858,N,08057.8097,W,1.9,124.7,150615,6.1,"
"##MN-00 00 31 0630 01547 6125 446329 205434 202"
"166.547014"
"$GPRMC,130738,A,2426.4845,N,08057.8077,W,2.0,124.5,150615,6.1,"
"##MN-00 00 31 0631 01550 6125 446325 205432 202"
"166.54706"
"$GPRMC,130742,A,2426.4832,N,08057.8058,W,2.0,124.5,150615,6.1,"
"##MN-00 00 32 0631 01548 6125 446318 205430 202"
"166.547106"
"$GPRMC,130746,A,2426.4818,N,08057.8042,W,2.1,123.9,150615,6.1,"
"##MN-00 00 32 0631 01547 6125 446313 205427 202"
"166.547153"
"$GPRMC,130750,A,2426.4803,N,08057.8020,W,2.1,122.8,150615,6.1,"
"##MN-00 00 30 0632 01546 6125 446318 205441 202"
"166.547199"
"$GPRMC,130754,A,2426.4790,N,08057.8000,W,2.1,123.6,150615,6.1,"
"##MN-00 00 30 0632 01545 6125 446293 205422 202"
"166.547245"
"$GPRMC,130758,A,2426.4776,N,08057.7978,W,2.1,124.8,150615,6.1,"
"##MN-00 00 30 0632 01542 6125 446298 205420 202"
"166.547292"
"$GPRMC,130802,A,2426.4761,N,08057.7956,W,2.0,125.4,150615,6.1,"
"##MN-00 00 30 0633 01541 6124 446304 205421 202"
"166.547338"
"$GPRMC,130806,A,2426.4747,N,08057.7935,W,2.1,126.0,150615,6.1,"
"##MN-00 00 30 0633 01539 6125 446294 205418 202"
"166.547384"
"$GPRMC,130811,A,2426.4729,N,08057.7906,W,2.2,127.2,150615,6.1,"
"##MN-00 00 29 0633 01540 6124 446301 205420 202"
"166.547431"
"$GPRMC,130815,A,2426.4713,N,08057.7885,W,2.3,126.3,150615,6.1,"
"##MN-00 00 29 0634 01539 6124 446295 205420 202"
"166.547477"
"$GPRMC,130819,A,2426.4696,N,08057.7862,W,2.3,125.8,150615,6.1,"
"##MN-00 00 29 0634 01538 6124 446295 205420 202"
"166.547523"
"$GPRMC,130823,A,2426.4679,N,08057.7840,W,2.3,125.8,150615,6.1,"
"##MN-00 00 29 0635 01536 6124 446291 205420 202"
"166.547569"
"$GPRMC,130827,A,2426.4663,N,08057.7817,W,2.4,127.0,150615,6.1,"
"##MN-00 00 29 0635 01536 6123 446292 205419 202"
"166.547616"
"$GPRMC,130831,A,2426.4646,N,08057.7794,W,2.4,126.5,150615,6.1,"
"##MN-00 00 29 0635 01535 6123 446298 205422 202"
"166.547662"
"$GPRMC,130835,A,2426.4630,N,08057.7768,W,2.4,126.0,150615,6.1,"
"##MN-00 00 29 0636 01538 6123 446287 205417 202"
"166.547708"
"$GPRMC,130839,A,2426.4613,N,08057.7741,W,2.5,126.2,150615,6.1,"
"##MN-00 00 29 0636 01540 6123 446285 205417 202"
"166.547755"
"$GPRMC,130843,A,2426.4597,N,08057.7716,W,2.5,125.2,150615,6.1,"
"##MN-00 00 29 0637 01539 6123 446284 205414 202"
"166.547801"
"$GPRMC,130847,A,2426.4580,N,08057.7690,W,2.6,124.3,150615,6.1,"
"##MN-00 00 29 0637 01546 6123 446277 205411 202"
"166.547847"
"$GPRMC,130851,A,2426.4561,N,08057.7665,W,2.6,124.2,150615,6.1,"
"##MN-00 00 29 0638 01552 6122 446259 205402 202"
"166.547894"
"$GPRMC,130855,A,2426.4543,N,08057.7637,W,2.6,125.3,150615,6.1,"
"##MN-00 00 29 0638 01553 6122 446253 205398 202"
"166.54794"
"$GPRMC,130859,A,2426.4526,N,08057.7609,W,2.7,125.6,150615,6.1,"
"##MN-00 00 29 0639 01552 6122 446238 205392 202"
"166.547986"
"$GPRMC,130903,A,2426.4507,N,08057.7576,W,2.8,125.3,150615,6.1,"
"##MN-00 00 29 0639 01556 6122 446250 205393 202"
"166.548032"
"$GPRMC,130907,A,2426.4493,N,08057.7550,W,2.8,124.5,150615,6.1,"
"##MN-00 00 29 0640 01563 6121 446259 205395 202"
"166.548079"
"$GPRMC,130911,A,2426.4478,N,08057.7524,W,2.8,123.8,150615,6.1,"
"##MN-00 00 29 0641 01567 6121 446245 205390 202"
"166.548125"
"$GPRMC,130915,A,2426.4460,N,08057.7495,W,2.8,124.2,150615,6.1,"
"##MN-00 00 29 0641 01569 6121 446259 205392 202"
"166.548171"
"$GPRMC,130919,A,2426.4444,N,08057.7468,W,2.7,124.8,150615,6.1,"
"##MN-00 00 29 0642 01574 6121 446267 205394 202"
"166.548218"
"$GPRMC,130923,A,2426.4428,N,08057.7438,W,2.8,123.8,150615,6.1,"
"##MN-00 00 29 0642 01577 6120 446276 205395 202"
"166.548264"
"$GPRMC,130927,A,2426.4410,N,08057.7409,W,2.8,123.2,150615,6.1,"
"##MN-00 00 29 0643 01579 6120 446267 205390 202"
"166.54831"
"$GPRMC,130931,A,2426.4392,N,08057.7380,W,2.9,123.1,150615,6.1,"
"##MN-00 00 29 0643 01584 6120 446257 205385 202"
"166.548356"
"$GPRMC,130935,A,2426.4377,N,08057.7355,W,2.9,124.2,150615,6.1,"
"##MN-00 00 29 0644 01588 6120 446253 205384 202"
"166.548403"
"$GPRMC,130939,A,2426.4360,N,08057.7328,W,2.8,123.3,150615,6.1,"
"##MN-00 00 29 0645 01592 6120 446256 205384 202"
"166.548449"
"$GPRMC,130943,A,2426.4341,N,08057.7301,W,2.8,123.1,150615,6.1,"
"##MN-00 00 29 0645 01597 6119 446264 205385 202"
"166.548495"
"$GPRMC,130947,A,2426.4323,N,08057.7273,W,2.8,123.5,150615,6.1,"
"##MN-00 00 29 0646 01598 6119 446261 205383 202"
"166.548542"
"$GPRMC,130951,A,2426.4305,N,08057.7247,W,2.8,124.4,150615,6.1,"
"##MN-00 00 29 0646 01604 6119 446245 205377 202"
"166.548588"
"$GPRMC,130955,A,2426.4288,N,08057.7218,W,2.8,124.5,150615,6.1,"
"##MN-00 00 29 0647 01608 6119 446240 205375 202"
"166.548634"
"$GPRMC,130959,A,2426.4270,N,08057.7190,W,2.8,125.0,150615,6.1,"
"##MN-00 00 29 0648 01612 6118 446246 205375 202"
"166.548681"
"$GPRMC,131003,A,2426.4254,N,08057.7162,W,2.8,125.0,150615,6.1,"
"##MN-00 00 29 0648 01619 6118 446256 205378 202"
"166.548727"
"$GPRMC,131007,A,2426.4236,N,08057.7134,W,2.8,124.5,150615,6.1,"
"##MN-00 00 29 0649 01623 6118 446263 205378 202"
"166.548773"
"$GPRMC,131011,A,2426.4218,N,08057.7110,W,2.7,125.1,150615,6.1,"
"##MN-00 00 29 0649 01627 6117 446260 205376 202"
"166.548819"
"$GPRMC,131015,A,2426.4200,N,08057.7086,W,2.8,125.6,150615,6.1,"
"##MN-00 00 29 0650 01630 6117 446241 205368 202"
"166.548866"
"$GPRMC,131019,A,2426.4183,N,08057.7052,W,2.8,125.7,150615,6.1,"
"##MN-00 00 29 0650 01634 6117 446224 205364 202"
"166.548912"
"$GPRMC,131023,A,2426.4166,N,08057.7020,W,2.8,125.0,150615,6.1,"
"##MN-00 00 29 0651 01637 6117 446271 205368 202"
"166.548958"
"$GPRMC,131027,A,2426.4147,N,08057.7004,W,2.7,124.2,150615,6.1,"
"##MN-00 00 30 0651 01644 6116 446301 205372 202"
"166.549005"
"$GPRMC,131031,A,2426.4130,N,08057.6981,W,2.7,124.5,150615,6.1,"
"##MN-00 00 30 0652 01645 6116 446259 205366 202"
"166.549051"
"$GPRMC,131035,A,2426.4113,N,08057.6952,W,2.7,125.0,150615,6.1,"
"##MN-00 00 30 0652 01650 6116 446207 205358 202"
"166.549097"
"$GPRMC,131039,A,2426.4095,N,08057.6924,W,2.5,126.2,150615,6.1,"
"##MN-00 00 30 0653 01658 6116 446208 205356 202"
"166.549144"
"$GPRMC,131043,A,2426.4079,N,08057.6902,W,2.5,125.8,150615,6.1,"
"##MN-00 00 30 0653 01667 6115 446216 205357 202"
"166.54919"
"$GPRMC,131047,A,2426.4066,N,08057.6874,W,2.5,125.8,150615,6.1,"
"##MN-00 00 30 0654 01669 6115 446252 205361 202"
"166.549236"
"$GPRMC,131051,A,2426.4049,N,08057.6848,W,2.6,124.6,150615,6.1,"
"##MN-00 00 30 0654 01674 6114 446218 205355 202"
"166.549282"
"$GPRMC,131055,A,2426.4034,N,08057.6819,W,2.6,125.2,150615,6.1,"
"##MN-00 00 30 0655 01676 6114 446218 205353 202"
"166.549329"
"$GPRMC,131059,A,2426.4017,N,08057.6795,W,2.6,124.8,150615,6.1,"
"##MN-00 00 30 0655 01681 6114 446192 205348 202"
"166.549375"
"$GPRMC,131103,A,2426.3996,N,08057.6770,W,2.5,124.1,150615,6.1,"
"##MN-00 00 30 0656 01688 6114 446186 205346 202"
"166.549421"
"$GPRMC,131107,A,2426.3983,N,08057.6745,W,2.5,123.9,150615,6.1,"
"##MN-00 00 30 0656 01693 6113 446257 205357 202"
"166.549468"
"$GPRMC,131111,A,2426.3969,N,08057.6718,W,2.6,123.4,150615,6.1,"
"##MN-00 00 30 0657 01698 6113 446271 205362 202"
"166.549514"
"$GPRMC,131115,A,2426.3952,N,08057.6690,W,2.6,123.2,150615,6.1,"
"##MN-00 00 30 0657 01703 6113 446220 205351 202"
"166.54956"
"$GPRMC,131119,A,2426.3936,N,08057.6662,W,2.7,122.5,150615,6.1,"
"##MN-00 00 30 0658 01706 6112 446215 205349 202"
"166.549606"
"$GPRMC,131123,A,2426.3918,N,08057.6634,W,2.7,123.2,150615,6.1,"
"##MN-00 00 30 0659 01710 6112 446276 205357 202"
"166.549664"
"$GPRMC,131127,A,2426.3900,N,08057.6606,W,2.7,124.0,150615,6.1,"
"##MN-00 00 30 0659 01712 6112 446349 205350 202"
"166.549711"
"$GPRMC,131131,A,2426.3882,N,08057.6578,W,2.8,124.8,150615,6.1,"
"##MN-00 00 30 0660 01717 6111 446355 205338 202"
"166.549757"
"$GPRMC,131135,A,2426.3862,N,08057.6551,W,2.8,124.6,150615,6.1,"
"##MN-00 00 30 0661 01719 6111 446331 205292 202"
"166.549803"
"$GPRMC,131139,A,2426.3844,N,08057.6523,W,2.8,124.7,150615,6.1,"
"##MN-00 00 30 0661 01721 6111 446318 205271 202"
"166.54985"
"$GPRMC,131143,A,2426.3828,N,08057.6495,W,2.8,124.8,150615,6.1,"
"##MN-00 00 30 0662 01725 6111 446315 205269 202"
"166.549896"
"$GPRMC,131147,A,2426.3808,N,08057.6468,W,2.8,124.9,150615,6.1,"
"##MN-00 00 30 0662 01729 6110 446316 205283 202"
"166.549942"
"$GPRMC,131151,A,2426.3788,N,08057.6445,W,2.7,125.2,150615,6.1,"
"##MN-00 00 30 0663 01735 6110 446326 205292 202"
"166.549988"
"$GPRMC,131155,A,2426.3770,N,08057.6424,W,2.7,125.4,150615,6.1,"
"##MN-00 00 30 0663 01738 6110 446306 205251 202"
"166.550035"
"$GPRMC,131159,A,2426.3750,N,08057.6401,W,2.6,126.0,150615,6.1,"
"##MN-00 00 30 0664 01740 6109 446286 205196 202"
"166.550081"
"$GPRMC,131203,A,2426.3730,N,08057.6376,W,2.6,126.0,150615,6.1,"
"##MN-00 00 30 0664 01741 6109 446317 205191 202"
"166.550127"
"$GPRMC,131207,A,2426.3713,N,08057.6350,W,2.6,125.7,150615,6.1,"
"##MN-00 00 30 0665 01747 6108 446300 205186 202"
"166.550174"
"$GPRMC,131211,A,2426.3696,N,08057.6321,W,2.6,125.6,150615,6.1,"
"##MN-00 00 30 0665 01754 6108 446326 205188 202"
"166.55022"
"$GPRMC,131215,A,2426.3680,N,08057.6295,W,2.6,125.4,150615,6.1,"
"##MN-00 00 30 0666 01758 6108 446355 205195 202"
"166.550266"
"$GPRMC,131219,A,2426.3662,N,08057.6272,W,2.6,125.4,150615,6.1,"
"##MN-00 00 30 0666 01760 6107 446363 205196 202"
"166.550313"
"$GPRMC,131224,A,2426.3642,N,08057.6240,W,2.6,125.0,150615,6.1,"
"##MN-00 00 30 0667 01763 6107 446393 205200 202"
"166.550359"
"$GPRMC,131227,A,2426.3629,N,08057.6223,W,2.6,124.8,150615,6.1,"
"##MN-00 00 30 0667 01768 6107 446404 205203 202"
"166.550405"
"$GPRMC,131231,A,2426.3611,N,08057.6195,W,2.6,124.3,150615,6.1,"
"##MN-00 00 30 0668 01772 6106 446427 205209 202"
"166.550451"
"$GPRMC,131236,A,2426.3591,N,08057.6154,W,2.6,125.1,150615,6.1,"
"##MN-00 00 30 0669 01778 6106 446452 205213 202"
"166.550498"
"$GPRMC,131240,A,2426.3575,N,08057.6124,W,2.7,124.5,150615,6.1,"
"##MN-00 00 30 0669 01782 6106 446472 205216 202"
"166.550544"
"$GPRMC,131243,A,2426.3561,N,08057.6103,W,2.8,123.4,150615,6.1,"
"##MN-00 00 30 0670 01786 6105 446481 205216 202"
"166.55059"
"$GPRMC,131247,A,2426.3543,N,08057.6072,W,2.8,123.5,150615,6.1,"
"##MN-00 00 30 0670 01789 6105 446479 205216 202"
"166.550637"
"$GPRMC,131252,A,2426.3521,N,08057.6037,W,2.7,123.7,150615,6.1,"
"##MN-00 00 30 0671 01793 6105 446476 205215 202"
"166.550683"
"$GPRMC,131256,A,2426.3505,N,08057.6009,W,2.8,124.3,150615,6.1,"
"##MN-00 00 30 0671 01795 6105 446477 205214 202"
"166.550729"
"$GPRMC,131300,A,2426.3488,N,08057.5980,W,2.7,123.7,150615,6.1,"
"##MN-00 00 30 0672 01799 6104 446487 205217 202"
"166.550775"
"$GPRMC,131304,A,2426.3471,N,08057.5952,W,2.8,123.0,150615,6.1,"
"##MN-00 00 30 0672 01803 6104 446495 205219 202"
"166.550822"
"$GPRMC,131308,A,2426.3454,N,08057.5926,W,2.8,123.2,150615,6.1,"
"##MN-00 00 30 0673 01805 6104 446509 205221 202"
"166.550868"
"$GPRMC,131312,A,2426.3438,N,08057.5901,W,2.8,123.0,150615,6.1,"
"##MN-00 00 30 0673 01809 6103 446510 205220 202"
"166.550914"
"$GPRMC,131316,A,2426.3419,N,08057.5877,W,2.7,124.6,150615,6.1,"
"##MN-00 00 30 0674 01817 6103 446520 205222 202"
"166.550961"
"$GPRMC,131320,A,2426.3403,N,08057.5854,W,2.6,125.1,150615,6.1,"
"##MN-00 00 30 0675 01821 6103 446527 205222 202"
"166.551007"
"$GPRMC,131324,A,2426.3385,N,08057.5829,W,2.6,125.1,150615,6.1,"
"##MN-00 00 30 0675 01824 6103 446532 205222 202"
"166.551053"
"$GPRMC,131328,A,2426.3369,N,08057.5802,W,2.7,125.6,150615,6.1,"
"##MN-00 00 30 0676 01828 6102 446565 205225 202"
"166.5511"
"$GPRMC,131332,A,2426.3351,N,08057.5772,W,2.7,126.0,150615,6.1,"
"##MN-00 00 30 0677 01834 6102 446604 205228 202"
"166.551146"
"$GPRMC,131336,A,2426.3333,N,08057.5746,W,2.7,126.0,150615,6.1,"
"##MN-00 00 30 0677 01836 6102 446633 205228 202"
"166.551192"
"$GPRMC,131340,A,2426.3315,N,08057.5719,W,2.8,125.5,150615,6.1,"
"##MN-00 00 30 0678 01839 6101 446653 205229 202"
"166.551238"
"$GPRMC,131344,A,2426.3295,N,08057.5691,W,2.8,125.6,150615,6.1,"
"##MN-00 00 30 0678 01840 6101 446678 205230 202"
"166.551285"
"$GPRMC,131348,A,2426.3279,N,08057.5661,W,2.8,125.5,150615,6.1,"
"##MN-00 00 30 0679 01844 6100 446713 205230 202"
"166.551331"
"$GPRMC,131352,A,2426.3260,N,08057.5636,W,2.8,125.5,150615,6.1,"
"##MN-00 00 30 0679 01848 6100 446740 205230 202"
"166.551377"
"$GPRMC,131356,A,2426.3246,N,08057.5617,W,2.7,125.7,150615,6.1,"
"##MN-00 00 30 0680 01854 6100 446771 205231 202"
"166.551424"
"$GPRMC,131400,A,2426.3229,N,08057.5590,W,2.7,125.6,150615,6.1,"
"##MN-00 00 30 0681 01856 6099 446836 205234 202"
"166.55147"
"$GPRMC,131404,A,2426.3212,N,08057.5561,W,2.8,124.9,150615,6.1,"
"##MN-00 00 30 0681 01859 6099 446891 205236 202"
"166.551516"
"$GPRMC,131408,A,2426.3190,N,08057.5527,W,2.8,124.7,150615,6.1,"
"##MN-00 00 30 0682 01862 6099 446939 205237 202"
"166.551563"
"$GPRMC,131412,A,2426.3172,N,08057.5500,W,2.8,124.5,150615,6.1,"
"##MN-00 00 30 0682 01865 6098 446973 205237 202"
"166.551609"
"$GPRMC,131416,A,2426.3157,N,08057.5472,W,2.7,124.8,150615,6.1,"
"##MN-00 00 30 0683 01871 6098 446986 205237 202"
"166.551655"
"$GPRMC,131420,A,2426.3146,N,08057.5453,W,2.6,124.2,150615,6.1,"
"##MN-00 00 30 0683 01873 6098 447016 205237 202"
"166.551701"
"$GPRMC,131424,A,2426.3128,N,08057.5420,W,2.7,123.3,150615,6.1,"
"##MN-00 00 30 0684 01879 6098 447084 205235 202"
"166.551748"
"$GPRMC,131428,A,2426.3116,N,08057.5398,W,2.6,122.9,150615,6.1,"
"##MN-00 00 30 0684 01884 6097 447175 205235 202"
"166.551794"
"$GPRMC,131432,A,2426.3099,N,08057.5370,W,2.6,123.3,150615,6.1,"
"##MN-00 00 30 0685 01888 6096 447200 205236 202"
"166.55184"
"$GPRMC,131436,A,2426.3081,N,08057.5343,W,2.5,123.1,150615,6.1,"
"##MN-00 00 30 0685 01890 6096 447236 205240 202"
"166.551887"
"$GPRMC,131440,A,2426.3064,N,08057.5315,W,2.5,123.5,150615,6.1,"
"##MN-00 00 30 0686 01894 6096 447319 205249 202"
"166.551933"
"$GPRMC,131444,A,2426.3046,N,08057.5289,W,2.5,123.8,150615,6.1,"
"##MN-00 00 30 0687 01900 6096 447498 205269 202"
"166.551979"
"$GPRMC,131448,A,2426.3029,N,08057.5263,W,2.5,123.7,150615,6.1,"
"##MN-00 00 30 0687 01900 6095 447612 205278 202"
"166.552025"
"$GPRMC,131452,A,2426.3012,N,08057.5238,W,2.5,124.2,150615,6.1,"
"##MN-00 00 30 0688 01902 6095 447741 205297 202"
"166.552072"
"$GPRMC,131456,A,2426.2997,N,08057.5209,W,2.6,124.7,150615,6.1,"
"##MN-00 00 30 0688 01906 6094 447729 205296 202"
"166.552118"
"$GPRMC,131500,A,2426.2980,N,08057.5184,W,2.6,124.8,150615,6.1,"
"##MN-00 00 30 0689 01907 6094 447664 205289 202"
"166.552164"
"$GPRMC,131504,A,2426.2963,N,08057.5161,W,2.6,125.5,150615,6.1,"
"##MN-00 00 30 0689 01910 6094 447583 205276 202"
"166.552211"
"$GPRMC,131508,A,2426.2945,N,08057.5137,W,2.6,126.1,150615,6.1,"
"##MN-00 00 30 0690 01912 6093 447667 205283 202"
"166.552257"
"$GPRMC,131512,A,2426.2926,N,08057.5115,W,2.6,127.4,150615,6.1,"
"##MN-00 00 30 0691 01912 6093 448057 205342 202"
"166.552303"
"$GPRMC,131516,A,2426.2910,N,08057.5089,W,2.5,128.2,150615,6.1,"
"##MN-00 00 30 0691 01919 6093 448160 205363 202"
"166.55235"
"$GPRMC,131520,A,2426.2892,N,08057.5061,W,2.5,128.5,150615,6.1,"
"##MN-00 00 30 0692 01921 6092 448189 205365 202"
"166.552396"
"$GPRMC,131524,A,2426.2875,N,08057.5037,W,2.5,127.5,150615,6.1,"
"##MN-00 00 30 0692 01925 6092 448173 205359 202"
"166.552442"
"$GPRMC,131528,A,2426.2856,N,08057.5013,W,2.6,127.0,150615,6.1,"
"##MN-00 00 30 0693 01927 6092 448175 205357 202"
"166.552488"
"$GPRMC,131532,A,2426.2836,N,08057.4992,W,2.6,126.5,150615,6.1,"
"##MN-00 00 30 0694 01925 6091 448201 205366 202"
"166.552535"
"$GPRMC,131536,A,2426.2820,N,08057.4964,W,2.6,126.2,150615,6.1,"
"##MN-00 00 30 0695 01930 6091 448183 205364 202"
"166.552581"
"$GPRMC,131540,A,2426.2802,N,08057.4938,W,2.6,125.9,150615,6.1,"
"##MN-00 00 30 0695 01931 6090 448125 205356 202"
"166.552627"
"$GPRMC,131544,A,2426.2784,N,08057.4911,W,2.6,125.2,150615,6.1,"
"##MN-00 00 30 0696 01935 6090 448203 205375 202"
"166.552674"
"$GPRMC,131548,A,2426.2766,N,08057.4884,W,2.6,124.5,150615,6.1,"
"##MN-00 00 30 0696 01934 6090 448370 205404 202"
"166.55272"
"$GPRMC,131552,A,2426.2751,N,08057.4856,W,2.6,123.7,150615,6.1,"
"##MN-00 00 30 0697 01936 6089 448500 205425 202"
"166.552766"
"$GPRMC,131556,A,2426.2733,N,08057.4828,W,2.6,123.5,150615,6.1,"
"##MN-00 00 30 0698 01941 6089 448581 205438 202"
"166.552812"
"$GPRMC,131600,A,2426.2717,N,08057.4800,W,2.6,123.7,150615,6.1,"
"##MN-00 00 30 0698 01942 6089 448634 205444 202"
"166.552859"
"$GPRMC,131604,A,2426.2701,N,08057.4773,W,2.6,123.3,150615,6.1,"
"##MN-00 00 30 0699 01946 6088 448687 205456 202"
"166.552917"
"$GPRMC,131608,A,2426.2683,N,08057.4746,W,2.6,123.2,150615,6.1,"
"##MN-00 00 30 0699 01951 6088 448667 205448 202"
"166.552963"
"$GPRMC,131612,A,2426.2668,N,08057.4718,W,2.6,123.4,150615,6.1,"
"##MN-00 00 30 0700 01950 6088 448673 205451 202"
"166.553009"
"$GPRMC,131616,A,2426.2650,N,08057.4691,W,2.6,124.3,150615,6.1,"
"##MN-00 00 30 0701 01952 6087 448746 205469 202"
"166.553056"
"$GPRMC,131620,A,2426.2632,N,08057.4666,W,2.6,124.9,150615,6.1,"
"##MN-00 00 30 0701 01953 6087 448761 205469 202"
"166.553102"
"$GPRMC,131624,A,2426.2615,N,08057.4640,W,2.6,125.3,150615,6.1,"
"##MN-00 00 30 0702 01955 6086 448769 205471 202"
"166.553148"
"$GPRMC,131628,A,2426.2597,N,08057.4614,W,2.7,125.3,150615,6.1,"
"##MN-00 00 30 0703 01954 6086 448754 205466 202"
"166.553194"
"$GPRMC,131632,A,2426.2581,N,08057.4589,W,2.6,125.9,150615,6.1,"
"##MN-00 00 30 0703 01957 6086 448757 205466 202"
"166.553241"
"$GPRMC,131636,A,2426.2564,N,08057.4560,W,2.6,126.1,150615,6.1,"
"##MN-00 00 30 0704 01962 6085 448989 205508 202"
"166.553287"
"$GPRMC,131640,A,2426.2549,N,08057.4535,W,2.5,125.8,150615,6.1,"
"##MN-00 00 30 0705 01966 6085 449112 205530 202"
"166.553333"
"$GPRMC,131644,A,2426.2533,N,08057.4513,W,2.5,126.0,150615,6.1,"
"##MN-00 00 08 0705 01969 6084 449185 205543 202"
"166.55338"
"$GPRMC,131648,A,2426.2516,N,08057.4491,W,2.5,126.6,150615,6.1,"
"##MN-00 00 07 0706 01974 6084 449281 205565 202"
"166.553426"
"$GPRMC,131652,A,2426.2498,N,08057.4466,W,2.4,126.6,150615,6.1,"
"##MN-00 00 07 0707 01974 6084 449448 205616 202"
"166.553472"
"$GPRMC,131656,A,2426.2482,N,08057.4442,W,2.4,126.3,150615,6.1,"
"##MN-00 00 07 0707 01981 6083 449948 205685 202"
"166.553519"
"$GPRMC,131700,A,2426.2466,N,08057.4417,W,2.5,125.5,150615,6.1,"
"##MN-00 00 07 0708 01981 6083 450792 205828 202"
"166.553565"
"$GPRMC,131704,A,2426.2450,N,08057.4392,W,2.4,125.5,150615,6.1,"
"##MN-00 00 07 0709 01981 6082 451925 206048 202"
"166.553611"
"$GPRMC,131708,A,2426.2437,N,08057.4364,W,2.5,125.1,150615,6.1,"
"##MN-00 00 08 0709 01985 6082 452562 206169 202"
"166.553657"
"$GPRMC,131712,A,2426.2417,N,08057.4341,W,2.6,124.4,150615,6.1,"
"##MN-00 00 07 0710 01989 6082 453540 206433 202"
"166.553704"
"$GPRMC,131717,A,2426.2398,N,08057.4309,W,2.5,124.2,150615,6.1,"
"##MN-00 00 07 0711 01992 6081 453832 206469 202"
"166.55375"
"$GPRMC,131721,A,2426.2383,N,08057.4282,W,2.5,124.5,150615,6.1,"
"##MN-00 00 09 0711 01995 6081 454088 206558 202"
"166.553796"
"$GPRMC,131724,A,2426.2372,N,08057.4259,W,2.5,124.3,150615,6.1,"
"##MN-00 00 07 0712 01997 6080 454604 206633 202"
"166.553843"
"$GPRMC,131728,A,2426.2355,N,08057.4230,W,2.5,123.6,150615,6.1,"
"##MN-00 00 08 0713 02001 6080 454856 206631 202"
"166.553889"
"$GPRMC,131733,A,2426.2337,N,08057.4196,W,2.5,122.8,150615,6.1,"
"##MN-00 00 08 0713 02005 6079 455215 206761 202"
"166.553935"
"$GPRMC,131737,A,2426.2320,N,08057.4172,W,2.5,122.8,150615,6.1,"
"##MN-00 00 08 0714 02011 6079 455355 206805 202"
"166.553981"
"$GPRMC,131741,A,2426.2304,N,08057.4147,W,2.5,122.7,150615,6.1,"
"##MN-00 00 08 0715 02013 6078 455451 206835 202"
"166.554028"
"$GPRMC,131745,A,2426.2289,N,08057.4126,W,2.5,123.1,150615,6.1,"
"##MN-00 00 08 0715 02022 6078 455515 206843 202"
"166.554074"
"$GPRMC,131749,A,2426.2273,N,08057.4101,W,2.4,123.1,150615,6.1,"
"##MN-00 00 08 0716 02028 6077 455625 206880 202"
"166.55412"
"$GPRMC,131753,A,2426.2260,N,08057.4081,W,2.3,123.4,150615,6.1,"
"##MN-00 00 08 0716 02033 6077 455989 206964 202"
"166.554167"
"$GPRMC,131757,A,2426.2247,N,08057.4059,W,2.2,123.5,150615,6.1,"
"##MN-00 00 08 0717 02043 6076 456889 207169 202"
"166.554213"
"$GPRMC,131801,A,2426.2232,N,08057.4037,W,2.2,123.4,150615,6.1,"
"##MN-00 00 08 0717 02049 6076 458197 207441 202"
"166.554259"
"$GPRMC,131805,A,2426.2220,N,08057.4012,W,2.2,122.9,150615,6.1,"
"##MN-00 00 08 0718 02054 6075 459117 207631 202"
"166.554306"
"$GPRMC,131809,A,2426.2207,N,08057.3986,W,2.3,121.6,150615,6.1,"
"##MN-00 00 08 0719 02060 6075 459927 207689 202"
"166.554352"
"$GPRMC,131813,A,2426.2193,N,08057.3961,W,2.3,121.1,150615,6.1,"
"##MN-00 00 08 0719 02066 6074 460941 208001 202"
"166.554398"
"$GPRMC,131817,A,2426.2179,N,08057.3937,W,2.3,121.6,150615,6.1,"
"##MN-00 00 08 0720 02071 6073 462414 208321 202"
"166.554444"
"$GPRMC,131821,A,2426.2166,N,08057.3914,W,2.3,121.3,150615,6.1,"
"##MN-00 00 08 0720 02080 6073 463095 208458 202"
"166.554491"
"$GPRMC,131825,A,2426.2152,N,08057.3892,W,2.3,120.7,150615,6.1,"
"##MN-00 00 08 0721 02085 6072 463381 208530 202"
"166.554537"
"$GPRMC,131829,A,2426.2141,N,08057.3874,W,2.3,121.0,150615,6.1,"
"##MN-00 00 08 0722 02090 6072 463686 208629 202"
"166.554583"
"$GPRMC,131833,A,2426.2124,N,08057.3843,W,2.3,121.1,150615,6.1,"
"##MN-00 00 08 0722 02097 6071 464108 208709 202"
"166.55463"
"$GPRMC,131837,A,2426.2110,N,08057.3818,W,2.3,121.7,150615,6.1,"
"##MN-00 00 08 0723 02102 6070 464922 208907 202"
"166.554676"
"$GPRMC,131841,A,2426.2096,N,08057.3793,W,2.3,121.9,150615,6.1,"
"##MN-00 00 08 0723 02111 6070 466772 209261 202"
"166.554722"
"$GPRMC,131845,A,2426.2083,N,08057.3768,W,2.3,122.3,150615,6.1,"
"##MN-00 00 08 0724 02112 6069 468229 209560 202"
"166.554769"
"$GPRMC,131849,A,2426.2069,N,08057.3748,W,2.3,122.6,150615,6.1,"
"##MN-00 00 08 0725 02119 6068 469210 209771 202"
"166.554815"
"$GPRMC,131853,A,2426.2056,N,08057.3726,W,2.3,122.3,150615,6.1,"
"##MN-00 00 08 0725 02123 6067 470491 210024 202"
"166.554861"
"$GPRMC,131857,A,2426.2041,N,08057.3702,W,2.3,122.2,150615,6.1,"
"##MN-00 00 08 0726 02127 6067 471063 210155 202"
"166.554907"
"$GPRMC,131901,A,2426.2027,N,08057.3679,W,2.4,122.2,150615,6.1,"
"##MN-00 00 08 0726 02130 6065 471496 210222 202"
"166.554954"
"$GPRMC,131905,A,2426.2012,N,08057.3659,W,2.4,122.0,150615,6.1,"
"##MN-00 00 08 0727 02136 6064 471779 210279 202"
"166.555"
"$GPRMC,131909,A,2426.1998,N,08057.3635,W,2.5,121.3,150615,6.1,"
"##MN-00 00 08 0727 02140 6063 472060 210344 202"
"166.555046"
"$GPRMC,131913,A,2426.1983,N,08057.3610,W,2.5,120.7,150615,6.1,"
"##MN-00 00 08 0728 02146 6063 472244 210386 202"
"166.555093"
"$GPRMC,131917,A,2426.1968,N,08057.3583,W,2.5,120.3,150615,6.1,"
"##MN-00 00 08 0729 02147 6062 472397 210412 202"
"166.555139"
"$GPRMC,131921,A,2426.1954,N,08057.3555,W,2.5,120.5,150615,6.1,"
"##MN-00 00 08 0729 02150 6061 472977 210543 202"
"166.555185"
"$GPRMC,131925,A,2426.1940,N,08057.3527,W,2.5,121.2,150615,6.1,"
"##MN-00 00 08 0730 02155 6059 473333 210605 202"
"166.555231"
"$GPRMC,131929,A,2426.1926,N,08057.3501,W,2.5,121.3,150615,6.1,"
"##MN-00 00 08 0730 02160 6058 473562 210666 202"
"166.555278"
"$GPRMC,131933,A,2426.1911,N,08057.3476,W,2.4,122.5,150615,6.1,"
"##MN-00 00 07 0731 02168 6057 473947 210734 202"
"166.555324"
"$GPRMC,131937,A,2426.1895,N,08057.3452,W,2.4,122.9,150615,6.1,"
"##MN-00 00 07 0732 02173 6056 474354 210839 202"
"166.55537"
"$GPRMC,131941,A,2426.1882,N,08057.3424,W,2.4,122.0,150615,6.1,"
"##MN-00 00 07 0732 02178 6055 474701 210912 202"
"166.555417"
"$GPRMC,131945,A,2426.1867,N,08057.3398,W,2.5,121.3,150615,6.1,"
"##MN-00 00 07 0733 02183 6054 475528 211141 202"
"166.555463"
"$GPRMC,131949,A,2426.1853,N,08057.3376,W,2.5,121.5,150615,6.1,"
"##MN-00 00 07 0733 02188 6053 476804 211331 202"
"166.555509"
"$GPRMC,131953,A,2426.1838,N,08057.3352,W,2.5,121.5,150615,6.1,"
"##MN-00 00 07 0734 02197 6051 477653 211598 202"
"166.555556"
"$GPRMC,131957,A,2426.1823,N,08057.3327,W,2.5,121.5,150615,6.1,"
"##MN-00 00 07 0735 02201 6050 479441 211922 202"
"166.555602"
"$GPRMC,132001,A,2426.1808,N,08057.3299,W,2.5,121.1,150615,6.1,"
"##MN-00 00 07 0735 02209 6048 480399 212094 202"
"166.555648"
"$GPRMC,132005,A,2426.1794,N,08057.3272,W,2.5,121.2,150615,6.1,"
"##MN-00 00 07 0736 02212 6047 481532 212426 202"
"166.555694"
"$GPRMC,132009,A,2426.1778,N,08057.3245,W,2.5,121.2,150615,6.1,"
"##MN-00 00 07 0736 02221 6046 485732 213094 202"
"166.555741"
"$GPRMC,132013,A,2426.1765,N,08057.3219,W,2.5,121.2,150615,6.1,"
"##MN-00 00 07 0737 02229 6044 488862 213801 202"
"166.555787"
"$GPRMC,132017,A,2426.1750,N,08057.3193,W,2.5,120.6,150615,6.1,"
"##MN-00 00 07 0737 02236 6043 490359 214092 202"
"166.555833"
"$GPRMC,132021,A,2426.1736,N,08057.3166,W,2.5,120.5,150615,6.1,"
"##MN-00 00 08 0738 02243 6041 491399 214305 202"
"166.55588"
"$GPRMC,132025,A,2426.1722,N,08057.3138,W,2.5,120.5,150615,6.1,"
"##MN-00 00 08 0738 02252 6040 492052 214485 202"
"166.555926"
"$GPRMC,132029,A,2426.1708,N,08057.3109,W,2.5,120.7,150615,6.1,"
"##MN-00 00 08 0739 02256 6038 492833 214644 202"
"166.555972"
"$GPRMC,132033,A,2426.1693,N,08057.3082,W,2.5,121.5,150615,6.1,"
"##MN+00 00 08 0740 02259 6037 493944 214753 202"
"166.556019"
"$GPRMC,132037,A,2426.1676,N,08057.3053,W,2.5,121.8,150615,6.1,"
"##MN+00 00 08 0740 02268 6035 494486 214889 202"
"166.556065"
"$GPRMC,132041,A,2426.1661,N,08057.3025,W,2.6,121.1,150615,6.1,"
"##MN+00 00 08 0741 02274 6033 494999 214987 202"
"166.556111"
"$GPRMC,132045,A,2426.1644,N,08057.3000,W,2.5,122.0,150615,6.1,"
"##MN-00 00 08 0741 02276 6031 495424 215050 202"
"166.556169"
"$GPRMC,132049,A,2426.1628,N,08057.2975,W,2.5,123.1,150615,6.1,"
"##MN+00 00 08 0742 02278 6030 495712 215112 202"
"166.556215"
"$GPRMC,132053,A,2426.1613,N,08057.2950,W,2.5,124.4,150615,6.1,"
"##MN+00 00 08 0742 02279 6027 496031 215166 202"
"166.556262"
"$GPRMC,132057,A,2426.1596,N,08057.2925,W,2.5,125.1,150615,6.1,"
"##MN+00 00 07 0743 02283 6026 495996 215154 202"
"166.556308"
"#increment_net"
"$GPRMC,132101,A,2426.1582,N,08057.2900,W,2.5,125.4,150615,6.1,"
"##MN-00 00 07 0744 02282 6024 496102 215144 202"
"166.556354"
"$GPRMC,132105,A,2426.1566,N,08057.2875,W,2.5,124.7,150615,6.1,"
"##MN-00 00 29 0744 02282 6022 496373 215214 202"
"166.5564"
"$GPRMC,132109,A,2426.1550,N,08057.2852,W,2.4,125.1,150615,6.1,"
"##MN-00 00 29 0745 02283 6020 496351 215239 202"
"166.556447"
"$GPRMC,132113,A,2426.1535,N,08057.2826,W,2.4,125.1,150615,6.1,"
"##MN-00 00 29 0745 02285 6018 496605 215275 202"
"166.556493"
"$GPRMC,132117,A,2426.1519,N,08057.2805,W,2.3,125.5,150615,6.1,"
"##MN-00 00 06 0746 02286 6016 496714 215295 202"
"166.556539"
"$GPRMC,132121,A,2426.1507,N,08057.2783,W,2.3,125.4,150615,6.1,"
"##MN-00 00 07 0746 02291 6013 496924 215331 202"
"166.556586"
"$GPRMC,132125,A,2426.1494,N,08057.2760,W,2.3,124.7,150615,6.1,"
"##MN-00 00 07 0747 02293 6011 497154 215388 202"
"166.556632"
"$GPRMC,132129,A,2426.1481,N,08057.2738,W,2.2,124.6,150615,6.1,"
"##MN-00 00 07 0747 02295 6009 497569 215466 202"
"166.556678"
"$GPRMC,132133,A,2426.1469,N,08057.2711,W,2.2,124.5,150615,6.1,"
"##MN-00 00 07 0748 02297 6007 498538 215689 202"
"166.556725"
"$GPRMC,132137,A,2426.1454,N,08057.2690,W,2.2,125.0,150615,6.1,"
"##MN-00 00 07 0748 02297 6004 499130 215784 202"
"166.556771"
"$GPRMC,132141,A,2426.1440,N,08057.2665,W,2.2,125.5,150615,6.1,"
"##MN-00 00 07 0749 02303 6002 499882 216011 202"
"166.556817"
"$GPRMC,132145,A,2426.1426,N,08057.2643,W,2.2,125.3,150615,6.1,"
"##MN-00 00 07 0750 02305 6000 501195 216279 202"
"166.556863"
"$GPRMC,132149,A,2426.1413,N,08057.2620,W,2.2,125.0,150615,6.1,"
"##MN-00 00 07 0750 02307 5997 501729 216320 202"
"166.55691"
"$GPRMC,132154,A,2426.1396,N,08057.2592,W,2.1,125.1,150615,6.1,"
"##MN-00 00 07 0751 02305 5994 502191 216349 202"
"166.556956"
"$GPRMC,132158,A,2426.1382,N,08057.2567,W,2.2,125.0,150615,6.1,"
"##MN-00 00 07 0752 02307 5992 502507 216407 202"
"166.557002"
"$GPRMC,132202,A,2426.1368,N,08057.2548,W,2.2,124.7,150615,6.1,"
"##MN-00 00 07 0752 02309 5989 502526 216409 202"
"166.557049"
"$GPRMC,132206,A,2426.1354,N,08057.2527,W,2.2,125.0,150615,6.1,"
"##MN-00 00 07 0753 02313 5987 502535 216407 202"
"166.557095"
"$GPRMC,132210,A,2426.1340,N,08057.2503,W,2.2,124.4,150615,6.1,"
"##MN-00 00 07 0753 02311 5984 502571 216430 202"
"166.557141"
"$GPRMC,132214,A,2426.1325,N,08057.2485,W,2.2,123.8,150615,6.1,"
"##MN-00 00 08 0754 02311 5981 502590 216429 202"
"166.557188"
"$GPRMC,132217,A,2426.1317,N,08057.2468,W,2.3,124.1,150615,6.1,"
"##MN-00 00 28 0755 02309 5979 502539 216429 202"
"166.557234"
"$GPRMC,132222,A,2426.1299,N,08057.2439,W,2.2,123.5,150615,6.1,"
"##MN-00 00 29 0755 02304 5976 501934 216309 202"
"166.55728"
"$GPRMC,132226,A,2426.1284,N,08057.2415,W,2.2,123.9,150615,6.1,"
"##MN-00 00 29 0756 02302 5974 500438 216050 202"
"166.557326"
"$GPRMC,132230,A,2426.1270,N,08057.2392,W,2.2,124.7,150615,6.1,"
"##MN-00 00 29 0756 02299 5971 498438 215665 202"
"166.557373"
"$GPRMC,132234,A,2426.1256,N,08057.2367,W,2.2,124.2,150615,6.1,"
"##MN-00 00 29 0757 02295 5968 497699 215486 202"
"166.557419"
"$GPRMC,132238,A,2426.1243,N,08057.2346,W,2.2,123.2,150615,6.1,"
"##MN-00 00 29 0758 02293 5965 497328 215407 202"
"166.557465"
"$GPRMC,132242,A,2426.1231,N,08057.2327,W,2.2,122.8,150615,6.1,"
"##MN-00 00 29 0758 02291 5962 497139 215352 202"
"166.557512"
"$GPRMC,132246,A,2426.1218,N,08057.2306,W,2.1,123.0,150615,6.1,"
"##MN-00 00 29 0759 02289 5960 496984 215333 202"
"166.557558"
"$GPRMC,132250,A,2426.1205,N,08057.2284,W,2.1,123.1,150615,6.1,"
"##MN-00 00 29 0759 02288 5957 496721 215287 202"
"166.557604"
"$GPRMC,132254,A,2426.1194,N,08057.2264,W,2.1,122.6,150615,6.1,"
"##MN-00 00 29 0760 02283 5954 496538 215270 202"
"166.55765"
"$GPRMC,132258,A,2426.1180,N,08057.2246,W,2.1,122.1,150615,6.1,"
"##MN-00 00 29 0761 02280 5951 496446 215257 202"
"166.557697"
"$GPRMC,132302,A,2426.1169,N,08057.2224,W,2.2,121.8,150615,6.1,"
"##MN-00 00 29 0761 02278 5948 496319 215231 202"
"166.557743"
"$GPRMC,132306,A,2426.1156,N,08057.2201,W,2.1,122.1,150615,6.1,"
"##MN-00 00 29 0761 02274 5945 496269 215231 202"
"166.557789"
"$GPRMC,132310,A,2426.1142,N,08057.2176,W,2.2,122.6,150615,6.1,"
"##MN-00 00 30 0762 02274 5942 496033 215183 202"
"166.557836"
"$GPRMC,132314,A,2426.1129,N,08057.2147,W,2.1,123.0,150615,6.1,"
"##MN-00 00 30 0763 02269 5939 495716 215131 202"
"166.557882"
"$GPRMC,132318,A,2426.1117,N,08057.2121,W,2.1,122.7,150615,6.1,"
"##MN-00 00 30 0763 02267 5936 495568 215093 202"
"166.557928"
"$GPRMC,132322,A,2426.1104,N,08057.2099,W,2.1,122.8,150615,6.1,"
"##MN-00 00 30 0764 02261 5933 495352 215054 202"
"166.557975"
"$GPRMC,132326,A,2426.1093,N,08057.2077,W,2.2,123.2,150615,6.1,"
"##MN-00 00 30 0764 02262 5930 495052 215010 202"
"166.558021"
"$GPRMC,132330,A,2426.1080,N,08057.2055,W,2.2,123.0,150615,6.1,"
"##MN-00 00 30 0765 02256 5927 494742 214981 202"
"166.558067"
"$GPRMC,132334,A,2426.1068,N,08057.2032,W,2.2,123.8,150615,6.1,"
"##MN-00 00 30 0765 02253 5924 494427 214928 202"
"166.558113"
"$GPRMC,132338,A,2426.1055,N,08057.2009,W,2.2,124.9,150615,6.1,"
"##MN-00 00 30 0766 02248 5921 494176 214892 202"
"166.55816"
"$GPRMC,132342,A,2426.1042,N,08057.1991,W,2.1,125.4,150615,6.1,"
"##MN-00 00 30 0766 02248 5919 493790 214829 202"
"166.558206"
"$GPRMC,132346,A,2426.1026,N,08057.1973,W,2.1,126.2,150615,6.1,"
"##MN-00 00 30 0767 02246 5916 493674 214821 202"
"166.558252"
"$GPRMC,132350,A,2426.1014,N,08057.1952,W,2.1,126.6,150615,6.1,"
"##MN-00 00 30 0767 02241 5913 493546 214788 202"
"166.558299"
"$GPRMC,132354,A,2426.1003,N,08057.1934,W,2.1,126.3,150615,6.1,"
"##MN-00 00 07 0768 02241 5910 493228 214735 202"
"166.558345"
"$GPRMC,132358,A,2426.0993,N,08057.1915,W,2.1,126.2,150615,6.1,"
"##MN-00 00 07 0769 02235 5907 492986 214714 202"
"166.558391"
"$GPRMC,132402,A,2426.0982,N,08057.1893,W,2.1,125.5,150615,6.1,"
"##MN-00 00 07 0769 02232 5904 492936 214688 202"
"166.558438"
"$GPRMC,132406,A,2426.0970,N,08057.1878,W,2.0,125.3,150615,6.1,"
"##MN-00 00 09 0770 02231 5901 492717 214619 202"
"166.558484"
"$GPRMC,132410,A,2426.0954,N,08057.1858,W,2.0,124.8,150615,6.1,"
"##MN-00 00 09 0771 02226 5899 492249 214547 202"
"166.55853"
"$GPRMC,132414,A,2426.0939,N,08057.1835,W,2.1,124.1,150615,6.1,"
"##MN-00 00 09 0771 02224 5895 491475 214408 202"
"166.558576"
"$GPRMC,132418,A,2426.0925,N,08057.1813,W,2.1,124.9,150615,6.1,"
"##MN-00 00 29 0772 02218 5893 489664 214039 202"
"166.558623"
"$GPRMC,132422,A,2426.0911,N,08057.1792,W,2.1,125.6,150615,6.1,"
"##MN-00 00 29 0772 02215 5890 488028 213845 202"
"166.558669"
"$GPRMC,132426,A,2426.0896,N,08057.1772,W,2.1,126.1,150615,6.1,"
"##MN-00 00 07 0773 02210 5887 487596 213780 202"
"166.558715"
"$GPRMC,132430,A,2426.0880,N,08057.1754,W,2.1,125.9,150615,6.1,"
"##MN-00 00 09 0774 02206 5884 486887 213533 202"
"166.558762"
"$GPRMC,132434,A,2426.0865,N,08057.1732,W,2.1,126.3,150615,6.1,"
"##MN-00 00 29 0774 02203 5882 484903 213076 202"
"166.558808"
"$GPRMC,132438,A,2426.0851,N,08057.1709,W,2.1,126.3,150615,6.1,"
"##MN-00 00 29 0775 02200 5879 482565 212643 202"
"166.558854"
"$GPRMC,132442,A,2426.0838,N,08057.1693,W,2.1,126.1,150615,6.1,"
"##MN-00 00 29 0776 02191 5876 481030 212251 202"
"166.5589"
"$GPRMC,132446,A,2426.0822,N,08057.1674,W,2.1,126.4,150615,6.1,"
"##MN-00 00 30 0776 02191 5874 478648 211802 202"
"166.558947"
"$GPRMC,132450,A,2426.0807,N,08057.1652,W,2.2,126.5,150615,6.1,"
"##MN-00 00 07 0777 02187 5870 477813 211600 202"
"166.558993"
"$GPRMC,132454,A,2426.0793,N,08057.1629,W,2.1,126.5,150615,6.1,"
"##MN-00 00 08 0777 02183 5868 477511 211559 202"
"166.559039"
"$GPRMC,132458,A,2426.0779,N,08057.1610,W,2.1,126.9,150615,6.1,"
"##MN-00 00 29 0778 02176 5865 477198 211486 202"
"166.559086"
"$GPRMC,132502,A,2426.0764,N,08057.1589,W,2.0,126.9,150615,6.1,"
"##MN-00 00 29 0779 02171 5863 476816 211382 202"
"166.559132"
"$GPRMC,132506,A,2426.0750,N,08057.1569,W,2.1,127.3,150615,6.1,"
"##MN-00 00 09 0779 02167 5860 476498 211287 202"
"166.559178"
"$GPRMC,132510,A,2426.0736,N,08057.1551,W,2.0,126.6,150615,6.1,"
"##MN-00 00 29 0780 02162 5858 475760 211158 202"
"166.559225"
"$GPRMC,132514,A,2426.0723,N,08057.1531,W,2.1,125.5,150615,6.1,"
"##MN-00 00 07 0781 02156 5855 473860 210786 202"
"166.559271"
"$GPRMC,132518,A,2426.0708,N,08057.1511,W,2.1,126.1,150615,6.1,"
"##MN-00 00 29 0781 02147 5852 472551 210531 202"
"166.559317"
"$GPRMC,132522,A,2426.0695,N,08057.1494,W,2.0,128.7,150615,6.1,"
"##MN-00 00 07 0782 02145 5850 472050 210407 202"
"166.559363"
"$GPRMC,132526,A,2426.0681,N,08057.1473,W,1.9,129.8,150615,6.1,"
"##MN-00 00 12 0783 02141 5848 471626 210301 202"
"166.559421"
"$GPRMC,132530,A,2426.0667,N,08057.1455,W,1.9,130.0,150615,6.1,"
"##MN-00 00 26 0783 02133 5846 470782 210126 202"
"166.559468"
"$GPRMC,132534,A,2426.0653,N,08057.1437,W,1.9,129.6,150615,6.1,"
"##MN-00 00 08 0784 02125 5843 469772 209937 202"
"166.559514"
"$GPRMC,132538,A,2426.0638,N,08057.1417,W,2.0,129.7,150615,6.1,"
"##MN-00 00 07 0785 02115 5840 468312 209637 202"
"166.55956"
"$GPRMC,132542,A,2426.0627,N,08057.1398,W,2.1,130.1,150615,6.1,"
"##MN-00 00 07 0785 02109 5838 465976 209110 202"
"166.559606"
"$GPRMC,132546,A,2426.0611,N,08057.1378,W,2.1,129.7,150615,6.1,"
"##MN-00 00 07 0786 02100 5836 465354 209020 202"
"166.559653"
"$GPRMC,132550,A,2426.0598,N,08057.1362,W,2.1,130.1,150615,6.1,"
"##MN+00 00 07 0787 02095 5834 464688 208843 202"
"166.559699"
"$GPRMC,132554,A,2426.0581,N,08057.1345,W,2.0,131.6,150615,6.1,"
"##MN+00 00 07 0788 02088 5832 463751 208697 202"
"166.559745"
"$GPRMC,132558,A,2426.0566,N,08057.1327,W,2.0,132.2,150615,6.1,"
"##MN+00 00 07 0788 02081 5830 462781 208489 202"
"166.559792"
"$GPRMC,132602,A,2426.0551,N,08057.1308,W,2.1,132.0,150615,6.1,"
"##MN+00 00 07 0789 02070 5828 461925 208337 202"
"166.559838"
"$GPRMC,132606,A,2426.0533,N,08057.1290,W,2.1,132.3,150615,6.1,"
"##MN+00 00 07 0790 02066 5826 460811 208056 202"
"166.559884"
"$GPRMC,132610,A,2426.0516,N,08057.1273,W,2.1,132.4,150615,6.1,"
"##MN+00 00 07 0791 02061 5824 459330 207737 202"
"166.559931"
"$GPRMC,132614,A,2426.0501,N,08057.1255,W,2.1,132.2,150615,6.1,"
"##MN-00 00 07 0791 02049 5822 458067 207467 202"
"166.559977"
"#increment_net"
"$GPRMC,132618,A,2426.0486,N,08057.1236,W,2.2,132.2,150615,6.1,"
"##MN-00 00 07 0792 02042 5820 457139 207331 202"
"166.560023"
"$GPRMC,132623,A,2426.0464,N,08057.1211,W,2.2,132.8,150615,6.1,"
"##MN-00 00 07 0793 02034 5818 456434 207156 202"
"166.560069"
"$GPRMC,132627,A,2426.0450,N,08057.1192,W,2.2,132.8,150615,6.1,"
"##MN-00 00 07 0794 02026 5817 455969 207043 201"
"166.560116"
"$GPRMC,132631,A,2426.0432,N,08057.1172,W,2.2,133.7,150615,6.1,"
"##MN-00 00 07 0794 02018 5815 455687 206946 202"
"166.560162"
"$GPRMC,132634,A,2426.0419,N,08057.1159,W,2.1,133.4,150615,6.1,"
"##MN-00 00 07 0795 02012 5814 455372 206864 202"
"166.560208"
"$GPRMC,132638,A,2426.0401,N,08057.1139,W,2.2,133.7,150615,6.1,"
"##MN-00 00 07 0796 02005 5812 454810 206743 202"
"166.560255"
"$GPRMC,132643,A,2426.0381,N,08057.1115,W,2.1,134.2,150615,6.1,"
"##MN-00 00 07 0797 01999 5811 454117 206524 202"
"166.560301"
"$GPRMC,132647,A,2426.0368,N,08057.1094,W,2.1,134.5,150615,6.1,"
"##MN-00 00 07 0798 01988 5809 452847 206328 202"
"166.560347"
"$GPRMC,132651,A,2426.0351,N,08057.1075,W,2.1,135.0,150615,6.1,"
"##MN-00 00 07 0798 01983 5808 452307 206244 202"
"166.560394"
"$GPRMC,132655,A,2426.0338,N,08057.1057,W,2.1,135.3,150615,6.1,"
"##MN-00 00 07 0799 01977 5807 451457 206099 202"
"166.56044"
"$GPRMC,132659,A,2426.0320,N,08057.1040,W,2.1,135.3,150615,6.1,"
"##MN-00 00 07 0800 01971 5805 450864 205954 202"
"166.560486"
"$GPRMC,132703,A,2426.0302,N,08057.1021,W,2.1,135.3,150615,6.1,"
"##MN-00 00 07 0801 01965 5804 449929 205772 202"
"166.560532"
"$GPRMC,132707,A,2426.0284,N,08057.1004,W,2.1,134.8,150615,6.1,"
"##MN-00 00 07 0802 01960 5803 449239 205639 202"
"166.560579"
"$GPRMC,132711,A,2426.0270,N,08057.0987,W,2.2,134.6,150615,6.1,"
"##MN-00 00 07 0802 01957 5802 448770 205536 202"
"166.560625"
"$GPRMC,132715,A,2426.0251,N,08057.0968,W,2.2,135.1,150615,6.1,"
"##MN-00 00 07 0803 01952 5801 448495 205467 202"
"166.560671"
"$GPRMC,132719,A,2426.0237,N,08057.0950,W,2.1,134.8,150615,6.1,"
"##MN-00 00 07 0804 01947 5800 448346 205444 202"
"166.560718"
"$GPRMC,132723,A,2426.0224,N,08057.0932,W,2.0,134.8,150615,6.1,"
"##MN-00 00 07 0805 01943 5800 448224 205431 202"
"166.560764"
"$GPRMC,132727,A,2426.0208,N,08057.0915,W,2.1,134.4,150615,6.1,"
"##MN-00 00 07 0806 01940 5798 448147 205404 202"
"166.56081"
"$GPRMC,132731,A,2426.0192,N,08057.0898,W,2.1,134.8,150615,6.1,"
"##MN-00 00 07 0806 01937 5798 448074 205387 202"
"166.560857"
"$GPRMC,132735,A,2426.0176,N,08057.0879,W,2.1,135.4,150615,6.1,"
"##MN-00 00 07 0807 01934 5796 448057 205381 201"
"166.560903"
"$GPRMC,132739,A,2426.0159,N,08057.0861,W,2.1,134.9,150615,6.1,"
"##MN-00 00 07 0808 01932 5796 448050 205381 202"
"166.560949"
"$GPRMC,132743,A,2426.0143,N,08057.0845,W,2.1,134.6,150615,6.1,"
"##MN-00 00 07 0808 01929 5795 447953 205359 202"
"166.560995"
"$GPRMC,132747,A,2426.0126,N,08057.0827,W,2.0,133.7,150615,6.1,"
"##MN-00 00 06 0809 01926 5795 447842 205349 202"
"166.561042"
"$GPRMC,132751,A,2426.0111,N,08057.0810,W,2.1,132.8,150615,6.1,"
"##MN-00 00 07 0810 01926 5794 447803 205340 201"
"166.561088"
"$GPRMC,132755,A,2426.0098,N,08057.0795,W,2.0,132.4,150615,6.1,"
"##MN-00 00 07 0810 01921 5794 447703 205327 202"
"166.561134"
"$GPRMC,132759,A,2426.0085,N,08057.0777,W,1.9,132.1,150615,6.1,"
"##MN-00 00 06 0811 01922 5793 447634 205323 201"
"166.561181"
"$GPRMC,132803,A,2426.0069,N,08057.0759,W,2.0,132.0,150615,6.1,"
"##MN-00 00 07 0812 01920 5792 447686 205322 202"
"166.561227"
"$GPRMC,132807,A,2426.0053,N,08057.0736,W,2.1,130.9,150615,6.1,"
"##MN-00 00 07 0813 01918 5792 447749 205330 201"
"166.561273"
"$GPRMC,132811,A,2426.0038,N,08057.0719,W,2.2,130.3,150615,6.1,"
"##MN-00 00 07 0814 01918 5791 447779 205330 201"
"166.561319"
"$GPRMC,132815,A,2426.0021,N,08057.0698,W,2.2,129.3,150615,6.1,"
"##MN-00 00 07 0814 01914 5791 447726 205323 202"
"166.561366"
"$GPRMC,132819,A,2426.0006,N,08057.0680,W,2.2,128.7,150615,6.1,"
"##MN-00 00 07 0815 01915 5791 447648 205314 202"
"166.561412"
"$GPRMC,132823,A,2425.9992,N,08057.0657,W,2.2,127.9,150615,6.1,"
"##MN-00 00 07 0816 01914 5790 447632 205313 202"
"166.561458"
"$GPRMC,132827,A,2425.9978,N,08057.0634,W,2.2,127.5,150615,6.1,"
"##MN-00 00 06 0816 01911 5790 447605 205311 201"
"166.561505"
"$GPRMC,132831,A,2425.9963,N,08057.0614,W,2.2,126.8,150615,6.1,"
"##MN+00 00 07 0817 01911 5789 447554 205307 201"
"166.561551"
"$GPRMC,132835,A,2425.9948,N,08057.0591,W,2.3,126.1,150615,6.1,"
"##MN+00 00 07 0818 01906 5789 447557 205308 202"
"166.561597"
"$GPRMC,132839,A,2425.9930,N,08057.0568,W,2.3,126.9,150615,6.1,"
"##MN+00 00 07 0819 01904 5789 447488 205298 201"
"166.561644"
"$GPRMC,132843,A,2425.9915,N,08057.0545,W,2.4,126.9,150615,6.1,"
"##MN+00 00 07 0819 01898 5789 447504 205302 201"
"166.56169"
"$GPRMC,132847,A,2425.9898,N,08057.0524,W,2.4,126.9,150615,6.1,"
"##MN+00 00 07 0820 01898 5789 447575 205306 201"
"166.561736"
"$GPRMC,132851,A,2425.9883,N,08057.0503,W,2.4,126.6,150615,6.1,"
"##MN+00 00 06 0821 01898 5789 447555 205303 202"
"166.561782"
"#increment_net"
"$GPRMC,132855,A,2425.9866,N,08057.0483,W,2.4,128.0,150615,6.1,"
"##MN-00 00 06 0822 01892 5788 447520 205300 201"
"166.561829"
"$GPRMC,132859,A,2425.9851,N,08057.0461,W,2.3,128.0,150615,6.1,"
"##MN-00 00 06 0822 01892 5788 447488 205298 202"
"166.561875"
"$GPRMC,132903,A,2425.9837,N,08057.0439,W,2.3,128.2,150615,6.1,"
"##MN-00 00 06 0823 01888 5788 447469 205298 202"
"166.561921"
"$GPRMC,132907,A,2425.9821,N,08057.0415,W,2.3,128.8,150615,6.1,"
"##MN-00 00 06 0824 01889 5788 447435 205295 202"
"166.561968"
"$GPRMC,132911,A,2425.9807,N,08057.0395,W,2.3,128.3,150615,6.1,"
"##MN-00 00 06 0825 01886 5788 447377 205293 202"
"166.562014"
"$GPRMC,132915,A,2425.9789,N,08057.0370,W,2.3,127.7,150615,6.1,"
"##MN-00 00 07 0825 01884 5788 447328 205289 202"
"166.56206"
"$GPRMC,132919,A,2425.9773,N,08057.0345,W,2.3,127.4,150615,6.1,"
"##MN-00 00 06 0826 01881 5788 447272 205287 202"
"166.562106"
"$GPRMC,132923,A,2425.9758,N,08057.0321,W,2.4,126.6,150615,6.1,"
"##MN-00 00 06 0827 01884 5788 447247 205285 202"
"166.562153"
"$GPRMC,132927,A,2425.9743,N,08057.0296,W,2.4,125.5,150615,6.1,"
"##MN-00 00 06 0827 01884 5788 447193 205284 202"
"166.562199"
"$GPRMC,132931,A,2425.9727,N,08057.0273,W,2.4,125.3,150615,6.1,"
"##MN-00 00 06 0828 01883 5788 447155 205284 202"
"166.562245"
"$GPRMC,132935,A,2425.9713,N,08057.0251,W,2.4,125.2,150615,6.1,"
"##MN-00 00 06 0828 01887 5787 447117 205282 202"
"166.562292"
"$GPRMC,132939,A,2425.9693,N,08057.0226,W,2.3,125.9,150615,6.1,"
"##MN-00 00 06 0829 01890 5788 447149 205283 202"
"166.562338"
"$GPRMC,132943,A,2425.9679,N,08057.0205,W,2.3,125.9,150615,6.1,"
"##MN-00 00 07 0830 01888 5788 447226 205283 202"
"166.562384"
"$GPRMC,132947,A,2425.9664,N,08057.0182,W,2.3,125.8,150615,6.1,"
"##MN-00 00 07 0830 01888 5788 447375 205291 201"
"166.562431"
"$GPRMC,132951,A,2425.9648,N,08057.0160,W,2.3,125.6,150615,6.1,"
"##MN-00 00 07 0831 01890 5788 447482 205295 201"
"166.562477"
"$GPRMC,132955,A,2425.9637,N,08057.0143,W,2.3,125.4,150615,6.1,"
"##MN-00 00 07 0832 01889 5788 447481 205295 201"
"166.562523"
"$GPRMC,132959,A,2425.9619,N,08057.0114,W,2.3,126.2,150615,6.1,"
"##MN-00 00 07 0832 01889 5788 447444 205292 201"
"166.562569"
"$GPRMC,133003,A,2425.9603,N,08057.0091,W,2.3,125.8,150615,6.1,"
"##MN-00 00 07 0833 01887 5788 447375 205289 201"
"166.562627"
"$GPRMC,133007,A,2425.9587,N,08057.0069,W,2.4,127.0,150615,6.1,"
"##MN-00 00 07 0834 01887 5788 447287 205286 202"
"166.562674"
"$GPRMC,133011,A,2425.9570,N,08057.0045,W,2.4,127.2,150615,6.1,"
"##MN-00 00 06 0835 01884 5788 447221 205286 201"
"166.56272"
"$GPRMC,133015,A,2425.9554,N,08057.0021,W,2.4,127.5,150615,6.1,"
"##MN-00 00 06 0836 01880 5788 447144 205282 202"
"166.562766"
"$GPRMC,133019,A,2425.9537,N,08056.9996,W,2.4,127.7,150615,6.1,"
"##MN-00 00 06 0836 01878 5789 447055 205283 201"
"166.562812"
"$GPRMC,133023,A,2425.9521,N,08056.9971,W,2.4,127.7,150615,6.1,"
"##MN-00 00 06 0837 01874 5789 447008 205286 201"
"166.562859"
"$GPRMC,133027,A,2425.9504,N,08056.9945,W,2.5,127.6,150615,6.1,"
"##MN-00 00 06 0838 01872 5789 446981 205289 202"
"166.562905"
"$GPRMC,133031,A,2425.9486,N,08056.9919,W,2.5,126.9,150615,6.1,"
"##MN-00 00 06 0839 01870 5789 446961 205288 201"
"166.562951"
"$GPRMC,133035,A,2425.9471,N,08056.9896,W,2.5,126.1,150615,6.1,"
"##MN-00 00 07 0839 01868 5789 446962 205286 202"
"166.562998"
"$GPRMC,133039,A,2425.9454,N,08056.9870,W,2.5,126.3,150615,6.1,"
"##MN-00 00 06 0840 01861 5789 446960 205287 201"
"166.563044"
"$GPRMC,133043,A,2425.9437,N,08056.9842,W,2.5,126.2,150615,6.1,"
"##MN-00 00 06 0841 01859 5790 446978 205286 201"
"166.56309"
"$GPRMC,133047,A,2425.9420,N,08056.9815,W,2.6,125.1,150615,6.1,"
"##MN-00 00 06 0842 01860 5790 447016 205282 201"
"166.563137"
"$GPRMC,133051,A,2425.9402,N,08056.9788,W,2.6,124.5,150615,6.1,"
"##MN-00 00 06 0842 01857 5790 446994 205285 201"
"166.563183"
"$GPRMC,133055,A,2425.9386,N,08056.9762,W,2.5,124.3,150615,6.1,"
"##MN-00 00 06 0843 01855 5790 446969 205287 201"
"166.563229"
"$GPRMC,133100,A,2425.9366,N,08056.9729,W,2.5,123.7,150615,6.1,"
"##MN-00 00 06 0844 01854 5791 446953 205289 201"
"166.563275"
"$GPRMC,133103,A,2425.9355,N,08056.9710,W,2.5,123.8,150615,6.1,"
"##MN-00 00 06 0844 01854 5791 446950 205293 201"
"166.563322"
"$GPRMC,133107,A,2425.9338,N,08056.9685,W,2.4,123.3,150615,6.1,"
"##MN-00 00 06 0845 01856 5791 446948 205294 201"
"166.563368"
"$GPRMC,133112,A,2425.9319,N,08056.9652,W,2.5,123.6,150615,6.1,"
"##MN-00 00 07 0846 01855 5791 446921 205299 201"
"166.563414"
"$GPRMC,133116,A,2425.9303,N,08056.9625,W,2.5,124.0,150615,6.1,"
"##MN-00 00 07 0847 01853 5791 446899 205307 201"
"166.563461"
"$GPRMC,133120,A,2425.9290,N,08056.9601,W,2.5,123.9,150615,6.1,"
"##MN-00 00 07 0847 01850 5791 446874 205313 202"
"166.563507"
"$GPRMC,133124,A,2425.9274,N,08056.9575,W,2.5,123.6,150615,6.1,"
"##MN-00 00 07 0848 01854 5792 446868 205316 201"
"166.563553"
"$GPRMC,133128,A,2425.9260,N,08056.9549,W,2.4,123.0,150615,6.1,"
"##MN-00 00 07 0849 01852 5792 446863 205320 201"
"166.5636"
"$GPRMC,133132,A,2425.9247,N,08056.9524,W,2.4,122.7,150615,6.1,"
"##MN-00 00 06 0849 01850 5792 446863 205324 201"
"166.563646"
"$GPRMC,133136,A,2425.9231,N,08056.9499,W,2.4,123.5,150615,6.1,"
"##MN-00 00 07 0850 01849 5793 446872 205319 201"
"166.563692"
"$GPRMC,133140,A,2425.9214,N,08056.9474,W,2.4,124.4,150615,6.1,"
"##MN-00 00 06 0851 01845 5793 446881 205311 201"
"166.563738"
"$GPRMC,133144,A,2425.9197,N,08056.9451,W,2.5,124.5,150615,6.1,"
"##MN-00 00 06 0852 01844 5793 446892 205306 201"
"166.563785"
"$GPRMC,133148,A,2425.9180,N,08056.9427,W,2.5,124.3,150615,6.1,"
"##MN-00 00 06 0852 01843 5794 446905 205301 201"
"166.563831"
"$GPRMC,133152,A,2425.9164,N,08056.9403,W,2.5,123.8,150615,6.1,"
"##MN-00 00 06 0853 01843 5794 446915 205297 201"
"166.563877"
"$GPRMC,133156,A,2425.9148,N,08056.9378,W,2.5,122.9,150615,6.1,"
"##MN-00 00 07 0854 01843 5794 446947 205292 201"
"166.563924"
"$GPRMC,133200,A,2425.9135,N,08056.9353,W,2.4,122.2,150615,6.1,"
"##MN-00 00 06 0854 01843 5794 446961 205291 202"
"166.56397"
"$GPRMC,133204,A,2425.9120,N,08056.9328,W,2.3,121.4,150615,6.1,"
"##MN-00 00 06 0855 01842 5794 446989 205288 201"
"166.564016"
"$GPRMC,133208,A,2425.9108,N,08056.9303,W,2.3,121.4,150615,6.1,"
"##MN-00 00 06 0856 01840 5795 446996 205287 201"
"166.564063"
"$GPRMC,133212,A,2425.9095,N,08056.9280,W,2.2,121.3,150615,6.1,"
"##MN-00 00 06 0856 01840 5795 446954 205297 201"
"166.564109"
"$GPRMC,133216,A,2425.9081,N,08056.9256,W,2.2,121.6,150615,6.1,"
"##MN-00 00 06 0857 01835 5795 446915 205318 201"
"166.564155"
"$GPRMC,133220,A,2425.9066,N,08056.9231,W,2.3,122.2,150615,6.1,"
"##MN-00 00 06 0858 01831 5796 446905 205349 201"
"166.564201"
"$GPRMC,133224,A,2425.9050,N,08056.9205,W,2.4,122.7,150615,6.1,"
"##MN-00 00 06 0858 01829 5796 446897 205355 201"
"166.564248"
"$GPRMC,133228,A,2425.9035,N,08056.9180,W,2.4,122.5,150615,6.1,"
"##MN-00 00 06 0859 01826 5797 446898 205357 201"
"166.564294"
"$GPRMC,133232,A,2425.9021,N,08056.9153,W,2.4,122.1,150615,6.1,"
"##MN-00 00 06 0860 01825 5797 446901 205359 201"
"166.56434"
"$GPRMC,133236,A,2425.9005,N,08056.9127,W,2.5,121.4,150615,6.1,"
"##MN-00 00 06 0860 01820 5797 446901 205360 201"
"166.564387"
"$GPRMC,133240,A,2425.8989,N,08056.9101,W,2.5,121.7,150615,6.1,"
"##MN-00 00 06 0861 01813 5797 446903 205360 201"
"166.564433"
"$GPRMC,133244,A,2425.8976,N,08056.9074,W,2.5,121.7,150615,6.1,"
"##MN-00 00 06 0862 01811 5798 446901 205361 201"
"166.564479"
"$GPRMC,133248,A,2425.8962,N,08056.9047,W,2.5,122.1,150615,6.1,"
"##MN-00 00 06 0862 01806 5798 446888 205358 201"
"166.564525"
"$GPRMC,133252,A,2425.8947,N,08056.9019,W,2.5,121.9,150615,6.1,"
"##MN-00 00 06 0863 01802 5799 446876 205356 201"
"166.564572"
"$GPRMC,133256,A,2425.8931,N,08056.8992,W,2.5,122.2,150615,6.1,"
"##MN-00 00 06 0864 01800 5799 446868 205354 201"
"166.564618"
"$GPRMC,133300,A,2425.8916,N,08056.8965,W,2.6,122.3,150615,6.1,"
"##MN-00 00 06 0865 01794 5799 446866 205354 201"
"166.564664"
"$GPRMC,133304,A,2425.8901,N,08056.8937,W,2.6,121.7,150615,6.1,"
"##MN-00 00 07 0865 01792 5800 446866 205355 201"
"166.564711"
"$GPRMC,133308,A,2425.8885,N,08056.8909,W,2.7,120.9,150615,6.1,"
"##MN-00 00 07 0866 01790 5800 446864 205355 201"
"166.564757"
"$GPRMC,133312,A,2425.8871,N,08056.8881,W,2.7,120.5,150615,6.1,"
"##MN-00 00 07 0867 01783 5800 446864 205355 201"
"166.564803"
"$GPRMC,133316,A,2425.8857,N,08056.8851,W,2.6,121.1,150615,6.1,"
"##MN-00 00 07 0868 01778 5800 446865 205356 201"
"166.56485"
"$GPRMC,133320,A,2425.8842,N,08056.8823,W,2.6,121.3,150615,6.1,"
"##MN-00 00 07 0868 01776 5801 446863 205357 201"
"166.564896"
"$GPRMC,133324,A,2425.8828,N,08056.8796,W,2.6,121.1,150615,6.1,"
"##MN-00 00 07 0869 01775 5801 446853 205355 201"
"166.564942"
"$GPRMC,133328,A,2425.8814,N,08056.8769,W,2.5,120.0,150615,6.1,"
"##MN-00 00 06 0870 01773 5802 446848 205354 201"
"166.564988"
"$GPRMC,133332,A,2425.8800,N,08056.8742,W,2.5,119.7,150615,6.1,"
"##MN-00 00 06 0870 01773 5802 446841 205353 201"
"166.565035"
"$GPRMC,133336,A,2425.8784,N,08056.8715,W,2.5,120.4,150615,6.1,"
"##MN-00 00 06 0871 01768 5802 446842 205354 201"
"166.565081"
"$GPRMC,133340,A,2425.8768,N,08056.8689,W,2.5,121.2,150615,6.1,"
"##MN-00 00 07 0872 01762 5802 446844 205354 202"
"166.565127"
"$GPRMC,133344,A,2425.8756,N,08056.8663,W,2.5,121.8,150615,6.1,"
"##MN-00 00 07 0872 01759 5803 446840 205354 201"
"166.565174"
"$GPRMC,133348,A,2425.8745,N,08056.8638,W,2.4,122.3,150615,6.1,"
"##MN-00 00 07 0873 01757 5803 446830 205356 201"
"166.56522"
"$GPRMC,133352,A,2425.8734,N,08056.8613,W,2.4,123.0,150615,6.1,"
"##MN-00 00 07 0873 01755 5804 446835 205362 201"
"166.565266"
"$GPRMC,133356,A,2425.8718,N,08056.8588,W,2.4,123.8,150615,6.1,"
"##MN-00 00 07 0874 01746 5804 446845 205370 201"
"166.565313"
"$GPRMC,133400,A,2425.8703,N,08056.8563,W,2.5,124.2,150615,6.1,"
"##MN-00 00 07 0875 01743 5804 446859 205377 201"
"166.565359"
"$GPRMC,133404,A,2425.8687,N,08056.8538,W,2.5,124.7,150615,6.1,"
"##MN-00 00 07 0875 01741 5805 446873 205386 201"
"166.565405"
"$GPRMC,133408,A,2425.8670,N,08056.8513,W,2.5,124.7,150615,6.1,"
"##MN-00 00 07 0876 01735 5806 446886 205393 201"
"166.565451"
"$GPRMC,133412,A,2425.8653,N,08056.8487,W,2.5,124.6,150615,6.1,"
"##MN-00 00 07 0877 01729 5806 446901 205400 201"
"166.565498"
"$GPRMC,133416,A,2425.8635,N,08056.8460,W,2.6,124.2,150615,6.1,"
"##MN-00 00 07 0878 01727 5806 446882 205405 201"
"166.565544"
"$GPRMC,133420,A,2425.8619,N,08056.8434,W,2.6,123.1,150615,6.1,"
"##MN-00 00 07 0878 01726 5807 446685 205373 201"
"166.56559"
"$GPRMC,133424,A,2425.8604,N,08056.8409,W,2.6,122.6,150615,6.1,"
"##MN+00 00 07 0879 01722 5807 446592 205361 201"
"166.565637"
"$GPRMC,133428,A,2425.8588,N,08056.8384,W,2.5,122.2,150615,6.1,"
"##MN+00 00 07 0880 01715 5807 446426 205335 201"
"166.565683"
"$GPRMC,133432,A,2425.8572,N,08056.8359,W,2.5,123.0,150615,6.1,"
"##MN+00 00 07 0880 01715 5808 446347 205322 201"
"166.565741"
"$GPRMC,133436,A,2425.8558,N,08056.8334,W,2.4,121.6,150615,6.1,"
"##MN-00 00 07 0881 01712 5808 446312 205319 201"
"166.565787"
"$GPRMC,133440,A,2425.8546,N,08056.8308,W,2.3,121.4,150615,6.1,"
"##MN+00 00 07 0882 01711 5809 446251 205305 201"
"166.565833"
"$GPRMC,133444,A,2425.8532,N,08056.8283,W,2.3,121.4,150615,6.1,"
"##MN+00 00 07 0882 01709 5809 446164 205289 201"
"166.56588"
"$GPRMC,133448,A,2425.8519,N,08056.8259,W,2.3,121.7,150615,6.1,"
"##MN+00 00 07 0883 01710 5810 446053 205267 201"
"166.565926"
"$GPRMC,133452,A,2425.8504,N,08056.8236,W,2.3,121.8,150615,6.1,"
"##MN-00 00 07 0883 01703 5810 446037 205270 201"
"166.565972"
"#increment_net"
"$GPRMC,133456,A,2425.8488,N,08056.8211,W,2.4,121.7,150615,6.1,"
"##MN-00 00 07 0884 01703 5811 446016 205264 201"
"166.566019"
"$GPRMC,133500,A,2425.8471,N,08056.8184,W,2.5,122.2,150615,6.1,"
"##MN-00 00 07 0885 01695 5811 446027 205264 201"
"166.566065"
"$GPRMC,133504,A,2425.8456,N,08056.8157,W,2.5,121.3,150615,6.1,"
"##MN-00 00 07 0886 01692 5811 446063 205273 201"
"166.566111"
"$GPRMC,133508,A,2425.8439,N,08056.8130,W,2.5,121.3,150615,6.1,"
"##MN-00 00 07 0886 01686 5812 445942 205244 201"
"166.566157"
"$GPRMC,133512,A,2425.8423,N,08056.8104,W,2.6,121.5,150615,6.1,"
"##MN-00 00 07 0887 01681 5812 445879 205234 201"
"166.566204"
"$GPRMC,133516,A,2425.8407,N,08056.8078,W,2.6,121.9,150615,6.1,"
"##MN-00 00 07 0888 01676 5813 445891 205236 201"
"166.56625"
"$GPRMC,133520,A,2425.8391,N,08056.8051,W,2.6,121.6,150615,6.1,"
"##MN-00 00 07 0889 01674 5813 445863 205229 201"
"166.566296"
"$GPRMC,133524,A,2425.8376,N,08056.8022,W,2.6,121.2,150615,6.1,"
"##MN-00 00 07 0889 01671 5814 445857 205230 201"
"166.566343"
"$GPRMC,133528,A,2425.8359,N,08056.7990,W,2.6,120.5,150615,6.1,"
"##MN-00 00 07 0890 01666 5814 445857 205228 201"
"166.566389"
"$GPRMC,133532,A,2425.8342,N,08056.7958,W,2.6,120.2,150615,6.1,"
"##MN-00 00 07 0891 01661 5814 445842 205225 201"
"166.566435"
"$GPRMC,133536,A,2425.8331,N,08056.7928,W,2.7,119.9,150615,6.1,"
"##MN-00 00 07 0892 01659 5815 445834 205223 201"
"166.566481"
"$GPRMC,133540,A,2425.8322,N,08056.7897,W,2.7,120.4,150615,6.1,"
"##MN-00 00 07 0892 01650 5815 445841 205225 201"
"166.566528"
"$GPRMC,133544,A,2425.8307,N,08056.7867,W,2.7,120.5,150615,6.1,"
"##MN-00 00 07 0893 01649 5816 445838 205225 201"
"166.566574"
"$GPRMC,133549,A,2425.8286,N,08056.7831,W,2.7,121.4,150615,6.1,"
"##MN-00 00 07 0894 01642 5816 445828 205223 201"
"166.56662"
"$GPRMC,133552,A,2425.8273,N,08056.7810,W,2.8,121.4,150615,6.1,"
"##MN-00 00 07 0895 01638 5817 445809 205219 201"
"166.566667"
"$GPRMC,133556,A,2425.8257,N,08056.7782,W,2.8,121.4,150615,6.1,"
"##MN-00 00 07 0896 01633 5817 445807 205219 201"
"166.566713"
"$GPRMC,133600,A,2425.8239,N,08056.7753,W,2.8,121.7,150615,6.1,"
"##MN-00 00 07 0896 01628 5817 445813 205220 201"
"166.566759"
"$GPRMC,133604,A,2425.8221,N,08056.7726,W,2.8,122.3,150615,6.1,"
"##MN-00 00 07 0897 01623 5818 445815 205221 201"
"166.566806"
"$GPRMC,133609,A,2425.8203,N,08056.7692,W,2.8,123.3,150615,6.1,"
"##MN-00 00 07 0898 01620 5818 445811 205221 201"
"166.566852"
"$GPRMC,133613,A,2425.8186,N,08056.7665,W,2.6,123.7,150615,6.1,"
"##MN-00 00 07 0899 01620 5819 445817 205222 201"
"166.566898"
"$GPRMC,133617,A,2425.8169,N,08056.7639,W,2.6,124.6,150615,6.1,"
"##MN-00 00 07 0899 01619 5819 445825 205224 201"
"166.566944"
"$GPRMC,133621,A,2425.8152,N,08056.7613,W,2.7,124.0,150615,6.1,"
"##MN-00 00 07 0900 01616 5819 445838 205227 201"
"166.566991"
"$GPRMC,133625,A,2425.8135,N,08056.7587,W,2.6,124.1,150615,6.1,"
"##MN-00 00 07 0901 01616 5820 445821 205223 201"
"166.567037"
"$GPRMC,133629,A,2425.8120,N,08056.7562,W,2.6,124.9,150615,6.1,"
"##MN-00 00 07 0902 01614 5821 445774 205211 201"
"166.567083"
"$GPRMC,133633,A,2425.8102,N,08056.7536,W,2.5,125.3,150615,6.1,"
"##MN-00 00 07 0902 01612 5821 445755 205210 201"
"166.56713"
"$GPRMC,133637,A,2425.8084,N,08056.7512,W,2.6,125.6,150615,6.1,"
"##MN-00 00 07 0903 01612 5822 445761 205209 201"
"166.567176"
"$GPRMC,133641,A,2425.8067,N,08056.7487,W,2.6,125.1,150615,6.1,"
"##MN-00 00 07 0904 01608 5822 445803 205218 201"
"166.567222"
"$GPRMC,133645,A,2425.8051,N,08056.7462,W,2.5,124.3,150615,6.1,"
"##MN-00 00 07 0905 01606 5823 445777 205214 201"
"166.567269"
"$GPRMC,133649,A,2425.8035,N,08056.7437,W,2.5,123.8,150615,6.1,"
"##MN-00 00 07 0905 01604 5823 445744 205205 201"
"166.567315"
"$GPRMC,133653,A,2425.8019,N,08056.7413,W,2.6,124.3,150615,6.1,"
"##MN-00 00 07 0906 01606 5824 445755 205208 201"
"166.567361"
"$GPRMC,133657,A,2425.8004,N,08056.7388,W,2.5,123.9,150615,6.1,"
"##MN-00 00 07 0907 01604 5824 445764 205211 201"
"166.567407"
"$GPRMC,133701,A,2425.7987,N,08056.7361,W,2.5,123.4,150615,6.1,"
"##MN-00 00 07 0908 01600 5824 445770 205213 201"
"166.567454"
"$GPRMC,133705,A,2425.7973,N,08056.7335,W,2.5,122.6,150615,6.1,"
"##MN-00 00 07 0908 01599 5825 445781 205214 201"
"166.5675"
"$GPRMC,133709,A,2425.7959,N,08056.7308,W,2.5,121.7,150615,6.1,"
"##MN-00 00 07 0909 01600 5826 445779 205214 201"
"166.567546"
"$GPRMC,133713,A,2425.7946,N,08056.7281,W,2.6,121.1,150615,6.1,"
"##MN-00 00 07 0910 01598 5826 445765 205212 201"
"166.567593"
"$GPRMC,133717,A,2425.7932,N,08056.7252,W,2.6,121.0,150615,6.1,"
"##MN-00 00 07 0910 01596 5826 445768 205212 201"
"166.567639"
"$GPRMC,133721,A,2425.7916,N,08056.7226,W,2.5,120.9,150615,6.1,"
"##MN-00 00 07 0911 01594 5827 445753 205210 201"
"166.567685"
"$GPRMC,133725,A,2425.7903,N,08056.7202,W,2.4,120.4,150615,6.1,"
"##MN-00 00 07 0912 01599 5828 445749 205209 201"
"166.567731"
"$GPRMC,133729,A,2425.7887,N,08056.7178,W,2.4,120.5,150615,6.1,"
"##MN-00 00 07 0912 01597 5828 445763 205213 201"
"166.567778"
"$GPRMC,133733,A,2425.7871,N,08056.7153,W,2.4,121.2,150615,6.1,"
"##MN-00 00 07 0913 01597 5829 445797 205222 201"
"166.567824"
"$GPRMC,133737,A,2425.7851,N,08056.7129,W,2.5,121.7,150615,6.1,"
"##MN-00 00 07 0914 01594 5829 445802 205220 201"
"166.56787"
"$GPRMC,133741,A,2425.7833,N,08056.7104,W,2.5,122.3,150615,6.1,"
"##MN-00 00 07 0915 01590 5830 445794 205219 201"
"166.567917"
"$GPRMC,133745,A,2425.7816,N,08056.7079,W,2.5,122.8,150615,6.1,"
"##MN-00 00 07 0915 01588 5830 445790 205219 201"
"166.567963"
"$GPRMC,133749,A,2425.7798,N,08056.7054,W,2.5,123.4,150615,6.1,"
"##MN-00 00 07 0916 01586 5831 445773 205213 201"
"166.568009"
"$GPRMC,133753,A,2425.7780,N,08056.7028,W,2.6,124.0,150615,6.1,"
"##MN-00 00 07 0917 01583 5831 445786 205217 201"
"166.568056"
