" Tow: 14OF-D-OUT   RVWS/WS15161"
" Date: 15/06/2015"
" Temperature Probe #  4762    Conductivity Probe #  710"
" Pressure Probe #  159"
" Flow Meter Calibration  4.71 (m/count)  "
"166.668032"
"$GPRMC,160153,A,2421.5889,N,08049.8032,W,2.8,116.8,150615,6.2,"
"##MN-00 00 46 0010 01533 6057 448895 204320 201"
"166.668079"
"$GPRMC,160158,A,2421.5872,N,08049.7992,W,2.8,116.9,150615,6.2,"
"##MN-00 00 46 0011 01532 6059 442413 204280 201"
"166.668275"
"$GPRMC,160215,A,2421.5805,N,08049.7863,W,2.8,118.0,150615,6.2,"
"##MN-00 00 45 0014 01532 6064 442405 204276 201"
"166.668322"
"$GPRMC,160219,A,2421.5790,N,08049.7833,W,2.8,118.2,150615,6.2,"
"##MN-00 00 45 0015 01533 6066 442407 204276 201"
"166.668368"
"$GPRMC,160223,A,2421.5776,N,08049.7806,W,2.8,118.3,150615,6.2,"
"##MN-00 00 06 0016 01533 6067 442404 204276 201"
"166.668414"
"$GPRMC,160227,A,2421.5764,N,08049.7780,W,2.7,118.6,150615,6.2,"
"##MN-00 00 42 0016 01534 6067 442414 204277 201"
"166.668461"
"$GPRMC,160231,A,2421.5750,N,08049.7751,W,2.7,118.6,150615,6.2,"
"##MN-00 00 44 0017 01534 6068 442424 204279 201"
"166.668507"
"$GPRMC,160235,A,2421.5734,N,08049.7721,W,2.8,118.3,150615,6.2,"
"##MN-00 00 46 0018 01534 6069 442439 204283 201"
"166.668553"
"$GPRMC,160239,A,2421.5721,N,08049.7692,W,2.8,118.2,150615,6.2,"
"##MN-00 00 46 0019 01533 6070 442444 204283 201"
"166.6686"
"$GPRMC,160243,A,2421.5706,N,08049.7662,W,2.7,118.0,150615,6.2,"
"##MN-00 00 36 0019 01535 6071 442417 204275 201"
"166.668646"
"$GPRMC,160247,A,2421.5693,N,08049.7631,W,2.8,117.7,150615,6.2,"
"##MN-00 00 47 0020 01541 6071 442381 204268 201"
"166.668692"
"$GPRMC,160251,A,2421.5678,N,08049.7601,W,2.8,117.1,150615,6.2,"
"##MN-00 00 47 0021 01544 6072 442366 204263 201"
"166.668738"
"$GPRMC,160255,A,2421.5663,N,08049.7572,W,2.9,116.7,150615,6.2,"
"##MN-00 00 47 0021 01547 6073 442363 204261 201"
"166.668785"
"$GPRMC,160259,A,2421.5649,N,08049.7543,W,2.9,117.0,150615,6.2,"
"##MN-00 00 37 0022 01549 6073 442368 204261 201"
"166.668831"
"$GPRMC,160303,A,2421.5634,N,08049.7513,W,2.8,117.9,150615,6.2,"
"##MN-00 00 46 0023 01555 6074 442380 204262 201"
"166.668877"
"$GPRMC,160307,A,2421.5617,N,08049.7486,W,2.7,118.1,150615,6.2,"
"##MN-00 00 45 0023 01556 6075 442389 204258 201"
"166.668924"
"$GPRMC,160311,A,2421.5603,N,08049.7460,W,2.8,118.8,150615,6.2,"
"##MN-00 00 09 0024 01560 6075 442407 204260 201"
"166.66897"
"$GPRMC,160315,A,2421.5588,N,08049.7431,W,2.7,118.6,150615,6.2,"
"##MN-00 00 45 0025 01565 6075 442469 204276 201"
"166.669016"
"$GPRMC,160319,A,2421.5574,N,08049.7401,W,2.7,118.2,150615,6.2,"
"##MN-00 00 08 0025 01569 6075 442443 204266 201"
"166.669063"
"$GPRMC,160323,A,2421.5560,N,08049.7369,W,2.8,117.8,150615,6.2,"
"##MN-00 00 08 0026 01573 6076 442423 204258 201"
"166.669109"
"$GPRMC,160327,A,2421.5547,N,08049.7335,W,2.8,117.3,150615,6.2,"
"##MN-00 00 08 0027 01577 6077 442369 204248 201"
"166.669155"
"$GPRMC,160331,A,2421.5533,N,08049.7300,W,2.9,117.2,150615,6.2,"
"##MN-00 00 44 0028 01580 6077 442349 204246 201"
"166.669201"
"$GPRMC,160336,A,2421.5513,N,08049.7259,W,3.0,116.2,150615,6.2,"
"##MN-00 00 08 0028 01582 6078 442357 204247 201"
"166.669248"
"$GPRMC,160340,A,2421.5498,N,08049.7229,W,2.9,116.3,150615,6.2,"
"##MN-00 00 08 0029 01587 6078 442359 204248 201"
"166.669294"
"$GPRMC,160344,A,2421.5483,N,08049.7197,W,2.8,116.5,150615,6.2,"
"##MN-00 00 08 0030 01593 6078 442364 204247 201"
"166.66934"
"$GPRMC,160348,A,2421.5470,N,08049.7164,W,2.9,116.4,150615,6.2,"
"##MN-00 00 44 0030 01595 6079 442412 204257 201"
"166.669387"
"$GPRMC,160352,A,2421.5455,N,08049.7133,W,2.9,116.0,150615,6.2,"
"##MN-00 00 44 0031 01601 6079 442458 204265 201"
"166.669433"
"$GPRMC,160356,A,2421.5443,N,08049.7104,W,2.9,115.5,150615,6.2,"
"##MN-00 00 42 0032 01609 6079 442534 204279 201"
"166.669479"
"$GPRMC,160400,A,2421.5430,N,08049.7073,W,2.8,115.3,150615,6.2,"
"##MN-00 00 08 0032 01613 6079 442532 204279 201"
"166.669525"
"$GPRMC,160404,A,2421.5419,N,08049.7042,W,2.8,115.4,150615,6.2,"
"##MN-00 00 44 0033 01617 6080 442507 204275 201"
"166.669572"
"$GPRMC,160408,A,2421.5405,N,08049.7013,W,2.8,116.1,150615,6.2,"
"##MN-00 00 44 0034 01619 6080 442522 204277 201"
"166.669618"
"$GPRMC,160412,A,2421.5389,N,08049.6983,W,2.8,116.5,150615,6.2,"
"##MN-00 00 45 0034 01625 6080 442533 204280 201"
"166.669664"
"$GPRMC,160416,A,2421.5374,N,08049.6953,W,2.7,117.4,150615,6.2,"
"##MN-00 00 05 0035 01627 6081 442560 204285 201"
"166.669711"
"$GPRMC,160420,A,2421.5359,N,08049.6921,W,2.6,118.0,150615,6.2,"
"##MN-00 00 44 0036 01634 6081 442581 204289 201"
"166.669757"
"$GPRMC,160424,A,2421.5343,N,08049.6893,W,2.7,118.6,150615,6.2,"
"##MN-00 00 45 0037 01635 6081 442575 204285 201"
"166.669803"
"$GPRMC,160428,A,2421.5327,N,08049.6861,W,2.8,118.7,150615,6.2,"
"##MN-00 00 46 0037 01638 6081 442595 204289 201"
"166.66985"
"$GPRMC,160432,A,2421.5310,N,08049.6832,W,2.8,118.9,150615,6.2,"
"##MN-00 00 45 0038 01640 6081 442594 204289 201"
"166.669896"
"$GPRMC,160436,A,2421.5294,N,08049.6804,W,2.9,119.2,150615,6.2,"
"##MN-00 00 46 0039 01645 6082 442565 204282 201"
"166.669942"
"$GPRMC,160440,A,2421.5280,N,08049.6775,W,2.8,119.5,150615,6.2,"
"##MN-00 00 45 0039 01649 6082 442578 204286 201"
"166.669988"
"$GPRMC,160444,A,2421.5264,N,08049.6745,W,2.8,119.9,150615,6.2,"
"##MN-00 00 45 0040 01650 6082 442588 204288 201"
"166.670035"
"$GPRMC,160448,A,2421.5251,N,08049.6714,W,2.8,119.2,150615,6.2,"
"##MN-00 00 45 0041 01654 6082 442598 204290 201"
"166.670081"
"$GPRMC,160452,A,2421.5237,N,08049.6684,W,2.8,119.9,150615,6.2,"
"##MN-00 00 45 0041 01660 6082 442607 204290 201"
"166.670127"
"$GPRMC,160456,A,2421.5222,N,08049.6655,W,2.8,119.2,150615,6.2,"
"##MN-00 00 45 0042 01666 6082 442623 204293 201"
"166.670174"
"$GPRMC,160500,A,2421.5208,N,08049.6624,W,2.8,119.0,150615,6.2,"
"##MN-00 00 45 0043 01667 6082 442628 204294 201"
"166.67022"
"$GPRMC,160504,A,2421.5192,N,08049.6594,W,2.8,119.1,150615,6.2,"
"##MN-00 00 45 0044 01668 6083 442633 204295 201"
"166.670266"
"$GPRMC,160508,A,2421.5176,N,08049.6564,W,2.8,119.1,150615,6.2,"
"##MN-00 00 45 0044 01672 6083 442635 204295 201"
"166.670312"
"$GPRMC,160512,A,2421.5163,N,08049.6532,W,2.8,119.2,150615,6.2,"
"##MN-00 00 45 0045 01678 6083 442640 204296 201"
"166.670359"
"$GPRMC,160516,A,2421.5150,N,08049.6503,W,2.9,117.4,150615,6.2,"
"##MN-00 00 45 0045 01682 6083 442659 204298 201"
"166.670405"
"$GPRMC,160520,A,2421.5136,N,08049.6475,W,2.8,117.0,150615,6.2,"
"##MN-00 00 45 0046 01687 6083 442666 204300 201"
"166.670451"
"$GPRMC,160524,A,2421.5121,N,08049.6444,W,2.9,117.3,150615,6.2,"
"##MN-00 00 45 0047 01692 6083 442685 204304 201"
"166.670498"
"$GPRMC,160528,A,2421.5104,N,08049.6412,W,2.9,116.7,150615,6.2,"
"##MN-00 00 45 0047 01696 6083 442699 204305 201"
"166.670544"
"$GPRMC,160532,A,2421.5089,N,08049.6382,W,2.9,116.5,150615,6.2,"
"##MN-00 00 45 0048 01702 6083 442714 204307 201"
"166.67059"
"$GPRMC,160536,A,2421.5074,N,08049.6351,W,2.9,115.7,150615,6.2,"
"##MN-00 00 45 0049 01707 6083 442728 204312 201"
"166.670637"
"$GPRMC,160540,A,2421.5057,N,08049.6317,W,2.9,116.2,150615,6.2,"
"##MN-00 00 45 0049 01710 6084 442744 204313 201"
"166.670683"
"$GPRMC,160544,A,2421.5042,N,08049.6285,W,2.9,117.1,150615,6.2,"
"##MN-00 00 45 0050 01712 6083 442753 204313 201"
"166.670729"
"$GPRMC,160548,A,2421.5027,N,08049.6255,W,2.9,117.8,150615,6.2,"
"##MN-00 00 45 0051 01714 6084 442780 204318 201"
"166.670775"
"$GPRMC,160552,A,2421.5011,N,08049.6225,W,2.9,118.0,150615,6.2,"
"##MN-00 00 45 0051 01722 6084 442785 204319 201"
"166.670822"
"$GPRMC,160556,A,2421.4996,N,08049.6191,W,2.9,116.9,150615,6.2,"
"##MN-00 00 45 0052 01726 6083 442786 204318 201"
"166.670868"
"$GPRMC,160600,A,2421.4981,N,08049.6159,W,2.9,116.3,150615,6.2,"
"##MN-00 00 45 0053 01730 6084 442796 204320 201"
"166.670914"
"$GPRMC,160604,A,2421.4967,N,08049.6128,W,2.9,116.7,150615,6.2,"
"##MN-00 00 44 0053 01732 6084 442821 204325 201"
"166.670961"
"$GPRMC,160608,A,2421.4956,N,08049.6108,W,2.7,117.9,150615,6.2,"
"##MN-00 00 43 0054 01737 6084 442838 204327 201"
"166.671007"
"$GPRMC,160612,A,2421.4944,N,08049.6079,W,2.6,117.5,150615,6.2,"
"##MN-00 00 43 0055 01745 6084 442847 204329 201"
"166.671053"
"$GPRMC,160616,A,2421.4930,N,08049.6044,W,2.6,116.9,150615,6.2,"
"##MN-00 00 43 0055 01749 6084 442856 204330 201"
"166.6711"
"$GPRMC,160620,A,2421.4919,N,08049.6023,W,2.6,116.5,150615,6.2,"
"##MN-00 00 43 0056 01754 6084 442900 204337 201"
"166.671157"
"$GPRMC,160624,A,2421.4902,N,08049.5987,W,2.7,116.7,150615,6.2,"
"##MN-00 00 43 0056 01758 6084 442919 204341 201"
"166.671204"
"$GPRMC,160628,A,2421.4888,N,08049.5960,W,2.7,117.4,150615,6.2,"
"##MN-00 00 43 0057 01761 6084 442944 204345 201"
"166.67125"
"$GPRMC,160632,A,2421.4873,N,08049.5931,W,2.6,117.5,150615,6.2,"
"##MN-00 00 43 0058 01763 6084 442992 204354 201"
"166.671296"
"$GPRMC,160636,A,2421.4857,N,08049.5900,W,2.7,117.6,150615,6.2,"
"##MN-00 00 43 0058 01769 6084 443032 204361 201"
"166.671343"
"$GPRMC,160640,A,2421.4843,N,08049.5868,W,2.7,118.0,150615,6.2,"
"##MN-00 00 43 0059 01771 6084 443054 204364 201"
"166.671389"
"$GPRMC,160644,A,2421.4830,N,08049.5838,W,2.8,117.8,150615,6.2,"
"##MN-00 00 43 0060 01775 6084 443080 204368 201"
"166.671435"
"$GPRMC,160648,A,2421.4818,N,08049.5809,W,2.8,117.7,150615,6.2,"
"##MN-00 00 43 0060 01777 6084 443126 204376 201"
"166.671481"
"$GPRMC,160652,A,2421.4803,N,08049.5778,W,2.8,117.0,150615,6.2,"
"##MN-00 00 43 0061 01783 6084 443178 204387 201"
"166.671528"
"$GPRMC,160656,A,2421.4786,N,08049.5749,W,2.8,117.3,150615,6.2,"
"##MN-00 00 43 0062 01785 6084 443278 204404 201"
"166.671574"
"$GPRMC,160700,A,2421.4771,N,08049.5718,W,2.9,117.2,150615,6.2,"
"##MN-00 00 43 0062 01789 6084 443317 204409 201"
"166.67162"
"$GPRMC,160704,A,2421.4755,N,08049.5689,W,2.8,117.4,150615,6.2,"
"##MN-00 00 43 0063 01792 6083 443367 204418 201"
"166.671667"
"$GPRMC,160708,A,2421.4739,N,08049.5657,W,2.8,117.0,150615,6.2,"
"##MN-00 00 43 0064 01792 6084 443425 204428 201"
"166.671713"
"$GPRMC,160712,A,2421.4724,N,08049.5623,W,2.8,117.1,150615,6.2,"
"##MN-00 00 43 0064 01795 6084 443450 204430 201"
"166.671759"
"$GPRMC,160716,A,2421.4710,N,08049.5590,W,2.8,117.6,150615,6.2,"
"##MN-00 00 43 0065 01798 6084 443473 204436 201"
"166.671806"
"$GPRMC,160720,A,2421.4695,N,08049.5556,W,2.8,118.0,150615,6.2,"
"##MN-00 00 43 0066 01801 6084 443486 204436 201"
"166.671852"
"$GPRMC,160724,A,2421.4681,N,08049.5526,W,2.8,117.9,150615,6.2,"
"##MN-00 00 42 0066 01807 6083 443491 204438 201"
"166.671898"
"$GPRMC,160728,A,2421.4666,N,08049.5499,W,2.8,118.8,150615,6.2,"
"##MN-00 00 06 0067 01807 6084 443532 204442 201"
"166.671944"
"$GPRMC,160732,A,2421.4649,N,08049.5472,W,2.6,120.1,150615,6.2,"
"##MN-00 00 43 0068 01807 6083 443566 204450 201"
"166.671991"
"$GPRMC,160736,A,2421.4632,N,08049.5449,W,2.6,120.6,150615,6.2,"
"##MN-00 00 43 0069 01811 6083 443613 204456 201"
"166.672037"
"$GPRMC,160740,A,2421.4619,N,08049.5422,W,2.6,121.8,150615,6.2,"
"##MN-00 00 43 0069 01814 6084 443641 204460 201"
"166.672083"
"$GPRMC,160744,A,2421.4604,N,08049.5394,W,2.7,121.5,150615,6.2,"
"##MN-00 00 43 0070 01817 6084 443677 204461 201"
"166.67213"
"$GPRMC,160748,A,2421.4587,N,08049.5363,W,2.6,121.2,150615,6.2,"
"##MN-00 00 43 0071 01819 6083 443684 204464 201"
"166.672176"
"$GPRMC,160752,A,2421.4570,N,08049.5336,W,2.6,120.9,150615,6.2,"
"##MN-00 00 06 0071 01825 6083 443664 204461 201"
"166.672222"
"$GPRMC,160756,A,2421.4555,N,08049.5308,W,2.6,121.2,150615,6.2,"
"##MN-00 00 06 0072 01828 6083 443678 204463 201"
"166.672269"
"$GPRMC,160800,A,2421.4541,N,08049.5282,W,2.6,121.8,150615,6.2,"
"##MN-00 00 07 0073 01829 6083 443740 204474 201"
"166.672315"
"$GPRMC,160804,A,2421.4525,N,08049.5256,W,2.6,122.5,150615,6.2,"
"##MN-00 00 43 0074 01832 6083 443912 204495 201"
"166.672361"
"$GPRMC,160808,A,2421.4507,N,08049.5229,W,2.6,122.4,150615,6.2,"
"##MN-00 00 43 0074 01835 6083 444040 204516 201"
"166.672407"
"$GPRMC,160812,A,2421.4491,N,08049.5199,W,2.6,122.1,150615,6.2,"
"##MN-00 00 43 0075 01839 6083 444126 204527 201"
"166.672454"
"$GPRMC,160816,A,2421.4479,N,08049.5170,W,2.6,121.2,150615,6.2,"
"##MN-00 00 43 0076 01842 6083 444209 204546 201"
"166.6725"
"$GPRMC,160820,A,2421.4464,N,08049.5141,W,2.7,121.0,150615,6.2,"
"##MN-00 00 43 0076 01845 6083 444280 204563 201"
"166.672546"
"$GPRMC,160825,A,2421.4449,N,08049.5106,W,2.6,120.6,150615,6.2,"
"##MN-00 00 44 0077 01851 6083 444331 204573 201"
"166.672593"
"$GPRMC,160829,A,2421.4435,N,08049.5078,W,2.7,119.8,150615,6.2,"
"##MN-00 00 07 0078 01853 6083 444350 204579 201"
"166.672639"
"$GPRMC,160833,A,2421.4420,N,08049.5049,W,2.6,118.9,150615,6.2,"
"##MN-00 00 43 0078 01856 6082 444366 204582 201"
"166.672685"
"$GPRMC,160837,A,2421.4407,N,08049.5019,W,2.7,118.7,150615,6.2,"
"##MN-00 00 44 0079 01865 6082 444397 204592 201"
"166.672731"
"$GPRMC,160841,A,2421.4391,N,08049.4992,W,2.8,118.0,150615,6.2,"
"##MN-00 00 07 0080 01868 6082 444460 204607 201"
"166.672778"
"$GPRMC,160845,A,2421.4377,N,08049.4962,W,2.8,117.7,150615,6.2,"
"##MN-00 00 08 0080 01869 6082 444639 204648 201"
"166.672824"
"$GPRMC,160849,A,2421.4362,N,08049.4933,W,2.8,118.3,150615,6.2,"
"##MN-00 00 43 0081 01874 6082 445428 204869 201"
"166.67287"
"$GPRMC,160853,A,2421.4346,N,08049.4904,W,2.8,119.1,150615,6.2,"
"##MN-00 00 44 0082 01876 6082 446453 205121 201"
"166.672917"
"$GPRMC,160857,A,2421.4330,N,08049.4876,W,2.7,120.3,150615,6.2,"
"##MN-00 00 38 0082 01882 6082 447757 205423 201"
"166.672963"
"$GPRMC,160901,A,2421.4314,N,08049.4847,W,2.6,121.1,150615,6.2,"
"##MN-00 00 41 0083 01885 6081 449150 205628 201"
"166.673009"
"$GPRMC,160905,A,2421.4298,N,08049.4818,W,2.6,121.2,150615,6.2,"
"##MN-00 00 07 0084 01887 6082 450085 205991 201"
"166.673056"
"$GPRMC,160909,A,2421.4283,N,08049.4790,W,2.6,121.3,150615,6.2,"
"##MN-00 00 43 0084 01891 6081 451307 206200 201"
"166.673102"
"$GPRMC,160913,A,2421.4266,N,08049.4763,W,2.7,120.8,150615,6.2,"
"##MN-00 00 43 0085 01892 6081 452551 206345 201"
"166.673148"
"$GPRMC,160917,A,2421.4250,N,08049.4738,W,2.6,121.2,150615,6.2,"
"##MN-00 00 44 0086 01896 6081 453787 206710 201"
"166.673194"
"$GPRMC,160921,A,2421.4232,N,08049.4707,W,2.7,121.1,150615,6.2,"
"##MN-00 00 44 0086 01900 6081 455272 207055 201"
"166.673241"
"$GPRMC,160925,A,2421.4216,N,08049.4680,W,2.6,121.9,150615,6.2,"
"##MN-00 00 44 0087 01904 6081 455837 207135 201"
"166.673287"
"$GPRMC,160929,A,2421.4201,N,08049.4654,W,2.6,121.8,150615,6.2,"
"##MN-00 00 43 0088 01905 6081 456221 207186 201"
"166.673333"
"$GPRMC,160933,A,2421.4185,N,08049.4627,W,2.6,121.5,150615,6.2,"
"##MN-00 00 44 0089 01912 6080 456580 207326 201"
"166.67338"
"$GPRMC,160937,A,2421.4167,N,08049.4602,W,2.6,122.3,150615,6.2,"
"##MN-00 00 40 0089 01916 6080 458053 207649 201"
"166.673426"
"$GPRMC,160941,A,2421.4153,N,08049.4577,W,2.5,123.3,150615,6.2,"
"##MN-00 00 44 0090 01918 6080 459034 207931 201"
"166.673472"
"$GPRMC,160945,A,2421.4136,N,08049.4551,W,2.5,123.6,150615,6.2,"
"##MN-00 00 43 0091 01924 6079 459489 208025 201"
"166.673518"
"$GPRMC,160949,A,2421.4120,N,08049.4525,W,2.5,123.2,150615,6.2,"
"##MN-00 00 43 0092 01926 6079 459993 208181 201"
"166.673565"
"$GPRMC,160953,A,2421.4106,N,08049.4497,W,2.6,122.9,150615,6.2,"
"##MN-00 00 43 0092 01926 6079 460371 208261 201"
"166.673611"
"$GPRMC,160957,A,2421.4088,N,08049.4470,W,2.6,122.1,150615,6.2,"
"##MN-00 00 44 0093 01936 6078 460504 208272 201"
"166.673657"
"$GPRMC,161001,A,2421.4072,N,08049.4442,W,2.6,121.7,150615,6.2,"
"##MN-00 00 43 0094 01939 6078 460673 208277 201"
"166.673704"
"$GPRMC,161005,A,2421.4059,N,08049.4412,W,2.6,120.3,150615,6.2,"
"##MN-00 00 39 0094 01946 6078 460910 208289 201"
"166.67375"
"$GPRMC,161009,A,2421.4045,N,08049.4382,W,2.6,119.8,150615,6.2,"
"##MN-00 00 08 0095 01951 6077 461099 208302 201"
"166.673796"
"$GPRMC,161013,A,2421.4030,N,08049.4353,W,2.6,119.8,150615,6.2,"
"##MN-00 00 07 0096 01952 6077 461394 208350 201"
"166.673843"
"$GPRMC,161017,A,2421.4013,N,08049.4324,W,2.6,119.9,150615,6.2,"
"##MN-00 00 43 0096 01960 6076 462136 208442 201"
"166.673889"
"$GPRMC,161021,A,2421.3999,N,08049.4296,W,2.6,120.1,150615,6.2,"
"##MN-00 00 43 0097 01964 6075 462649 208542 201"
"166.673935"
"$GPRMC,161025,A,2421.3984,N,08049.4266,W,2.6,119.8,150615,6.2,"
"##MN-00 00 43 0098 01967 6075 463118 208627 201"
"166.673982"
"$GPRMC,161029,A,2421.3969,N,08049.4236,W,2.6,120.2,150615,6.2,"
"##MN-00 00 43 0098 01970 6074 463465 208694 201"
"166.674028"
"$GPRMC,161033,A,2421.3954,N,08049.4207,W,2.7,119.8,150615,6.2,"
"##MN-00 00 43 0099 01975 6073 463838 208742 201"
"166.674074"
"$GPRMC,161037,A,2421.3940,N,08049.4181,W,2.6,120.3,150615,6.2,"
"##MN-00 00 44 0100 01982 6073 464035 208770 201"
"166.67412"
"$GPRMC,161041,A,2421.3924,N,08049.4153,W,2.6,119.7,150615,6.2,"
"##MN-00 00 43 0100 01984 6073 464231 208812 201"
"166.674167"
"$GPRMC,161045,A,2421.3911,N,08049.4123,W,2.6,119.7,150615,6.2,"
"##MN-00 00 43 0101 01989 6072 464435 208844 201"
"166.674213"
"$GPRMC,161049,A,2421.3896,N,08049.4094,W,2.8,119.7,150615,6.2,"
"##MN-00 00 43 0102 01991 6071 464885 208931 201"
"166.674271"
"$GPRMC,161053,A,2421.3880,N,08049.4069,W,2.8,120.2,150615,6.2,"
"##MN-00 00 43 0102 01997 6070 465621 209032 201"
"166.674317"
"$GPRMC,161057,A,2421.3865,N,08049.4045,W,2.6,120.9,150615,6.2,"
"##MN-00 00 44 0103 02006 6069 465967 209117 201"
"166.674363"
"$GPRMC,161101,A,2421.3849,N,08049.4018,W,2.5,121.3,150615,6.2,"
"##MN-00 00 06 0103 02009 6069 466294 209170 201"
"166.67441"
"$GPRMC,161105,A,2421.3832,N,08049.3990,W,2.4,121.9,150615,6.2,"
"##MN-00 00 06 0104 02014 6067 466645 209240 201"
"166.674456"
"$GPRMC,161109,A,2421.3817,N,08049.3964,W,2.5,121.9,150615,6.2,"
"##MN-00 00 42 0105 02019 6067 467051 209312 201"
"166.674502"
"$GPRMC,161113,A,2421.3801,N,08049.3942,W,2.5,122.3,150615,6.2,"
"##MN-00 00 43 0105 02025 6066 467423 209382 201"
"166.674549"
"$GPRMC,161117,A,2421.3786,N,08049.3917,W,2.5,122.7,150615,6.2,"
"##MN-00 00 43 0106 02031 6065 467545 209442 201"
"166.674595"
"$GPRMC,161121,A,2421.3772,N,08049.3890,W,2.5,123.3,150615,6.2,"
"##MN-00 00 44 0107 02033 6064 467848 209478 201"
"166.674641"
"$GPRMC,161125,A,2421.3757,N,08049.3862,W,2.5,123.5,150615,6.2,"
"##MN-00 00 42 0108 02039 6063 467986 209472 201"
"166.674687"
"$GPRMC,161129,A,2421.3741,N,08049.3834,W,2.5,123.3,150615,6.2,"
"##MN-00 00 43 0108 02041 6062 468137 209488 201"
"166.674734"
"$GPRMC,161133,A,2421.3725,N,08049.3806,W,2.6,122.9,150615,6.2,"
"##MN-00 00 04 0109 02050 6061 468364 209537 201"
"166.67478"
"$GPRMC,161137,A,2421.3710,N,08049.3777,W,2.6,122.7,150615,6.2,"
"##MN-00 00 43 0110 02054 6060 468681 209626 201"
"166.674826"
"$GPRMC,161141,A,2421.3695,N,08049.3748,W,2.7,122.1,150615,6.2,"
"##MN-00 00 43 0110 02057 6058 469143 209723 201"
"166.674873"
"$GPRMC,161145,A,2421.3680,N,08049.3718,W,2.7,121.8,150615,6.2,"
"##MN-00 00 42 0111 02061 6057 469466 209798 201"
"166.674919"
"$GPRMC,161149,A,2421.3663,N,08049.3690,W,2.7,121.4,150615,6.2,"
"##MN-00 00 43 0112 02067 6056 470108 209947 201"
"166.674965"
"$GPRMC,161153,A,2421.3648,N,08049.3662,W,2.7,121.0,150615,6.2,"
"##MN-00 00 43 0112 02069 6056 470674 210084 201"
"166.675012"
"$GPRMC,161157,A,2421.3631,N,08049.3634,W,2.7,120.7,150615,6.2,"
"##MN-00 00 43 0113 02075 6054 471219 210142 201"
"166.675058"
"$GPRMC,161201,A,2421.3615,N,08049.3605,W,2.7,120.8,150615,6.2,"
"##MN-00 00 43 0114 02080 6053 471923 210321 201"
"166.675104"
"$GPRMC,161205,A,2421.3600,N,08049.3575,W,2.8,120.9,150615,6.2,"
"##MN-00 00 05 0114 02084 6052 472846 210506 201"
"166.67515"
"$GPRMC,161209,A,2421.3583,N,08049.3547,W,2.7,121.3,150615,6.2,"
"##MN-00 00 43 0115 02091 6051 473242 210601 201"
"166.675197"
"$GPRMC,161213,A,2421.3568,N,08049.3519,W,2.7,121.7,150615,6.2,"
"##MN-00 00 43 0115 02094 6050 473474 210630 201"
"166.675243"
"$GPRMC,161217,A,2421.3553,N,08049.3492,W,2.6,121.5,150615,6.2,"
"##MN-00 00 07 0116 02096 6048 473550 210635 201"
"166.675289"
"$GPRMC,161221,A,2421.3535,N,08049.3467,W,2.6,121.8,150615,6.2,"
"##MN-00 00 40 0116 02099 6047 473562 210596 201"
"166.675336"
"$GPRMC,161225,A,2421.3517,N,08049.3440,W,2.5,122.1,150615,6.2,"
"##MN-00 00 07 0117 02103 6046 473479 210546 201"
"166.675382"
"$GPRMC,161229,A,2421.3500,N,08049.3416,W,2.6,123.3,150615,6.2,"
"##MN-00 00 42 0118 02108 6044 473427 210521 201"
"166.675428"
"$GPRMC,161233,A,2421.3483,N,08049.3392,W,2.5,123.6,150615,6.2,"
"##MN-00 00 43 0118 02109 6043 473449 210522 201"
"166.675475"
"$GPRMC,161237,A,2421.3468,N,08049.3367,W,2.6,124.0,150615,6.2,"
"##MN-00 00 41 0119 02111 6042 473509 210534 201"
"166.675521"
"$GPRMC,161241,A,2421.3454,N,08049.3339,W,2.6,123.6,150615,6.2,"
"##MN-00 00 42 0120 02115 6041 473515 210532 201"
"166.675567"
"$GPRMC,161245,A,2421.3438,N,08049.3312,W,2.6,123.6,150615,6.2,"
"##MN-00 00 32 0120 02121 6040 473562 210539 201"
"166.675613"
"$GPRMC,161249,A,2421.3424,N,08049.3285,W,2.6,123.4,150615,6.2,"
"##MN-00 00 07 0121 02125 6038 473594 210547 201"
"166.67566"
"$GPRMC,161253,A,2421.3410,N,08049.3258,W,2.7,122.8,150615,6.2,"
"##MN-00 00 07 0122 02127 6037 473633 210551 201"
"166.675706"
"$GPRMC,161257,A,2421.3396,N,08049.3230,W,2.7,122.1,150615,6.2,"
"##MN-00 00 07 0123 02129 6035 473676 210551 201"
"166.675752"
"$GPRMC,161301,A,2421.3381,N,08049.3202,W,2.8,121.6,150615,6.2,"
"##MN-00 00 39 0123 02132 6034 473947 210650 201"
"166.675799"
"$GPRMC,161306,A,2421.3358,N,08049.3164,W,2.8,121.5,150615,6.2,"
"##MN-00 00 41 0124 02136 6032 474266 210721 201"
"166.675845"
"$GPRMC,161309,A,2421.3346,N,08049.3142,W,2.8,121.3,150615,6.2,"
"##MN-00 00 37 0125 02139 6031 474783 210855 201"
"166.675891"
"$GPRMC,161314,A,2421.3323,N,08049.3104,W,2.8,121.2,150615,6.2,"
"##MN-00 00 41 0125 02141 6029 475192 210938 201"
"166.675937"
"$GPRMC,161318,A,2421.3306,N,08049.3076,W,2.7,121.9,150615,6.2,"
"##MN-00 00 41 0126 02144 6028 475383 210985 201"
"166.675984"
"$GPRMC,161321,A,2421.3295,N,08049.3056,W,2.6,121.7,150615,6.2,"
"##MN-00 00 08 0126 02149 6026 475529 211002 201"
"166.67603"
"$GPRMC,161326,A,2421.3275,N,08049.3023,W,2.6,122.3,150615,6.2,"
"##MN-00 00 07 0127 02152 6025 475597 211020 201"
"166.676076"
"$GPRMC,161330,A,2421.3258,N,08049.2995,W,2.7,122.3,150615,6.2,"
"##MN-00 00 07 0128 02156 6023 475940 211112 201"
"166.676123"
"$GPRMC,161334,A,2421.3241,N,08049.2967,W,2.6,121.6,150615,6.2,"
"##MN-00 00 07 0128 02160 6022 476686 211237 201"
"166.676169"
"$GPRMC,161338,A,2421.3228,N,08049.2942,W,2.5,122.0,150615,6.2,"
"##MN-00 00 07 0129 02167 6020 477419 211402 201"
"166.676215"
"$GPRMC,161342,A,2421.3212,N,08049.2915,W,2.5,121.9,150615,6.2,"
"##MN-00 00 07 0129 02174 6019 477909 211523 201"
"166.676262"
"$GPRMC,161346,A,2421.3199,N,08049.2894,W,2.5,121.3,150615,6.2,"
"##MN-00 00 39 0130 02176 6017 478400 211592 201"
"166.676308"
"$GPRMC,161350,A,2421.3187,N,08049.2863,W,2.4,121.2,150615,6.2,"
"##MN-00 00 07 0131 02183 6015 478701 211640 201"
"166.676354"
"$GPRMC,161354,A,2421.3169,N,08049.2838,W,2.4,122.1,150615,6.2,"
"##MN-00 00 07 0131 02184 6014 479050 211730 201"
"166.676401"
"$GPRMC,161358,A,2421.3152,N,08049.2813,W,2.4,123.2,150615,6.2,"
"##MN-00 00 07 0132 02191 6012 479270 211773 201"
"166.676447"
"$GPRMC,161402,A,2421.3138,N,08049.2788,W,2.4,123.2,150615,6.2,"
"##MN-00 00 40 0132 02193 6010 479620 211833 201"
"166.676493"
"$GPRMC,161406,A,2421.3121,N,08049.2764,W,2.4,123.8,150615,6.2,"
"##MN-00 00 40 0133 02192 6009 479765 211859 201"
"166.676539"
"$GPRMC,161410,A,2421.3106,N,08049.2739,W,2.4,124.4,150615,6.2,"
"##MN-00 00 08 0133 02196 6007 480003 211941 201"
"166.676586"
"$GPRMC,161414,A,2421.3088,N,08049.2713,W,2.4,124.8,150615,6.2,"
"##MN-00 00 40 0134 02204 6005 480603 212062 201"
"166.676632"
"$GPRMC,161418,A,2421.3071,N,08049.2690,W,2.5,125.1,150615,6.2,"
"##MN-00 00 40 0135 02203 6004 481238 212149 201"
"166.676678"
"$GPRMC,161422,A,2421.3055,N,08049.2665,W,2.5,125.4,150615,6.2,"
"##MN-00 00 08 0136 02205 6002 482520 212420 201"
"166.676725"
"$GPRMC,161426,A,2421.3040,N,08049.2641,W,2.4,125.4,150615,6.2,"
"##MN-00 00 10 0136 02211 6000 482754 212474 201"
"166.676771"
"$GPRMC,161430,A,2421.3024,N,08049.2616,W,2.5,125.1,150615,6.2,"
"##MN-00 00 39 0137 02214 5998 482926 212500 201"
"166.676817"
"$GPRMC,161434,A,2421.3010,N,08049.2589,W,2.5,123.8,150615,6.2,"
"##MN-00 00 07 0137 02213 5996 482974 212510 201"
"166.676863"
"$GPRMC,161438,A,2421.2994,N,08049.2562,W,2.5,122.8,150615,6.2,"
"##MN-00 00 09 0138 02217 5995 483109 212539 201"
"166.67691"
"$GPRMC,161442,A,2421.2982,N,08049.2534,W,2.6,121.9,150615,6.2,"
"##MN-00 00 08 0139 02223 5993 483156 212548 201"
"166.676956"
"$GPRMC,161446,A,2421.2968,N,08049.2507,W,2.6,121.0,150615,6.2,"
"##MN-00 00 08 0139 02227 5991 483199 212525 201"
"166.677002"
"$GPRMC,161450,A,2421.2952,N,08049.2480,W,2.6,121.4,150615,6.2,"
"##MN-00 00 40 0140 02228 5989 483435 212617 201"
"166.677049"
"$GPRMC,161454,A,2421.2936,N,08049.2451,W,2.6,122.5,150615,6.2,"
"##MN-00 00 08 0140 02229 5987 483731 212680 201"
"166.677095"
"$GPRMC,161458,A,2421.2922,N,08049.2422,W,2.6,122.8,150615,6.2,"
"##MN-00 00 08 0141 02232 5985 484434 212834 201"
"166.677141"
"$GPRMC,161502,A,2421.2907,N,08049.2396,W,2.6,122.9,150615,6.2,"
"##MN-00 00 07 0142 02236 5984 485300 213002 201"
"166.677188"
"$GPRMC,161506,A,2421.2892,N,08049.2372,W,2.5,122.8,150615,6.2,"
"##MN-00 00 08 0142 02240 5982 486170 213159 201"
"166.677234"
"$GPRMC,161510,A,2421.2876,N,08049.2346,W,2.6,122.6,150615,6.2,"
"##MN-00 00 08 0143 02241 5980 486948 213204 201"
"166.67728"
"$GPRMC,161514,A,2421.2859,N,08049.2320,W,2.6,122.6,150615,6.2,"
"##MN-00 00 08 0144 02246 5977 487393 213294 201"
"166.677326"
"$GPRMC,161518,A,2421.2845,N,08049.2292,W,2.5,123.1,150615,6.2,"
"##MN-00 00 08 0144 02247 5976 487716 213374 201"
"166.677373"
"$GPRMC,161522,A,2421.2831,N,08049.2265,W,2.5,123.6,150615,6.2,"
"##MN-00 00 08 0145 02246 5974 487861 213391 201"
"166.677419"
"$GPRMC,161526,A,2421.2816,N,08049.2239,W,2.5,123.1,150615,6.2,"
"##MN-00 00 08 0146 02249 5972 488042 213428 201"
"166.677465"
"$GPRMC,161530,A,2421.2802,N,08049.2214,W,2.6,123.6,150615,6.2,"
"##MN-00 00 07 0146 02256 5970 488127 213441 201"
"166.677523"
"$GPRMC,161534,A,2421.2788,N,08049.2187,W,2.6,122.7,150615,6.2,"
"##MN-00 00 07 0147 02259 5968 488183 213413 201"
"166.677569"
"$GPRMC,161538,A,2421.2774,N,08049.2157,W,2.7,121.9,150615,6.2,"
"##MN-00 00 08 0148 02259 5966 488267 213394 201"
"166.677616"
"$GPRMC,161542,A,2421.2758,N,08049.2129,W,2.7,121.5,150615,6.2,"
"##MN-00 00 40 0148 02263 5964 488374 213421 201"
"166.677662"
"$GPRMC,161546,A,2421.2741,N,08049.2102,W,2.6,121.3,150615,6.2,"
"##MN-00 00 08 0149 02266 5961 488411 213412 201"
"166.677708"
"$GPRMC,161550,A,2421.2724,N,08049.2073,W,2.6,121.1,150615,6.2,"
"##MN-00 00 08 0150 02269 5959 488339 213391 201"
"166.677755"
"$GPRMC,161554,A,2421.2708,N,08049.2045,W,2.6,120.9,150615,6.2,"
"##MN-00 00 08 0150 02271 5958 488119 213271 201"
"166.677801"
"$GPRMC,161558,A,2421.2691,N,08049.2017,W,2.6,121.1,150615,6.2,"
"##MN+00 00 07 0151 02271 5955 488020 213242 201"
"166.677847"
"$GPRMC,161602,A,2421.2679,N,08049.1990,W,2.5,121.0,150615,6.2,"
"##MN+00 00 06 0152 02271 5953 488011 213238 201"
"166.677893"
"$GPRMC,161606,A,2421.2663,N,08049.1964,W,2.5,121.2,150615,6.2,"
"##MN+00 00 39 0152 02270 5951 488035 213240 201"
"166.67794"
"$GPRMC,161610,A,2421.2650,N,08049.1940,W,2.5,121.8,150615,6.2,"
"##MN+00 00 07 0153 02268 5949 488114 213254 201"
"166.677986"
"$GPRMC,161614,A,2421.2634,N,08049.1919,W,2.5,121.5,150615,6.2,"
"##MN+00 00 07 0154 02266 5947 488252 213282 201"
"166.678032"
"$GPRMC,161618,A,2421.2621,N,08049.1894,W,2.5,121.9,150615,6.2,"
"##MN+00 00 08 0155 02269 5944 488468 213321 201"
"166.678079"
"#increment_net"
"$GPRMC,161622,A,2421.2603,N,08049.1867,W,2.5,123.3,150615,6.2,"
"##MN-00 00 08 0156 02269 5942 489004 213390 201"
"166.678125"
"$GPRMC,161626,A,2421.2585,N,08049.1841,W,2.5,123.1,150615,6.2,"
"##MN-00 00 08 0156 02266 5940 489942 213662 201"
"166.678171"
"$GPRMC,161630,A,2421.2571,N,08049.1815,W,2.5,121.8,150615,6.2,"
"##MN-00 00 08 0157 02268 5938 490755 213845 201"
"166.678218"
"$GPRMC,161634,A,2421.2554,N,08049.1789,W,2.5,120.8,150615,6.2,"
"##MN-00 00 08 0158 02269 5935 491445 213957 201"
"166.678264"
"$GPRMC,161638,A,2421.2538,N,08049.1764,W,2.4,120.9,150615,6.2,"
"##MN-00 00 08 0158 02269 5933 491822 214055 201"
"166.67831"
"$GPRMC,161642,A,2421.2523,N,08049.1738,W,2.4,120.5,150615,6.2,"
"##MN-00 00 08 0159 02270 5930 492193 214132 201"
"166.678356"
"$GPRMC,161646,A,2421.2509,N,08049.1712,W,2.4,120.3,150615,6.2,"
"##MN-00 00 06 0160 02272 5928 492277 214136 201"
"166.678403"
"$GPRMC,161650,A,2421.2500,N,08049.1684,W,2.5,120.0,150615,6.2,"
"##MN-00 00 35 0161 02266 5926 492153 214124 201"
"166.678449"
"$GPRMC,161654,A,2421.2487,N,08049.1654,W,2.5,119.6,150615,6.2,"
"##MN-00 00 36 0161 02266 5924 491428 213997 201"
"166.678495"
"$GPRMC,161658,A,2421.2474,N,08049.1625,W,2.6,118.7,150615,6.2,"
"##MN-00 00 07 0162 02266 5921 490445 213811 201"
"166.678542"
"$GPRMC,161702,A,2421.2460,N,08049.1599,W,2.5,118.0,150615,6.2,"
"##MN-00 00 07 0163 02260 5919 489502 213569 201"
"166.678588"
"$GPRMC,161706,A,2421.2448,N,08049.1572,W,2.6,117.3,150615,6.2,"
"##MN-00 00 07 0164 02260 5917 488881 213481 201"
"166.678634"
"$GPRMC,161710,A,2421.2433,N,08049.1544,W,2.5,117.5,150615,6.2,"
"##MN-00 00 07 0165 02254 5914 488625 213391 201"
"166.678681"
"$GPRMC,161714,A,2421.2419,N,08049.1517,W,2.5,117.2,150615,6.2,"
"##MN-00 00 07 0165 02255 5912 488577 213393 201"
"166.678727"
"$GPRMC,161718,A,2421.2402,N,08049.1490,W,2.5,118.6,150615,6.2,"
"##MN-00 00 07 0166 02252 5910 488756 213463 201"
"166.678773"
"$GPRMC,161722,A,2421.2390,N,08049.1463,W,2.5,118.3,150615,6.2,"
"##MN-00 00 07 0167 02253 5907 488853 213505 201"
"166.678819"
"$GPRMC,161726,A,2421.2373,N,08049.1435,W,2.5,118.3,150615,6.2,"
"##MN-00 00 40 0168 02249 5905 488878 213522 201"
"166.678866"
"$GPRMC,161730,A,2421.2365,N,08049.1408,W,2.5,118.9,150615,6.2,"
"##MN-00 00 07 0169 02246 5903 488894 213529 201"
"166.678912"
"$GPRMC,161734,A,2421.2350,N,08049.1381,W,2.5,119.7,150615,6.2,"
"##MN-00 00 07 0170 02240 5900 488908 213540 201"
"166.678958"
"$GPRMC,161738,A,2421.2336,N,08049.1354,W,2.5,119.9,150615,6.2,"
"##MN-00 00 07 0170 02239 5898 488894 213542 201"
"166.679005"
"$GPRMC,161743,A,2421.2318,N,08049.1321,W,2.5,120.6,150615,6.2,"
"##MN-00 00 07 0171 02239 5896 488893 213547 201"
"166.679051"
"$GPRMC,161747,A,2421.2303,N,08049.1298,W,2.5,120.4,150615,6.2,"
"##MN-00 00 38 0172 02237 5893 488897 213552 201"
"166.679097"
"$GPRMC,161751,A,2421.2289,N,08049.1272,W,2.5,120.3,150615,6.2,"
"##MN-00 00 06 0173 02229 5891 488893 213564 201"
"166.679144"
"$GPRMC,161755,A,2421.2275,N,08049.1247,W,2.5,120.3,150615,6.2,"
"##MN-00 00 07 0174 02229 5889 488950 213608 201"
"166.67919"
"$GPRMC,161759,A,2421.2262,N,08049.1222,W,2.5,119.9,150615,6.2,"
"##MN-00 00 07 0174 02227 5886 488962 213625 201"
"166.679236"
"$GPRMC,161803,A,2421.2246,N,08049.1198,W,2.4,119.9,150615,6.2,"
"##MN-00 00 07 0175 02226 5884 488904 213613 201"
"166.679282"
"$GPRMC,161807,A,2421.2234,N,08049.1175,W,2.3,119.9,150615,6.2,"
"##MN-00 00 07 0176 02225 5881 488854 213606 201"
"166.679329"
"$GPRMC,161811,A,2421.2220,N,08049.1149,W,2.4,120.3,150615,6.2,"
"##MN-00 00 06 0177 02222 5879 488755 213591 201"
"166.679375"
"$GPRMC,161815,A,2421.2206,N,08049.1122,W,2.4,121.0,150615,6.2,"
"##MN-00 00 06 0178 02218 5877 488530 213572 201"
"166.679421"
"$GPRMC,161819,A,2421.2191,N,08049.1096,W,2.5,120.6,150615,6.2,"
"##MN-00 00 38 0178 02215 5874 488390 213528 201"
"166.679468"
"$GPRMC,161823,A,2421.2179,N,08049.1071,W,2.5,120.9,150615,6.2,"
"##MN-00 00 07 0179 02214 5872 488285 213511 201"
"166.679514"
"$GPRMC,161827,A,2421.2164,N,08049.1045,W,2.5,120.7,150615,6.2,"
"##MN-00 00 33 0180 02213 5870 488196 213496 201"
"166.67956"
"$GPRMC,161831,A,2421.2148,N,08049.1017,W,2.5,120.5,150615,6.2,"
"##MN-00 00 07 0181 02209 5867 488057 213466 201"
"166.679607"
"$GPRMC,161835,A,2421.2137,N,08049.0988,W,2.5,120.3,150615,6.2,"
"##MN-00 00 08 0182 02206 5865 487892 213438 201"
"166.679653"
"$GPRMC,161839,A,2421.2121,N,08049.0959,W,2.6,119.8,150615,6.2,"
"##MN-00 00 07 0183 02201 5862 487322 213375 201"
"166.679699"
"$GPRMC,161843,A,2421.2106,N,08049.0931,W,2.7,119.4,150615,6.2,"
"##MN-00 00 39 0184 02200 5860 486431 213285 201"
"166.679745"
"$GPRMC,161847,A,2421.2092,N,08049.0903,W,2.6,119.1,150615,6.2,"
"##MN-00 00 07 0185 02199 5858 485650 213183 201"
"166.679792"
"$GPRMC,161851,A,2421.2077,N,08049.0877,W,2.5,119.3,150615,6.2,"
"##MN-00 00 07 0185 02195 5855 484442 212901 201"
"166.679838"
"$GPRMC,161855,A,2421.2062,N,08049.0849,W,2.4,118.9,150615,6.2,"
"##MN-00 00 33 0186 02194 5853 483530 212650 201"
"166.679884"
"$GPRMC,161859,A,2421.2047,N,08049.0824,W,2.5,119.2,150615,6.2,"
"##MN-00 00 06 0187 02190 5851 483012 212601 201"
"166.679931"
"$GPRMC,161903,A,2421.2034,N,08049.0800,W,2.5,119.7,150615,6.2,"
"##MN-00 00 40 0188 02184 5848 482716 212529 201"
"166.679977"
"$GPRMC,161907,A,2421.2020,N,08049.0775,W,2.4,120.2,150615,6.2,"
"##MN-00 00 07 0189 02182 5846 482489 212488 201"
"166.680023"
"$GPRMC,161911,A,2421.2005,N,08049.0748,W,2.4,120.5,150615,6.2,"
"##MN-00 00 36 0189 02181 5844 482287 212402 201"
"166.680069"
"$GPRMC,161915,A,2421.1992,N,08049.0722,W,2.4,120.7,150615,6.2,"
"##MN-00 00 07 0190 02177 5842 482189 212391 201"
"166.680116"
"$GPRMC,161919,A,2421.1978,N,08049.0696,W,2.5,120.9,150615,6.2,"
"##MN-00 00 07 0191 02169 5839 482055 212388 201"
"166.680162"
"$GPRMC,161923,A,2421.1964,N,08049.0671,W,2.5,121.0,150615,6.2,"
"##MN-00 00 07 0192 02168 5837 481595 212235 201"
"166.680208"
"$GPRMC,161927,A,2421.1950,N,08049.0645,W,2.5,121.4,150615,6.2,"
"##MN-00 00 08 0193 02163 5835 481030 212140 201"
"166.680255"
"$GPRMC,161931,A,2421.1933,N,08049.0617,W,2.5,121.2,150615,6.2,"
"##MN-00 00 07 0193 02162 5833 480213 212013 201"
"166.680301"
"$GPRMC,161935,A,2421.1924,N,08049.0588,W,2.6,120.6,150615,6.2,"
"##MN-00 00 38 0194 02159 5831 479440 211826 201"
"166.680347"
"$GPRMC,161939,A,2421.1908,N,08049.0561,W,2.5,120.0,150615,6.2,"
"##MN-00 00 06 0195 02157 5828 478942 211763 201"
"166.680394"
"$GPRMC,161943,A,2421.1897,N,08049.0535,W,2.5,120.0,150615,6.2,"
"##MN-00 00 07 0196 02154 5826 477923 211500 201"
"166.68044"
"$GPRMC,161947,A,2421.1884,N,08049.0509,W,2.5,120.1,150615,6.2,"
"##MN-00 00 07 0197 02152 5824 477206 211351 201"
"166.680486"
"$GPRMC,161951,A,2421.1871,N,08049.0483,W,2.5,119.9,150615,6.2,"
"##MN-00 00 07 0198 02150 5822 476859 211368 201"
"166.680532"
"$GPRMC,161955,A,2421.1859,N,08049.0456,W,2.4,119.7,150615,6.2,"
"##MN-00 00 07 0198 02150 5820 476484 211227 201"
"166.680579"
"$GPRMC,161959,A,2421.1843,N,08049.0429,W,2.5,119.8,150615,6.2,"
"##MN-00 00 07 0199 02145 5817 475957 211082 201"
"166.680625"
"$GPRMC,162003,A,2421.1827,N,08049.0403,W,2.5,120.1,150615,6.2,"
"##MN-00 00 07 0200 02140 5815 475666 210997 201"
"166.680671"
"$GPRMC,162007,A,2421.1812,N,08049.0378,W,2.5,120.1,150615,6.2,"
"##MN-00 00 07 0201 02140 5814 475526 210985 201"
"166.680718"
"$GPRMC,162011,A,2421.1796,N,08049.0353,W,2.5,120.5,150615,6.2,"
"##MN-00 00 39 0202 02135 5812 475453 210987 201"
"166.680775"
"$GPRMC,162015,A,2421.1785,N,08049.0323,W,2.6,120.1,150615,6.2,"
"##MN-00 00 40 0203 02130 5809 475407 211007 201"
"166.680822"
"$GPRMC,162019,A,2421.1772,N,08049.0295,W,2.6,118.8,150615,6.2,"
"##MN-00 00 04 0204 02128 5808 475390 211011 201"
"166.680868"
"$GPRMC,162023,A,2421.1758,N,08049.0268,W,2.5,119.3,150615,6.2,"
"##MN-00 00 37 0204 02125 5805 475290 211016 201"
"166.680914"
"$GPRMC,162027,A,2421.1743,N,08049.0241,W,2.5,119.7,150615,6.2,"
"##MN-00 00 07 0205 02121 5803 474871 210933 201"
"166.680961"
"$GPRMC,162031,A,2421.1731,N,08049.0212,W,2.5,119.6,150615,6.2,"
"##MN-00 00 07 0206 02116 5801 474518 210873 200"
"166.681007"
"$GPRMC,162035,A,2421.1714,N,08049.0186,W,2.5,119.8,150615,6.2,"
"##MN-00 00 07 0207 02115 5799 473747 210678 201"
"166.681053"
"$GPRMC,162039,A,2421.1697,N,08049.0160,W,2.4,120.5,150615,6.2,"
"##MN-00 00 06 0207 02116 5798 473196 210558 201"
"166.6811"
"$GPRMC,162043,A,2421.1683,N,08049.0132,W,2.4,121.0,150615,6.2,"
"##MN-00 00 07 0208 02113 5796 472626 210408 201"
"166.681146"
"$GPRMC,162047,A,2421.1667,N,08049.0107,W,2.4,120.9,150615,6.2,"
"##MN-00 00 40 0209 02110 5794 471885 210223 201"
"166.681192"
"$GPRMC,162051,A,2421.1654,N,08049.0082,W,2.4,120.2,150615,6.2,"
"##MN+00 00 06 0210 02111 5792 471362 210120 201"
"166.681238"
"$GPRMC,162055,A,2421.1642,N,08049.0060,W,2.4,120.7,150615,6.2,"
"##MN+00 00 06 0211 02107 5791 471095 210092 200"
"166.681285"
"$GPRMC,162059,A,2421.1625,N,08049.0039,W,2.2,121.3,150615,6.2,"
"##MN+00 00 07 0211 02103 5789 470815 210020 200"
"166.681331"
"$GPRMC,162103,A,2421.1610,N,08049.0017,W,2.4,121.1,150615,6.2,"
"##MN-00 00 07 0212 02102 5787 470469 209947 201"
"166.681377"
"$GPRMC,162107,A,2421.1599,N,08048.9995,W,2.4,121.0,150615,6.2,"
"##MN-00 00 07 0213 02101 5785 470095 209870 201"
"166.681424"
"$GPRMC,162111,A,2421.1588,N,08048.9972,W,2.3,121.0,150615,6.2,"
"##MN-00 00 07 0214 02099 5784 469808 209814 201"
"166.68147"
"$GPRMC,162115,A,2421.1572,N,08048.9949,W,2.3,120.6,150615,6.2,"
"##MN-00 00 07 0215 02098 5782 469587 209762 200"
"166.681516"
"$GPRMC,162119,A,2421.1557,N,08048.9924,W,2.4,120.3,150615,6.2,"
"##MN-00 00 39 0215 02093 5780 469346 209705 201"
"166.681563"
"$GPRMC,162123,A,2421.1545,N,08048.9901,W,2.3,120.2,150615,6.2,"
"##MN-00 00 38 0216 02094 5779 469078 209649 201"
"166.681609"
"$GPRMC,162127,A,2421.1534,N,08048.9876,W,2.4,119.8,150615,6.2,"
"##MN-00 00 07 0217 02092 5777 468965 209649 201"
"166.681655"
"$GPRMC,162131,A,2421.1521,N,08048.9852,W,2.3,118.9,150615,6.2,"
"##MN-00 00 07 0218 02087 5775 468861 209647 201"
"166.681701"
"$GPRMC,162135,A,2421.1508,N,08048.9826,W,2.4,118.4,150615,6.2,"
"##MN-00 00 07 0219 02086 5774 468823 209649 201"
"166.681748"
"$GPRMC,162139,A,2421.1495,N,08048.9800,W,2.4,118.2,150615,6.2,"
"##MN-00 00 05 0219 02083 5773 468774 209627 201"
"166.681794"
"$GPRMC,162143,A,2421.1481,N,08048.9776,W,2.3,118.6,150615,6.2,"
"##MN+00 00 07 0220 02082 5771 468684 209580 201"
"166.68184"
"$GPRMC,162147,A,2421.1469,N,08048.9750,W,2.4,119.1,150615,6.2,"
"##MN+00 00 06 0221 02079 5769 468612 209569 201"
"166.681887"
"$GPRMC,162151,A,2421.1456,N,08048.9723,W,2.4,118.5,150615,6.2,"
"##MN+00 00 07 0222 02080 5768 468562 209554 200"
"166.681933"
"$GPRMC,162156,A,2421.1440,N,08048.9690,W,2.4,118.4,150615,6.2,"
"##MN-00 00 07 0222 02077 5767 468507 209546 200"
"166.681979"
"#increment_net"
"$GPRMC,162200,A,2421.1425,N,08048.9663,W,2.4,118.4,150615,6.2,"
"##MN-00 00 07 0223 02074 5765 468461 209533 201"
"166.682025"
"$GPRMC,162203,A,2421.1415,N,08048.9644,W,2.4,118.3,150615,6.2,"
"##MN-00 00 38 0224 02075 5764 468391 209520 201"
"166.682072"
"$GPRMC,162208,A,2421.1396,N,08048.9609,W,2.5,117.6,150615,6.2,"
"##MN-00 00 38 0225 02069 5762 468271 209504 201"
"166.682118"
"$GPRMC,162212,A,2421.1384,N,08048.9580,W,2.6,117.8,150615,6.2,"
"##MN-00 00 07 0226 02063 5761 468075 209463 200"
"166.682164"
"$GPRMC,162216,A,2421.1371,N,08048.9551,W,2.5,118.5,150615,6.2,"
"##MN-00 00 06 0226 02060 5760 467890 209439 201"
"166.682211"
"$GPRMC,162220,A,2421.1358,N,08048.9525,W,2.5,118.4,150615,6.2,"
"##MN-00 00 06 0227 02056 5758 467687 209383 200"
"166.682257"
"$GPRMC,162224,A,2421.1344,N,08048.9499,W,2.5,118.2,150615,6.2,"
"##MN-00 00 07 0228 02050 5757 467468 209356 200"
"166.682303"
"$GPRMC,162228,A,2421.1331,N,08048.9471,W,2.6,117.9,150615,6.2,"
"##MN-00 00 07 0229 02047 5756 467287 209332 201"
"166.68235"
"$GPRMC,162232,A,2421.1317,N,08048.9444,W,2.6,117.7,150615,6.2,"
"##MN-00 00 06 0230 02047 5754 467146 209307 200"
"166.682396"
"$GPRMC,162236,A,2421.1304,N,08048.9418,W,2.5,117.9,150615,6.2,"
"##MN-00 00 34 0231 02041 5753 467000 209286 200"
"166.682442"
"$GPRMC,162240,A,2421.1292,N,08048.9392,W,2.5,117.9,150615,6.2,"
"##MN-00 00 07 0231 02038 5752 466908 209277 201"
"166.682488"
"$GPRMC,162244,A,2421.1281,N,08048.9364,W,2.5,118.5,150615,6.2,"
"##MN-00 00 07 0232 02035 5751 466818 209256 200"
"166.682535"
"$GPRMC,162248,A,2421.1266,N,08048.9337,W,2.5,119.7,150615,6.2,"
"##MN-00 00 13 0233 02030 5750 466688 209237 200"
"166.682581"
"$GPRMC,162252,A,2421.1252,N,08048.9313,W,2.4,121.3,150615,6.2,"
"##MN-00 00 06 0234 02026 5749 466407 209185 201"
"166.682627"
"$GPRMC,162256,A,2421.1237,N,08048.9288,W,2.4,121.8,150615,6.2,"
"##MN-00 00 06 0235 02026 5748 465859 209089 200"
"166.682674"
"$GPRMC,162300,A,2421.1224,N,08048.9261,W,2.4,121.1,150615,6.2,"
"##MN-00 00 38 0236 02022 5747 465080 208987 201"
"166.68272"
"$GPRMC,162304,A,2421.1209,N,08048.9233,W,2.4,120.4,150615,6.2,"
"##MN-00 00 07 0237 02016 5745 464154 208827 200"
"166.682766"
"$GPRMC,162308,A,2421.1194,N,08048.9207,W,2.5,119.3,150615,6.2,"
"##MN-00 00 06 0237 02014 5744 463193 208677 200"
"166.682813"
"$GPRMC,162312,A,2421.1181,N,08048.9180,W,2.4,119.1,150615,6.2,"
"##MN-00 00 43 0238 02013 5743 462888 208624 201"
"166.682859"
"$GPRMC,162316,A,2421.1169,N,08048.9154,W,2.4,118.2,150615,6.2,"
"##MN-00 00 43 0239 02010 5742 462431 208543 201"
"166.682905"
"$GPRMC,162320,A,2421.1155,N,08048.9127,W,2.5,117.9,150615,6.2,"
"##MN-00 00 43 0240 02007 5741 461945 208482 200"
"166.682951"
"$GPRMC,162324,A,2421.1141,N,08048.9102,W,2.4,118.1,150615,6.2,"
"##MN-00 00 44 0241 02003 5740 461556 208396 201"
"166.682998"
"$GPRMC,162328,A,2421.1127,N,08048.9075,W,2.4,118.3,150615,6.2,"
"##MN-00 00 45 0242 02001 5739 461189 208289 200"
"166.683044"
"$GPRMC,162332,A,2421.1115,N,08048.9049,W,2.4,119.0,150615,6.2,"
"##MN-00 00 42 0243 02000 5738 460639 208182 200"
"166.68309"
"$GPRMC,162336,A,2421.1101,N,08048.9023,W,2.4,119.4,150615,6.2,"
"##MN-00 00 44 0243 01996 5737 460370 208138 201"
"166.683137"
"$GPRMC,162340,A,2421.1087,N,08048.8996,W,2.4,119.5,150615,6.2,"
"##MN-00 00 42 0244 01990 5736 460228 208116 201"
"166.683183"
"$GPRMC,162344,A,2421.1071,N,08048.8969,W,2.5,119.7,150615,6.2,"
"##MN-00 00 44 0245 01988 5735 459963 208070 200"
"166.683229"
"$GPRMC,162348,A,2421.1057,N,08048.8941,W,2.5,119.5,150615,6.2,"
"##MN-00 00 45 0246 01985 5734 459598 207966 201"
"166.683275"
"$GPRMC,162352,A,2421.1042,N,08048.8914,W,2.6,119.8,150615,6.2,"
"##MN-00 00 43 0247 01982 5733 459132 207867 201"
"166.683322"
"$GPRMC,162356,A,2421.1029,N,08048.8887,W,2.5,120.1,150615,6.2,"
"##MN-00 00 44 0248 01979 5732 458755 207778 200"
"166.683368"
"$GPRMC,162400,A,2421.1017,N,08048.8860,W,2.4,120.0,150615,6.2,"
"##MN-00 00 06 0248 01975 5731 458639 207777 200"
"166.683414"
"$GPRMC,162404,A,2421.1004,N,08048.8831,W,2.4,119.8,150615,6.2,"
"##MN-00 00 42 0249 01974 5731 458491 207741 201"
"166.683461"
"$GPRMC,162408,A,2421.0990,N,08048.8803,W,2.5,119.2,150615,6.2,"
"##MN-00 00 44 0250 01970 5730 458462 207734 201"
"166.683507"
"$GPRMC,162412,A,2421.0976,N,08048.8776,W,2.5,119.2,150615,6.2,"
"##MN-00 00 06 0251 01966 5729 458368 207719 200"
"166.683553"
"$GPRMC,162416,A,2421.0961,N,08048.8749,W,2.5,119.2,150615,6.2,"
"##MN-00 00 44 0252 01964 5728 458033 207633 200"
"166.6836"
"$GPRMC,162420,A,2421.0947,N,08048.8723,W,2.5,119.2,150615,6.2,"
"##MN-00 00 43 0253 01962 5728 457711 207569 200"
"166.683646"
"$GPRMC,162424,A,2421.0934,N,08048.8693,W,2.5,118.6,150615,6.2,"
"##MN-00 00 45 0253 01957 5727 457533 207523 201"
"166.683692"
"$GPRMC,162428,A,2421.0920,N,08048.8664,W,2.6,117.5,150615,6.2,"
"##MN-00 00 44 0254 01956 5727 457473 207503 200"
"166.683738"
"$GPRMC,162432,A,2421.0907,N,08048.8638,W,2.6,116.7,150615,6.2,"
"##MN-00 00 44 0255 01956 5726 457316 207476 200"
"166.683785"
"$GPRMC,162436,A,2421.0893,N,08048.8615,W,2.6,116.7,150615,6.2,"
"##MN-00 00 43 0256 01957 5725 457235 207455 200"
"166.683831"
"$GPRMC,162440,A,2421.0884,N,08048.8593,W,2.4,117.7,150615,6.2,"
"##MN-00 00 44 0257 01954 5724 457271 207479 200"
"166.683877"
"$GPRMC,162444,A,2421.0874,N,08048.8568,W,2.4,118.1,150615,6.2,"
"##MN-00 00 44 0257 01950 5724 457411 207501 200"
"166.683924"
"$GPRMC,162448,A,2421.0859,N,08048.8542,W,2.4,118.5,150615,6.2,"
"##MN-00 00 44 0258 01951 5724 457673 207546 200"
"166.68397"
"$GPRMC,162452,A,2421.0845,N,08048.8517,W,2.4,119.4,150615,6.2,"
"##MN-00 00 42 0259 01947 5723 457812 207578 201"
"166.684028"
"$GPRMC,162456,A,2421.0833,N,08048.8491,W,2.5,120.1,150615,6.2,"
"##MN-00 00 40 0260 01942 5722 457611 207537 200"
"166.684074"
"$GPRMC,162500,A,2421.0822,N,08048.8464,W,2.5,120.2,150615,6.2,"
"##MN-00 00 45 0261 01940 5722 457085 207430 200"
"166.68412"
"$GPRMC,162504,A,2421.0807,N,08048.8437,W,2.4,119.8,150615,6.2,"
"##MN-00 00 45 0262 01940 5721 457005 207429 200"
"166.684167"
"$GPRMC,162508,A,2421.0794,N,08048.8410,W,2.5,118.4,150615,6.2,"
"##MN-00 00 06 0263 01936 5721 456829 207388 200"
"166.684213"
"$GPRMC,162512,A,2421.0780,N,08048.8382,W,2.5,117.9,150615,6.2,"
"##MN-00 00 44 0263 01937 5720 456727 207350 200"
"166.684259"
"$GPRMC,162516,A,2421.0768,N,08048.8354,W,2.4,117.0,150615,6.2,"
"##MN-00 00 45 0264 01937 5720 456461 207306 201"
"166.684306"
"$GPRMC,162520,A,2421.0754,N,08048.8325,W,2.5,116.5,150615,6.2,"
"##MN-00 00 43 0265 01937 5719 456122 207225 200"
"166.684352"
"$GPRMC,162524,A,2421.0742,N,08048.8296,W,2.5,116.5,150615,6.2,"
"##MN-00 00 45 0266 01933 5719 455982 207195 200"
"166.684398"
"$GPRMC,162528,A,2421.0728,N,08048.8267,W,2.5,117.1,150615,6.2,"
"##MN-00 00 45 0267 01933 5719 455735 207141 200"
"166.684444"
"$GPRMC,162532,A,2421.0715,N,08048.8238,W,2.5,117.7,150615,6.2,"
"##MN-00 00 45 0268 01930 5718 455629 207133 200"
"166.684491"
"$GPRMC,162536,A,2421.0701,N,08048.8210,W,2.5,117.4,150615,6.2,"
"##MN-00 00 44 0268 01928 5718 455622 207147 200"
"166.684537"
"$GPRMC,162540,A,2421.0687,N,08048.8181,W,2.6,117.5,150615,6.2,"
"##MN-00 00 44 0269 01924 5718 455706 207201 200"
"166.684583"
"$GPRMC,162544,A,2421.0674,N,08048.8153,W,2.6,117.5,150615,6.2,"
"##MN-00 00 45 0270 01919 5717 455507 207192 200"
"166.68463"
"$GPRMC,162548,A,2421.0660,N,08048.8126,W,2.6,118.0,150615,6.2,"
"##MN-00 00 47 0271 01921 5717 454903 207068 200"
"166.684676"
"$GPRMC,162552,A,2421.0645,N,08048.8099,W,2.5,118.4,150615,6.2,"
"##MN+00 00 46 0272 01916 5717 454252 206967 200"
"166.684722"
"$GPRMC,162556,A,2421.0632,N,08048.8071,W,2.5,117.8,150615,6.2,"
"##MN+00 00 47 0273 01915 5716 453638 206834 200"
"166.684769"
"$GPRMC,162600,A,2421.0620,N,08048.8042,W,2.6,117.0,150615,6.2,"
"##MN+00 00 47 0273 01911 5716 453223 206715 200"
"166.684815"
"$GPRMC,162604,A,2421.0602,N,08048.8014,W,2.6,117.5,150615,6.2,"
"##MN-00 00 45 0274 01913 5716 453195 206702 201"
"166.684861"
"$GPRMC,162608,A,2421.0587,N,08048.7988,W,2.5,118.3,150615,6.2,"
"##MN-00 00 45 0275 01908 5716 453261 206715 201"
"166.684907"
"$GPRMC,162612,A,2421.0574,N,08048.7962,W,2.5,118.3,150615,6.2,"
"##MN-00 00 45 0276 01906 5716 453294 206712 201"
"166.684954"
"$GPRMC,162616,A,2421.0560,N,08048.7936,W,2.5,118.3,150615,6.2,"
"##MN-00 00 45 0277 01905 5715 453153 206674 201"
"166.685"
"$GPRMC,162620,A,2421.0548,N,08048.7911,W,2.6,118.1,150615,6.2,"
"##MN-00 00 44 0278 01903 5715 452815 206567 200"
"166.685046"
"$GPRMC,162624,A,2421.0535,N,08048.7883,W,2.5,118.3,150615,6.2,"
"##MN-00 00 48 0279 01899 5715 451987 206408 200"
"166.685093"
"$GPRMC,162628,A,2421.0522,N,08048.7856,W,2.5,118.6,150615,6.2,"
"##MN-00 00 42 0279 01900 5714 451092 206207 200"
"166.685139"
"$GPRMC,162632,A,2421.0508,N,08048.7829,W,2.5,118.9,150615,6.2,"
"##MN+00 00 49 0280 01894 5714 450113 205952 200"
"166.685185"
"$GPRMC,162636,A,2421.0492,N,08048.7804,W,2.5,117.9,150615,6.2,"
"##MN+00 00 46 0281 01895 5714 449722 205889 200"
"166.685231"
"$GPRMC,162640,A,2421.0482,N,08048.7779,W,2.5,118.2,150615,6.2,"
"##MN+00 00 07 0282 01898 5714 449958 205935 200"
"166.685278"
"#increment_net"
"$GPRMC,162644,A,2421.0468,N,08048.7751,W,2.5,118.4,150615,6.2,"
"##MN-00 00 08 0282 01892 5714 450775 206061 200"
"166.685324"
"$GPRMC,162648,A,2421.0452,N,08048.7723,W,2.5,118.6,150615,6.2,"
"##MN-00 00 45 0283 01891 5714 450743 206094 200"
"166.68537"
"$GPRMC,162652,A,2421.0439,N,08048.7695,W,2.5,118.4,150615,6.2,"
"##MN-00 00 44 0284 01890 5714 450982 206139 201"
"166.685417"
"$GPRMC,162656,A,2421.0424,N,08048.7667,W,2.6,118.3,150615,6.2,"
"##MN-00 00 44 0285 01888 5714 451342 206215 200"
"166.685463"
"$GPRMC,162700,A,2421.0411,N,08048.7639,W,2.6,117.5,150615,6.2,"
"##MN-00 00 43 0286 01888 5714 451328 206231 200"
"166.685509"
"$GPRMC,162704,A,2421.0399,N,08048.7611,W,2.6,117.8,150615,6.2,"
"##MN-00 00 44 0287 01886 5714 451114 206186 200"
"166.685556"
"$GPRMC,162709,A,2421.0381,N,08048.7576,W,2.5,117.7,150615,6.2,"
"##MN-00 00 45 0287 01884 5714 450559 206062 200"
"166.685602"
"$GPRMC,162713,A,2421.0367,N,08048.7548,W,2.5,117.7,150615,6.2,"
"##MN-00 00 46 0288 01882 5714 449783 205874 200"
"166.685648"
"$GPRMC,162717,A,2421.0351,N,08048.7520,W,2.5,117.7,150615,6.2,"
"##MN-00 00 44 0289 01879 5714 449227 205786 200"
"166.685694"
"$GPRMC,162721,A,2421.0339,N,08048.7492,W,2.5,117.7,150615,6.2,"
"##MN-00 00 45 0290 01880 5714 448087 205513 200"
"166.685741"
"$GPRMC,162725,A,2421.0327,N,08048.7464,W,2.5,117.4,150615,6.2,"
"##MN-00 00 48 0291 01878 5714 447386 205357 200"
"166.685787"
"$GPRMC,162729,A,2421.0313,N,08048.7435,W,2.6,117.4,150615,6.2,"
"##MN-00 00 45 0292 01877 5714 447180 205314 200"
"166.685833"
"$GPRMC,162733,A,2421.0299,N,08048.7406,W,2.6,117.3,150615,6.2,"
"##MN-00 00 44 0293 01876 5715 446809 205217 200"
"166.68588"
"$GPRMC,162737,A,2421.0286,N,08048.7378,W,2.8,116.8,150615,6.2,"
"##MN-00 00 45 0294 01872 5715 446072 205000 200"
"166.685926"
"$GPRMC,162741,A,2421.0273,N,08048.7351,W,2.6,116.5,150615,6.2,"
"##MN-00 00 45 0294 01874 5715 445705 204959 200"
"166.685972"
"$GPRMC,162745,A,2421.0260,N,08048.7323,W,2.6,116.9,150615,6.2,"
"##MN-00 00 44 0295 01874 5715 445258 204802 200"
"166.686019"
"$GPRMC,162749,A,2421.0246,N,08048.7293,W,2.6,117.0,150615,6.2,"
"##MN-00 00 44 0296 01873 5715 444888 204758 200"
"166.686065"
"$GPRMC,162753,A,2421.0233,N,08048.7265,W,2.5,117.3,150615,6.2,"
"##MN-00 00 44 0297 01869 5715 444626 204687 200"
"166.686111"
"$GPRMC,162757,A,2421.0220,N,08048.7238,W,2.5,118.0,150615,6.2,"
"##MN-00 00 47 0298 01870 5716 444388 204607 201"
"166.686157"
"$GPRMC,162801,A,2421.0208,N,08048.7212,W,2.5,118.3,150615,6.2,"
"##MN-00 00 44 0299 01870 5716 444216 204583 200"
"166.686204"
"$GPRMC,162805,A,2421.0197,N,08048.7184,W,2.5,118.4,150615,6.2,"
"##MN-00 00 43 0300 01867 5716 444097 204561 200"
"166.68625"
"$GPRMC,162809,A,2421.0184,N,08048.7154,W,2.5,118.3,150615,6.2,"
"##MN-00 00 45 0301 01867 5716 444056 204549 200"
"166.686296"
"$GPRMC,162813,A,2421.0172,N,08048.7127,W,2.5,118.4,150615,6.2,"
"##MN-00 00 45 0301 01865 5717 443976 204531 200"
"166.686343"
"$GPRMC,162817,A,2421.0155,N,08048.7101,W,2.5,117.9,150615,6.2,"
"##MN-00 00 46 0302 01864 5717 443877 204503 200"
"166.686389"
"$GPRMC,162821,A,2421.0139,N,08048.7075,W,2.4,118.6,150615,6.2,"
"##MN-00 00 42 0303 01860 5717 443821 204496 200"
"166.686435"
"$GPRMC,162825,A,2421.0122,N,08048.7054,W,2.5,119.2,150615,6.2,"
"##MN-00 00 43 0304 01856 5718 443728 204475 200"
"166.686481"
"$GPRMC,162829,A,2421.0110,N,08048.7030,W,2.5,119.7,150615,6.2,"
"##MN-00 00 46 0305 01851 5718 443659 204470 200"
"166.686528"
"$GPRMC,162833,A,2421.0097,N,08048.7003,W,2.6,119.6,150615,6.2,"
"##MN-00 00 46 0306 01854 5718 443553 204453 200"
"166.686574"
"$GPRMC,162837,A,2421.0085,N,08048.6977,W,2.5,119.3,150615,6.2,"
"##MN-00 00 45 0307 01849 5719 443476 204446 200"
"166.68662"
"$GPRMC,162841,A,2421.0070,N,08048.6949,W,2.5,119.0,150615,6.2,"
"##MN-00 00 45 0308 01844 5720 443395 204437 200"
"166.686667"
"$GPRMC,162845,A,2421.0056,N,08048.6921,W,2.5,119.3,150615,6.2,"
"##MN-00 00 44 0309 01840 5720 443359 204431 200"
"166.686713"
"$GPRMC,162849,A,2421.0042,N,08048.6895,W,2.5,119.2,150615,6.2,"
"##MN-00 00 46 0310 01837 5720 443303 204421 200"
"166.686759"
"$GPRMC,162853,A,2421.0024,N,08048.6869,W,2.5,119.1,150615,6.2,"
"##MN-00 00 44 0311 01835 5721 443177 204392 200"
"166.686806"
"$GPRMC,162857,A,2421.0010,N,08048.6844,W,2.4,119.9,150615,6.2,"
"##MN-00 00 44 0311 01830 5721 442979 204365 200"
"166.686852"
"$GPRMC,162901,A,2420.9998,N,08048.6816,W,2.4,119.6,150615,6.2,"
"##MN-00 00 44 0312 01828 5722 442811 204333 200"
"166.686898"
"$GPRMC,162905,A,2420.9988,N,08048.6790,W,2.4,119.1,150615,6.2,"
"##MN-00 00 43 0313 01823 5723 442708 204319 200"
"166.686944"
"$GPRMC,162909,A,2420.9975,N,08048.6762,W,2.5,119.8,150615,6.2,"
"##MN-00 00 47 0314 01820 5723 442647 204309 200"
"166.686991"
"$GPRMC,162913,A,2420.9960,N,08048.6736,W,2.5,120.1,150615,6.2,"
"##MN-00 00 45 0315 01817 5724 442621 204303 200"
"166.687037"
"$GPRMC,162917,A,2420.9948,N,08048.6708,W,2.5,119.7,150615,6.2,"
"##MN-00 00 43 0316 01817 5724 442605 204298 200"
"166.687083"
"$GPRMC,162921,A,2420.9935,N,08048.6680,W,2.5,119.3,150615,6.2,"
"##MN-00 00 45 0317 01810 5725 442592 204297 200"
"166.68713"
"$GPRMC,162925,A,2420.9922,N,08048.6653,W,2.5,118.8,150615,6.2,"
"##MN-00 00 49 0318 01808 5726 442582 204290 200"
"166.687176"
"$GPRMC,162929,A,2420.9910,N,08048.6627,W,2.5,118.4,150615,6.2,"
"##MN-00 00 46 0319 01805 5726 442574 204290 200"
"166.687222"
"$GPRMC,162933,A,2420.9895,N,08048.6604,W,2.4,118.8,150615,6.2,"
"##MN-00 00 44 0320 01803 5727 442559 204288 200"
"166.68728"
"$GPRMC,162937,A,2420.9883,N,08048.6579,W,2.3,119.0,150615,6.2,"
"##MN-00 00 45 0321 01797 5728 442553 204285 200"
"166.687326"
"$GPRMC,162941,A,2420.9869,N,08048.6553,W,2.3,119.3,150615,6.2,"
"##MN-00 00 44 0322 01795 5728 442549 204284 200"
"166.687373"
"$GPRMC,162945,A,2420.9856,N,08048.6531,W,2.2,120.0,150615,6.2,"
"##MN-00 00 45 0323 01793 5729 442546 204284 200"
"166.687419"
"$GPRMC,162949,A,2420.9846,N,08048.6512,W,2.3,119.8,150615,6.2,"
"##MN-00 00 43 0324 01790 5729 442537 204281 200"
"166.687465"
"$GPRMC,162953,A,2420.9828,N,08048.6483,W,2.2,120.2,150615,6.2,"
"##MN-00 00 45 0325 01784 5730 442535 204280 200"
"166.687512"
"$GPRMC,162957,A,2420.9814,N,08048.6457,W,2.3,119.8,150615,6.2,"
"##MN-00 00 43 0325 01783 5731 442536 204281 200"
"166.687558"
"$GPRMC,163001,A,2420.9803,N,08048.6432,W,2.3,120.1,150615,6.2,"
"##MN-00 00 46 0326 01780 5731 442540 204281 200"
"166.687604"
"$GPRMC,163005,A,2420.9792,N,08048.6407,W,2.4,118.3,150615,6.2,"
"##MN-00 00 45 0327 01779 5732 442541 204281 200"
"166.68765"
"$GPRMC,163009,A,2420.9780,N,08048.6382,W,2.4,116.8,150615,6.2,"
"##MN-00 00 45 0328 01777 5733 442540 204282 200"
"166.687697"
"$GPRMC,163013,A,2420.9767,N,08048.6356,W,2.4,117.0,150615,6.2,"
"##MN-00 00 46 0329 01774 5734 442533 204281 200"
"166.687743"
"$GPRMC,163017,A,2420.9754,N,08048.6330,W,2.4,116.6,150615,6.2,"
"##MN-00 00 46 0330 01771 5735 442534 204281 200"
"166.687789"
"$GPRMC,163021,A,2420.9742,N,08048.6304,W,2.5,117.0,150615,6.2,"
"##MN-00 00 45 0331 01769 5735 442532 204280 200"
"166.687836"
"$GPRMC,163025,A,2420.9728,N,08048.6278,W,2.4,117.5,150615,6.2,"
"##MN-00 00 48 0332 01762 5736 442528 204279 200"
"166.687882"
"$GPRMC,163029,A,2420.9716,N,08048.6251,W,2.4,117.4,150615,6.2,"
"##MN-00 00 44 0333 01762 5737 442530 204280 200"
"166.687928"
"$GPRMC,163033,A,2420.9704,N,08048.6225,W,2.4,117.7,150615,6.2,"
"##MN-00 00 46 0334 01757 5738 442529 204280 200"
"166.687975"
"$GPRMC,163037,A,2420.9691,N,08048.6199,W,2.4,117.4,150615,6.2,"
"##MN-00 00 48 0335 01753 5738 442524 204279 200"
"166.688021"
"$GPRMC,163041,A,2420.9678,N,08048.6172,W,2.4,117.1,150615,6.2,"
"##MN-00 00 44 0336 01754 5739 442518 204277 200"
"166.688067"
"$GPRMC,163045,A,2420.9664,N,08048.6144,W,2.4,117.2,150615,6.2,"
"##MN-00 00 43 0337 01751 5740 442520 204278 200"
"166.688113"
"$GPRMC,163049,A,2420.9652,N,08048.6115,W,2.4,117.4,150615,6.2,"
"##MN-00 00 46 0338 01745 5741 442517 204278 200"
"166.68816"
"$GPRMC,163053,A,2420.9639,N,08048.6088,W,2.5,117.4,150615,6.2,"
"##MN-00 00 46 0339 01745 5741 442516 204278 200"
"166.688206"
"$GPRMC,163057,A,2420.9626,N,08048.6064,W,2.5,117.3,150615,6.2,"
"##MN-00 00 43 0339 01744 5742 442513 204277 200"
"166.688252"
"$GPRMC,163101,A,2420.9612,N,08048.6038,W,2.5,117.2,150615,6.2,"
"##MN-00 00 44 0340 01739 5743 442509 204277 200"
"166.688299"
"$GPRMC,163105,A,2420.9599,N,08048.6011,W,2.5,117.3,150615,6.2,"
"##MN-00 00 44 0341 01735 5744 442508 204276 200"
"166.688345"
"$GPRMC,163109,A,2420.9583,N,08048.5985,W,2.4,117.7,150615,6.2,"
"##MN-00 00 47 0342 01728 5745 442509 204277 200"
"166.688391"
"$GPRMC,163113,A,2420.9569,N,08048.5960,W,2.4,118.4,150615,6.2,"
"##MN+00 00 45 0343 01729 5746 442515 204278 200"
"166.688437"
"$GPRMC,163117,A,2420.9558,N,08048.5934,W,2.3,119.4,150615,6.2,"
"##MN+00 00 44 0344 01726 5746 442513 204278 200"
"166.688484"
"$GPRMC,163122,A,2420.9544,N,08048.5901,W,2.3,119.9,150615,6.2,"
"##MN+00 00 45 0345 01723 5747 442513 204278 200"
"166.68853"
"$GPRMC,163126,A,2420.9530,N,08048.5874,W,2.3,119.9,150615,6.2,"
"##MN-00 00 48 0346 01719 5748 442515 204279 200"
"166.688576"
"$GPRMC,163130,A,2420.9519,N,08048.5850,W,2.3,120.5,150615,6.2,"
"##MN-00 00 46 0347 01716 5749 442517 204279 200"
"166.688623"
"$GPRMC,163133,A,2420.9508,N,08048.5833,W,2.3,120.5,150615,6.2,"
"##MN-00 00 49 0347 01711 5750 442518 204279 200"
"166.688669"
"$GPRMC,163138,A,2420.9490,N,08048.5803,W,2.3,120.8,150615,6.2,"
"##MN+00 00 48 0348 01709 5750 442518 204280 200"
"166.688715"
"$GPRMC,163142,A,2420.9475,N,08048.5778,W,2.3,121.0,150615,6.2,"
"##MN+00 00 45 0349 01708 5751 442511 204279 200"
"166.688762"
"$GPRMC,163146,A,2420.9465,N,08048.5754,W,2.4,119.8,150615,6.2,"
"##MN+00 00 07 0350 01705 5752 442501 204277 200"
"166.688808"
"#increment_net"
"$GPRMC,163150,A,2420.9450,N,08048.5728,W,2.4,118.4,150615,6.2,"
"##MN-00 00 07 0351 01704 5753 442498 204277 200"
"166.688854"
"$GPRMC,163154,A,2420.9437,N,08048.5702,W,2.4,117.7,150615,6.2,"
"##MN-00 00 43 0352 01700 5754 442496 204276 200"
"166.6889"
"$GPRMC,163158,A,2420.9425,N,08048.5677,W,2.4,118.0,150615,6.2,"
"##MN-00 00 46 0353 01697 5754 442483 204274 200"
"166.688947"
"$GPRMC,163202,A,2420.9411,N,08048.5650,W,2.4,117.3,150615,6.2,"
"##MN-00 00 47 0354 01695 5755 442473 204271 200"
"166.688993"
"$GPRMC,163206,A,2420.9397,N,08048.5622,W,2.4,117.4,150615,6.2,"
"##MN-00 00 46 0354 01693 5756 442471 204271 200"
"166.689039"
"$GPRMC,163210,A,2420.9384,N,08048.5598,W,2.5,117.4,150615,6.2,"
"##MN-00 00 46 0355 01691 5757 442471 204271 200"
"166.689086"
"$GPRMC,163214,A,2420.9371,N,08048.5572,W,2.5,117.3,150615,6.2,"
"##MN-00 00 44 0356 01690 5758 442468 204272 200"
"166.689132"
"$GPRMC,163218,A,2420.9359,N,08048.5544,W,2.5,117.9,150615,6.2,"
"##MN-00 00 45 0357 01683 5759 442468 204271 200"
"166.689178"
"$GPRMC,163222,A,2420.9344,N,08048.5517,W,2.5,119.0,150615,6.2,"
"##MN-00 00 44 0358 01681 5760 442461 204269 200"
"166.689225"
"$GPRMC,163226,A,2420.9328,N,08048.5490,W,2.5,119.4,150615,6.2,"
"##MN-00 00 44 0359 01676 5760 442466 204270 200"
"166.689271"
"$GPRMC,163230,A,2420.9320,N,08048.5463,W,2.4,119.8,150615,6.2,"
"##MN-00 00 44 0360 01672 5762 442468 204271 200"
"166.689317"
"$GPRMC,163234,A,2420.9305,N,08048.5437,W,2.4,120.4,150615,6.2,"
"##MN-00 00 45 0361 01667 5762 442474 204273 200"
"166.689363"
"$GPRMC,163238,A,2420.9291,N,08048.5412,W,2.4,120.7,150615,6.2,"
"##MN-00 00 48 0362 01663 5763 442467 204272 200"
"166.68941"
"$GPRMC,163242,A,2420.9276,N,08048.5387,W,2.4,121.2,150615,6.2,"
"##MN-00 00 45 0363 01661 5764 442443 204267 200"
"166.689456"
"$GPRMC,163246,A,2420.9259,N,08048.5362,W,2.4,121.2,150615,6.2,"
"##MN-00 00 45 0364 01658 5765 442431 204264 200"
"166.689502"
"$GPRMC,163250,A,2420.9245,N,08048.5337,W,2.4,120.7,150615,6.2,"
"##MN-00 00 48 0365 01654 5766 442391 204253 200"
"166.689549"
"$GPRMC,163254,A,2420.9231,N,08048.5312,W,2.4,120.5,150615,6.2,"
"##MN-00 00 46 0366 01651 5766 442347 204248 200"
"166.689595"
"$GPRMC,163258,A,2420.9218,N,08048.5286,W,2.4,120.6,150615,6.2,"
"##MN-00 00 46 0367 01648 5768 442336 204246 200"
"166.689641"
"$GPRMC,163302,A,2420.9202,N,08048.5259,W,2.4,120.8,150615,6.2,"
"##MN-00 00 51 0368 01646 5768 442342 204246 200"
"166.689687"
"$GPRMC,163306,A,2420.9189,N,08048.5233,W,2.4,120.9,150615,6.2,"
"##MN-00 00 45 0369 01644 5769 442369 204252 200"
"166.689734"
"$GPRMC,163310,A,2420.9176,N,08048.5206,W,2.5,120.6,150615,6.2,"
"##MN-00 00 47 0370 01644 5770 442373 204253 200"
"166.68978"
"$GPRMC,163314,A,2420.9164,N,08048.5179,W,2.5,120.9,150615,6.2,"
"##MN-00 00 52 0371 01640 5771 442340 204243 200"
"166.689826"
"$GPRMC,163318,A,2420.9153,N,08048.5155,W,2.5,120.8,150615,6.2,"
"##MN-00 00 46 0372 01638 5772 442296 204235 200"
"166.689873"
