" Tow: 14OF-D-ED   RVWS/WS15161"
" Date: 15/06/2015"
" Temperature Probe #  4762    Conductivity Probe #  710"
" Pressure Probe #  159"
" Flow Meter Calibration  4.71 (m/count)  "
"166.615729"
"$GPRMC,144635,A,2423.7079,N,08053.0700,W,3.0,117.3,150615,6.2,"
"##MN-00 00 44 0012 01522 6837 427640 676252 201"
"166.615775"
"$GPRMC,144640,A,2423.7058,N,08053.0658,W,3.1,117.1,150615,6.2,"
"##MN-00 00 41 0013 01523 6836 446550 205440 201"
"166.615822"
"$GPRMC,144644,A,2423.7043,N,08053.0625,W,3.1,117.2,150615,6.2,"
"##MN-00 00 46 0014 01525 6835 446509 205423 201"
"166.615868"
"$GPRMC,144648,A,2423.7027,N,08053.0593,W,2.9,117.4,150615,6.2,"
"##MN-00 00 42 0014 01521 6834 446479 205416 201"
"166.615914"
"$GPRMC,144652,A,2423.7012,N,08053.0559,W,2.9,117.4,150615,6.2,"
"##MN-00 00 43 0015 01524 6834 446441 205404 201"
"166.615961"
"$GPRMC,144656,A,2423.6996,N,08053.0528,W,2.9,116.7,150615,6.2,"
"##MN-00 00 48 0015 01523 6833 446374 205391 201"
"166.616007"
"$GPRMC,144700,A,2423.6982,N,08053.0497,W,2.9,118.0,150615,6.2,"
"##MN-00 00 44 0015 01524 6832 446386 205391 201"
"166.616053"
"$GPRMC,144704,A,2423.6967,N,08053.0466,W,2.9,117.3,150615,6.2,"
"##MN-00 00 46 0016 01529 6831 446414 205395 201"
"166.6161"
"$GPRMC,144708,A,2423.6951,N,08053.0439,W,2.8,118.6,150615,6.2,"
"##MN-00 00 46 0016 01532 6830 446387 205388 201"
"166.616146"
"$GPRMC,144712,A,2423.6935,N,08053.0411,W,2.8,119.8,150615,6.2,"
"##MN-00 00 44 0017 01535 6829 446333 205371 201"
"166.616192"
"$GPRMC,144716,A,2423.6920,N,08053.0381,W,2.7,120.9,150615,6.2,"
"##MN-00 00 43 0017 01535 6827 446387 205384 201"
"166.616238"
"$GPRMC,144720,A,2423.6903,N,08053.0353,W,2.9,121.4,150615,6.2,"
"##MN-00 00 42 0018 01535 6826 446353 205374 201"
"166.616285"
"$GPRMC,144724,A,2423.6888,N,08053.0324,W,2.8,122.0,150615,6.2,"
"##MN-00 00 42 0019 01541 6825 446357 205372 201"
"166.616331"
"$GPRMC,144728,A,2423.6870,N,08053.0295,W,2.9,122.8,150615,6.2,"
"##MN-00 00 43 0019 01547 6823 446359 205372 201"
"166.616377"
"$GPRMC,144732,A,2423.6855,N,08053.0265,W,2.9,122.0,150615,6.2,"
"##MN-00 00 45 0020 01549 6822 446331 205358 201"
"166.616424"
"$GPRMC,144736,A,2423.6838,N,08053.0234,W,2.9,120.5,150615,6.2,"
"##MN-00 00 43 0021 01553 6821 446350 205363 201"
"166.61647"
"$GPRMC,144740,A,2423.6823,N,08053.0203,W,2.9,120.0,150615,6.2,"
"##MN-00 00 44 0021 01555 6819 446333 205356 201"
"166.616516"
"$GPRMC,144744,A,2423.6807,N,08053.0173,W,2.9,119.9,150615,6.2,"
"##MN-00 00 46 0022 01561 6818 446337 205357 201"
"166.616562"
"$GPRMC,144748,A,2423.6790,N,08053.0141,W,3.0,119.4,150615,6.2,"
"##MN-00 00 46 0023 01567 6816 446354 205360 201"
"166.616609"
"$GPRMC,144752,A,2423.6776,N,08053.0110,W,3.0,118.5,150615,6.2,"
"##MN-00 00 46 0023 01572 6815 446417 205381 201"
"166.616655"
"$GPRMC,144756,A,2423.6760,N,08053.0077,W,3.0,118.1,150615,6.2,"
"##MN-00 00 47 0024 01574 6813 446449 205376 201"
"166.616701"
"$GPRMC,144800,A,2423.6745,N,08053.0043,W,3.0,116.7,150615,6.2,"
"##MN-00 00 48 0024 01579 6811 446395 205363 201"
"166.616748"
"$GPRMC,144804,A,2423.6726,N,08053.0005,W,3.1,115.8,150615,6.2,"
"##MN-00 00 47 0025 01582 6810 446388 205360 201"
"166.616794"
"$GPRMC,144808,A,2423.6711,N,08052.9970,W,3.1,116.3,150615,6.2,"
"##MN-00 00 40 0026 01588 6808 446385 205354 201"
"166.61684"
"$GPRMC,144812,A,2423.6695,N,08052.9935,W,3.1,115.7,150615,6.2,"
"##MN-00 00 44 0026 01594 6807 446512 205386 201"
"166.616887"
"$GPRMC,144816,A,2423.6682,N,08052.9900,W,3.2,114.2,150615,6.2,"
"##MN-00 00 44 0027 01596 6805 446516 205393 201"
"166.616933"
"$GPRMC,144820,A,2423.6665,N,08052.9867,W,3.2,114.5,150615,6.2,"
"##MN-00 00 43 0027 01601 6803 446386 205349 201"
"166.616979"
"$GPRMC,144824,A,2423.6649,N,08052.9835,W,3.1,115.7,150615,6.2,"
"##MN-00 00 44 0028 01604 6801 446554 205398 201"
"166.617025"
"$GPRMC,144828,A,2423.6635,N,08052.9801,W,3.1,116.2,150615,6.2,"
"##MN-00 00 46 0029 01608 6799 446523 205385 201"
"166.617072"
"$GPRMC,144832,A,2423.6620,N,08052.9768,W,3.0,115.9,150615,6.2,"
"##MN-00 00 46 0029 01612 6798 446529 205391 201"
"166.617118"
"$GPRMC,144836,A,2423.6606,N,08052.9736,W,3.0,116.1,150615,6.2,"
"##MN-00 00 42 0030 01617 6796 446528 205389 201"
"166.617164"
"$GPRMC,144840,A,2423.6590,N,08052.9705,W,3.1,116.9,150615,6.2,"
"##MN-00 00 43 0030 01623 6794 446543 205392 201"
"166.617211"
"$GPRMC,144844,A,2423.6574,N,08052.9673,W,3.1,117.1,150615,6.2,"
"##MN-00 00 42 0031 01623 6792 446537 205389 201"
"166.617257"
"$GPRMC,144848,A,2423.6559,N,08052.9643,W,3.0,117.9,150615,6.2,"
"##MN-00 00 40 0031 01630 6790 446493 205382 201"
"166.617303"
"$GPRMC,144852,A,2423.6543,N,08052.9614,W,3.0,117.8,150615,6.2,"
"##MN-00 00 45 0032 01634 6788 446545 205384 201"
"166.61735"
"$GPRMC,144856,A,2423.6528,N,08052.9586,W,2.9,117.8,150615,6.2,"
"##MN-00 00 45 0033 01641 6786 446546 205386 201"
"166.617396"
"$GPRMC,144900,A,2423.6514,N,08052.9557,W,2.9,118.4,150615,6.2,"
"##MN-00 00 47 0033 01645 6785 446555 205387 201"
"166.617442"
"$GPRMC,144904,A,2423.6499,N,08052.9525,W,2.8,118.7,150615,6.2,"
"##MN-00 00 44 0034 01648 6783 446558 205386 201"
"166.617488"
"$GPRMC,144908,A,2423.6483,N,08052.9495,W,2.9,119.1,150615,6.2,"
"##MN-00 00 41 0034 01648 6781 446560 205386 201"
"166.617546"
"$GPRMC,144912,A,2423.6467,N,08052.9466,W,2.8,120.4,150615,6.2,"
"##MN-00 00 43 0035 01656 6778 446574 205387 201"
"166.617593"
"$GPRMC,144916,A,2423.6452,N,08052.9437,W,2.8,120.8,150615,6.2,"
"##MN-00 00 44 0035 01659 6777 446565 205386 201"
"166.617639"
"$GPRMC,144920,A,2423.6436,N,08052.9407,W,2.8,120.0,150615,6.2,"
"##MN-00 00 45 0036 01664 6775 446554 205381 201"
"166.617685"
"$GPRMC,144924,A,2423.6420,N,08052.9375,W,2.9,119.0,150615,6.2,"
"##MN-00 00 43 0037 01668 6773 446555 205381 201"
"166.617731"
"$GPRMC,144928,A,2423.6405,N,08052.9344,W,2.9,118.4,150615,6.2,"
"##MN-00 00 43 0037 01674 6771 446572 205382 201"
"166.617778"
"$GPRMC,144932,A,2423.6390,N,08052.9313,W,2.9,117.7,150615,6.2,"
"##MN-00 00 45 0038 01679 6769 446560 205378 201"
"166.617824"
"$GPRMC,144936,A,2423.6376,N,08052.9281,W,2.9,117.3,150615,6.2,"
"##MN-00 00 47 0038 01682 6767 446569 205381 201"
"166.61787"
"$GPRMC,144940,A,2423.6361,N,08052.9250,W,2.9,116.9,150615,6.2,"
"##MN-00 00 43 0039 01689 6765 446575 205382 201"
"166.617917"
"$GPRMC,144944,A,2423.6346,N,08052.9219,W,3.0,116.3,150615,6.2,"
"##MN-00 00 45 0039 01693 6762 446571 205379 201"
"166.617963"
"$GPRMC,144948,A,2423.6329,N,08052.9187,W,3.0,115.4,150615,6.2,"
"##MN-00 00 43 0040 01697 6761 446565 205376 201"
"166.618009"
"$GPRMC,144952,A,2423.6314,N,08052.9155,W,3.1,115.7,150615,6.2,"
"##MN-00 00 42 0040 01701 6759 446541 205369 201"
"166.618056"
"$GPRMC,144956,A,2423.6301,N,08052.9123,W,3.0,115.9,150615,6.2,"
"##MN-00 00 43 0041 01706 6757 446532 205365 201"
"166.618102"
"$GPRMC,145000,A,2423.6286,N,08052.9091,W,3.0,116.7,150615,6.2,"
"##MN-00 00 46 0041 01709 6755 446530 205363 201"
"166.618148"
"$GPRMC,145004,A,2423.6271,N,08052.9060,W,3.0,117.0,150615,6.2,"
"##MN-00 00 44 0042 01713 6753 446523 205360 201"
"166.618194"
"$GPRMC,145008,A,2423.6256,N,08052.9027,W,2.9,117.1,150615,6.2,"
"##MN-00 00 43 0043 01715 6751 446520 205358 201"
"166.618241"
"$GPRMC,145012,A,2423.6241,N,08052.8995,W,3.0,116.7,150615,6.2,"
"##MN-00 00 38 0043 01718 6749 446522 205354 201"
"166.618287"
"$GPRMC,145016,A,2423.6225,N,08052.8963,W,3.0,116.6,150615,6.2,"
"##MN-00 00 45 0044 01721 6746 446516 205351 201"
"166.618333"
"$GPRMC,145020,A,2423.6212,N,08052.8932,W,3.0,116.5,150615,6.2,"
"##MN-00 00 46 0044 01728 6744 446500 205345 201"
"166.61838"
"$GPRMC,145024,A,2423.6196,N,08052.8898,W,3.0,114.8,150615,6.2,"
"##MN-00 00 48 0045 01731 6743 446509 205349 201"
"166.618426"
"$GPRMC,145028,A,2423.6183,N,08052.8865,W,3.0,113.9,150615,6.2,"
"##MN-00 00 44 0045 01733 6740 446503 205345 201"
"166.618472"
"$GPRMC,145032,A,2423.6169,N,08052.8830,W,3.0,114.0,150615,6.2,"
"##MN-00 00 45 0046 01739 6739 446497 205342 201"
"166.618519"
"$GPRMC,145036,A,2423.6153,N,08052.8795,W,3.0,114.6,150615,6.2,"
"##MN-00 00 42 0047 01740 6736 446507 205346 201"
"166.618565"
"$GPRMC,145041,A,2423.6135,N,08052.8754,W,3.1,116.0,150615,6.2,"
"##MN-00 00 43 0047 01745 6734 446503 205345 201"
"166.618611"
"$GPRMC,145045,A,2423.6122,N,08052.8723,W,3.0,116.4,150615,6.2,"
"##MN-00 00 44 0048 01750 6732 446502 205344 201"
"166.618657"
"$GPRMC,145048,A,2423.6106,N,08052.8699,W,2.9,118.2,150615,6.2,"
"##MN-00 00 44 0049 01755 6730 446467 205328 201"
"166.618704"
"$GPRMC,145052,A,2423.6086,N,08052.8667,W,2.9,119.2,150615,6.2,"
"##MN-00 00 45 0049 01756 6728 446446 205306 201"
"166.61875"
"$GPRMC,145056,A,2423.6068,N,08052.8635,W,2.9,120.8,150615,6.2,"
"##MN-00 00 43 0050 01757 6726 446440 205302 201"
"166.618796"
"$GPRMC,145100,A,2423.6050,N,08052.8603,W,2.9,122.0,150615,6.2,"
"##MN-00 00 45 0051 01761 6724 446447 205299 201"
"166.618843"
"$GPRMC,145104,A,2423.6032,N,08052.8574,W,2.9,122.6,150615,6.2,"
"##MN-00 00 45 0051 01762 6721 446470 205298 201"
"166.618889"
"$GPRMC,145109,A,2423.6010,N,08052.8539,W,3.0,122.2,150615,6.2,"
"##MN-00 00 46 0052 01766 6719 446483 205297 201"
"166.618935"
"$GPRMC,145113,A,2423.5992,N,08052.8511,W,2.9,122.2,150615,6.2,"
"##MN-00 00 44 0053 01770 6717 446506 205297 201"
"166.618981"
"$GPRMC,145117,A,2423.5974,N,08052.8483,W,2.9,122.2,150615,6.2,"
"##MN-00 00 45 0053 01773 6715 446541 205308 201"
"166.619028"
"$GPRMC,145121,A,2423.5956,N,08052.8454,W,2.9,122.0,150615,6.2,"
"##MN-00 00 44 0054 01774 6713 446618 205315 201"
"166.619074"
"$GPRMC,145125,A,2423.5941,N,08052.8425,W,2.9,121.9,150615,6.2,"
"##MN-00 00 44 0055 01779 6711 446695 205319 201"
"166.61912"
"$GPRMC,145129,A,2423.5924,N,08052.8395,W,2.9,122.1,150615,6.2,"
"##MN-00 00 46 0055 01781 6709 446734 205325 201"
"166.619167"
"$GPRMC,145133,A,2423.5906,N,08052.8366,W,2.9,121.7,150615,6.2,"
"##MN-00 00 46 0056 01783 6707 446795 205340 201"
"166.619213"
"$GPRMC,145137,A,2423.5889,N,08052.8337,W,2.9,121.3,150615,6.2,"
"##MN-00 00 46 0057 01789 6705 446967 205358 201"
"166.619259"
"$GPRMC,145141,A,2423.5873,N,08052.8305,W,2.9,121.1,150615,6.2,"
"##MN-00 00 46 0057 01791 6702 447063 205365 201"
"166.619306"
"$GPRMC,145145,A,2423.5858,N,08052.8274,W,2.9,120.1,150615,6.2,"
"##MN-00 00 44 0058 01791 6700 447093 205362 201"
"166.619352"
"$GPRMC,145149,A,2423.5841,N,08052.8241,W,3.0,118.9,150615,6.2,"
"##MN-00 00 47 0059 01794 6698 447165 205374 201"
"166.619398"
"$GPRMC,145153,A,2423.5826,N,08052.8209,W,3.0,118.2,150615,6.2,"
"##MN-00 00 44 0059 01799 6696 447415 205395 201"
"166.619444"
"$GPRMC,145157,A,2423.5811,N,08052.8178,W,2.9,116.9,150615,6.2,"
"##MN-00 00 40 0060 01807 6694 447743 205424 201"
"166.619491"
"$GPRMC,145201,A,2423.5798,N,08052.8146,W,2.9,115.7,150615,6.2,"
"##MN-00 00 43 0060 01812 6692 447853 205444 201"
"166.619537"
"$GPRMC,145205,A,2423.5784,N,08052.8114,W,2.9,115.2,150615,6.2,"
"##MN-00 00 45 0061 01816 6690 448362 205540 201"
"166.619583"
"$GPRMC,145209,A,2423.5771,N,08052.8084,W,2.8,115.4,150615,6.2,"
"##MN-00 00 44 0062 01822 6688 449108 205699 201"
"166.61963"
"$GPRMC,145213,A,2423.5757,N,08052.8054,W,2.8,116.2,150615,6.2,"
"##MN-00 00 46 0062 01829 6686 450245 205852 201"
"166.619676"
"$GPRMC,145217,A,2423.5741,N,08052.8024,W,2.8,116.5,150615,6.2,"
"##MN-00 00 46 0063 01835 6684 451024 205964 201"
"166.619722"
"$GPRMC,145221,A,2423.5728,N,08052.7994,W,2.8,117.8,150615,6.2,"
"##MN-00 00 44 0064 01839 6681 451772 206054 201"
"166.619769"
"$GPRMC,145225,A,2423.5712,N,08052.7963,W,2.8,118.0,150615,6.2,"
"##MN-00 00 45 0064 01845 6680 452625 206311 201"
"166.619815"
"$GPRMC,145229,A,2423.5696,N,08052.7934,W,2.8,118.5,150615,6.2,"
"##MN-00 00 45 0065 01850 6677 454177 206576 201"
"166.619861"
"$GPRMC,145233,A,2423.5679,N,08052.7906,W,2.7,119.4,150615,6.2,"
"##MN-00 00 45 0065 01856 6675 455683 206808 201"
"166.619907"
"$GPRMC,145237,A,2423.5663,N,08052.7877,W,2.7,119.7,150615,6.2,"
"##MN-00 00 46 0066 01856 6673 456068 206883 201"
"166.619954"
"$GPRMC,145241,A,2423.5648,N,08052.7847,W,2.8,118.6,150615,6.2,"
"##MN-00 00 43 0067 01860 6671 456098 206871 201"
"166.62"
"$GPRMC,145245,A,2423.5632,N,08052.7818,W,2.8,120.2,150615,6.2,"
"##MN-00 00 43 0067 01864 6669 456190 206913 201"
"166.620046"
"$GPRMC,145249,A,2423.5617,N,08052.7790,W,2.8,121.7,150615,6.2,"
"##MN-00 00 45 0068 01868 6667 456190 206903 201"
"166.620093"
"$GPRMC,145253,A,2423.5602,N,08052.7760,W,2.7,122.9,150615,6.2,"
"##MN-00 00 45 0068 01872 6664 456191 206905 201"
"166.620139"
"$GPRMC,145257,A,2423.5585,N,08052.7732,W,2.7,122.8,150615,6.2,"
"##MN-00 00 45 0069 01877 6662 456247 206930 201"
"166.620185"
"$GPRMC,145301,A,2423.5569,N,08052.7705,W,2.8,121.5,150615,6.2,"
"##MN-00 00 44 0070 01879 6660 456356 206958 201"
"166.620231"
"$GPRMC,145305,A,2423.5552,N,08052.7678,W,2.8,120.6,150615,6.2,"
"##MN-00 00 45 0070 01885 6658 456828 207052 201"
"166.620278"
"$GPRMC,145309,A,2423.5536,N,08052.7649,W,2.8,120.0,150615,6.2,"
"##MN-00 00 44 0071 01888 6656 457500 207202 201"
"166.620324"
"$GPRMC,145313,A,2423.5522,N,08052.7618,W,2.8,120.3,150615,6.2,"
"##MN-00 00 43 0072 01891 6654 457734 207268 201"
"166.62037"
"$GPRMC,145317,A,2423.5506,N,08052.7587,W,2.8,120.4,150615,6.2,"
"##MN-00 00 44 0072 01896 6651 457937 207311 201"
"166.620417"
"$GPRMC,145321,A,2423.5490,N,08052.7558,W,2.9,119.5,150615,6.2,"
"##MN-00 00 47 0073 01899 6649 459126 207585 201"
"166.620463"
"$GPRMC,145325,A,2423.5475,N,08052.7530,W,2.8,118.4,150615,6.2,"
"##MN-00 00 46 0074 01903 6646 460471 207870 201"
"166.620509"
"$GPRMC,145329,A,2423.5459,N,08052.7500,W,2.9,118.0,150615,6.2,"
"##MN-00 00 48 0074 01905 6644 461094 207995 201"
"166.620556"
"$GPRMC,145333,A,2423.5444,N,08052.7469,W,2.9,118.1,150615,6.2,"
"##MN-00 00 39 0075 01908 6641 461968 208133 201"
"166.620602"
"$GPRMC,145337,A,2423.5430,N,08052.7440,W,2.9,119.6,150615,6.2,"
"##MN-00 00 45 0075 01913 6639 462412 208213 201"
"166.620648"
"$GPRMC,145341,A,2423.5411,N,08052.7406,W,2.8,120.3,150615,6.2,"
"##MN-00 00 47 0076 01917 6637 462550 208239 201"
"166.620694"
"$GPRMC,145345,A,2423.5394,N,08052.7375,W,2.9,119.1,150615,6.2,"
"##MN-00 00 45 0077 01923 6634 462658 208277 201"
"166.620741"
"$GPRMC,145349,A,2423.5378,N,08052.7342,W,3.0,117.3,150615,6.2,"
"##MN-00 00 46 0077 01926 6632 462947 208335 201"
"166.620799"
"$GPRMC,145353,A,2423.5363,N,08052.7307,W,2.9,116.5,150615,6.2,"
"##MN-00 00 43 0078 01930 6630 463168 208374 201"
"166.620845"
"$GPRMC,145357,A,2423.5349,N,08052.7274,W,3.0,116.6,150615,6.2,"
"##MN-00 00 42 0078 01934 6627 463580 208464 201"
"166.620891"
"$GPRMC,145401,A,2423.5334,N,08052.7243,W,3.0,116.9,150615,6.2,"
"##MN-00 00 46 0079 01936 6625 463795 208505 201"
"166.620938"
"$GPRMC,145405,A,2423.5318,N,08052.7211,W,2.9,117.8,150615,6.2,"
"##MN-00 00 43 0079 01938 6622 464423 208615 201"
"166.620984"
"$GPRMC,145409,A,2423.5302,N,08052.7179,W,3.0,118.1,150615,6.2,"
"##MN-00 00 46 0080 01947 6619 464864 208705 201"
"166.62103"
"$GPRMC,145413,A,2423.5285,N,08052.7147,W,2.9,118.0,150615,6.2,"
"##MN-00 00 46 0081 01950 6617 465804 208916 201"
"166.621076"
"$GPRMC,145417,A,2423.5269,N,08052.7115,W,3.0,117.9,150615,6.2,"
"##MN-00 00 45 0081 01955 6614 466264 208968 201"
"166.621123"
"$GPRMC,145421,A,2423.5253,N,08052.7083,W,2.9,118.9,150615,6.2,"
"##MN-00 00 46 0082 01956 6612 466572 209057 201"
"166.621169"
"$GPRMC,145425,A,2423.5235,N,08052.7055,W,2.9,119.9,150615,6.2,"
"##MN-00 00 45 0083 01958 6609 466646 209064 201"
"166.621215"
"$GPRMC,145429,A,2423.5219,N,08052.7029,W,2.9,121.5,150615,6.2,"
"##MN-00 00 45 0083 01963 6607 466735 209081 201"
"166.621262"
"$GPRMC,145433,A,2423.5201,N,08052.7001,W,2.8,122.7,150615,6.2,"
"##MN-00 00 44 0084 01964 6604 466829 209103 201"
"166.621308"
"$GPRMC,145437,A,2423.5183,N,08052.6975,W,2.8,123.8,150615,6.2,"
"##MN-00 00 45 0085 01970 6601 466936 209143 201"
"166.621354"
"$GPRMC,145441,A,2423.5166,N,08052.6948,W,2.9,123.7,150615,6.2,"
"##MN-00 00 43 0085 01970 6599 467032 209180 201"
"166.6214"
"$GPRMC,145445,A,2423.5150,N,08052.6923,W,2.9,124.0,150615,6.2,"
"##MN-00 00 46 0086 01975 6596 467122 209208 201"
"166.621447"
"$GPRMC,145449,A,2423.5132,N,08052.6896,W,2.8,124.3,150615,6.2,"
"##MN-00 00 48 0086 01975 6593 467203 209221 201"
"166.621493"
"$GPRMC,145453,A,2423.5115,N,08052.6869,W,2.7,124.5,150615,6.2,"
"##MN-00 00 48 0087 01981 6590 467304 209236 201"
"166.621539"
"$GPRMC,145457,A,2423.5100,N,08052.6843,W,2.6,124.2,150615,6.2,"
"##MN-00 00 45 0088 01985 6587 467462 209274 201"
"166.621586"
"$GPRMC,145501,A,2423.5085,N,08052.6817,W,2.6,123.7,150615,6.2,"
"##MN-00 00 47 0088 01990 6584 467731 209324 201"
"166.621632"
"$GPRMC,145505,A,2423.5068,N,08052.6790,W,2.6,123.7,150615,6.2,"
"##MN-00 00 45 0089 01995 6582 467903 209356 201"
"166.621678"
"$GPRMC,145509,A,2423.5052,N,08052.6761,W,2.6,124.2,150615,6.2,"
"##MN-00 00 40 0089 01997 6579 468033 209402 201"
"166.621725"
"$GPRMC,145513,A,2423.5035,N,08052.6733,W,2.7,124.8,150615,6.2,"
"##MN-00 00 46 0090 02002 6576 468349 209456 201"
"166.621771"
"$GPRMC,145517,A,2423.5020,N,08052.6705,W,2.6,123.9,150615,6.2,"
"##MN-00 00 46 0090 02005 6573 468530 209492 201"
"166.621817"
"$GPRMC,145521,A,2423.5005,N,08052.6677,W,2.8,121.5,150615,6.2,"
"##MN-00 00 44 0091 02013 6570 468683 209528 201"
"166.621863"
"$GPRMC,145525,A,2423.4991,N,08052.6648,W,2.8,120.5,150615,6.2,"
"##MN-00 00 45 0092 02014 6567 469113 209643 201"
"166.62191"
"$GPRMC,145530,A,2423.4974,N,08052.6612,W,2.8,120.5,150615,6.2,"
"##MN-00 00 46 0092 02017 6565 469935 209749 201"
"166.621956"
"$GPRMC,145534,A,2423.4959,N,08052.6583,W,2.8,120.9,150615,6.2,"
"##MN-00 00 46 0093 02018 6562 470239 209802 201"
"166.622002"
"$GPRMC,145538,A,2423.4944,N,08052.6554,W,2.8,121.7,150615,6.2,"
"##MN-00 00 45 0093 02023 6559 470424 209848 201"
"166.622049"
"$GPRMC,145542,A,2423.4927,N,08052.6528,W,2.8,122.7,150615,6.2,"
"##MN-00 00 44 0094 02030 6556 470559 209852 201"
"166.622095"
"$GPRMC,145546,A,2423.4911,N,08052.6499,W,2.8,122.4,150615,6.2,"
"##MN-00 00 45 0095 02032 6553 470863 209928 201"
"166.622141"
"$GPRMC,145550,A,2423.4894,N,08052.6470,W,2.8,121.9,150615,6.2,"
"##MN-00 00 45 0095 02035 6550 471082 209976 201"
"166.622187"
"$GPRMC,145554,A,2423.4879,N,08052.6439,W,2.8,120.9,150615,6.2,"
"##MN-00 00 43 0096 02034 6547 471220 210001 201"
"166.622234"
"$GPRMC,145558,A,2423.4862,N,08052.6409,W,2.8,120.5,150615,6.2,"
"##MN-00 00 50 0097 02036 6544 471621 210111 201"
"166.62228"
"$GPRMC,145602,A,2423.4845,N,08052.6381,W,2.9,121.2,150615,6.2,"
"##MN-00 00 47 0097 02043 6541 472343 210192 201"
"166.622326"
"$GPRMC,145606,A,2423.4830,N,08052.6353,W,2.8,120.9,150615,6.2,"
"##MN-00 00 46 0098 02046 6538 472674 210244 201"
"166.622373"
"$GPRMC,145610,A,2423.4816,N,08052.6325,W,2.7,120.5,150615,6.2,"
"##MN-00 00 48 0098 02056 6535 473031 210282 201"
"166.622419"
"$GPRMC,145614,A,2423.4801,N,08052.6295,W,2.7,119.0,150615,6.2,"
"##MN-00 00 45 0099 02062 6532 473260 210292 201"
"166.622465"
"$GPRMC,145618,A,2423.4786,N,08052.6267,W,2.7,119.3,150615,6.2,"
"##MN-00 00 49 0100 02064 6529 473649 210322 201"
"166.622512"
"$GPRMC,145622,A,2423.4771,N,08052.6238,W,2.7,119.9,150615,6.2,"
"##MN-00 00 46 0100 02070 6526 474310 210384 201"
"166.622558"
"$GPRMC,145626,A,2423.4755,N,08052.6211,W,2.6,121.1,150615,6.2,"
"##MN-00 00 46 0101 02077 6522 474513 210418 201"
"166.622604"
"$GPRMC,145630,A,2423.4738,N,08052.6184,W,2.5,121.8,150615,6.2,"
"##MN-00 00 47 0101 02084 6520 474697 210440 201"
"166.62265"
"$GPRMC,145634,A,2423.4721,N,08052.6157,W,2.6,122.9,150615,6.2,"
"##MN-00 00 44 0102 02090 6516 474905 210474 201"
"166.622697"
"$GPRMC,145638,A,2423.4703,N,08052.6129,W,2.6,124.4,150615,6.2,"
"##MN-00 00 44 0102 02090 6514 474982 210492 201"
"166.622743"
"$GPRMC,145642,A,2423.4688,N,08052.6095,W,2.6,125.6,150615,6.2,"
"##MN-00 00 43 0103 02094 6510 475172 210528 201"
"166.622789"
"$GPRMC,145646,A,2423.4669,N,08052.6069,W,2.7,125.7,150615,6.2,"
"##MN-00 00 44 0103 02101 6507 475288 210546 201"
"166.622836"
"$GPRMC,145650,A,2423.4652,N,08052.6045,W,2.7,125.1,150615,6.2,"
"##MN-00 00 46 0104 02109 6504 475415 210570 201"
"166.622882"
"$GPRMC,145654,A,2423.4634,N,08052.6019,W,2.6,124.6,150615,6.2,"
"##MN-00 00 43 0104 02109 6501 475521 210582 201"
"166.622928"
"$GPRMC,145658,A,2423.4617,N,08052.5991,W,2.7,124.1,150615,6.2,"
"##MN-00 00 41 0105 02115 6498 475923 210674 201"
"166.622975"
"$GPRMC,145702,A,2423.4601,N,08052.5964,W,2.6,124.2,150615,6.2,"
"##MN-00 00 46 0106 02118 6495 477022 210896 201"
"166.623021"
"$GPRMC,145706,A,2423.4584,N,08052.5936,W,2.6,124.0,150615,6.2,"
"##MN-00 00 46 0106 02124 6492 477888 211015 201"
"166.623067"
"$GPRMC,145710,A,2423.4566,N,08052.5909,W,2.6,124.1,150615,6.2,"
"##MN-00 00 45 0107 02129 6489 478381 211100 201"
"166.623113"
"$GPRMC,145714,A,2423.4550,N,08052.5882,W,2.6,124.2,150615,6.2,"
"##MN-00 00 46 0107 02134 6485 479107 211264 201"
"166.62316"
"$GPRMC,145718,A,2423.4534,N,08052.5855,W,2.5,123.9,150615,6.2,"
"##MN-00 00 45 0108 02142 6482 480420 211507 201"
"166.623206"
"$GPRMC,145722,A,2423.4518,N,08052.5830,W,2.5,123.7,150615,6.2,"
"##MN-00 00 46 0108 02146 6479 481306 211688 201"
"166.623252"
"$GPRMC,145726,A,2423.4502,N,08052.5804,W,2.5,123.2,150615,6.2,"
"##MN-00 00 48 0109 02151 6476 481914 211772 201"
"166.623299"
"$GPRMC,145730,A,2423.4486,N,08052.5777,W,2.6,122.4,150615,6.2,"
"##MN-00 00 44 0109 02157 6473 482365 211852 201"
"166.623345"
"$GPRMC,145734,A,2423.4469,N,08052.5749,W,2.7,122.1,150615,6.2,"
"##MN-00 00 40 0110 02162 6469 482723 211931 201"
"166.623391"
"$GPRMC,145738,A,2423.4454,N,08052.5719,W,2.8,121.8,150615,6.2,"
"##MN-00 00 41 0110 02165 6466 482941 211967 201"
"166.623437"
"$GPRMC,145742,A,2423.4438,N,08052.5689,W,2.9,121.4,150615,6.2,"
"##MN-00 00 45 0111 02166 6463 483039 211998 201"
"166.623484"
"$GPRMC,145746,A,2423.4421,N,08052.5659,W,2.9,120.5,150615,6.2,"
"##MN-00 00 47 0111 02170 6459 483502 212096 201"
"166.62353"
"$GPRMC,145750,A,2423.4406,N,08052.5628,W,2.9,119.0,150615,6.2,"
"##MN-00 00 44 0112 02179 6456 484125 212227 201"
"166.623576"
"$GPRMC,145754,A,2423.4390,N,08052.5598,W,2.9,117.5,150615,6.2,"
"##MN-00 00 47 0112 02187 6453 484538 212361 201"
"166.623623"
"$GPRMC,145758,A,2423.4374,N,08052.5568,W,2.9,117.0,150615,6.2,"
"##MN-00 00 46 0113 02189 6450 485264 212459 201"
"166.623669"
"$GPRMC,145802,A,2423.4357,N,08052.5538,W,2.9,117.7,150615,6.2,"
"##MN-00 00 42 0113 02194 6446 486302 212704 201"
"166.623715"
"$GPRMC,145806,A,2423.4341,N,08052.5507,W,2.9,119.1,150615,6.2,"
"##MN-00 00 44 0114 02198 6443 486966 212866 201"
"166.623762"
"$GPRMC,145810,A,2423.4326,N,08052.5477,W,2.8,119.6,150615,6.2,"
"##MN-00 00 46 0115 02204 6439 486991 212842 201"
"166.623808"
"$GPRMC,145814,A,2423.4310,N,08052.5447,W,2.8,119.3,150615,6.2,"
"##MN-00 00 45 0115 02206 6437 486984 212827 201"
"166.623854"
"$GPRMC,145818,A,2423.4294,N,08052.5419,W,2.8,120.2,150615,6.2,"
"##MN-00 00 45 0116 02210 6433 487001 212823 201"
"166.6239"
"$GPRMC,145822,A,2423.4277,N,08052.5391,W,2.7,121.2,150615,6.2,"
"##MN-00 00 44 0116 02214 6429 487051 212838 201"
"166.623947"
"$GPRMC,145826,A,2423.4260,N,08052.5364,W,2.7,123.1,150615,6.2,"
"##MN-00 00 44 0117 02215 6426 487096 212845 201"
"166.623993"
"$GPRMC,145830,A,2423.4243,N,08052.5337,W,2.6,124.9,150615,6.2,"
"##MN-00 00 45 0117 02218 6422 487126 212849 201"
"166.624051"
"$GPRMC,145834,A,2423.4225,N,08052.5310,W,2.6,125.4,150615,6.2,"
"##MN+00 00 45 0118 02221 6419 487132 212846 201"
"166.624097"
"$GPRMC,145838,A,2423.4208,N,08052.5285,W,2.6,124.9,150615,6.2,"
"##MN+00 00 44 0119 02225 6415 487120 212841 201"
"166.624144"
"$GPRMC,145842,A,2423.4191,N,08052.5260,W,2.6,124.5,150615,6.2,"
"##MN+00 00 44 0119 02229 6412 487173 212857 201"
"166.62419"
"$GPRMC,145846,A,2423.4174,N,08052.5235,W,2.6,124.5,150615,6.2,"
"##MN-00 00 45 0120 02231 6408 487411 212886 201"
"166.624236"
"$GPRMC,145850,A,2423.4157,N,08052.5210,W,2.6,125.0,150615,6.2,"
"##MN-00 00 43 0120 02238 6405 488064 213041 201"
"166.624282"
"$GPRMC,145854,A,2423.4139,N,08052.5184,W,2.6,125.3,150615,6.2,"
"##MN-00 00 45 0121 02239 6401 488722 213141 201"
"166.624329"
"$GPRMC,145858,A,2423.4122,N,08052.5158,W,2.6,124.9,150615,6.2,"
"##MN-00 00 43 0122 02240 6398 489382 213320 201"
"166.624375"
"$GPRMC,145902,A,2423.4104,N,08052.5133,W,2.6,124.8,150615,6.2,"
"##MN-00 00 46 0122 02242 6394 490425 213496 201"
"166.624421"
"$GPRMC,145906,A,2423.4088,N,08052.5105,W,2.6,124.2,150615,6.2,"
"##MN-00 00 44 0123 02247 6391 490861 213579 201"
"166.624468"
"$GPRMC,145910,A,2423.4071,N,08052.5077,W,2.7,123.4,150615,6.2,"
"##MN-00 00 44 0123 02247 6387 491009 213583 201"
"166.624514"
"$GPRMC,145914,A,2423.4054,N,08052.5047,W,2.8,123.2,150615,6.2,"
"##MN-00 00 43 0124 02251 6383 491226 213606 201"
"166.62456"
"$GPRMC,145918,A,2423.4037,N,08052.5018,W,2.8,122.7,150615,6.2,"
"##MN-00 00 45 0125 02253 6379 491804 213733 201"
"166.624606"
"$GPRMC,145922,A,2423.4021,N,08052.4988,W,2.8,122.4,150615,6.2,"
"##MN-00 00 47 0125 02256 6376 492158 213780 201"
"166.624653"
"$GPRMC,145926,A,2423.4005,N,08052.4959,W,2.7,122.8,150615,6.2,"
"##MN-00 00 45 0126 02260 6372 492617 213816 201"
"166.624699"
"$GPRMC,145930,A,2423.3988,N,08052.4931,W,2.8,122.0,150615,6.2,"
"##MN+00 00 45 0126 02258 6369 492864 213829 201"
"166.624745"
"$GPRMC,145934,A,2423.3971,N,08052.4904,W,2.8,122.6,150615,6.2,"
"##MN+00 00 45 0127 02258 6365 492934 213838 201"
"166.624792"
"$GPRMC,145938,A,2423.3954,N,08052.4877,W,2.7,123.2,150615,6.2,"
"##MN+00 00 51 0128 02260 6361 492748 213827 201"
"166.624838"
"#increment_net"
"$GPRMC,145942,A,2423.3937,N,08052.4851,W,2.7,123.9,150615,6.2,"
"##MN-00 00 48 0128 02258 6357 492795 213827 201"
"166.624884"
"$GPRMC,145946,A,2423.3920,N,08052.4826,W,2.7,124.6,150615,6.2,"
"##MN-00 00 46 0129 02253 6354 492742 213831 201"
"166.624931"
"$GPRMC,145950,A,2423.3902,N,08052.4803,W,2.6,125.8,150615,6.2,"
"##MN-00 00 46 0130 02253 6350 492330 213800 201"
"166.624977"
"$GPRMC,145955,A,2423.3882,N,08052.4772,W,2.6,125.8,150615,6.2,"
"##MN-00 00 44 0130 02253 6346 492220 213788 201"
"166.625023"
"$GPRMC,145958,A,2423.3868,N,08052.4753,W,2.6,125.9,150615,6.2,"
"##MN-00 00 45 0131 02252 6342 492242 213794 201"
"166.625069"
"$GPRMC,150003,A,2423.3847,N,08052.4722,W,2.6,125.8,150615,6.2,"
"##MN-00 00 46 0132 02248 6338 492388 213811 201"
"166.625116"
"$GPRMC,150006,A,2423.3835,N,08052.4703,W,2.5,125.9,150615,6.2,"
"##MN-00 00 46 0132 02248 6334 492758 213840 201"
"166.625162"
"$GPRMC,150010,A,2423.3818,N,08052.4678,W,2.6,125.6,150615,6.2,"
"##MN-00 00 45 0133 02247 6330 492944 213843 201"
"166.625208"
"$GPRMC,150015,A,2423.3797,N,08052.4645,W,2.5,125.1,150615,6.2,"
"##MN-00 00 47 0134 02243 6327 492957 213850 201"
"166.625255"
"$GPRMC,150019,A,2423.3781,N,08052.4619,W,2.6,125.0,150615,6.2,"
"##MN-00 00 47 0135 02241 6323 492604 213822 201"
"166.625301"
"$GPRMC,150023,A,2423.3766,N,08052.4593,W,2.6,124.4,150615,6.2,"
"##MN-00 00 44 0135 02239 6319 491844 213731 201"
"166.625347"
"$GPRMC,150027,A,2423.3750,N,08052.4567,W,2.5,123.1,150615,6.2,"
"##MN-00 00 45 0136 02236 6315 491213 213669 201"
"166.625394"
"$GPRMC,150031,A,2423.3734,N,08052.4540,W,2.6,122.5,150615,6.2,"
"##MN-00 00 46 0137 02231 6311 490785 213567 201"
"166.62544"
"$GPRMC,150035,A,2423.3720,N,08052.4514,W,2.6,122.6,150615,6.2,"
"##MN-00 00 44 0137 02231 6308 489730 213370 201"
"166.625486"
"$GPRMC,150039,A,2423.3705,N,08052.4488,W,2.5,123.1,150615,6.2,"
"##MN-00 00 49 0138 02228 6304 489032 213293 201"
"166.625532"
"$GPRMC,150043,A,2423.3690,N,08052.4462,W,2.5,122.9,150615,6.2,"
"##MN-00 00 47 0139 02230 6300 487910 213044 201"
"166.625579"
"$GPRMC,150047,A,2423.3676,N,08052.4436,W,2.5,121.3,150615,6.2,"
"##MN-00 00 44 0140 02228 6296 487622 212980 201"
"166.625625"
"$GPRMC,150051,A,2423.3662,N,08052.4411,W,2.5,119.7,150615,6.2,"
"##MN-00 00 44 0140 02230 6292 487531 212959 201"
"166.625671"
"$GPRMC,150055,A,2423.3649,N,08052.4385,W,2.4,118.9,150615,6.2,"
"##MN-00 00 45 0141 02227 6288 487504 212948 201"
"166.625718"
"$GPRMC,150059,A,2423.3636,N,08052.4359,W,2.4,118.3,150615,6.2,"
"##MN-00 00 45 0141 02228 6285 487526 212952 201"
"166.625764"
"$GPRMC,150103,A,2423.3624,N,08052.4334,W,2.4,117.0,150615,6.2,"
"##MN-00 00 44 0142 02231 6281 487584 212957 201"
"166.62581"
"$GPRMC,150107,A,2423.3612,N,08052.4309,W,2.4,116.4,150615,6.2,"
"##MN-00 00 44 0143 02228 6277 487629 212962 201"
"166.625856"
"$GPRMC,150111,A,2423.3598,N,08052.4281,W,2.5,116.7,150615,6.2,"
"##MN-00 00 43 0144 02226 6273 487629 212958 201"
"166.625903"
"$GPRMC,150115,A,2423.3586,N,08052.4253,W,2.5,117.8,150615,6.2,"
"##MN-00 00 44 0144 02226 6269 487581 212953 201"
"166.625949"
"$GPRMC,150119,A,2423.3572,N,08052.4227,W,2.4,119.4,150615,6.2,"
"##MN-00 00 43 0145 02224 6266 487584 212946 201"
"166.625995"
"$GPRMC,150123,A,2423.3558,N,08052.4202,W,2.4,120.2,150615,6.2,"
"##MN-00 00 43 0146 02222 6262 487559 212948 201"
"166.626042"
"$GPRMC,150127,A,2423.3542,N,08052.4179,W,2.5,120.3,150615,6.2,"
"##MN-00 00 42 0147 02221 6258 487552 212959 201"
"166.626088"
"$GPRMC,150131,A,2423.3528,N,08052.4152,W,2.5,120.8,150615,6.2,"
"##MN-00 00 43 0147 02215 6255 487600 212994 201"
"166.626134"
"$GPRMC,150135,A,2423.3511,N,08052.4126,W,2.6,121.3,150615,6.2,"
"##MN-00 00 42 0148 02210 6251 487564 213008 201"
"166.626181"
"$GPRMC,150139,A,2423.3495,N,08052.4100,W,2.6,121.7,150615,6.2,"
"##MN-00 00 43 0149 02206 6247 487035 212942 201"
"166.626227"
"$GPRMC,150143,A,2423.3479,N,08052.4075,W,2.5,122.4,150615,6.2,"
"##MN-00 00 42 0150 02203 6244 486188 212782 201"
"166.626273"
"$GPRMC,150147,A,2423.3463,N,08052.4050,W,2.5,123.0,150615,6.2,"
"##MN-00 00 43 0150 02199 6240 485167 212592 201"
"166.626319"
"$GPRMC,150151,A,2423.3445,N,08052.4024,W,2.5,123.5,150615,6.2,"
"##MN-00 00 43 0151 02197 6236 484755 212476 201"
"166.626366"
"$GPRMC,150155,A,2423.3429,N,08052.3999,W,2.6,124.6,150615,6.2,"
"##MN-00 00 43 0152 02192 6233 484582 212439 201"
"166.626412"
"$GPRMC,150159,A,2423.3412,N,08052.3975,W,2.5,125.4,150615,6.2,"
"##MN-00 00 42 0153 02190 6229 484414 212384 201"
"166.626458"
"$GPRMC,150203,A,2423.3396,N,08052.3951,W,2.5,126.1,150615,6.2,"
"##MN-00 00 44 0153 02188 6225 484298 212356 201"
"166.626505"
"$GPRMC,150207,A,2423.3380,N,08052.3929,W,2.5,125.8,150615,6.2,"
"##MN-00 00 42 0154 02187 6221 484264 212356 201"
"166.626551"
"$GPRMC,150211,A,2423.3363,N,08052.3905,W,2.5,125.5,150615,6.2,"
"##MN-00 00 43 0155 02182 6218 484255 212355 201"
"166.626597"
"$GPRMC,150215,A,2423.3346,N,08052.3879,W,2.6,124.4,150615,6.2,"
"##MN-00 00 42 0156 02178 6215 484159 212328 201"
"166.626643"
"$GPRMC,150219,A,2423.3330,N,08052.3852,W,2.6,123.0,150615,6.2,"
"##MN-00 00 43 0156 02177 6211 483993 212280 201"
"166.62669"
"$GPRMC,150223,A,2423.3316,N,08052.3826,W,2.6,121.7,150615,6.2,"
"##MN-00 00 42 0157 02174 6207 483887 212227 201"
"166.626736"
"$GPRMC,150227,A,2423.3302,N,08052.3799,W,2.6,121.7,150615,6.2,"
"##MN-00 00 43 0158 02173 6203 483406 212168 201"
"166.626782"
"$GPRMC,150231,A,2423.3289,N,08052.3771,W,2.6,121.8,150615,6.2,"
"##MN-00 00 43 0159 02170 6200 483396 212161 201"
"166.626829"
"$GPRMC,150235,A,2423.3276,N,08052.3742,W,2.6,120.9,150615,6.2,"
"##MN-00 00 43 0159 02165 6197 483329 212151 201"
"166.626875"
"$GPRMC,150239,A,2423.3264,N,08052.3713,W,2.8,119.0,150615,6.2,"
"##MN-00 00 44 0160 02164 6193 482902 212114 201"
"166.626921"
"$GPRMC,150243,A,2423.3248,N,08052.3685,W,2.8,118.1,150615,6.2,"
"##MN-00 00 44 0161 02163 6189 483002 212079 201"
"166.626968"
"$GPRMC,150247,A,2423.3234,N,08052.3658,W,2.7,118.9,150615,6.2,"
"##MN-00 00 42 0161 02164 6186 482829 212036 201"
"166.627014"
"$GPRMC,150251,A,2423.3221,N,08052.3632,W,2.6,117.6,150615,6.2,"
"##MN-00 00 43 0162 02166 6183 482513 211964 201"
"166.62706"
"$GPRMC,150255,A,2423.3207,N,08052.3603,W,2.7,116.8,150615,6.2,"
"##MN-00 00 40 0163 02167 6180 482927 212014 201"
"166.627106"
"$GPRMC,150259,A,2423.3194,N,08052.3576,W,2.6,115.8,150615,6.2,"
"##MN-00 00 42 0164 02163 6176 482920 212056 201"
"166.627153"
"$GPRMC,150303,A,2423.3181,N,08052.3548,W,2.6,115.7,150615,6.2,"
"##MN-00 00 44 0164 02163 6173 482916 212044 201"
"166.627199"
"$GPRMC,150307,A,2423.3167,N,08052.3522,W,2.5,116.6,150615,6.2,"
"##MN-00 00 44 0165 02162 6169 482630 211977 201"
"166.627257"
"$GPRMC,150311,A,2423.3152,N,08052.3495,W,2.5,117.2,150615,6.2,"
"##MN-00 00 43 0165 02166 6166 482538 211960 201"
"166.627303"
"$GPRMC,150315,A,2423.3138,N,08052.3467,W,2.5,117.6,150615,6.2,"
"##MN-00 00 40 0166 02164 6163 482465 211951 201"
"166.62735"
"$GPRMC,150319,A,2423.3125,N,08052.3440,W,2.5,118.0,150615,6.2,"
"##MN-00 00 41 0167 02161 6159 482362 211921 201"
"166.627396"
"$GPRMC,150323,A,2423.3110,N,08052.3415,W,2.5,119.2,150615,6.2,"
"##MN-00 00 42 0168 02160 6156 482372 211932 201"
"166.627442"
"$GPRMC,150327,A,2423.3094,N,08052.3390,W,2.5,120.9,150615,6.2,"
"##MN-00 00 42 0169 02157 6153 482276 211920 201"
"166.627488"
"$GPRMC,150331,A,2423.3078,N,08052.3366,W,2.4,122.4,150615,6.2,"
"##MN-00 00 40 0169 02157 6150 482027 211854 201"
"166.627535"
"$GPRMC,150335,A,2423.3064,N,08052.3342,W,2.4,122.8,150615,6.2,"
"##MN-00 00 41 0170 02154 6146 481736 211805 201"
"166.627581"
"$GPRMC,150339,A,2423.3049,N,08052.3319,W,2.4,123.6,150615,6.2,"
"##MN-00 00 40 0171 02151 6143 481347 211765 201"
"166.627627"
"$GPRMC,150343,A,2423.3034,N,08052.3298,W,2.3,124.7,150615,6.2,"
"##MN-00 00 40 0172 02148 6140 480573 211600 201"
"166.627674"
"$GPRMC,150347,A,2423.3018,N,08052.3275,W,2.3,126.9,150615,6.2,"
"##MN-00 00 48 0172 02142 6137 479744 211507 201"
"166.62772"
"$GPRMC,150351,A,2423.3002,N,08052.3254,W,2.4,126.2,150615,6.2,"
"##MN-00 00 46 0173 02143 6133 478523 211223 201"
"166.627766"
"$GPRMC,150355,A,2423.2987,N,08052.3232,W,2.2,125.4,150615,6.2,"
"##MN-00 00 41 0174 02141 6130 478151 211119 201"
"166.627813"
"$GPRMC,150359,A,2423.2975,N,08052.3207,W,2.3,123.3,150615,6.2,"
"##MN-00 00 39 0175 02143 6127 478059 211106 201"
"166.627859"
"$GPRMC,150403,A,2423.2965,N,08052.3189,W,2.4,121.6,150615,6.2,"
"##MN-00 00 42 0175 02134 6124 477840 211064 201"
"166.627905"
"$GPRMC,150407,A,2423.2947,N,08052.3158,W,2.4,122.2,150615,6.2,"
"##MN-00 00 41 0176 02128 6121 477421 210960 201"
"166.627951"
"$GPRMC,150411,A,2423.2933,N,08052.3133,W,2.4,122.0,150615,6.2,"
"##MN-00 00 44 0177 02127 6118 476882 210871 201"
"166.627998"
"$GPRMC,150415,A,2423.2921,N,08052.3108,W,2.4,119.2,150615,6.2,"
"##MN-00 00 40 0177 02132 6115 476579 210833 201"
"166.628044"
"$GPRMC,150419,A,2423.2908,N,08052.3080,W,2.5,116.6,150615,6.2,"
"##MN-00 00 40 0178 02131 6111 476486 210827 201"
"166.62809"
"$GPRMC,150423,A,2423.2897,N,08052.3051,W,2.6,114.9,150615,6.2,"
"##MN-00 00 37 0179 02131 6108 476452 210814 201"
"166.628137"
"$GPRMC,150427,A,2423.2885,N,08052.3021,W,2.7,113.1,150615,6.2,"
"##MN-00 00 39 0179 02129 6105 476436 210806 201"
"166.628183"
"$GPRMC,150431,A,2423.2874,N,08052.2990,W,2.7,112.1,150615,6.2,"
"##MN-00 00 36 0180 02128 6103 476446 210808 201"
"166.628229"
"$GPRMC,150436,A,2423.2860,N,08052.2952,W,2.5,112.2,150615,6.2,"
"##MN-00 00 43 0181 02125 6099 476478 210811 201"
"166.628275"
"$GPRMC,150440,A,2423.2849,N,08052.2921,W,2.6,112.3,150615,6.2,"
"##MN-00 00 41 0181 02124 6096 476652 210830 201"
"166.628322"
"$GPRMC,150444,A,2423.2838,N,08052.2891,W,2.6,111.9,150615,6.2,"
"##MN-00 00 42 0182 02124 6093 476671 210827 201"
"166.628368"
"$GPRMC,150448,A,2423.2824,N,08052.2863,W,2.6,112.4,150615,6.2,"
"##MN-00 00 38 0182 02123 6090 476622 210822 201"
"166.628414"
"$GPRMC,150452,A,2423.2813,N,08052.2835,W,2.6,113.1,150615,6.2,"
"##MN-00 00 38 0183 02121 6088 476568 210815 201"
"166.628461"
"$GPRMC,150456,A,2423.2798,N,08052.2807,W,2.6,114.1,150615,6.2,"
"##MN-00 00 38 0184 02121 6085 476495 210810 201"
"166.628507"
"$GPRMC,150500,A,2423.2785,N,08052.2779,W,2.6,114.1,150615,6.2,"
"##MN-00 00 38 0184 02112 6082 476371 210801 201"
"166.628553"
"$GPRMC,150504,A,2423.2773,N,08052.2748,W,2.7,114.1,150615,6.2,"
"##MN-00 00 38 0185 02110 6079 476297 210797 201"
"166.6286"
"$GPRMC,150508,A,2423.2758,N,08052.2718,W,2.8,113.9,150615,6.2,"
"##MN-00 00 39 0186 02106 6076 476267 210800 201"
"166.628646"
"$GPRMC,150512,A,2423.2746,N,08052.2685,W,2.8,113.9,150615,6.2,"
"##MN-00 00 40 0186 02102 6074 476113 210812 201"
"166.628692"
"$GPRMC,150516,A,2423.2734,N,08052.2657,W,2.6,114.8,150615,6.2,"
"##MN-00 00 41 0187 02097 6071 475580 210748 201"
"166.628738"
"$GPRMC,150520,A,2423.2722,N,08052.2630,W,2.5,115.1,150615,6.2,"
"##MN-00 00 39 0187 02099 6068 475426 210714 201"
"166.628785"
"$GPRMC,150524,A,2423.2710,N,08052.2601,W,2.5,115.1,150615,6.2,"
"##MN-00 00 39 0188 02096 6065 474994 210628 201"
"166.628831"
"$GPRMC,150528,A,2423.2697,N,08052.2571,W,2.6,114.5,150615,6.2,"
"##MN-00 00 39 0189 02091 6062 474736 210585 201"
"166.628877"
"$GPRMC,150532,A,2423.2686,N,08052.2541,W,2.6,114.6,150615,6.2,"
"##MN-00 00 40 0189 02086 6060 474704 210581 201"
"166.628924"
"$GPRMC,150536,A,2423.2672,N,08052.2511,W,2.6,115.4,150615,6.2,"
"##MN-00 00 38 0190 02081 6057 474524 210553 201"
"166.62897"
"$GPRMC,150540,A,2423.2659,N,08052.2483,W,2.6,115.9,150615,6.2,"
"##MN+00 00 37 0190 02078 6054 474386 210535 201"
"166.629016"
"$GPRMC,150544,A,2423.2644,N,08052.2455,W,2.6,116.4,150615,6.2,"
"##MN+00 00 39 0191 02075 6052 474216 210548 201"
"166.629062"
"$GPRMC,150548,A,2423.2630,N,08052.2425,W,2.7,116.7,150615,6.2,"
"##MN+00 00 37 0192 02070 6049 473864 210524 201"
"166.629109"
"$GPRMC,150552,A,2423.2616,N,08052.2395,W,2.8,116.5,150615,6.2,"
"##MN+00 00 38 0193 02062 6046 473289 210417 201"
"166.629155"
"$GPRMC,150556,A,2423.2603,N,08052.2367,W,2.8,116.3,150615,6.2,"
"##MN+00 00 46 0194 02058 6043 472858 210358 201"
"166.629201"
"#increment_net"
"$GPRMC,150600,A,2423.2590,N,08052.2341,W,2.6,116.9,150615,6.2,"
"##MN+00 00 42 0194 02055 6041 472586 210323 201"
"166.629248"
"$GPRMC,150604,A,2423.2576,N,08052.2315,W,2.5,118.7,150615,6.2,"
"##MN-00 00 40 0195 02050 6039 472389 210287 201"
"166.629294"
"$GPRMC,150608,A,2423.2562,N,08052.2291,W,2.4,120.6,150615,6.2,"
"##MN-00 00 38 0196 02045 6036 472219 210272 201"
"166.62934"
"$GPRMC,150612,A,2423.2547,N,08052.2268,W,2.4,121.5,150615,6.2,"
"##MN-00 00 39 0196 02038 6033 471994 210201 201"
"166.629387"
"$GPRMC,150616,A,2423.2532,N,08052.2243,W,2.4,122.2,150615,6.2,"
"##MN-00 00 38 0197 02033 6031 471750 210148 201"
"166.629433"
"$GPRMC,150620,A,2423.2517,N,08052.2220,W,2.4,122.3,150615,6.2,"
"##MN-00 00 37 0198 02028 6028 471496 210064 201"
"166.629479"
"$GPRMC,150624,A,2423.2502,N,08052.2196,W,2.3,123.6,150615,6.2,"
"##MN-00 00 41 0198 02019 6026 471170 209985 201"
"166.629525"
"$GPRMC,150628,A,2423.2486,N,08052.2172,W,2.3,124.6,150615,6.2,"
"##MN-00 00 41 0199 02015 6023 470446 209837 201"
"166.629572"
"$GPRMC,150632,A,2423.2470,N,08052.2148,W,2.3,124.8,150615,6.2,"
"##MN-00 00 39 0200 02014 6021 469699 209719 201"
"166.629618"
"$GPRMC,150636,A,2423.2456,N,08052.2125,W,2.3,124.1,150615,6.2,"
"##MN-00 00 39 0201 02008 6019 469027 209596 201"
"166.629664"
"$GPRMC,150640,A,2423.2440,N,08052.2100,W,2.3,124.3,150615,6.2,"
"##MN-00 00 39 0201 02007 6016 468264 209432 201"
"166.629711"
"$GPRMC,150644,A,2423.2423,N,08052.2076,W,2.3,124.9,150615,6.2,"
"##MN-00 00 39 0202 02000 6014 467827 209316 201"
"166.629757"
"$GPRMC,150648,A,2423.2408,N,08052.2053,W,2.4,126.0,150615,6.2,"
"##MN-00 00 40 0203 01991 6012 467509 209275 201"
"166.629803"
"$GPRMC,150652,A,2423.2390,N,08052.2031,W,2.3,127.5,150615,6.2,"
"##MN-00 00 41 0204 01987 6009 467309 209211 201"
"166.62985"
"$GPRMC,150656,A,2423.2374,N,08052.2009,W,2.3,127.6,150615,6.2,"
"##MN-00 00 42 0204 01984 6007 467113 209169 201"
"166.629896"
"$GPRMC,150700,A,2423.2359,N,08052.1986,W,2.3,126.1,150615,6.2,"
"##MN-00 00 41 0205 01983 6005 467011 209147 201"
"166.629942"
"$GPRMC,150704,A,2423.2344,N,08052.1962,W,2.3,123.6,150615,6.2,"
"##MN-00 00 42 0206 01977 6002 466923 209140 201"
"166.629988"
"$GPRMC,150708,A,2423.2332,N,08052.1935,W,2.4,121.0,150615,6.2,"
"##MN-00 00 40 0206 01979 6000 466869 209142 201"
"166.630035"
"$GPRMC,150712,A,2423.2319,N,08052.1907,W,2.5,119.1,150615,6.2,"
"##MN-00 00 40 0207 01975 5998 466755 209133 201"
"166.630081"
"$GPRMC,150716,A,2423.2307,N,08052.1879,W,2.5,118.4,150615,6.2,"
"##MN-00 00 41 0208 01972 5996 466660 209100 201"
"166.630127"
"$GPRMC,150720,A,2423.2293,N,08052.1852,W,2.5,118.0,150615,6.2,"
"##MN-00 00 39 0208 01969 5993 466543 209083 201"
"166.630174"
"$GPRMC,150724,A,2423.2278,N,08052.1826,W,2.5,118.7,150615,6.2,"
"##MN-00 00 39 0209 01968 5992 466463 209082 201"
"166.63022"
"$GPRMC,150728,A,2423.2263,N,08052.1798,W,2.6,119.6,150615,6.2,"
"##MN-00 00 42 0210 01965 5990 466435 209080 201"
"166.630266"
"$GPRMC,150732,A,2423.2249,N,08052.1771,W,2.6,120.4,150615,6.2,"
"##MN-00 00 40 0211 01961 5988 466418 209085 201"
"166.630312"
"$GPRMC,150736,A,2423.2233,N,08052.1744,W,2.6,120.4,150615,6.2,"
"##MN-00 00 40 0211 01956 5985 466376 209082 201"
"166.63037"
"$GPRMC,150740,A,2423.2217,N,08052.1718,W,2.5,121.6,150615,6.2,"
"##MN-00 00 40 0212 01952 5983 466320 209086 201"
"166.630417"
"$GPRMC,150744,A,2423.2202,N,08052.1692,W,2.5,122.4,150615,6.2,"
"##MN-00 00 39 0213 01948 5981 466168 209065 201"
"166.630463"
"$GPRMC,150748,A,2423.2186,N,08052.1667,W,2.5,123.2,150615,6.2,"
"##MN-00 00 40 0213 01945 5979 465733 208954 201"
"166.630509"
"$GPRMC,150752,A,2423.2171,N,08052.1642,W,2.5,123.8,150615,6.2,"
"##MN-00 00 42 0214 01940 5977 465033 208787 201"
"166.630556"
"$GPRMC,150756,A,2423.2155,N,08052.1618,W,2.5,124.7,150615,6.2,"
"##MN-00 00 42 0215 01936 5976 464419 208716 201"
"166.630602"
"$GPRMC,150800,A,2423.2139,N,08052.1594,W,2.5,125.5,150615,6.2,"
"##MN-00 00 38 0215 01933 5974 463642 208525 201"
"166.630648"
"$GPRMC,150804,A,2423.2123,N,08052.1570,W,2.4,125.6,150615,6.2,"
"##MN-00 00 40 0216 01931 5972 463033 208402 201"
"166.630694"
"$GPRMC,150808,A,2423.2106,N,08052.1547,W,2.5,125.6,150615,6.2,"
"##MN-00 00 40 0217 01930 5970 462750 208374 201"
"166.630741"
"$GPRMC,150812,A,2423.2090,N,08052.1523,W,2.5,125.8,150615,6.2,"
"##MN-00 00 41 0218 01923 5968 461910 208154 201"
"166.630787"
"$GPRMC,150816,A,2423.2073,N,08052.1498,W,2.5,126.7,150615,6.2,"
"##MN-00 00 42 0218 01919 5966 460835 207910 201"
"166.630833"
"$GPRMC,150820,A,2423.2058,N,08052.1474,W,2.4,127.2,150615,6.2,"
"##MN-00 00 44 0219 01919 5964 460221 207790 201"
"166.63088"
"$GPRMC,150824,A,2423.2043,N,08052.1452,W,2.4,126.6,150615,6.2,"
"##MN+00 00 42 0220 01917 5963 459723 207713 201"
"166.630926"
"$GPRMC,150828,A,2423.2026,N,08052.1429,W,2.4,126.7,150615,6.2,"
"##MN+00 00 44 0221 01914 5961 459455 207651 201"
"166.630972"
"$GPRMC,150832,A,2423.2011,N,08052.1404,W,2.3,126.0,150615,6.2,"
"##MN+00 00 44 0221 01910 5959 458977 207541 201"
"166.631019"
"$GPRMC,150836,A,2423.1996,N,08052.1381,W,2.3,125.2,150615,6.2,"
"##MN-00 00 42 0222 01910 5958 458558 207429 201"
"166.631065"
"$GPRMC,150840,A,2423.1982,N,08052.1357,W,2.3,125.0,150615,6.2,"
"##MN-00 00 41 0223 01907 5956 458014 207327 201"
"166.631111"
"$GPRMC,150844,A,2423.1968,N,08052.1333,W,2.3,124.4,150615,6.2,"
"##MN-00 00 42 0223 01905 5954 457316 207322 201"
"166.631157"
"$GPRMC,150848,A,2423.1953,N,08052.1309,W,2.4,123.7,150615,6.2,"
"##MN-00 00 42 0224 01903 5953 456492 207043 201"
"166.631204"
"$GPRMC,150852,A,2423.1937,N,08052.1284,W,2.4,123.2,150615,6.2,"
"##MN-00 00 43 0225 01900 5951 455615 206854 201"
"166.63125"
"$GPRMC,150856,A,2423.1922,N,08052.1258,W,2.5,122.0,150615,6.2,"
"##MN-00 00 44 0226 01898 5950 454997 206717 201"
"166.631296"
"$GPRMC,150900,A,2423.1906,N,08052.1232,W,2.6,122.1,150615,6.2,"
"##MN-00 00 42 0226 01898 5948 454683 206639 201"
"166.631343"
"$GPRMC,150904,A,2423.1891,N,08052.1204,W,2.6,122.3,150615,6.2,"
"##MN-00 00 42 0227 01895 5947 454359 206568 201"
"166.631389"
"$GPRMC,150908,A,2423.1877,N,08052.1177,W,2.6,122.4,150615,6.2,"
"##MN+00 00 43 0228 01891 5945 454051 206503 201"
"166.631435"
"$GPRMC,150912,A,2423.1861,N,08052.1151,W,2.6,122.4,150615,6.2,"
"##MN+00 00 44 0229 01889 5944 453322 206382 201"
"166.631481"
"$GPRMC,150917,A,2423.1842,N,08052.1117,W,2.5,122.1,150615,6.2,"
"##MN+00 00 08 0229 01888 5943 452270 206182 201"
"166.631528"
"$GPRMC,150921,A,2423.1827,N,08052.1091,W,2.5,122.1,150615,6.2,"
"##MN-00 00 08 0230 01887 5941 452259 206195 201"
"166.631574"
"#increment_net"
"$GPRMC,150924,A,2423.1816,N,08052.1071,W,2.6,121.5,150615,6.2,"
"##MN-00 00 44 0231 01886 5940 452140 206180 201"
"166.63162"
"$GPRMC,150928,A,2423.1801,N,08052.1046,W,2.5,121.4,150615,6.2,"
"##MN-00 00 41 0231 01884 5939 452298 206161 201"
"166.631667"
"$GPRMC,150933,A,2423.1784,N,08052.1014,W,2.5,122.7,150615,6.2,"
"##MN-00 00 42 0232 01881 5937 452212 206126 201"
"166.631713"
"$GPRMC,150937,A,2423.1768,N,08052.0990,W,2.4,123.0,150615,6.2,"
"##MN-00 00 43 0233 01883 5936 451923 206089 201"
"166.631759"
"$GPRMC,150941,A,2423.1754,N,08052.0966,W,2.4,123.9,150615,6.2,"
"##MN-00 00 42 0233 01884 5935 451845 206090 201"
"166.631806"
"$GPRMC,150945,A,2423.1738,N,08052.0942,W,2.4,124.1,150615,6.2,"
"##MN-00 00 42 0234 01880 5934 451758 206063 201"
"166.631852"
"$GPRMC,150949,A,2423.1723,N,08052.0919,W,2.4,124.2,150615,6.2,"
"##MN-00 00 40 0235 01877 5933 451658 206058 201"
"166.631898"
"$GPRMC,150953,A,2423.1711,N,08052.0895,W,2.4,125.2,150615,6.2,"
"##MN-00 00 42 0236 01872 5932 451485 206016 201"
"166.631944"
"$GPRMC,150957,A,2423.1697,N,08052.0873,W,2.4,126.3,150615,6.2,"
"##MN-00 00 42 0237 01874 5930 451370 206007 201"
"166.631991"
"$GPRMC,151001,A,2423.1682,N,08052.0851,W,2.3,126.8,150615,6.2,"
"##MN-00 00 41 0237 01874 5930 451225 205968 201"
"166.632037"
"$GPRMC,151005,A,2423.1665,N,08052.0828,W,2.3,127.1,150615,6.2,"
"##MN-00 00 40 0238 01870 5929 450930 205915 201"
"166.632083"
"$GPRMC,151009,A,2423.1650,N,08052.0805,W,2.4,127.1,150615,6.2,"
"##MN-00 00 40 0239 01869 5928 450453 205847 201"
"166.63213"
"$GPRMC,151013,A,2423.1633,N,08052.0782,W,2.4,126.9,150615,6.2,"
"##MN-00 00 42 0240 01864 5927 449935 205783 201"
"166.632176"
"$GPRMC,151017,A,2423.1617,N,08052.0759,W,2.4,127.3,150615,6.2,"
"##MN-00 00 47 0240 01863 5926 449840 205766 201"
"166.632222"
"$GPRMC,151021,A,2423.1600,N,08052.0736,W,2.3,126.9,150615,6.2,"
"##MN-00 00 42 0241 01865 5925 449773 205745 201"
"166.632269"
"$GPRMC,151025,A,2423.1585,N,08052.0714,W,2.3,126.7,150615,6.2,"
"##MN-00 00 41 0242 01862 5924 449745 205742 201"
"166.632315"
"$GPRMC,151029,A,2423.1570,N,08052.0690,W,2.3,125.9,150615,6.2,"
"##MN-00 00 42 0242 01860 5923 449657 205725 201"
"166.632361"
"$GPRMC,151033,A,2423.1553,N,08052.0668,W,2.3,125.9,150615,6.2,"
"##MN-00 00 42 0243 01858 5923 449580 205715 201"
"166.632407"
"$GPRMC,151037,A,2423.1537,N,08052.0643,W,2.4,125.5,150615,6.2,"
"##MN-00 00 41 0244 01856 5922 449480 205701 201"
"166.632454"
"$GPRMC,151041,A,2423.1520,N,08052.0618,W,2.4,125.9,150615,6.2,"
"##MN-00 00 40 0245 01855 5921 449322 205684 201"
"166.6325"
"$GPRMC,151045,A,2423.1503,N,08052.0593,W,2.5,125.1,150615,6.2,"
"##MN-00 00 40 0246 01854 5920 449080 205650 201"
"166.632546"
"$GPRMC,151049,A,2423.1487,N,08052.0567,W,2.4,125.3,150615,6.2,"
"##MN-00 00 47 0247 01850 5919 449000 205640 201"
"166.632593"
"$GPRMC,151053,A,2423.1471,N,08052.0544,W,2.4,124.7,150615,6.2,"
"##MN-00 00 42 0247 01849 5919 448939 205626 201"
"166.632639"
"$GPRMC,151057,A,2423.1455,N,08052.0521,W,2.5,124.5,150615,6.2,"
"##MN-00 00 43 0248 01846 5918 448908 205625 201"
"166.632685"
"$GPRMC,151101,A,2423.1438,N,08052.0497,W,2.5,125.1,150615,6.2,"
"##MN-00 00 44 0249 01841 5918 448797 205608 201"
"166.632731"
"$GPRMC,151105,A,2423.1423,N,08052.0472,W,2.5,125.1,150615,6.2,"
"##MN-00 00 41 0250 01841 5917 448607 205579 201"
"166.632778"
"$GPRMC,151109,A,2423.1407,N,08052.0447,W,2.5,124.9,150615,6.2,"
"##MN-00 00 42 0251 01838 5917 448479 205557 201"
"166.632824"
"$GPRMC,151113,A,2423.1390,N,08052.0422,W,2.4,125.4,150615,6.2,"
"##MN-00 00 42 0252 01837 5916 448120 205512 201"
"166.63287"
"$GPRMC,151117,A,2423.1373,N,08052.0396,W,2.5,125.8,150615,6.2,"
"##MN-00 00 44 0252 01833 5915 447450 205398 201"
"166.632917"
"$GPRMC,151121,A,2423.1357,N,08052.0371,W,2.5,126.3,150615,6.2,"
"##MN-00 00 42 0253 01830 5915 447079 205361 201"
"166.632963"
"$GPRMC,151125,A,2423.1339,N,08052.0347,W,2.4,126.8,150615,6.2,"
"##MN-00 00 40 0254 01828 5914 446940 205330 201"
"166.633009"
"$GPRMC,151129,A,2423.1322,N,08052.0322,W,2.5,126.7,150615,6.2,"
"##MN-00 00 43 0255 01823 5914 446874 205312 201"
"166.633056"
"$GPRMC,151133,A,2423.1304,N,08052.0297,W,2.5,126.7,150615,6.2,"
"##MN-00 00 42 0256 01823 5913 446824 205300 201"
"166.633102"
"$GPRMC,151137,A,2423.1292,N,08052.0276,W,2.5,126.0,150615,6.2,"
"##MN-00 00 43 0257 01818 5913 446770 205283 201"
"166.633148"
"$GPRMC,151141,A,2423.1271,N,08052.0247,W,2.4,126.0,150615,6.2,"
"##MN-00 00 44 0257 01813 5912 446742 205269 201"
"166.633194"
"$GPRMC,151145,A,2423.1254,N,08052.0222,W,2.4,125.5,150615,6.2,"
"##MN-00 00 47 0258 01813 5912 446708 205261 201"
"166.633241"
"$GPRMC,151149,A,2423.1238,N,08052.0197,W,2.4,125.3,150615,6.2,"
"##MN-00 00 44 0259 01812 5911 446670 205253 201"
"166.633287"
"$GPRMC,151153,A,2423.1223,N,08052.0172,W,2.5,125.3,150615,6.2,"
"##MN-00 00 43 0260 01808 5911 446606 205231 201"
"166.633333"
"$GPRMC,151157,A,2423.1205,N,08052.0147,W,2.5,125.8,150615,6.2,"
"##MN-00 00 44 0261 01808 5911 446607 205232 201"
"166.63338"
"$GPRMC,151201,A,2423.1190,N,08052.0123,W,2.4,125.8,150615,6.2,"
"##MN-00 00 44 0262 01804 5910 446610 205234 201"
"166.633426"
"$GPRMC,151205,A,2423.1174,N,08052.0099,W,2.4,125.5,150615,6.2,"
"##MN-00 00 44 0262 01804 5910 446585 205222 201"
"166.633472"
"$GPRMC,151209,A,2423.1158,N,08052.0074,W,2.5,124.8,150615,6.2,"
"##MN-00 00 46 0263 01803 5910 446562 205220 201"
"166.633519"
"$GPRMC,151213,A,2423.1141,N,08052.0051,W,2.4,124.8,150615,6.2,"
"##MN-00 00 45 0264 01800 5910 446537 205212 201"
"166.633576"
"$GPRMC,151217,A,2423.1126,N,08052.0027,W,2.4,125.4,150615,6.2,"
"##MN-00 00 44 0265 01800 5909 446523 205212 201"
"166.633623"
"$GPRMC,151221,A,2423.1109,N,08052.0002,W,2.4,125.3,150615,6.2,"
"##MN-00 00 45 0266 01797 5909 446496 205207 201"
"166.633669"
"$GPRMC,151225,A,2423.1094,N,08051.9976,W,2.4,125.0,150615,6.2,"
"##MN-00 00 45 0267 01797 5909 446476 205199 201"
"166.633715"
"$GPRMC,151229,A,2423.1077,N,08051.9952,W,2.4,125.0,150615,6.2,"
"##MN-00 00 43 0268 01795 5909 446457 205196 201"
"166.633762"
"$GPRMC,151233,A,2423.1061,N,08051.9927,W,2.4,125.5,150615,6.2,"
"##MN-00 00 44 0268 01794 5909 446425 205187 201"
"166.633808"
"$GPRMC,151237,A,2423.1044,N,08051.9903,W,2.5,126.1,150615,6.2,"
"##MN-00 00 43 0269 01792 5908 446384 205171 201"
"166.633854"
"$GPRMC,151241,A,2423.1028,N,08051.9878,W,2.5,126.6,150615,6.2,"
"##MN-00 00 43 0270 01788 5908 446369 205170 201"
"166.6339"
"$GPRMC,151245,A,2423.1010,N,08051.9854,W,2.5,126.7,150615,6.2,"
"##MN-00 00 44 0271 01783 5908 446335 205163 201"
"166.633947"
"$GPRMC,151249,A,2423.0993,N,08051.9832,W,2.5,126.7,150615,6.2,"
"##MN-00 00 47 0272 01782 5907 446317 205157 201"
"166.633993"
"$GPRMC,151253,A,2423.0976,N,08051.9807,W,2.5,126.3,150615,6.2,"
"##MN-00 00 44 0272 01783 5907 446274 205148 201"
"166.634039"
"$GPRMC,151257,A,2423.0960,N,08051.9781,W,2.5,126.7,150615,6.2,"
"##MN-00 00 43 0273 01780 5907 446185 205119 201"
"166.634086"
"$GPRMC,151301,A,2423.0945,N,08051.9755,W,2.5,126.7,150615,6.2,"
"##MN-00 00 47 0274 01778 5907 445850 205036 201"
"166.634132"
"$GPRMC,151305,A,2423.0929,N,08051.9729,W,2.5,125.4,150615,6.2,"
"##MN-00 00 44 0275 01781 5907 445862 205029 201"
"166.634178"
"$GPRMC,151309,A,2423.0913,N,08051.9703,W,2.6,124.3,150615,6.2,"
"##MN-00 00 43 0276 01780 5906 446001 205075 201"
"166.634225"
"$GPRMC,151313,A,2423.0898,N,08051.9677,W,2.6,122.7,150615,6.2,"
"##MN-00 00 42 0276 01777 5906 446035 205073 201"
"166.634271"
"$GPRMC,151317,A,2423.0881,N,08051.9651,W,2.6,122.5,150615,6.2,"
"##MN-00 00 46 0277 01775 5907 445892 205026 201"
"166.634317"
"$GPRMC,151321,A,2423.0866,N,08051.9625,W,2.5,122.6,150615,6.2,"
"##MN-00 00 41 0278 01776 5906 445989 205064 201"
"166.634363"
"$GPRMC,151325,A,2423.0851,N,08051.9599,W,2.6,122.6,150615,6.2,"
"##MN-00 00 45 0278 01774 5906 446076 205091 201"
"166.63441"
"$GPRMC,151329,A,2423.0836,N,08051.9573,W,2.5,123.2,150615,6.2,"
"##MN-00 00 44 0279 01772 5906 446017 205076 201"
"166.634456"
"$GPRMC,151333,A,2423.0820,N,08051.9549,W,2.5,124.2,150615,6.2,"
"##MN-00 00 45 0280 01772 5906 446007 205074 201"
"166.634502"
"$GPRMC,151337,A,2423.0804,N,08051.9524,W,2.4,124.8,150615,6.2,"
"##MN-00 00 44 0281 01771 5906 445924 205046 201"
"166.634549"
"$GPRMC,151341,A,2423.0787,N,08051.9500,W,2.4,125.7,150615,6.2,"
"##MN-00 00 47 0282 01769 5906 445775 205013 201"
"166.634595"
"$GPRMC,151346,A,2423.0766,N,08051.9469,W,2.4,126.2,150615,6.2,"
"##MN-00 00 48 0282 01768 5906 445337 204885 201"
"166.634641"
"$GPRMC,151350,A,2423.0750,N,08051.9445,W,2.4,126.4,150615,6.2,"
"##MN-00 00 46 0283 01766 5906 445091 204791 201"
"166.634688"
"$GPRMC,151354,A,2423.0735,N,08051.9422,W,2.4,126.2,150615,6.2,"
"##MN-00 00 45 0284 01764 5906 444872 204754 201"
"166.634734"
"$GPRMC,151358,A,2423.0721,N,08051.9398,W,2.4,126.1,150615,6.2,"
"##MN-00 00 44 0285 01763 5906 444785 204728 201"
"166.63478"
"$GPRMC,151402,A,2423.0704,N,08051.9374,W,2.3,126.4,150615,6.2,"
"##MN-00 00 47 0286 01762 5906 444747 204724 201"
"166.634826"
"$GPRMC,151405,A,2423.0692,N,08051.9356,W,2.4,126.2,150615,6.2,"
"##MN-00 00 42 0286 01759 5906 444729 204715 201"
"166.634873"
"$GPRMC,151410,A,2423.0670,N,08051.9326,W,2.5,125.7,150615,6.2,"
"##MN-00 00 49 0287 01756 5906 444737 204717 201"
"166.634919"
"$GPRMC,151414,A,2423.0654,N,08051.9301,W,2.4,125.9,150615,6.2,"
"##MN-00 00 43 0288 01758 5906 444760 204723 201"
"166.634965"
"$GPRMC,151418,A,2423.0639,N,08051.9278,W,2.4,125.6,150615,6.2,"
"##MN-00 00 43 0289 01760 5906 444801 204739 201"
"166.635012"
"$GPRMC,151422,A,2423.0624,N,08051.9253,W,2.4,125.2,150615,6.2,"
"##MN-00 00 39 0289 01758 5906 444883 204760 201"
"166.635058"
"$GPRMC,151426,A,2423.0610,N,08051.9228,W,2.4,124.4,150615,6.2,"
"##MN-00 00 42 0290 01755 5906 444861 204748 201"
"166.635104"
"$GPRMC,151430,A,2423.0595,N,08051.9204,W,2.4,124.4,150615,6.2,"
"##MN-00 00 43 0291 01755 5906 444830 204741 201"
"166.63515"
"$GPRMC,151434,A,2423.0581,N,08051.9182,W,2.4,123.8,150615,6.2,"
"##MN-00 00 40 0292 01755 5906 444766 204729 201"
"166.635197"
"$GPRMC,151438,A,2423.0567,N,08051.9158,W,2.4,122.6,150615,6.2,"
"##MN-00 00 43 0293 01752 5906 444813 204738 201"
"166.635243"
"$GPRMC,151442,A,2423.0553,N,08051.9134,W,2.3,121.9,150615,6.2,"
"##MN-00 00 44 0293 01750 5906 444744 204715 201"
"166.635289"
"$GPRMC,151446,A,2423.0538,N,08051.9109,W,2.4,121.8,150615,6.2,"
"##MN-00 00 43 0294 01749 5906 444706 204705 201"
"166.635336"
"$GPRMC,151450,A,2423.0524,N,08051.9085,W,2.3,121.9,150615,6.2,"
"##MN-00 00 42 0295 01747 5907 444696 204704 201"
"166.635382"
"$GPRMC,151454,A,2423.0510,N,08051.9061,W,2.4,122.5,150615,6.2,"
"##MN-00 00 39 0295 01745 5906 444740 204718 201"
"166.635428"
"$GPRMC,151458,A,2423.0497,N,08051.9036,W,2.4,122.9,150615,6.2,"
"##MN-00 00 42 0296 01741 5907 444790 204733 201"
"166.635475"
"$GPRMC,151502,A,2423.0482,N,08051.9010,W,2.3,123.0,150615,6.2,"
"##MN-00 00 45 0297 01740 5907 444775 204728 201"
"166.635521"
"$GPRMC,151506,A,2423.0468,N,08051.8986,W,2.4,121.9,150615,6.2,"
"##MN-00 00 45 0298 01738 5907 444723 204708 201"
"166.635567"
"$GPRMC,151510,A,2423.0453,N,08051.8960,W,2.4,121.7,150615,6.2,"
"##MN-00 00 43 0299 01739 5907 444691 204702 201"
"166.635613"
"$GPRMC,151514,A,2423.0439,N,08051.8934,W,2.4,121.2,150615,6.2,"
"##MN-00 00 42 0299 01738 5907 444677 204701 201"
"166.63566"
"$GPRMC,151518,A,2423.0424,N,08051.8910,W,2.4,121.4,150615,6.2,"
"##MN-00 00 42 0300 01734 5907 444664 204699 201"
"166.635706"
"$GPRMC,151522,A,2423.0410,N,08051.8885,W,2.4,122.1,150615,6.2,"
"##MN-00 00 42 0301 01733 5908 444623 204687 201"
"166.635752"
"$GPRMC,151526,A,2423.0394,N,08051.8861,W,2.4,123.3,150615,6.2,"
"##MN-00 00 41 0302 01730 5907 444549 204657 201"
"166.635799"
"$GPRMC,151530,A,2423.0379,N,08051.8837,W,2.4,123.9,150615,6.2,"
"##MN+00 00 43 0303 01728 5908 444455 204636 201"
"166.635845"
"$GPRMC,151534,A,2423.0364,N,08051.8812,W,2.3,123.8,150615,6.2,"
"##MN+00 00 42 0303 01726 5908 444417 204627 201"
"166.635891"
"$GPRMC,151538,A,2423.0350,N,08051.8789,W,2.3,123.9,150615,6.2,"
"##MN+00 00 39 0304 01724 5908 444389 204622 201"
"166.635937"
"$GPRMC,151542,A,2423.0335,N,08051.8765,W,2.3,124.2,150615,6.2,"
"##MN-00 00 42 0305 01717 5908 444367 204610 201"
"166.635984"
"$GPRMC,151546,A,2423.0320,N,08051.8740,W,2.4,124.3,150615,6.2,"
"##MN-00 00 39 0306 01714 5908 444359 204610 201"
"166.63603"
"$GPRMC,151550,A,2423.0304,N,08051.8717,W,2.4,124.1,150615,6.2,"
"##MN-00 00 42 0307 01710 5908 444330 204600 201"
"166.636076"
"$GPRMC,151554,A,2423.0287,N,08051.8694,W,2.3,124.8,150615,6.2,"
"##MN-00 00 46 0307 01705 5908 444337 204604 201"
"166.636123"
"$GPRMC,151558,A,2423.0273,N,08051.8670,W,2.4,124.8,150615,6.2,"
"##MN+00 00 42 0308 01704 5909 444365 204613 201"
"166.636169"
"$GPRMC,151602,A,2423.0257,N,08051.8645,W,2.4,124.2,150615,6.2,"
"##MN+00 00 41 0309 01702 5909 444376 204613 201"
"166.636215"
"$GPRMC,151606,A,2423.0242,N,08051.8622,W,2.4,123.6,150615,6.2,"
"##MN+00 00 46 0310 01701 5909 444367 204610 201"
"166.636262"
"$GPRMC,151610,A,2423.0228,N,08051.8598,W,2.4,123.6,150615,6.2,"
"##MN-00 00 45 0311 01699 5910 444335 204607 201"
"166.636308"
"#increment_net"
"$GPRMC,151614,A,2423.0212,N,08051.8573,W,2.5,123.4,150615,6.2,"
"##MN-00 00 42 0311 01695 5910 444286 204595 201"
"166.636354"
"#increment_net"
"$GPRMC,151618,A,2423.0197,N,08051.8548,W,2.5,122.8,150615,6.2,"
"##MN-00 00 42 0312 01690 5910 444312 204597 201"
"166.6364"
"$GPRMC,151622,A,2423.0183,N,08051.8523,W,2.5,122.1,150615,6.2,"
"##MN-00 00 42 0313 01685 5910 444312 204592 201"
"166.636447"
"$GPRMC,151626,A,2423.0169,N,08051.8497,W,2.5,123.0,150615,6.2,"
"##MN-00 00 42 0314 01684 5910 444218 204576 201"
"166.636493"
"$GPRMC,151630,A,2423.0155,N,08051.8472,W,2.5,123.4,150615,6.2,"
"##MN-00 00 41 0315 01682 5910 444153 204561 201"
"166.636539"
"$GPRMC,151634,A,2423.0140,N,08051.8446,W,2.4,123.3,150615,6.2,"
"##MN-00 00 41 0316 01678 5911 444106 204551 201"
"166.636586"
"$GPRMC,151638,A,2423.0125,N,08051.8422,W,2.4,123.5,150615,6.2,"
"##MN-00 00 43 0317 01672 5911 444101 204548 201"
"166.636632"
"$GPRMC,151642,A,2423.0109,N,08051.8397,W,2.5,123.7,150615,6.2,"
"##MN-00 00 44 0317 01669 5911 444070 204541 201"
"166.636678"
"$GPRMC,151646,A,2423.0093,N,08051.8372,W,2.5,124.3,150615,6.2,"
"##MN-00 00 43 0318 01666 5911 444061 204540 201"
"166.636725"
"$GPRMC,151650,A,2423.0078,N,08051.8345,W,2.4,124.5,150615,6.2,"
"##MN-00 00 42 0319 01664 5912 444048 204537 201"
"166.636771"
"$GPRMC,151654,A,2423.0062,N,08051.8321,W,2.4,124.6,150615,6.2,"
"##MN-00 00 43 0320 01659 5912 443984 204515 201"
"166.636829"
"$GPRMC,151658,A,2423.0046,N,08051.8297,W,2.4,124.8,150615,6.2,"
"##MN-00 00 45 0321 01657 5912 443975 204518 201"
"166.636875"
"$GPRMC,151702,A,2423.0031,N,08051.8274,W,2.4,124.7,150615,6.2,"
"##MN-00 00 47 0322 01654 5912 443974 204516 201"
"166.636921"
"$GPRMC,151706,A,2423.0015,N,08051.8251,W,2.4,124.5,150615,6.2,"
"##MN-00 00 44 0323 01651 5912 443952 204511 201"
"166.636968"
"$GPRMC,151710,A,2423.0000,N,08051.8226,W,2.3,125.1,150615,6.2,"
"##MN-00 00 42 0324 01650 5913 443938 204505 201"
"166.637014"
"$GPRMC,151714,A,2422.9984,N,08051.8203,W,2.4,125.6,150615,6.2,"
"##MN-00 00 43 0324 01648 5913 443901 204500 201"
"166.63706"
"$GPRMC,151718,A,2422.9966,N,08051.8180,W,2.4,126.4,150615,6.2,"
"##MN-00 00 44 0325 01645 5913 443898 204499 201"
"166.637106"
"$GPRMC,151722,A,2422.9950,N,08051.8157,W,2.4,126.3,150615,6.2,"
"##MN-00 00 43 0326 01643 5913 443886 204498 201"
"166.637153"
"$GPRMC,151726,A,2422.9933,N,08051.8133,W,2.4,126.4,150615,6.2,"
"##MN-00 00 45 0327 01637 5914 443873 204494 201"
"166.637199"
"$GPRMC,151730,A,2422.9917,N,08051.8108,W,2.4,126.1,150615,6.2,"
"##MN-00 00 43 0328 01636 5914 443873 204494 201"
"166.637245"
"$GPRMC,151734,A,2422.9901,N,08051.8083,W,2.4,125.9,150615,6.2,"
"##MN-00 00 43 0329 01635 5914 443856 204490 201"
"166.637292"
"$GPRMC,151738,A,2422.9886,N,08051.8058,W,2.5,125.9,150615,6.2,"
"##MN-00 00 43 0330 01631 5915 443842 204487 201"
"166.637338"
"$GPRMC,151742,A,2422.9870,N,08051.8032,W,2.5,125.1,150615,6.2,"
"##MN-00 00 42 0331 01631 5915 443837 204487 201"
"166.637384"
"$GPRMC,151746,A,2422.9854,N,08051.8006,W,2.5,124.8,150615,6.2,"
"##MN-00 00 44 0331 01630 5915 443841 204487 201"
"166.637431"
