" Tow: 15OFD-ED   RVWS/WS15161"
" Date: 15/06/2015"
" Temperature Probe #  2089    Conductivity Probe #  710"
" Pressure Probe #  188"
" Flow Meter Calibration  4.71 (m/count)  "
"167.028403"
"$GPRMC,004040,A,2423.9052,N,08053.3503,W,3.1,134.4,160615,6.2,"
"##MN-00 00 80 0910 02708 5778 546138 892737 203"
"167.028449"
"$GPRMC,004055,A,2423.8963,N,08053.3401,W,3.0,134.4,160615,6.2,"
"##MN-00 00 80 0910 02705 5779 631096 024278 203"
"167.028843"
"$GPRMC,004129,A,2423.8765,N,08053.3174,W,3.0,132.3,160615,6.2,"
"##MN-00 00 79 0910 02707 5780 591212 024281 203"
"167.028889"
"$GPRMC,004133,A,2423.8738,N,08053.3145,W,3.0,132.8,160615,6.2,"
"##MN-00 00 79 0910 02705 5780 629344 024281 203"
"167.028935"
"$GPRMC,004137,A,2423.8719,N,08053.3118,W,3.0,133.5,160615,6.2,"
"##MN-00 00 80 0910 02705 5780 630272 024275 203"
"167.028981"
"$GPRMC,004141,A,2423.8695,N,08053.3091,W,3.0,133.3,160615,6.2,"
"##MN-00 00 79 0910 02705 5780 630240 024279 203"
"167.029028"
"$GPRMC,004145,A,2423.8672,N,08053.3064,W,3.0,133.8,160615,6.2,"
"##MN-00 00 80 0910 02706 5780 630224 024280 203"
"167.029074"
"$GPRMC,004149,A,2423.8647,N,08053.3036,W,3.0,133.9,160615,6.2,"
"##MN-00 00 80 0910 02707 5780 630224 024272 203"
"167.02912"
"$GPRMC,004153,A,2423.8622,N,08053.3011,W,3.0,133.7,160615,6.2,"
"##MN-00 00 80 0910 02707 5781 630248 024287 203"
"167.029167"
"$GPRMC,004157,A,2423.8594,N,08053.2984,W,3.1,134.5,160615,6.2,"
"##MN-00 00 79 0910 02707 5781 630208 024277 203"
"167.029213"
"$GPRMC,004201,A,2423.8571,N,08053.2956,W,3.1,134.8,160615,6.2,"
"##MN-00 00 80 0910 02707 5781 630160 024270 203"
"167.029259"
"$GPRMC,004205,A,2423.8546,N,08053.2927,W,3.1,135.4,160615,6.2,"
"##MN-00 00 80 0910 02707 5781 630160 024282 203"
"167.029306"
"$GPRMC,004209,A,2423.8521,N,08053.2899,W,3.1,135.1,160615,6.2,"
"##MN-00 00 79 0910 02707 5781 630168 024279 203"
"167.029352"
"$GPRMC,004213,A,2423.8494,N,08053.2872,W,3.1,135.0,160615,6.2,"
"##MN-00 00 80 0910 02705 5781 630160 024285 203"
"167.029398"
"$GPRMC,004217,A,2423.8468,N,08053.2845,W,3.1,135.4,160615,6.2,"
"##MN-00 00 80 0910 02706 5782 630152 024278 203"
"167.029444"
"$GPRMC,004221,A,2423.8447,N,08053.2821,W,3.1,136.2,160615,6.2,"
"##MN-00 00 79 0910 02706 5782 630176 024281 203"
"167.029491"
"$GPRMC,004225,A,2423.8423,N,08053.2796,W,3.1,136.4,160615,6.2,"
"##MN-00 00 79 0910 02707 5782 630160 024279 203"
"167.029537"
"$GPRMC,004229,A,2423.8395,N,08053.2769,W,3.1,136.3,160615,6.2,"
"##MN-00 00 79 0910 02705 5782 493816 024276 203"
"167.029583"
"$GPRMC,004233,A,2423.8372,N,08053.2741,W,3.1,135.5,160615,6.2,"
"##MN-00 00 79 0910 02706 5782 630160 024273 203"
"167.02963"
"$GPRMC,004237,A,2423.8352,N,08053.2718,W,3.1,134.8,160615,6.2,"
"##MN-00 00 78 0910 02706 5782 630576 024278 203"
"167.029676"
"$GPRMC,004241,A,2423.8322,N,08053.2686,W,3.0,134.4,160615,6.2,"
"##MN-00 00 79 0910 02706 5782 325664 024272 203"
"167.029722"
"$GPRMC,004245,A,2423.8298,N,08053.2659,W,3.1,133.4,160615,6.2,"
"##MN-00 00 80 0910 02707 5782 730992 024286 203"
"167.029769"
"$GPRMC,004249,A,2423.8283,N,08053.2637,W,3.0,132.4,160615,6.2,"
"##MN-00 00 74 0910 02706 5782 630160 024271 203"
"167.029815"
"$GPRMC,004253,A,2423.8252,N,08053.2604,W,3.0,132.2,160615,6.2,"
"##MN-00 00 67 0910 02705 5782 630128 024278 203"
"167.029861"
"$GPRMC,004257,A,2423.8233,N,08053.2580,W,3.1,131.0,160615,6.2,"
"##MN-00 00 49 0910 02708 5782 630160 024275 203"
"167.029907"
"$GPRMC,004301,A,2423.8210,N,08053.2556,W,3.1,131.3,160615,6.2,"
"##MN-00 00 29 0910 02706 5783 630176 024277 203"
"167.029954"
"$GPRMC,004305,A,2423.8186,N,08053.2531,W,3.1,131.5,160615,6.2,"
"##MN-00 00 00 0910 02707 5782 630144 024282 203"
"167.03"
"$GPRMC,004309,A,2423.8163,N,08053.2505,W,3.0,132.1,160615,6.2,"
"##MN-00 00 04 0910 02705 5783 498240 024260 203"
"167.030046"
"$GPRMC,004313,A,2423.8139,N,08053.2479,W,2.9,132.8,160615,6.2,"
"##MN-00 00 00 0910 02706 5783 636352 024266 203"
"167.030093"
"$GPRMC,004317,A,2423.8120,N,08053.2454,W,2.9,132.8,160615,6.2,"
"##MN-00 00 00 0910 02706 5783 636760 024268 203"
"167.030139"
"$GPRMC,004321,A,2423.8096,N,08053.2430,W,2.9,133.0,160615,6.2,"
"##MN-00 00 00 0910 02706 5783 641632 024258 203"
"167.030185"
"$GPRMC,004325,A,2423.8077,N,08053.2405,W,2.9,133.8,160615,6.2,"
"##MN-00 00 00 0910 02706 5783 384464 024259 203"
"167.030231"
"$GPRMC,004329,A,2423.8051,N,08053.2379,W,2.9,133.6,160615,6.2,"
"##MN-00 00 15 0910 02705 5783 644288 024257 203"
"167.030278"
"$GPRMC,004333,A,2423.8028,N,08053.2354,W,2.9,133.8,160615,6.2,"
"##MN-00 00 24 0910 02704 5783 644776 024239 203"
"167.030324"
"$GPRMC,004337,A,2423.8008,N,08053.2329,W,2.8,134.0,160615,6.2,"
"##MN-00 00 29 0910 02706 5783 645648 024254 203"
"167.030382"
"$GPRMC,004341,A,2423.7986,N,08053.2302,W,2.9,134.3,160615,6.2,"
"##MN-00 00 45 0910 02708 5783 647904 024255 203"
"167.030428"
"$GPRMC,004345,A,2423.7962,N,08053.2277,W,2.9,133.1,160615,6.2,"
"##MN-00 00 45 0910 02706 5784 646976 024253 203"
"167.030475"
"$GPRMC,004349,A,2423.7940,N,08053.2253,W,2.9,131.9,160615,6.2,"
"##MN-00 00 45 0910 02708 5784 648688 024249 203"
"167.030521"
"$GPRMC,004353,A,2423.7919,N,08053.2225,W,2.9,130.2,160615,6.2,"
"##MN-00 00 45 0911 02706 5784 648976 024259 203"
"167.030567"
"$GPRMC,004357,A,2423.7900,N,08053.2197,W,2.9,129.7,160615,6.2,"
"##MN-00 00 45 0911 02706 5784 649704 024260 203"
"167.030613"
"$GPRMC,004401,A,2423.7882,N,08053.2169,W,2.8,129.6,160615,6.2,"
"##MN-00 00 45 0912 02708 5784 650960 024258 203"
"167.03066"
"$GPRMC,004405,A,2423.7863,N,08053.2144,W,2.8,128.8,160615,6.2,"
"##MN-00 00 45 0913 02708 5784 653048 024253 203"
"167.030706"
"$GPRMC,004409,A,2423.7841,N,08053.2117,W,2.8,128.9,160615,6.2,"
"##MN-00 00 45 0914 02704 5785 657792 024255 203"
"167.030752"
"$GPRMC,004413,A,2423.7822,N,08053.2089,W,2.8,128.9,160615,6.2,"
"##MN-00 00 45 0915 02705 5785 521824 024246 203"
"167.030799"
"$GPRMC,004417,A,2423.7799,N,08053.2063,W,2.7,129.1,160615,6.2,"
"##MN-00 00 45 0916 02707 5785 656720 024249 203"
"167.030845"
"$GPRMC,004421,A,2423.7780,N,08053.2040,W,2.6,130.3,160615,6.2,"
"##MN-00 00 45 0917 02705 5785 657944 024250 203"
"167.030891"
"$GPRMC,004425,A,2423.7759,N,08053.2015,W,2.6,131.8,160615,6.2,"
"##MN-00 00 45 0918 02706 5785 657392 024250 203"
"167.030938"
"$GPRMC,004429,A,2423.7739,N,08053.1992,W,2.6,131.3,160615,6.2,"
"##MN-00 00 45 0919 02708 5785 659024 024256 203"
"167.030984"
"$GPRMC,004433,A,2423.7721,N,08053.1968,W,2.6,131.7,160615,6.2,"
"##MN-00 00 45 0920 02708 5786 662568 024245 203"
"167.03103"
"$GPRMC,004437,A,2423.7704,N,08053.1944,W,2.6,131.2,160615,6.2,"
"##MN-00 00 45 0921 02707 5786 664256 024252 203"
"167.031076"
"$GPRMC,004441,A,2423.7686,N,08053.1920,W,2.6,130.5,160615,6.2,"
"##MN-00 00 45 0921 02707 5786 667352 024244 203"
"167.031123"
"$GPRMC,004445,A,2423.7665,N,08053.1895,W,2.6,129.2,160615,6.2,"
"##MN-00 00 45 0922 02705 5786 665520 024243 203"
"167.031169"
"$GPRMC,004449,A,2423.7650,N,08053.1870,W,2.6,128.8,160615,6.2,"
"##MN-00 00 45 0923 02707 5786 669456 024243 203"
"167.031215"
"$GPRMC,004453,A,2423.7632,N,08053.1846,W,2.6,128.9,160615,6.2,"
"##MN-00 00 45 0924 02708 5786 669816 024241 203"
"167.031262"
"$GPRMC,004457,A,2423.7614,N,08053.1821,W,2.6,129.1,160615,6.2,"
"##MN-00 00 45 0925 02709 5787 672016 024248 203"
"167.031308"
"$GPRMC,004501,A,2423.7594,N,08053.1795,W,2.6,129.0,160615,6.2,"
"##MN-00 00 45 0926 02709 5787 674632 024250 203"
"167.031354"
"$GPRMC,004505,A,2423.7575,N,08053.1769,W,2.6,129.1,160615,6.2,"
"##MN-00 00 45 0927 02708 5787 671904 024242 203"
"167.0314"
"$GPRMC,004510,A,2423.7551,N,08053.1735,W,2.8,129.7,160615,6.2,"
"##MN-00 00 45 0928 02711 5787 678072 024241 203"
"167.031447"
"$GPRMC,004514,A,2423.7531,N,08053.1708,W,2.7,129.5,160615,6.2,"
"##MN-00 00 45 0929 02708 5787 427976 024211 203"
"167.031493"
"$GPRMC,004518,A,2423.7513,N,08053.1680,W,2.8,129.2,160615,6.2,"
"##MN-00 00 45 0930 02711 5787 685120 024219 203"
"167.031539"
"$GPRMC,004522,A,2423.7492,N,08053.1654,W,2.8,128.3,160615,6.2,"
"##MN-00 00 45 0930 02712 5788 548288 024217 203"
"167.031586"
"$GPRMC,004526,A,2423.7473,N,08053.1628,W,2.8,128.5,160615,6.2,"
"##MN-00 00 45 0931 02711 5788 685024 024227 203"
"167.031632"
"$GPRMC,004530,A,2423.7453,N,08053.1601,W,2.8,128.2,160615,6.2,"
"##MN-00 00 45 0932 02712 5788 684976 024251 203"
"167.031678"
"$GPRMC,004534,A,2423.7435,N,08053.1573,W,2.8,127.8,160615,6.2,"
"##MN-00 00 45 0933 02713 5788 684912 024257 203"
"167.031725"
"$GPRMC,004538,A,2423.7415,N,08053.1548,W,2.8,128.2,160615,6.2,"
"##MN-00 00 45 0934 02714 5789 684848 024277 203"
"167.031771"
"$GPRMC,004542,A,2423.7397,N,08053.1524,W,2.7,129.1,160615,6.2,"
"##MN-00 00 45 0935 02720 5789 431736 024289 203"
"167.031817"
"$GPRMC,004546,A,2423.7375,N,08053.1497,W,2.6,129.2,160615,6.2,"
"##MN-00 00 45 0936 02717 5789 683936 024286 203"
"167.031863"
"$GPRMC,004550,A,2423.7356,N,08053.1468,W,2.6,129.4,160615,6.2,"
"##MN-00 00 45 0937 02719 5790 684728 024270 203"
"167.03191"
"$GPRMC,004554,A,2423.7336,N,08053.1442,W,2.6,129.8,160615,6.2,"
"##MN-00 00 45 0938 02719 5790 684720 024276 203"
"167.031956"
"$GPRMC,004558,A,2423.7315,N,08053.1416,W,2.7,130.5,160615,6.2,"
"##MN-00 00 45 0938 02723 5790 684712 024272 203"
"167.032002"
"$GPRMC,004602,A,2423.7298,N,08053.1393,W,2.6,129.9,160615,6.2,"
"##MN-00 00 45 0939 02725 5790 684672 024278 203"
"167.032049"
"$GPRMC,004606,A,2423.7276,N,08053.1371,W,2.5,131.1,160615,6.2,"
"##MN-00 00 45 0940 02725 5791 684640 024266 203"
"167.032095"
"$GPRMC,004610,A,2423.7258,N,08053.1350,W,2.6,131.4,160615,6.2,"
"##MN-00 00 45 0941 02728 5791 547832 024273 203"
"167.032141"
"$GPRMC,004614,A,2423.7238,N,08053.1329,W,2.5,131.9,160615,6.2,"
"##MN-00 00 45 0942 02728 5791 686432 024278 203"
"167.032187"
"$GPRMC,004618,A,2423.7220,N,08053.1304,W,2.5,132.0,160615,6.2,"
"##MN-00 00 45 0943 02730 5791 684576 024277 203"
"167.032234"
"$GPRMC,004622,A,2423.7202,N,08053.1280,W,2.6,131.4,160615,6.2,"
"##MN-00 00 45 0944 02734 5792 684544 024267 203"
"167.03228"
"$GPRMC,004626,A,2423.7185,N,08053.1257,W,2.6,130.6,160615,6.2,"
"##MN-00 00 45 0945 02734 5792 430960 024262 203"
"167.032326"
"$GPRMC,004630,A,2423.7167,N,08053.1232,W,2.6,129.4,160615,6.2,"
"##MN-00 00 46 0945 02737 5792 691160 024265 203"
"167.032373"
"$GPRMC,004634,A,2423.7146,N,08053.1206,W,2.7,128.8,160615,6.2,"
"##MN-00 00 46 0946 02740 5793 428800 024239 203"
"167.032419"
"$GPRMC,004638,A,2423.7128,N,08053.1181,W,2.7,128.2,160615,6.2,"
"##MN-00 00 46 0947 02743 5793 700056 024251 203"
"167.032465"
"$GPRMC,004642,A,2423.7110,N,08053.1159,W,2.6,127.4,160615,6.2,"
"##MN-00 00 47 0948 02746 5793 703216 024252 203"
"167.032512"
"$GPRMC,004646,A,2423.7092,N,08053.1135,W,2.6,126.3,160615,6.2,"
"##MN-00 00 47 0949 02750 5794 449496 024248 203"
"167.032558"
"$GPRMC,004650,A,2423.7074,N,08053.1111,W,2.7,125.9,160615,6.2,"
"##MN-00 00 46 0950 02751 5794 704384 024250 203"
"167.032604"
"$GPRMC,004654,A,2423.7055,N,08053.1085,W,2.7,125.7,160615,6.2,"
"##MN-00 00 47 0951 02756 5795 706608 024254 203"
"167.03265"
"$GPRMC,004658,A,2423.7036,N,08053.1060,W,2.7,126.5,160615,6.2,"
"##MN-00 00 49 0951 02758 5795 709256 024245 203"
"167.032697"
"$GPRMC,004702,A,2423.7016,N,08053.1033,W,2.7,126.6,160615,6.2,"
"##MN-00 00 49 0952 02761 5795 708384 024246 203"
"167.032743"
"$GPRMC,004706,A,2423.7000,N,08053.1005,W,2.8,125.0,160615,6.2,"
"##MN-00 00 49 0953 02766 5795 711064 024242 203"
"167.032789"
"$GPRMC,004710,A,2423.6982,N,08053.0976,W,2.8,125.2,160615,6.2,"
"##MN-00 00 49 0954 02770 5796 712800 024259 203"
"167.032836"
"$GPRMC,004714,A,2423.6964,N,08053.0949,W,2.8,125.1,160615,6.2,"
"##MN-00 00 48 0955 02774 5796 712736 024262 203"
"167.032882"
"$GPRMC,004718,A,2423.6945,N,08053.0921,W,2.7,126.0,160615,6.2,"
"##MN-00 00 49 0955 02777 5797 712704 024251 203"
"167.032928"
"$GPRMC,004722,A,2423.6927,N,08053.0894,W,2.7,126.4,160615,6.2,"
"##MN-00 00 49 0956 02785 5797 557408 024252 203"
"167.032975"
"$GPRMC,004726,A,2423.6907,N,08053.0871,W,2.7,127.0,160615,6.2,"
"##MN-00 00 49 0957 02788 5797 792128 024263 203"
"167.033021"
"$GPRMC,004730,A,2423.6888,N,08053.0846,W,2.7,128.2,160615,6.2,"
"##MN-00 00 49 0958 02793 5798 715328 024243 203"
"167.033067"
"$GPRMC,004734,A,2423.6867,N,08053.0822,W,2.7,128.6,160615,6.2,"
"##MN-00 00 49 0959 02798 5798 715768 024245 203"
"167.033113"
"$GPRMC,004738,A,2423.6849,N,08053.0799,W,2.7,129.7,160615,6.2,"
"##MN-00 00 49 0960 02804 5799 717512 024253 203"
"167.03316"
"$GPRMC,004742,A,2423.6830,N,08053.0776,W,2.7,130.9,160615,6.2,"
"##MN-00 00 49 0961 02811 5799 719680 024254 203"
"167.033206"
"$GPRMC,004746,A,2423.6810,N,08053.0749,W,2.6,131.7,160615,6.2,"
"##MN-00 00 49 0961 02816 5799 721008 024243 203"
"167.033252"
"$GPRMC,004750,A,2423.6788,N,08053.0724,W,2.6,131.9,160615,6.2,"
"##MN-00 00 49 0962 02822 5800 722336 024252 203"
"167.033299"
"$GPRMC,004754,A,2423.6765,N,08053.0699,W,2.6,132.0,160615,6.2,"
"##MN-00 00 49 0963 02830 5801 721856 024252 203"
"167.033345"
"$GPRMC,004758,A,2423.6749,N,08053.0678,W,2.6,131.8,160615,6.2,"
"##MN-00 00 49 0964 02834 5801 448768 024249 203"
"167.033391"
"$GPRMC,004802,A,2423.6729,N,08053.0654,W,2.6,132.0,160615,6.2,"
"##MN-00 00 49 0965 02843 5801 723192 024244 203"
"167.033438"
"$GPRMC,004806,A,2423.6709,N,08053.0631,W,2.7,132.1,160615,6.2,"
"##MN-00 00 49 0966 02847 5802 725832 024247 203"
"167.033484"
"$GPRMC,004810,A,2423.6689,N,08053.0607,W,2.7,132.1,160615,6.2,"
"##MN-00 00 49 0966 02854 5802 726720 024246 203"
"167.03353"
"$GPRMC,004814,A,2423.6668,N,08053.0583,W,2.6,132.6,160615,6.2,"
"##MN-00 00 49 0967 02859 5802 726256 024252 203"
"167.033576"
"$GPRMC,004818,A,2423.6648,N,08053.0559,W,2.6,132.3,160615,6.2,"
"##MN-00 00 49 0968 02865 5803 728432 024239 203"
"167.033634"
"$GPRMC,004822,A,2423.6628,N,08053.0535,W,2.7,132.0,160615,6.2,"
"##MN-00 00 49 0969 02873 5803 477520 024242 203"
"167.033681"
"$GPRMC,004826,A,2423.6608,N,08053.0509,W,2.7,130.7,160615,6.2,"
"##MN-00 00 49 0970 02880 5803 732000 024252 203"
"167.033727"
"$GPRMC,004830,A,2423.6589,N,08053.0483,W,2.6,129.6,160615,6.2,"
"##MN-00 00 50 0971 02886 5804 734592 024244 203"
"167.033773"
"$GPRMC,004834,A,2423.6570,N,08053.0455,W,2.6,129.1,160615,6.2,"
"##MN-00 00 50 0971 02893 5805 735496 024244 203"
"167.033819"
"$GPRMC,004838,A,2423.6550,N,08053.0429,W,2.7,129.0,160615,6.2,"
"##MN-00 00 50 0972 02899 5805 737248 024249 203"
"167.033866"
"$GPRMC,004842,A,2423.6534,N,08053.0405,W,2.7,128.2,160615,6.2,"
"##MN-00 00 50 0973 02903 5805 603984 024220 203"
"167.033912"
"$GPRMC,004846,A,2423.6514,N,08053.0381,W,2.7,127.7,160615,6.2,"
"##MN-00 00 50 0974 02909 5806 231792 024232 203"
"167.033958"
"$GPRMC,004850,A,2423.6496,N,08053.0353,W,2.8,127.7,160615,6.2,"
"##MN-00 00 50 0975 02916 5806 605296 024223 203"
"167.034005"
"$GPRMC,004854,A,2423.6476,N,08053.0325,W,2.8,127.6,160615,6.2,"
"##MN-00 00 50 0976 02922 5807 485384 024228 203"
"167.034051"
"$GPRMC,004858,A,2423.6458,N,08053.0299,W,2.8,127.9,160615,6.2,"
"##MN-00 00 50 0976 02926 5807 741600 024276 203"
"167.034097"
"$GPRMC,004902,A,2423.6440,N,08053.0272,W,2.8,127.7,160615,6.2,"
"##MN-00 00 50 0977 02933 5808 740256 024265 203"
"167.034144"
"$GPRMC,004906,A,2423.6420,N,08053.0248,W,2.8,127.3,160615,6.2,"
"##MN-00 00 50 0978 02939 5808 741616 024266 203"
"167.03419"
"$GPRMC,004910,A,2423.6401,N,08053.0222,W,2.8,128.0,160615,6.2,"
"##MN-00 00 50 0979 02944 5809 740208 024270 203"
"167.034236"
"$GPRMC,004914,A,2423.6382,N,08053.0195,W,2.7,128.5,160615,6.2,"
"##MN-00 00 50 0980 02947 5809 741536 024288 203"
"167.034282"
"$GPRMC,004918,A,2423.6361,N,08053.0167,W,2.8,129.0,160615,6.2,"
"##MN-00 00 50 0981 02952 5809 740640 024282 203"
"167.034329"
"$GPRMC,004922,A,2423.6342,N,08053.0142,W,2.8,129.1,160615,6.2,"
"##MN-00 00 50 0982 02956 5810 740592 024281 203"
"167.034375"
"$GPRMC,004926,A,2423.6320,N,08053.0116,W,2.8,129.6,160615,6.2,"
"##MN-00 00 50 0982 02962 5811 740560 024282 203"
"167.034421"
"$GPRMC,004930,A,2423.6301,N,08053.0088,W,2.8,129.6,160615,6.2,"
"##MN-00 00 50 0983 02966 5811 740560 024283 203"
"167.034468"
"$GPRMC,004934,A,2423.6281,N,08053.0062,W,2.8,130.0,160615,6.2,"
"##MN-00 00 50 0984 02969 5811 739648 024300 203"
"167.034514"
"$GPRMC,004938,A,2423.6260,N,08053.0035,W,2.8,129.8,160615,6.2,"
"##MN-00 00 50 0985 02973 5812 740504 024288 203"
"167.03456"
"$GPRMC,004942,A,2423.6239,N,08053.0010,W,2.8,130.3,160615,6.2,"
"##MN-00 00 50 0986 02975 5812 740496 024282 203"
"167.034606"
"$GPRMC,004946,A,2423.6218,N,08052.9984,W,2.8,130.7,160615,6.2,"
"##MN-00 00 50 0987 02979 5813 740912 024283 203"
"167.034653"
"$GPRMC,004950,A,2423.6196,N,08052.9958,W,2.8,131.0,160615,6.2,"
"##MN-00 00 50 0988 02983 5814 740464 024289 203"
"167.034699"
"$GPRMC,004954,A,2423.6176,N,08052.9933,W,2.8,129.7,160615,6.2,"
"##MN-00 00 50 0988 02986 5814 739568 024285 203"
"167.034745"
"$GPRMC,004958,A,2423.6156,N,08052.9906,W,2.8,129.8,160615,6.2,"
"##MN-00 00 50 0989 02990 5814 740416 024286 203"
"167.034792"
"$GPRMC,005002,A,2423.6137,N,08052.9879,W,2.8,128.7,160615,6.2,"
"##MN-00 00 50 0990 02993 5815 741312 024286 203"
"167.034838"
"$GPRMC,005007,A,2423.6112,N,08052.9843,W,2.8,128.9,160615,6.2,"
"##MN-00 00 50 0991 02997 5815 603592 024281 203"
"167.034884"
"$GPRMC,005010,A,2423.6097,N,08052.9823,W,2.8,129.7,160615,6.2,"
"##MN-00 00 50 0992 02999 5816 740384 024270 203"
"167.034931"
"$GPRMC,005015,A,2423.6072,N,08052.9789,W,2.8,129.9,160615,6.2,"
"##MN-00 00 48 0993 03002 5816 742144 024272 203"
"167.034977"
"$GPRMC,005019,A,2423.6053,N,08052.9762,W,2.7,129.7,160615,6.2,"
"##MN-00 00 51 0993 03004 5816 749752 024254 203"
"167.035023"
"$GPRMC,005023,A,2423.6033,N,08052.9737,W,2.6,129.6,160615,6.2,"
"##MN-00 00 50 0994 03008 5817 749296 024264 203"
"167.035069"
"$GPRMC,005027,A,2423.6013,N,08052.9712,W,2.7,129.5,160615,6.2,"
"##MN-00 00 50 0995 03013 5817 755512 024244 203"
"167.035116"
"$GPRMC,005031,A,2423.5994,N,08052.9687,W,2.6,129.3,160615,6.2,"
"##MN-00 00 50 0996 03018 5818 756384 024253 203"
"167.035162"
"$GPRMC,005035,A,2423.5975,N,08052.9662,W,2.8,129.1,160615,6.2,"
"##MN-00 00 50 0997 03017 5818 501440 024250 203"
"167.035208"
"$GPRMC,005039,A,2423.5960,N,08052.9643,W,2.7,129.3,160615,6.2,"
"##MN-00 00 50 0998 03021 5819 759912 024256 203"
"167.035255"
"$GPRMC,005043,A,2423.5935,N,08052.9610,W,2.7,129.7,160615,6.2,"
"##MN-00 00 49 0999 03025 5819 758128 024258 203"
"167.035301"
"$GPRMC,005047,A,2423.5916,N,08052.9583,W,2.7,129.8,160615,6.2,"
"##MN-00 00 49 0999 03027 5820 759432 024261 203"
"167.035347"
"$GPRMC,005051,A,2423.5895,N,08052.9558,W,2.8,130.4,160615,6.2,"
"##MN-00 00 49 1000 03030 5820 760768 024253 203"
"167.035394"
"$GPRMC,005055,A,2423.5874,N,08052.9534,W,2.8,131.1,160615,6.2,"
"##MN-00 00 49 1001 03030 5821 759408 024247 203"
"167.03544"
"$GPRMC,005059,A,2423.5853,N,08052.9506,W,2.8,131.1,160615,6.2,"
"##MN-00 00 50 1002 03035 5821 760736 024253 203"
"167.035486"
"$GPRMC,005103,A,2423.5833,N,08052.9480,W,2.8,130.2,160615,6.2,"
"##MN-00 00 50 1003 03037 5822 760344 024245 203"
"167.035532"
"$GPRMC,005107,A,2423.5813,N,08052.9453,W,2.8,129.7,160615,6.2,"
"##MN-00 00 50 1004 03041 5822 761536 024254 203"
"167.035579"
"$GPRMC,005111,A,2423.5793,N,08052.9426,W,2.8,128.4,160615,6.2,"
"##MN-00 00 50 1005 03043 5822 762528 024244 203"
"167.035625"
"$GPRMC,005115,A,2423.5775,N,08052.9399,W,2.8,128.7,160615,6.2,"
"##MN-00 00 50 1005 03046 5823 767416 024242 203"
"167.035671"
"$GPRMC,005119,A,2423.5754,N,08052.9371,W,2.8,128.2,160615,6.2,"
"##MN-00 00 50 1006 03048 5823 765264 024255 203"
"167.035718"
"$GPRMC,005123,A,2423.5735,N,08052.9343,W,2.9,128.0,160615,6.2,"
"##MN-00 00 50 1007 03053 5824 631184 024257 203"
"167.035764"
"$GPRMC,005127,A,2423.5715,N,08052.9314,W,2.9,127.7,160615,6.2,"
"##MN-00 00 49 1008 03054 5825 765360 024250 203"
"167.03581"
"$GPRMC,005131,A,2423.5695,N,08052.9287,W,2.9,128.4,160615,6.2,"
"##MN-00 00 49 1009 03059 5825 763632 024246 203"
"167.035856"
"$GPRMC,005135,A,2423.5676,N,08052.9260,W,2.8,129.0,160615,6.2,"
"##MN-00 00 49 1010 03062 5826 766504 024234 203"
"167.035903"
"$GPRMC,005139,A,2423.5656,N,08052.9232,W,2.9,128.5,160615,6.2,"
"##MN-00 00 49 1010 03065 5826 762160 024250 203"
"167.035949"
"$GPRMC,005143,A,2423.5638,N,08052.9205,W,2.9,128.1,160615,6.2,"
"##MN-00 00 49 1011 03069 5826 761448 024254 203"
"167.035995"
"$GPRMC,005147,A,2423.5620,N,08052.9178,W,2.9,128.0,160615,6.2,"
"##MN-00 00 49 1012 03073 5827 760704 024255 203"
"167.036042"
"$GPRMC,005151,A,2423.5600,N,08052.9152,W,2.8,127.5,160615,6.2,"
"##MN-00 00 49 1013 03077 5827 759512 024258 203"
"167.036088"
"$GPRMC,005155,A,2423.5580,N,08052.9125,W,2.8,127.4,160615,6.2,"
"##MN-00 00 49 1014 03081 5828 761512 024246 203"
"167.036134"
"$GPRMC,005159,A,2423.5562,N,08052.9098,W,2.8,127.7,160615,6.2,"
"##MN-00 00 49 1015 03083 5828 758496 024246 203"
"167.036181"
"$GPRMC,005203,A,2423.5541,N,08052.9071,W,2.8,128.5,160615,6.2,"
"##MN-00 00 49 1015 03088 5829 504552 024241 203"
"167.036227"
"$GPRMC,005207,A,2423.5522,N,08052.9047,W,2.8,128.9,160615,6.2,"
"##MN-00 00 49 1016 03094 5829 501216 024254 203"
"167.036273"
"$GPRMC,005211,A,2423.5502,N,08052.9022,W,2.7,129.9,160615,6.2,"
"##MN-00 00 49 1017 03096 5830 485592 024264 203"
"167.036319"
"$GPRMC,005215,A,2423.5484,N,08052.8998,W,2.7,130.2,160615,6.2,"
"##MN-00 00 49 1018 03101 5830 741952 024282 203"
"167.036366"
"$GPRMC,005219,A,2423.5465,N,08052.8973,W,2.6,131.0,160615,6.2,"
"##MN-00 00 49 1019 03104 5831 742072 024278 203"
"167.036412"
"$GPRMC,005223,A,2423.5445,N,08052.8948,W,2.6,131.0,160615,6.2,"
"##MN-00 00 49 1020 03106 5830 742192 024279 203"
"167.036458"
"$GPRMC,005227,A,2423.5429,N,08052.8928,W,2.6,131.1,160615,6.2,"
"##MN-00 00 49 1020 03110 5831 742272 024280 203"
"167.036505"
"$GPRMC,005231,A,2423.5407,N,08052.8902,W,2.6,131.5,160615,6.2,"
"##MN-00 00 48 1021 03115 5832 742816 024278 203"
"167.036551"
"$GPRMC,005235,A,2423.5387,N,08052.8878,W,2.6,131.0,160615,6.2,"
"##MN-00 00 49 1022 03117 5832 741536 024287 203"
"167.036597"
"$GPRMC,005239,A,2423.5367,N,08052.8852,W,2.6,130.4,160615,6.2,"
"##MN-00 00 49 1023 03119 5832 742512 024286 203"
"167.036644"
"$GPRMC,005243,A,2423.5347,N,08052.8827,W,2.7,129.7,160615,6.2,"
"##MN-00 00 49 1024 03125 5833 739112 024279 203"
"167.03669"
"$GPRMC,005247,A,2423.5329,N,08052.8800,W,2.7,129.2,160615,6.2,"
"##MN-00 00 49 1024 03129 5833 749888 024283 203"
"167.036736"
"$GPRMC,005251,A,2423.5310,N,08052.8772,W,2.7,128.5,160615,6.2,"
"##MN-00 00 49 1025 03132 5833 742896 024277 203"
"167.036782"
"$GPRMC,005255,A,2423.5291,N,08052.8739,W,2.8,127.0,160615,6.2,"
"##MN-00 00 49 1026 03134 5834 743920 024274 203"
"167.036829"
"$GPRMC,005259,A,2423.5273,N,08052.8711,W,2.9,125.7,160615,6.2,"
"##MN-00 00 49 1027 03139 5834 742680 024265 203"
"167.036887"
"$GPRMC,005303,A,2423.5255,N,08052.8685,W,2.8,125.5,160615,6.2,"
"##MN-00 00 49 1028 03145 5835 743168 024274 203"
"167.036933"
"$GPRMC,005307,A,2423.5235,N,08052.8655,W,2.8,124.7,160615,6.2,"
"##MN-00 00 49 1028 03146 5834 743280 024215 203"
"167.036979"
"$GPRMC,005311,A,2423.5217,N,08052.8625,W,2.8,123.8,160615,6.2,"
"##MN-00 00 49 1029 03152 5835 740704 024229 203"
"167.037025"
"$GPRMC,005315,A,2423.5201,N,08052.8595,W,2.9,123.0,160615,6.2,"
"##MN-00 00 49 1030 03154 5835 737216 024243 203"
"167.037072"
"$GPRMC,005319,A,2423.5184,N,08052.8563,W,2.9,123.6,160615,6.2,"
"##MN-00 00 49 1031 03160 5836 733768 024239 203"
"167.037118"
"$GPRMC,005323,A,2423.5165,N,08052.8535,W,2.9,124.4,160615,6.2,"
"##MN-00 00 48 1032 03164 5836 732992 024240 203"
"167.037164"
"$GPRMC,005327,A,2423.5147,N,08052.8508,W,2.9,124.5,160615,6.2,"
"##MN-00 00 49 1032 03166 5836 728696 024234 203"
"167.037211"
"$GPRMC,005331,A,2423.5128,N,08052.8481,W,2.9,124.3,160615,6.2,"
"##MN-00 00 49 1033 03168 5836 725280 024246 203"
"167.037257"
"$GPRMC,005335,A,2423.5109,N,08052.8455,W,2.9,124.2,160615,6.2,"
"##MN-00 00 49 1034 03173 5836 723192 024235 203"
"167.037303"
"$GPRMC,005339,A,2423.5090,N,08052.8429,W,2.9,124.3,160615,6.2,"
"##MN-00 00 49 1035 03175 5836 722016 024236 203"
"167.03735"
"$GPRMC,005343,A,2423.5071,N,08052.8402,W,2.9,125.7,160615,6.2,"
"##MN-00 00 49 1036 03179 5837 715920 024245 203"
"167.037396"
"$GPRMC,005347,A,2423.5052,N,08052.8377,W,2.8,127.2,160615,6.2,"
"##MN-00 00 49 1036 03184 5837 715656 024239 203"
"167.037442"
"$GPRMC,005351,A,2423.5032,N,08052.8353,W,2.8,128.3,160615,6.2,"
"##MN-00 00 49 1037 03186 5837 717168 024235 203"
"167.037488"
"$GPRMC,005355,A,2423.5014,N,08052.8329,W,2.7,129.7,160615,6.2,"
"##MN-00 00 49 1038 03190 5837 709264 024243 203"
"167.037535"
"$GPRMC,005359,A,2423.4995,N,08052.8305,W,2.7,130.5,160615,6.2,"
"##MN-00 00 49 1039 03191 5837 706720 024244 203"
"167.037581"
"$GPRMC,005403,A,2423.4975,N,08052.8281,W,2.6,131.3,160615,6.2,"
"##MN-00 00 49 1040 03195 5837 696176 024253 203"
"167.037627"
"$GPRMC,005407,A,2423.4955,N,08052.8257,W,2.6,131.7,160615,6.2,"
"##MN-00 00 49 1041 03197 5837 554232 024252 203"
"167.037674"
"$GPRMC,005411,A,2423.4938,N,08052.8234,W,2.6,131.7,160615,6.2,"
"##MN-00 00 49 1041 03200 5838 180400 024273 203"
"167.03772"
"$GPRMC,005415,A,2423.4917,N,08052.8211,W,2.6,131.8,160615,6.2,"
"##MN-00 00 49 1042 03202 5837 688216 024258 203"
"167.037766"
"$GPRMC,005420,A,2423.4887,N,08052.8179,W,2.7,131.9,160615,6.2,"
"##MN-00 00 48 1043 03205 5837 689744 024240 203"
"167.037813"
"$GPRMC,005424,A,2423.4867,N,08052.8154,W,2.8,131.5,160615,6.2,"
"##MN-00 00 48 1044 03207 5837 688992 024259 203"
"167.037859"
"$GPRMC,005428,A,2423.4847,N,08052.8127,W,2.8,130.2,160615,6.2,"
"##MN-00 00 48 1045 03212 5838 689216 024236 203"
"167.037905"
"$GPRMC,005432,A,2423.4828,N,08052.8102,W,2.8,129.7,160615,6.2,"
"##MN-00 00 49 1046 03215 5838 689392 024219 203"
"167.037951"
"$GPRMC,005436,A,2423.4808,N,08052.8076,W,2.8,129.5,160615,6.2,"
"##MN-00 00 47 1046 03214 5837 682864 024233 203"
"167.037998"
"$GPRMC,005440,A,2423.4789,N,08052.8048,W,2.9,128.5,160615,6.2,"
"##MN-00 00 48 1047 03221 5837 678096 024219 203"
"167.038044"
"$GPRMC,005444,A,2423.4769,N,08052.8020,W,2.9,127.4,160615,6.2,"
"##MN-00 00 47 1048 03224 5837 672864 024239 203"
"167.03809"
"$GPRMC,005448,A,2423.4749,N,08052.7992,W,2.9,127.5,160615,6.2,"
"##MN-00 00 48 1049 03225 5837 671328 024238 203"
"167.038137"
"$GPRMC,005452,A,2423.4729,N,08052.7961,W,2.9,126.5,160615,6.2,"
"##MN-00 00 48 1050 03228 5837 665224 024226 203"
"167.038183"
"$GPRMC,005456,A,2423.4710,N,08052.7933,W,2.9,125.7,160615,6.2,"
"##MN-00 00 48 1050 03234 5837 661816 024237 203"
"167.038229"
"$GPRMC,005500,A,2423.4688,N,08052.7904,W,2.9,125.0,160615,6.2,"
"##MN-00 00 48 1051 03235 5837 659296 024240 203"
"167.038275"
"$GPRMC,005504,A,2423.4670,N,08052.7872,W,2.9,124.6,160615,6.2,"
"##MN-00 00 48 1052 03239 5836 653616 024249 203"
"167.038322"
"$GPRMC,005508,A,2423.4652,N,08052.7841,W,3.0,124.6,160615,6.2,"
"##MN-00 00 48 1053 03244 5836 642640 024243 203"
"167.038368"
"$GPRMC,005512,A,2423.4633,N,08052.7808,W,3.0,124.9,160615,6.2,"
"##MN-00 00 48 1053 03245 5836 635656 024249 203"
"167.038414"
"$GPRMC,005516,A,2423.4613,N,08052.7776,W,3.1,125.0,160615,6.2,"
"##MN-00 00 48 1054 03246 5836 497712 024254 203"
"167.038461"
"$GPRMC,005520,A,2423.4592,N,08052.7746,W,3.1,124.4,160615,6.2,"
"##MN-00 00 48 1055 03249 5836 636032 024252 203"
"167.038507"
"$GPRMC,005524,A,2423.4574,N,08052.7715,W,3.1,123.9,160615,6.2,"
"##MN-00 00 48 1056 03251 5835 633512 024255 203"
"167.038553"
"$GPRMC,005528,A,2423.4554,N,08052.7683,W,3.1,122.8,160615,6.2,"
"##MN-00 00 48 1057 03259 5835 634560 024234 203"
"167.0386"
"$GPRMC,005532,A,2423.4534,N,08052.7651,W,3.1,123.1,160615,6.2,"
"##MN-00 00 48 1057 03259 5835 634288 024219 203"
"167.038646"
"$GPRMC,005536,A,2423.4514,N,08052.7619,W,3.0,123.6,160615,6.2,"
"##MN-00 00 48 1058 03261 5834 628624 024238 203"
"167.038692"
"$GPRMC,005540,A,2423.4497,N,08052.7592,W,3.0,124.7,160615,6.2,"
"##MN-00 00 48 1059 03268 5834 618984 024252 203"
"167.038738"
"$GPRMC,005544,A,2423.4480,N,08052.7566,W,2.9,125.5,160615,6.2,"
"##MN-00 00 48 1060 03271 5834 615264 024239 203"
"167.038785"
"$GPRMC,005548,A,2423.4461,N,08052.7542,W,2.8,126.4,160615,6.2,"
"##MN-00 00 48 1061 03275 5833 608704 024236 203"
"167.038831"
"$GPRMC,005552,A,2423.4444,N,08052.7517,W,2.7,126.9,160615,6.2,"
"##MN-00 00 48 1061 03276 5833 605776 024241 203"
"167.038877"
"$GPRMC,005556,A,2423.4422,N,08052.7490,W,2.7,127.3,160615,6.2,"
"##MN-00 00 48 1062 03282 5832 602832 024239 203"
"167.038924"
"$GPRMC,005600,A,2423.4406,N,08052.7464,W,2.7,127.8,160615,6.2,"
"##MN-00 00 48 1063 03285 5832 598128 024248 203"
"167.03897"
"$GPRMC,005604,A,2423.4385,N,08052.7437,W,2.7,128.0,160615,6.2,"
"##MN-00 00 48 1064 03289 5831 578224 024273 203"
"167.039016"
"$GPRMC,005608,A,2423.4364,N,08052.7413,W,2.8,128.9,160615,6.2,"
"##MN-00 00 48 1064 03291 5831 579312 024264 203"
"167.039063"
"$GPRMC,005612,A,2423.4348,N,08052.7390,W,2.7,130.3,160615,6.2,"
"##MN-00 00 48 1065 03298 5830 579600 024258 203"
"167.039109"
"$GPRMC,005616,A,2423.4328,N,08052.7365,W,2.6,131.0,160615,6.2,"
"##MN-00 00 48 1066 03303 5830 579776 024250 203"
"167.039155"
"$GPRMC,005620,A,2423.4308,N,08052.7340,W,2.6,131.0,160615,6.2,"
"##MN-00 00 48 1067 03307 5830 580840 024209 203"
"167.039201"
"$GPRMC,005624,A,2423.4290,N,08052.7316,W,2.6,131.7,160615,6.2,"
"##MN-00 00 48 1067 03311 5829 572992 024223 203"
"167.039248"
"$GPRMC,005628,A,2423.4272,N,08052.7292,W,2.6,131.4,160615,6.2,"
"##MN-00 00 48 1068 03317 5828 567352 024216 203"
"167.039294"
"$GPRMC,005632,A,2423.4251,N,08052.7267,W,2.7,131.4,160615,6.2,"
"##MN-00 00 48 1069 03320 5827 308160 024224 203"
"167.03934"
"$GPRMC,005636,A,2423.4229,N,08052.7241,W,2.7,130.9,160615,6.2,"
"##MN-00 00 47 1070 03325 5826 553920 024231 203"
"167.039387"
"$GPRMC,005640,A,2423.4208,N,08052.7216,W,2.8,130.4,160615,6.2,"
"##MN-00 00 46 1070 03329 5826 551368 024241 203"
"167.039433"
"$GPRMC,005644,A,2423.4189,N,08052.7188,W,2.8,129.1,160615,6.2,"
"##MN-00 00 46 1071 03333 5825 544432 024231 203"
"167.039479"
"$GPRMC,005648,A,2423.4171,N,08052.7160,W,2.8,127.7,160615,6.2,"
"##MN-00 00 46 1072 03337 5824 535272 024252 203"
"167.039525"
"$GPRMC,005652,A,2423.4153,N,08052.7131,W,2.8,126.8,160615,6.2,"
"##MN-00 00 46 1073 03342 5823 523880 024262 203"
"167.039572"
"$GPRMC,005656,A,2423.4133,N,08052.7101,W,2.9,126.1,160615,6.2,"
"##MN-00 00 46 1073 03348 5823 524496 024253 203"
"167.039618"
"$GPRMC,005700,A,2423.4114,N,08052.7070,W,2.9,125.1,160615,6.2,"
"##MN-00 00 45 1074 03351 5822 524704 024250 203"
"167.039664"
"$GPRMC,005704,A,2423.4095,N,08052.7038,W,2.9,125.3,160615,6.2,"
"##MN-00 00 45 1075 03357 5821 524912 024219 203"
"167.039711"
"$GPRMC,005708,A,2423.4073,N,08052.7007,W,2.9,124.8,160615,6.2,"
"##MN-00 00 46 1076 03360 5820 518424 024227 203"
"167.039757"
"$GPRMC,005712,A,2423.4056,N,08052.6978,W,2.9,124.4,160615,6.2,"
"##MN-00 00 47 1076 03366 5819 235600 024244 203"
"167.039803"
"$GPRMC,005716,A,2423.4042,N,08052.6950,W,2.9,124.1,160615,6.2,"
"##MN-00 00 47 1077 03372 5819 505832 024243 203"
"167.03985"
"$GPRMC,005720,A,2423.4023,N,08052.6921,W,2.9,122.6,160615,6.2,"
"##MN-00 00 47 1078 03377 5818 497136 024239 203"
"167.039896"
"$GPRMC,005724,A,2423.4008,N,08052.6892,W,2.9,122.7,160615,6.2,"
"##MN-00 00 47 1078 03384 5817 494624 024255 203"
"167.039942"
"$GPRMC,005728,A,2423.3991,N,08052.6863,W,2.9,122.7,160615,6.2,"
"##MN-00 00 47 1079 03389 5816 486376 024256 203"
"167.039988"
"$GPRMC,005732,A,2423.3971,N,08052.6835,W,2.9,123.7,160615,6.2,"
"##MN-00 00 47 1080 03396 5815 470064 024293 203"
"167.040035"
"$GPRMC,005736,A,2423.3951,N,08052.6808,W,2.9,125.1,160615,6.2,"
"##MN-00 00 47 1080 03397 5814 469360 024284 203"
"167.040081"
"$GPRMC,005740,A,2423.3929,N,08052.6780,W,2.8,126.2,160615,6.2,"
"##MN-00 00 47 1081 03400 5813 742448 024271 203"
"167.040139"
"$GPRMC,005744,A,2423.3908,N,08052.6753,W,2.8,126.8,160615,6.2,"
"##MN-00 00 47 1082 03405 5811 195248 024238 203"
"167.040185"
"$GPRMC,005748,A,2423.3889,N,08052.6726,W,2.9,126.9,160615,6.2,"
"##MN-00 00 47 1083 03412 5810 735256 024236 203"
"167.040231"
"$GPRMC,005752,A,2423.3865,N,08052.6702,W,2.9,127.8,160615,6.2,"
"##MN-00 00 46 1083 03414 5809 453200 024255 203"
"167.040278"
"$GPRMC,005756,A,2423.3848,N,08052.6679,W,2.8,128.2,160615,6.2,"
"##MN-00 00 46 1084 03419 5808 447592 024283 203"
"167.040324"
"$GPRMC,005800,A,2423.3828,N,08052.6655,W,2.8,128.6,160615,6.2,"
"##MN-00 00 46 1085 03425 5807 441120 024274 203"
"167.04037"
"$GPRMC,005804,A,2423.3810,N,08052.6633,W,2.7,129.5,160615,6.2,"
"##MN-00 00 46 1085 03428 5805 435040 024273 203"
"167.040417"
"$GPRMC,005808,A,2423.3792,N,08052.6608,W,2.6,129.7,160615,6.2,"
"##MN-00 00 46 1086 03433 5804 421848 024272 203"
"167.040463"
"$GPRMC,005812,A,2423.3773,N,08052.6585,W,2.6,130.4,160615,6.2,"
"##MN-00 00 46 1087 03440 5803 413984 024263 203"
"167.040509"
"$GPRMC,005816,A,2423.3753,N,08052.6559,W,2.6,130.6,160615,6.2,"
"##MN-00 00 46 1088 03443 5802 414136 024271 203"
"167.040556"
"$GPRMC,005820,A,2423.3735,N,08052.6534,W,2.7,130.7,160615,6.2,"
"##MN-00 00 46 1088 03448 5801 415168 024259 203"
"167.040602"
"$GPRMC,005824,A,2423.3719,N,08052.6507,W,2.7,128.8,160615,6.2,"
"##MN-00 00 46 1089 03454 5799 414440 024269 203"
"167.040648"
"$GPRMC,005828,A,2423.3699,N,08052.6481,W,2.6,128.5,160615,6.2,"
"##MN-00 00 46 1090 03458 5798 539456 024263 203"
"167.040694"
"$GPRMC,005832,A,2423.3681,N,08052.6453,W,2.8,128.0,160615,6.2,"
"##MN-00 00 46 1090 03464 5797 122320 024255 203"
"167.040741"
"$GPRMC,005836,A,2423.3666,N,08052.6428,W,2.8,128.3,160615,6.2,"
"##MN+00 00 44 1091 03468 5795 392040 024254 203"
"167.040787"
"$GPRMC,005840,A,2423.3648,N,08052.6401,W,2.8,128.3,160615,6.2,"
"##MN+00 00 43 1092 03469 5794 386368 024251 203"
"167.040833"
"$GPRMC,005844,A,2423.3629,N,08052.6373,W,2.8,127.1,160615,6.2,"
"##MN+00 00 43 1093 03469 5792 518016 024246 203"
"167.04088"
"$GPRMC,005848,A,2423.3608,N,08052.6343,W,2.9,126.7,160615,6.2,"
"##MN-00 00 39 1093 03473 5791 779824 024248 203"
"167.040926"
"$GPRMC,005852,A,2423.3586,N,08052.6312,W,2.9,125.6,160615,6.2,"
"##MN-00 00 39 1094 03474 5789 266176 024240 203"
"167.040972"
"#increment_net"
"$GPRMC,005856,A,2423.3564,N,08052.6279,W,2.9,124.8,160615,6.2,"
"##MN-00 00 39 1095 03476 5788 541136 024235 203"
"167.041019"
"$GPRMC,005900,A,2423.3546,N,08052.6249,W,2.9,125.0,160615,6.2,"
"##MN-00 00 39 1096 03477 5786 082000 024238 203"
"167.041065"
"$GPRMC,005904,A,2423.3525,N,08052.6219,W,2.9,124.4,160615,6.2,"
"##MN-00 00 42 1096 03478 5785 583048 024240 203"
"167.041111"
"$GPRMC,005908,A,2423.3506,N,08052.6190,W,2.9,124.3,160615,6.2,"
"##MN-00 00 43 1097 03483 5783 267696 024236 203"
"167.041157"
"$GPRMC,005912,A,2423.3488,N,08052.6161,W,2.9,124.7,160615,6.2,"
"##MN-00 00 44 1098 03484 5782 346192 024232 203"
"167.041204"
"$GPRMC,005916,A,2423.3470,N,08052.6134,W,2.9,125.2,160615,6.2,"
"##MN-00 00 44 1099 03483 5780 615096 024226 203"
"167.04125"
"$GPRMC,005920,A,2423.3454,N,08052.6108,W,2.8,124.7,160615,6.2,"
"##MN-00 00 45 1100 03482 5778 336544 024231 203"
"167.041296"
"$GPRMC,005925,A,2423.3432,N,08052.6071,W,2.7,124.5,160615,6.2,"
"##MN-00 00 45 1101 03482 5777 193560 024222 203"
"167.041343"
"$GPRMC,005929,A,2423.3416,N,08052.6044,W,2.7,123.6,160615,6.2,"
"##MN-00 00 44 1101 03481 5775 327016 024224 203"
"167.041389"
"$GPRMC,005933,A,2423.3398,N,08052.6015,W,2.7,123.6,160615,6.2,"
"##MN-00 00 45 1102 03480 5773 867456 024220 203"
"167.041435"
"$GPRMC,005937,A,2423.3380,N,08052.5987,W,2.6,124.4,160615,6.2,"
"##MN-00 00 45 1103 03479 5772 580456 024275 203"
"167.041481"
"$GPRMC,005941,A,2423.3362,N,08052.5960,W,2.6,124.4,160615,6.2,"
"##MN-00 00 45 1104 03481 5770 300608 024279 203"
"167.041528"
"$GPRMC,005945,A,2423.3341,N,08052.5934,W,2.6,124.8,160615,6.2,"
"##MN-00 00 45 1105 03477 5768 850792 024288 203"
"167.041574"
"$GPRMC,005949,A,2423.3324,N,08052.5910,W,2.6,125.5,160615,6.2,"
"##MN-00 00 45 1106 03479 5766 302480 024246 203"
"167.04162"
"$GPRMC,005953,A,2423.3306,N,08052.5886,W,2.6,126.2,160615,6.2,"
"##MN-00 00 45 1106 03478 5765 302608 024202 203"
"167.041667"
"$GPRMC,005957,A,2423.3289,N,08052.5861,W,2.6,127.1,160615,6.2,"
"##MN-00 00 45 1107 03479 5763 161880 024213 203"
"167.041713"
"$GPRMC,010001,A,2423.3271,N,08052.5837,W,2.6,127.2,160615,6.2,"
"##MN-00 00 44 1108 03478 5761 290320 024227 203"
"167.041759"
"$GPRMC,010005,A,2423.3254,N,08052.5813,W,2.6,126.3,160615,6.2,"
"##MN-00 00 44 1109 03476 5760 285912 024260 203"
"167.041806"
"$GPRMC,010009,A,2423.3242,N,08052.5789,W,2.6,125.6,160615,6.2,"
"##MN-00 00 44 1110 03477 5758 417152 024267 203"
"167.041852"
"$GPRMC,010013,A,2423.3228,N,08052.5763,W,2.6,125.3,160615,6.2,"
"##MN-00 00 45 1110 03479 5756 275408 024270 203"
"167.041898"
"$GPRMC,010017,A,2423.3210,N,08052.5736,W,2.5,124.5,160615,6.2,"
"##MN-00 00 44 1111 03480 5754 547424 024270 203"
"167.041944"
"$GPRMC,010021,A,2423.3195,N,08052.5709,W,2.5,124.6,160615,6.2,"
"##MN-00 00 44 1112 03480 5752 038880 024274 203"
"167.041991"
"$GPRMC,010025,A,2423.3179,N,08052.5682,W,2.5,124.3,160615,6.2,"
"##MN-00 00 44 1113 03477 5750 262720 024283 203"
"167.042037"
"$GPRMC,010029,A,2423.3163,N,08052.5658,W,2.5,124.7,160615,6.2,"
"##MN-00 00 43 1114 03480 5749 524088 024294 203"
"167.042083"
"$GPRMC,010033,A,2423.3145,N,08052.5632,W,2.5,124.8,160615,6.2,"
"##MN-00 00 43 1114 03476 5747 797440 024310 203"
"167.04213"
"$GPRMC,010037,A,2423.3129,N,08052.5605,W,2.6,124.5,160615,6.2,"
"##MN-00 00 43 1115 03479 5745 520688 024310 203"
"167.042176"
"$GPRMC,010041,A,2423.3114,N,08052.5578,W,2.6,123.8,160615,6.2,"
"##MN-00 00 43 1116 03479 5743 018784 024277 203"
"167.042222"
"$GPRMC,010045,A,2423.3096,N,08052.5549,W,2.6,123.3,160615,6.2,"
"##MN-00 00 43 1117 03476 5741 246688 024270 203"
"167.042269"
"$GPRMC,010049,A,2423.3081,N,08052.5524,W,2.6,122.9,160615,6.2,"
"##MN-00 00 43 1118 03479 5739 242344 024268 203"
"167.042315"
"$GPRMC,010053,A,2423.3064,N,08052.5495,W,2.6,122.6,160615,6.2,"
"##MN-00 00 43 1118 03476 5737 785392 024266 203"
"167.042361"
"$GPRMC,010057,A,2423.3044,N,08052.5466,W,2.7,122.2,160615,6.2,"
"##MN-00 00 42 1119 03476 5735 892080 024285 203"
"167.042407"
"$GPRMC,010101,A,2423.3026,N,08052.5438,W,2.7,122.4,160615,6.2,"
"##MN-00 00 42 1120 03474 5733 999648 024286 203"
"167.042454"
"$GPRMC,010105,A,2423.3010,N,08052.5410,W,2.6,122.4,160615,6.2,"
"##MN-00 00 42 1121 03471 5731 495872 024278 203"
"167.0425"
"$GPRMC,010109,A,2423.2995,N,08052.5383,W,2.6,123.0,160615,6.2,"
"##MN-00 00 42 1122 03471 5729 601248 024278 203"
"167.042546"
"$GPRMC,010113,A,2423.2979,N,08052.5355,W,2.7,123.1,160615,6.2,"
"##MN-00 00 42 1122 03468 5727 760960 024285 203"
"167.042593"
"$GPRMC,010117,A,2423.2961,N,08052.5327,W,2.6,123.6,160615,6.2,"
"##MN-00 00 42 1123 03465 5725 592480 024283 203"
"167.042639"
"$GPRMC,010121,A,2423.2941,N,08052.5300,W,2.7,123.8,160615,6.2,"
"##MN-00 00 42 1124 03463 5724 172496 024293 203"
"167.042685"
"$GPRMC,010125,A,2423.2924,N,08052.5274,W,2.7,124.2,160615,6.2,"
"##MN-00 00 42 1125 03458 5722 478592 024305 203"
"167.042731"
"$GPRMC,010129,A,2423.2903,N,08052.5245,W,2.7,125.0,160615,6.2,"
"##MN-00 00 42 1126 03456 5719 190216 024297 203"
"167.042778"
"$GPRMC,010133,A,2423.2882,N,08052.5216,W,2.7,125.3,160615,6.2,"
"##MN-00 00 41 1127 03451 5717 962944 024245 203"
"167.042824"
"$GPRMC,010137,A,2423.2867,N,08052.5191,W,2.7,125.2,160615,6.2,"
"##MN-00 00 42 1127 03448 5716 604144 024265 203"
"167.04287"
"$GPRMC,010141,A,2423.2847,N,08052.5165,W,2.7,125.9,160615,6.2,"
"##MN-00 00 42 1128 03444 5714 461536 024286 203"
"167.042917"
"$GPRMC,010145,A,2423.2828,N,08052.5137,W,2.7,126.6,160615,6.2,"
"##MN-00 00 42 1129 03442 5711 177664 024271 203"
"167.042963"
"$GPRMC,010149,A,2423.2809,N,08052.5110,W,2.7,125.9,160615,6.2,"
"##MN-00 00 42 1130 03438 5709 836240 024293 203"
"167.043009"
"$GPRMC,010153,A,2423.2791,N,08052.5083,W,2.6,125.1,160615,6.2,"
"##MN-00 00 42 1131 03435 5707 941152 024288 203"
"167.043056"
"$GPRMC,010157,A,2423.2774,N,08052.5058,W,2.6,125.0,160615,6.2,"
"##MN-00 00 42 1131 03434 5705 716024 024294 203"
"167.043102"
"$GPRMC,010201,A,2423.2758,N,08052.5032,W,2.5,125.5,160615,6.2,"
"##MN-00 00 42 1132 03430 5703 821400 024290 203"
"167.043148"
"$GPRMC,010205,A,2423.2742,N,08052.5005,W,2.5,124.9,160615,6.2,"
"##MN-00 00 42 1133 03427 5701 210224 024288 203"
"167.043194"
"$GPRMC,010209,A,2423.2726,N,08052.4980,W,2.6,125.6,160615,6.2,"
"##MN-00 00 42 1134 03425 5699 425184 024285 203"
"167.043241"
"$GPRMC,010213,A,2423.2708,N,08052.4952,W,2.6,125.9,160615,6.2,"
"##MN-00 00 42 1135 03421 5697 912048 024303 203"
"167.043287"
"$GPRMC,010217,A,2423.2690,N,08052.4927,W,2.5,126.4,160615,6.2,"
"##MN-00 00 42 1135 03420 5695 549184 024295 203"
"167.043333"
"$GPRMC,010221,A,2423.2675,N,08052.4903,W,2.5,126.4,160615,6.2,"
"##MN-00 00 42 1136 03415 5693 164088 024306 203"
"167.043391"
"$GPRMC,010225,A,2423.2658,N,08052.4878,W,2.6,126.3,160615,6.2,"
"##MN-00 00 42 1137 03412 5691 685696 024290 203"
"167.043438"
"$GPRMC,010229,A,2423.2637,N,08052.4852,W,2.6,126.7,160615,6.2,"
"##MN-00 00 42 1138 03410 5689 520376 024283 203"
"167.043484"
"$GPRMC,010233,A,2423.2617,N,08052.4824,W,2.6,126.3,160615,6.2,"
"##MN-00 00 42 1139 03406 5687 133016 024300 203"
"167.04353"
"$GPRMC,010237,A,2423.2598,N,08052.4794,W,2.6,125.6,160615,6.2,"
"##MN-00 00 42 1140 03404 5685 403248 024284 203"
"167.043576"
"$GPRMC,010241,A,2423.2580,N,08052.4767,W,2.7,125.7,160615,6.2,"
"##MN-00 00 42 1140 03398 5683 121040 024293 203"
"167.043623"
"$GPRMC,010245,A,2423.2561,N,08052.4738,W,2.6,126.5,160615,6.2,"
"##MN-00 00 42 1141 03395 5681 393440 024291 203"
"167.043669"
"$GPRMC,010249,A,2423.2546,N,08052.4715,W,2.6,126.7,160615,6.2,"
"##MN-00 00 42 1142 03391 5679 389920 024302 203"
"167.043715"
"$GPRMC,010253,A,2423.2531,N,08052.4689,W,2.7,125.9,160615,6.2,"
"##MN-00 00 43 1143 03384 5676 660544 024296 203"
"167.043762"
"$GPRMC,010257,A,2423.2513,N,08052.4663,W,2.8,125.0,160615,6.2,"
"##MN-00 00 42 1144 03382 5674 106432 024307 203"
"167.043808"
"$GPRMC,010301,A,2423.2496,N,08052.4636,W,2.8,124.7,160615,6.2,"
"##MN-00 00 42 1145 03379 5672 101968 024298 203"
"167.043854"
"$GPRMC,010305,A,2423.2477,N,08052.4611,W,2.7,125.2,160615,6.2,"
"##MN-00 00 41 1146 03372 5670 373984 024293 203"
"167.0439"
"$GPRMC,010309,A,2423.2458,N,08052.4587,W,2.7,125.9,160615,6.2,"
"##MN-00 00 42 1146 03370 5668 926768 024304 203"
"167.043947"
"$GPRMC,010313,A,2423.2439,N,08052.4560,W,2.6,125.9,160615,6.2,"
"##MN-00 00 43 1147 03364 5666 751552 024306 203"
"167.043993"
"$GPRMC,010317,A,2423.2422,N,08052.4532,W,2.7,126.2,160615,6.2,"
"##MN-00 00 42 1148 03361 5664 358768 024309 203"
"167.044039"
"$GPRMC,010321,A,2423.2403,N,08052.4504,W,2.8,126.6,160615,6.2,"
"##MN-00 00 43 1149 03354 5662 602592 024314 203"
"167.044086"
"$GPRMC,010325,A,2423.2386,N,08052.4477,W,2.8,126.4,160615,6.2,"
"##MN-00 00 44 1150 03349 5660 524488 024317 203"
"167.044132"
"$GPRMC,010329,A,2423.2369,N,08052.4453,W,2.8,126.2,160615,6.2,"
"##MN-00 00 44 1151 03346 5657 354160 024310 203"
"167.044178"
"$GPRMC,010333,A,2423.2352,N,08052.4425,W,2.7,126.4,160615,6.2,"
"##MN-00 00 44 1152 03340 5656 493664 024323 203"
"167.044225"
"$GPRMC,010337,A,2423.2336,N,08052.4397,W,2.8,125.6,160615,6.2,"
"##MN-00 00 43 1153 03336 5654 631744 024299 203"
"167.044271"
"$GPRMC,010341,A,2423.2319,N,08052.4371,W,2.8,124.7,160615,6.2,"
"##MN-00 00 44 1153 03331 5651 450912 024276 203"
"167.044317"
"$GPRMC,010345,A,2423.2303,N,08052.4343,W,2.8,124.7,160615,6.2,"
"##MN-00 00 43 1154 03327 5649 445928 024276 203"
"167.044363"
"$GPRMC,010349,A,2423.2282,N,08052.4312,W,2.8,124.8,160615,6.2,"
"##MN-00 00 44 1155 03320 5647 076640 024285 203"
"167.04441"
"$GPRMC,010353,A,2423.2263,N,08052.4284,W,2.8,125.3,160615,6.2,"
"##MN-00 00 43 1156 03316 5645 353856 024304 203"
"167.044456"
"$GPRMC,010357,A,2423.2246,N,08052.4257,W,2.8,125.9,160615,6.2,"
"##MN-00 00 44 1157 03309 5643 735368 024305 203"
"167.044502"
"$GPRMC,010402,A,2423.2224,N,08052.4222,W,2.9,125.7,160615,6.2,"
"##MN-00 00 44 1158 03306 5641 840560 024303 203"
"167.044549"
"$GPRMC,010406,A,2423.2206,N,08052.4194,W,2.9,124.8,160615,6.2,"
"##MN-00 00 44 1159 03298 5639 621112 024306 203"
"167.044595"
"$GPRMC,010410,A,2423.2186,N,08052.4166,W,2.8,124.6,160615,6.2,"
"##MN-00 00 44 1160 03296 5637 973720 024303 203"
"167.044641"
"$GPRMC,010414,A,2423.2169,N,08052.4138,W,2.8,125.7,160615,6.2,"
"##MN-00 00 44 1161 03292 5635 063728 024298 203"
"167.044687"
"$GPRMC,010418,A,2423.2150,N,08052.4112,W,2.8,126.0,160615,6.2,"
"##MN-00 00 45 1162 03287 5633 337840 024308 203"
"167.044734"
"$GPRMC,010422,A,2423.2130,N,08052.4084,W,2.8,127.0,160615,6.2,"
"##MN-00 00 45 1163 03283 5631 060032 024311 203"
"167.04478"
"$GPRMC,010426,A,2423.2108,N,08052.4055,W,2.8,127.1,160615,6.2,"
"##MN+00 00 44 1164 03279 5629 859816 024307 203"
"167.044826"
"$GPRMC,010430,A,2423.2084,N,08052.4026,W,2.8,127.6,160615,6.2,"
"##MN+00 00 45 1165 03277 5627 335024 024306 203"
"167.044873"
"$GPRMC,010434,A,2423.2062,N,08052.4001,W,2.8,127.8,160615,6.2,"
"##MN+00 00 44 1165 03270 5625 610960 024313 203"
"167.044919"
"$GPRMC,010438,A,2423.2043,N,08052.3972,W,2.8,128.2,160615,6.2,"
"##MN-00 00 47 1166 03266 5623 577864 024316 203"
"167.044965"
"#increment_net"
"$GPRMC,010442,A,2423.2022,N,08052.3943,W,2.8,128.3,160615,6.2,"
"##MN-00 00 47 1167 03262 5621 466760 024309 203"
"167.045012"
"$GPRMC,010446,A,2423.2004,N,08052.3917,W,2.7,127.9,160615,6.2,"
"##MN-00 00 46 1168 03259 5619 327168 024312 203"
"167.045058"
"$GPRMC,010450,A,2423.1989,N,08052.3889,W,2.7,127.3,160615,6.2,"
"##MN-00 00 46 1169 03258 5617 850536 024314 203"
"167.045104"
"$GPRMC,010454,A,2423.1975,N,08052.3863,W,2.8,125.7,160615,6.2,"
"##MN-00 00 45 1170 03253 5616 819280 024317 203"
"167.04515"
"$GPRMC,010458,A,2423.1958,N,08052.3836,W,2.8,125.4,160615,6.2,"
"##MN-00 00 46 1171 03251 5614 464344 024312 203"
"167.045197"
"$GPRMC,010502,A,2423.1936,N,08052.3807,W,2.8,124.9,160615,6.2,"
"##MN-00 00 47 1172 03246 5612 186928 024313 203"
"167.045243"
"$GPRMC,010506,A,2423.1917,N,08052.3781,W,2.8,124.1,160615,6.2,"
"##MN-00 00 46 1173 03245 5610 325120 024312 203"
"167.045289"
"$GPRMC,010510,A,2423.1897,N,08052.3752,W,2.8,125.1,160615,6.2,"
"##MN-00 00 45 1174 03244 5608 047680 024319 203"
"167.045336"
"$GPRMC,010514,A,2423.1877,N,08052.3724,W,2.8,124.9,160615,6.2,"
"##MN-00 00 45 1175 03240 5606 325872 024324 203"
"167.045382"
"$GPRMC,010518,A,2423.1853,N,08052.3697,W,2.8,125.3,160615,6.2,"
"##MN-00 00 47 1175 03238 5604 741784 024322 203"
"167.045428"
"$GPRMC,010522,A,2423.1837,N,08052.3671,W,2.8,126.2,160615,6.2,"
"##MN-00 00 48 1176 03236 5602 185736 024312 203"
"167.045475"
"$GPRMC,010526,A,2423.1817,N,08052.3643,W,2.8,125.8,160615,6.2,"
"##MN-00 00 46 1177 03232 5600 816112 024331 203"
"167.045521"
"$GPRMC,010530,A,2423.1801,N,08052.3614,W,2.7,125.4,160615,6.2,"
"##MN-00 00 46 1178 03230 5599 708160 024304 203"
"167.045567"
"$GPRMC,010534,A,2423.1785,N,08052.3585,W,2.8,124.1,160615,6.2,"
"##MN-00 00 45 1179 03229 5597 597528 024319 203"
"167.045613"
"$GPRMC,010538,A,2423.1770,N,08052.3558,W,2.8,123.5,160615,6.2,"
"##MN-00 00 46 1180 03228 5595 813248 024331 203"
"167.04566"
"$GPRMC,010542,A,2423.1754,N,08052.3530,W,2.8,123.1,160615,6.2,"
"##MN-00 00 46 1181 03224 5594 319200 024312 203"
"167.045706"
"$GPRMC,010546,A,2423.1740,N,08052.3507,W,2.7,123.1,160615,6.2,"
"##MN-00 00 46 1182 03224 5592 046512 024316 203"
"167.045752"
"$GPRMC,010550,A,2423.1721,N,08052.3480,W,2.6,123.5,160615,6.2,"
"##MN-00 00 45 1183 03222 5590 480464 024321 203"
"167.045799"
"$GPRMC,010554,A,2423.1702,N,08052.3453,W,2.6,124.8,160615,6.2,"
"##MN-00 00 47 1184 03219 5589 427264 024311 203"
"167.045845"
"$GPRMC,010558,A,2423.1684,N,08052.3427,W,2.6,125.9,160615,6.2,"
"##MN-00 00 46 1185 03218 5587 040640 024313 203"
"167.045891"
"$GPRMC,010602,A,2423.1667,N,08052.3399,W,2.7,125.9,160615,6.2,"
"##MN-00 00 47 1185 03215 5585 043216 024316 203"
"167.045937"
"$GPRMC,010606,A,2423.1650,N,08052.3374,W,2.6,126.7,160615,6.2,"
"##MN-00 00 46 1186 03213 5584 498592 024323 203"
"167.045984"
"$GPRMC,010610,A,2423.1632,N,08052.3348,W,2.6,127.2,160615,6.2,"
"##MN-00 00 47 1187 03211 5582 614648 024318 203"
"167.04603"
"$GPRMC,010614,A,2423.1615,N,08052.3324,W,2.6,126.8,160615,6.2,"
"##MN-00 00 48 1188 03206 5580 319688 024316 203"
"167.046076"
"$GPRMC,010618,A,2423.1597,N,08052.3296,W,2.7,125.4,160615,6.2,"
"##MN-00 00 46 1189 03206 5579 809536 024319 203"
"167.046123"
"$GPRMC,010622,A,2423.1582,N,08052.3268,W,2.8,124.1,160615,6.2,"
"##MN-00 00 48 1190 03205 5577 462208 024319 203"
"167.046169"
"$GPRMC,010626,A,2423.1568,N,08052.3245,W,2.9,123.4,160615,6.2,"
"##MN-00 00 47 1191 03198 5576 045672 024330 203"
"167.046215"
"$GPRMC,010630,A,2423.1548,N,08052.3210,W,2.8,122.6,160615,6.2,"
"##MN-00 00 47 1192 03197 5574 602368 024324 203"
"167.046262"
"$GPRMC,010634,A,2423.1535,N,08052.3189,W,2.8,122.9,160615,6.2,"
"##MN-00 00 47 1193 03197 5573 323208 024316 203"
"167.046308"
"$GPRMC,010638,A,2423.1516,N,08052.3160,W,2.8,122.9,160615,6.2,"
"##MN-00 00 46 1194 03194 5571 817936 024313 203"
"167.046354"
"$GPRMC,010642,A,2423.1495,N,08052.3125,W,2.8,122.8,160615,6.2,"
"##MN-00 00 46 1195 03191 5570 601160 024315 203"
"167.0464"
"$GPRMC,010646,A,2423.1480,N,08052.3098,W,2.8,122.9,160615,6.2,"
"##MN-00 00 46 1196 03190 5568 046376 024319 203"
"167.046447"
"$GPRMC,010650,A,2423.1465,N,08052.3070,W,2.8,122.4,160615,6.2,"
"##MN-00 00 46 1196 03188 5567 326368 024326 203"
"167.046493"
"$GPRMC,010654,A,2423.1447,N,08052.3041,W,2.8,122.6,160615,6.2,"
"##MN-00 00 47 1197 03187 5566 188048 024312 203"
"167.046551"
"$GPRMC,010658,A,2423.1431,N,08052.3013,W,2.8,123.5,160615,6.2,"
"##MN-00 00 47 1198 03185 5564 820160 024322 203"
"167.046597"
"$GPRMC,010702,A,2423.1414,N,08052.2986,W,2.8,123.6,160615,6.2,"
"##MN-00 00 47 1199 03183 5563 051448 024318 203"
"167.046644"
"$GPRMC,010706,A,2423.1397,N,08052.2959,W,2.7,122.8,160615,6.2,"
"##MN-00 00 48 1200 03181 5562 854760 024319 203"
"167.04669"
"$GPRMC,010710,A,2423.1379,N,08052.2933,W,2.7,122.9,160615,6.2,"
"##MN-00 00 46 1201 03181 5560 608528 024316 203"
"167.046736"
"$GPRMC,010714,A,2423.1362,N,08052.2908,W,2.6,123.6,160615,6.2,"
"##MN-00 00 47 1202 03179 5559 439944 024313 203"
"167.046782"
"$GPRMC,010718,A,2423.1346,N,08052.2882,W,2.5,123.5,160615,6.2,"
"##MN-00 00 45 1203 03180 5558 193768 024315 203"
"167.046829"
"$GPRMC,010722,A,2423.1329,N,08052.2857,W,2.5,124.0,160615,6.2,"
"##MN-00 00 46 1203 03180 5557 332896 024318 203"
"167.046875"
"$GPRMC,010726,A,2423.1315,N,08052.2831,W,2.5,124.2,160615,6.2,"
"##MN-00 00 46 1204 03177 5555 334048 024314 203"
"167.046921"
"$GPRMC,010730,A,2423.1300,N,08052.2805,W,2.4,124.6,160615,6.2,"
"##MN-00 00 46 1205 03174 5554 058944 024308 203"
"167.046968"
"$GPRMC,010734,A,2423.1286,N,08052.2779,W,2.4,125.1,160615,6.2,"
"##MN-00 00 46 1206 03175 5553 444096 024320 203"
"167.047014"
"$GPRMC,010738,A,2423.1270,N,08052.2752,W,2.5,125.1,160615,6.2,"
"##MN-00 00 46 1207 03174 5552 860928 024323 203"
"167.04706"
"$GPRMC,010742,A,2423.1254,N,08052.2726,W,2.6,125.0,160615,6.2,"
"##MN-00 00 46 1208 03173 5550 060512 024313 203"
"167.047106"
"$GPRMC,010746,A,2423.1237,N,08052.2700,W,2.7,124.5,160615,6.2,"
"##MN-00 00 46 1209 03169 5549 338696 024327 203"
"167.047153"
"$GPRMC,010750,A,2423.1218,N,08052.2673,W,2.7,124.4,160615,6.2,"
"##MN-00 00 45 1210 03167 5548 069344 024308 203"
"167.047199"
"$GPRMC,010754,A,2423.1200,N,08052.2644,W,2.8,125.0,160615,6.2,"
"##MN-00 00 45 1211 03166 5547 452296 024319 203"
"167.047245"
"$GPRMC,010758,A,2423.1183,N,08052.2618,W,2.7,125.1,160615,6.2,"
"##MN-00 00 44 1212 03164 5546 345200 024318 203"
"167.047292"
"$GPRMC,010802,A,2423.1166,N,08052.2592,W,2.6,125.1,160615,6.2,"
"##MN-00 00 46 1213 03161 5545 349184 024320 203"
"167.047338"
"$GPRMC,010806,A,2423.1149,N,08052.2564,W,2.6,124.4,160615,6.2,"
"##MN-00 00 46 1213 03159 5544 072608 024302 203"
"167.047384"
"$GPRMC,010810,A,2423.1131,N,08052.2538,W,2.8,124.1,160615,6.2,"
"##MN-00 00 46 1214 03156 5543 842960 024287 203"
"167.047431"
"$GPRMC,010814,A,2423.1115,N,08052.2509,W,2.7,124.2,160615,6.2,"
"##MN-00 00 46 1215 03157 5542 874048 024302 203"
"167.047477"
"$GPRMC,010818,A,2423.1098,N,08052.2481,W,2.7,123.8,160615,6.2,"
"##MN-00 00 46 1216 03152 5541 349568 024301 203"
"167.047523"
"$GPRMC,010822,A,2423.1082,N,08052.2454,W,2.7,123.9,160615,6.2,"
"##MN-00 00 46 1217 03152 5540 350480 024315 203"
"167.047569"
"$GPRMC,010826,A,2423.1064,N,08052.2426,W,2.6,123.4,160615,6.2,"
"##MN-00 00 47 1218 03151 5539 349520 024327 203"
"167.047616"
"$GPRMC,010830,A,2423.1047,N,08052.2399,W,2.6,122.9,160615,6.2,"
"##MN-00 00 47 1219 03149 5538 349840 024323 203"
"167.047662"
"$GPRMC,010835,A,2423.1030,N,08052.2363,W,2.7,122.0,160615,6.2,"
"##MN-00 00 46 1220 03150 5537 842368 024342 203"
"167.047708"
"$GPRMC,010839,A,2423.1015,N,08052.2335,W,2.6,120.6,160615,6.2,"
"##MN-00 00 46 1221 03147 5536 071808 024333 203"
"167.047755"
"$GPRMC,010843,A,2423.1001,N,08052.2306,W,2.6,119.8,160615,6.2,"
"##MN-00 00 46 1221 03147 5535 348992 024334 203"
"167.047801"
"$GPRMC,010847,A,2423.0986,N,08052.2278,W,2.6,119.7,160615,6.2,"
"##MN-00 00 46 1222 03150 5534 071664 024332 203"
"167.047847"
"$GPRMC,010851,A,2423.0972,N,08052.2251,W,2.5,119.7,160615,6.2,"
"##MN-00 00 47 1223 03147 5534 457232 024335 203"
"167.047894"
"$GPRMC,010855,A,2423.0958,N,08052.2223,W,2.5,120.0,160615,6.2,"
"##MN-00 00 46 1224 03148 5533 628784 024334 203"
"167.04794"
"$GPRMC,010859,A,2423.0943,N,08052.2197,W,2.5,121.3,160615,6.2,"
"##MN-00 00 46 1225 03144 5532 462008 024335 203"
"167.047986"
"$GPRMC,010903,A,2423.0927,N,08052.2171,W,2.6,122.2,160615,6.2,"
"##MN-00 00 46 1226 03144 5531 634064 024322 203"
"167.048032"
"$GPRMC,010907,A,2423.0910,N,08052.2146,W,2.6,123.2,160615,6.2,"
"##MN-00 00 46 1227 03144 5531 083840 024337 203"
"167.048079"
"$GPRMC,010911,A,2423.0894,N,08052.2121,W,2.5,124.7,160615,6.2,"
"##MN-00 00 45 1228 03140 5530 086504 024328 203"
"167.048125"
"$GPRMC,010915,A,2423.0876,N,08052.2098,W,2.5,125.6,160615,6.2,"
"##MN-00 00 45 1229 03139 5529 090816 024323 203"
"167.048171"
"$GPRMC,010919,A,2423.0858,N,08052.2077,W,2.5,127.3,160615,6.2,"
"##MN-00 00 45 1229 03135 5528 368048 024321 203"
"167.048218"
"$GPRMC,010923,A,2423.0838,N,08052.2054,W,2.5,128.0,160615,6.2,"
"##MN-00 00 46 1230 03134 5528 861104 024336 203"
"167.048264"
"$GPRMC,010927,A,2423.0819,N,08052.2029,W,2.5,127.6,160615,6.2,"
"##MN-00 00 47 1231 03131 5527 369208 024326 203"
"167.04831"
"$GPRMC,010931,A,2423.0801,N,08052.2005,W,2.5,128.3,160615,6.2,"
"##MN-00 00 46 1232 03128 5526 095328 024321 203"
"167.048356"
"$GPRMC,010935,A,2423.0783,N,08052.1980,W,2.6,127.8,160615,6.2,"
"##MN-00 00 46 1233 03124 5526 869744 024325 203"
"167.048403"
"$GPRMC,010939,A,2423.0765,N,08052.1954,W,2.7,127.0,160615,6.2,"
"##MN-00 00 45 1234 03123 5525 099224 024325 203"
"167.048449"
"$GPRMC,010943,A,2423.0747,N,08052.1929,W,2.7,126.0,160615,6.2,"
"##MN-00 00 46 1235 03120 5525 653824 024332 203"
"167.048495"
"$GPRMC,010947,A,2423.0730,N,08052.1902,W,2.6,125.7,160615,6.2,"
"##MN-00 00 46 1236 03116 5524 484784 024319 203"
"167.048542"
"$GPRMC,010951,A,2423.0714,N,08052.1873,W,2.7,125.5,160615,6.2,"
"##MN-00 00 45 1237 03113 5523 763792 024337 203"
"167.048588"
"$GPRMC,010955,A,2423.0696,N,08052.1845,W,2.8,124.7,160615,6.2,"
"##MN-00 00 45 1238 03113 5523 658864 024323 203"
"167.048634"
"$GPRMC,010959,A,2423.0678,N,08052.1817,W,2.8,124.6,160615,6.2,"
"##MN-00 00 45 1238 03111 5522 246024 024328 203"
"167.048681"
"$GPRMC,011003,A,2423.0660,N,08052.1789,W,2.8,124.9,160615,6.2,"
"##MN-00 00 45 1239 03109 5522 878160 024317 203"
"167.048727"
"$GPRMC,011007,A,2423.0643,N,08052.1761,W,2.8,124.7,160615,6.2,"
"##MN-00 00 45 1240 03106 5521 111136 024327 203"
"167.048773"
"$GPRMC,011011,A,2423.0625,N,08052.1731,W,2.9,124.1,160615,6.2,"
"##MN-00 00 45 1241 03103 5521 111440 024327 203"
"167.048819"
"$GPRMC,011015,A,2423.0607,N,08052.1701,W,2.9,123.7,160615,6.2,"
"##MN-00 00 45 1242 03101 5520 668256 024321 203"
"167.048866"
"$GPRMC,011019,A,2423.0588,N,08052.1671,W,2.9,123.8,160615,6.2,"
"##MN-00 00 45 1243 03098 5520 640552 024317 203"
"167.048912"
"$GPRMC,011023,A,2423.0569,N,08052.1641,W,2.9,124.0,160615,6.2,"
"##MN-00 00 45 1244 03096 5519 119680 024314 203"
"167.048958"
"$GPRMC,011027,A,2423.0549,N,08052.1611,W,2.9,124.3,160615,6.2,"
"##MN-00 00 46 1245 03094 5519 400472 024316 203"
"167.049005"
"$GPRMC,011031,A,2423.0531,N,08052.1581,W,2.9,124.1,160615,6.2,"
"##MN-00 00 45 1246 03091 5518 927896 024319 203"
"167.049051"
"$GPRMC,011035,A,2423.0512,N,08052.1552,W,2.9,124.3,160615,6.2,"
"##MN-00 00 45 1247 03088 5518 403088 024300 203"
"167.049097"
"$GPRMC,011039,A,2423.0494,N,08052.1523,W,3.0,124.2,160615,6.2,"
"##MN+00 00 47 1248 03085 5517 650808 024305 203"
"167.049144"
"$GPRMC,011043,A,2423.0480,N,08052.1502,W,2.8,124.7,160615,6.2,"
"##MN+00 00 45 1249 03084 5517 126248 024324 203"
"167.04919"
"$GPRMC,011047,A,2423.0455,N,08052.1465,W,2.8,125.4,160615,6.2,"
"##MN+00 00 46 1250 03080 5517 403552 024369 203"
"167.049236"
"$GPRMC,011051,A,2423.0437,N,08052.1438,W,2.8,125.5,160615,6.2,"
"##MN-00 00 44 1250 03077 5516 401968 024353 203"
"167.049282"
"#increment_net"
"$GPRMC,011055,A,2423.0418,N,08052.1410,W,2.8,126.7,160615,6.2,"
"##MN-00 00 49 1251 03076 5516 898064 024366 203"
"167.049329"
"$GPRMC,011059,A,2423.0398,N,08052.1383,W,2.8,127.8,160615,6.2,"
"##MN-00 00 49 1252 03074 5516 404840 024347 203"
"167.049375"
"$GPRMC,011103,A,2423.0380,N,08052.1358,W,2.8,128.1,160615,6.2,"
"##MN-00 00 50 1253 03069 5515 411160 024344 203"
"167.049421"
"$GPRMC,011107,A,2423.0363,N,08052.1333,W,2.7,127.4,160615,6.2,"
"##MN-00 00 49 1254 03067 5515 142096 024340 203"
"167.049468"
"$GPRMC,011111,A,2423.0345,N,08052.1310,W,2.6,126.6,160615,6.2,"
"##MN-00 00 50 1255 03062 5515 668984 024343 203"
"167.049514"
"$GPRMC,011115,A,2423.0327,N,08052.1287,W,2.6,127.0,160615,6.2,"
"##MN-00 00 50 1256 03062 5515 148784 024335 203"
"167.04956"
"$GPRMC,011119,A,2423.0307,N,08052.1263,W,2.6,127.7,160615,6.2,"
"##MN-00 00 50 1257 03057 5515 429056 024337 203"
"167.049606"
"$GPRMC,011123,A,2423.0288,N,08052.1237,W,2.6,128.1,160615,6.2,"
"##MN-00 00 50 1258 03055 5514 293752 024334 203"
"167.049664"
"$GPRMC,011127,A,2423.0270,N,08052.1210,W,2.6,128.7,160615,6.2,"
"##MN-00 00 50 1259 03051 5514 160864 024331 203"
"167.049711"
"$GPRMC,011131,A,2423.0251,N,08052.1186,W,2.7,128.2,160615,6.2,"
"##MN-00 00 50 1260 03051 5514 440560 024325 203"
"167.049757"
"$GPRMC,011135,A,2423.0233,N,08052.1161,W,2.7,128.2,160615,6.2,"
"##MN-00 00 50 1261 03047 5514 309192 024323 203"
"167.049803"
"$GPRMC,011139,A,2423.0215,N,08052.1133,W,2.7,128.2,160615,6.2,"
"##MN-00 00 50 1262 03044 5514 179648 024308 203"
"167.04985"
"$GPRMC,011143,A,2423.0197,N,08052.1107,W,2.7,126.6,160615,6.2,"
"##MN-00 00 50 1263 03039 5514 456824 024315 203"
"167.049896"
"$GPRMC,011147,A,2423.0179,N,08052.1080,W,2.6,125.9,160615,6.2,"
"##MN-00 00 50 1264 03039 5514 180208 024319 203"
"167.049942"
"$GPRMC,011151,A,2423.0164,N,08052.1052,W,2.6,123.9,160615,6.2,"
"##MN-00 00 50 1265 03040 5514 980104 024367 203"
"167.049988"
"$GPRMC,011155,A,2423.0148,N,08052.1022,W,2.7,122.7,160615,6.2,"
"##MN-00 00 50 1266 03035 5514 703480 024352 203"
"167.050035"
"$GPRMC,011159,A,2423.0133,N,08052.0993,W,2.7,122.4,160615,6.2,"
"##MN-00 00 50 1266 03033 5514 008432 024352 203"
"167.050081"
"$GPRMC,011203,A,2423.0118,N,08052.0965,W,2.7,122.5,160615,6.2,"
"##MN-00 00 50 1267 03033 5514 600832 024341 203"
"167.050127"
"$GPRMC,011207,A,2423.0103,N,08052.0936,W,2.7,121.8,160615,6.2,"
"##MN-00 00 50 1268 03031 5514 466864 024325 203"
"167.050174"
"$GPRMC,011211,A,2423.0086,N,08052.0907,W,2.8,122.3,160615,6.2,"
"##MN-00 00 50 1269 03028 5514 860496 024329 203"
"167.05022"
"$GPRMC,011215,A,2423.0069,N,08052.0879,W,2.7,122.5,160615,6.2,"
"##MN-00 00 50 1270 03028 5514 481632 024331 203"
"167.050266"
"$GPRMC,011219,A,2423.0052,N,08052.0852,W,2.6,123.8,160615,6.2,"
"##MN-00 00 50 1271 03028 5514 980048 024319 203"
"167.050312"
"$GPRMC,011223,A,2423.0034,N,08052.0825,W,2.7,124.0,160615,6.2,"
"##MN-00 00 50 1272 03026 5514 484984 024327 203"
"167.050359"
"$GPRMC,011227,A,2423.0017,N,08052.0799,W,2.7,124.6,160615,6.2,"
"##MN-00 00 50 1273 03026 5514 491232 024331 203"
"167.050405"
"$GPRMC,011231,A,2423.0000,N,08052.0773,W,2.6,125.4,160615,6.2,"
"##MN-00 00 50 1274 03021 5514 880712 024312 203"
"167.050451"
