" Tow: 15OF-N-O   RVWS/WS15161"
" Date: 15/06/2015"
" Temperature Probe #  2089    Conductivity Probe #  710"
" Pressure Probe #  188"
" Flow Meter Calibration  4.71 (m/count)  "
"167.102049"
"$GPRMC,022653,A,2421.8842,N,08050.1386,W,2.1,147.3,160615,6.2,"
"##MN-00 00 80 0000 02710 5708 382543 024328 203"
"167.102095"
"$GPRMC,022658,A,2421.8819,N,08050.1366,W,2.0,146.0,160615,6.2,"
"##MN-00 00 79 0000 02708 5709 285520 024279 203"
"167.102141"
"$GPRMC,022702,A,2421.8797,N,08050.1350,W,2.1,145.8,160615,6.2,"
"##MN-00 00 80 0000 02709 5710 294608 024287 203"
"167.102188"
"$GPRMC,022706,A,2421.8778,N,08050.1336,W,2.1,145.4,160615,6.2,"
"##MN-00 00 80 0000 02710 5711 295712 024317 203"
"167.102234"
"$GPRMC,022710,A,2421.8756,N,08050.1322,W,2.1,144.7,160615,6.2,"
"##MN-00 00 79 0000 02708 5713 294976 024311 203"
"167.10228"
"$GPRMC,022714,A,2421.8739,N,08050.1307,W,2.2,144.1,160615,6.2,"
"##MN-00 00 79 0000 02712 5714 313064 024298 203"
"167.102326"
"$GPRMC,022718,A,2421.8718,N,08050.1289,W,2.2,143.4,160615,6.2,"
"##MN-00 00 80 0000 02710 5715 326640 024295 203"
"167.102373"
"$GPRMC,022722,A,2421.8701,N,08050.1271,W,2.2,142.1,160615,6.2,"
"##MN-00 00 80 0000 02710 5716 332624 024270 203"
"167.102419"
"$GPRMC,022726,A,2421.8682,N,08050.1252,W,2.3,141.3,160615,6.2,"
"##MN-00 00 80 0000 02712 5716 344912 024233 203"
"167.102465"
"$GPRMC,022730,A,2421.8663,N,08050.1233,W,2.2,140.8,160615,6.2,"
"##MN-00 00 80 0000 02711 5717 350944 024247 203"
"167.102512"
"$GPRMC,022734,A,2421.8642,N,08050.1214,W,2.2,140.5,160615,6.2,"
"##MN-00 00 79 0000 02710 5718 351224 024285 203"
"167.102558"
"$GPRMC,022738,A,2421.8622,N,08050.1195,W,2.2,140.6,160615,6.2,"
"##MN-00 00 80 0000 02712 5719 351384 024291 203"
"167.102604"
"$GPRMC,022742,A,2421.8604,N,08050.1177,W,2.2,140.9,160615,6.2,"
"##MN-00 00 80 0000 02712 5720 918432 024255 203"
"167.10265"
"$GPRMC,022746,A,2421.8584,N,08050.1162,W,2.2,141.6,160615,6.2,"
"##MN-00 00 80 0000 02711 5721 238336 024241 203"
"167.102697"
"$GPRMC,022750,A,2421.8559,N,08050.1143,W,2.2,142.5,160615,6.2,"
"##MN-00 00 80 0000 02711 5721 383856 024252 203"
"167.102743"
"$GPRMC,022754,A,2421.8535,N,08050.1126,W,2.2,142.1,160615,6.2,"
"##MN-00 00 80 0000 02710 5722 388640 024251 203"
"167.102789"
"$GPRMC,022758,A,2421.8513,N,08050.1108,W,2.2,142.6,160615,6.2,"
"##MN-00 00 80 0000 02712 5722 676488 024264 203"
"167.102836"
"$GPRMC,022802,A,2421.8492,N,08050.1091,W,2.2,142.4,160615,6.2,"
"##MN-00 00 79 0000 02712 5723 678768 024256 203"
"167.102882"
"$GPRMC,022806,A,2421.8474,N,08050.1076,W,2.2,143.6,160615,6.2,"
"##MN-00 00 79 0000 02712 5724 267816 024268 203"
"167.102928"
"$GPRMC,022810,A,2421.8454,N,08050.1061,W,2.2,144.0,160615,6.2,"
"##MN-00 00 80 0000 02711 5724 955696 024257 203"
"167.102975"
"$GPRMC,022814,A,2421.8435,N,08050.1046,W,2.2,144.5,160615,6.2,"
"##MN-00 00 80 0000 02712 5725 268072 024264 203"
"167.103021"
"$GPRMC,022818,A,2421.8416,N,08050.1031,W,2.2,144.7,160615,6.2,"
"##MN-00 00 79 0000 02712 5726 698168 024267 203"
"167.103067"
"$GPRMC,022822,A,2421.8398,N,08050.1016,W,2.2,145.7,160615,6.2,"
"##MN-00 00 79 0000 02711 5726 324688 024276 203"
"167.103113"
"$GPRMC,022826,A,2421.8377,N,08050.1002,W,2.2,145.9,160615,6.2,"
"##MN-00 00 80 0000 02712 5727 623096 024279 203"
"167.10316"
"$GPRMC,022830,A,2421.8358,N,08050.0989,W,2.2,145.9,160615,6.2,"
"##MN-00 00 79 0000 02710 5728 443152 024280 203"
"167.103206"
"$GPRMC,022834,A,2421.8337,N,08050.0975,W,2.2,146.2,160615,6.2,"
"##MN-00 00 80 0000 02711 5728 445704 024284 203"
"167.103252"
"$GPRMC,022838,A,2421.8316,N,08050.0960,W,2.2,146.4,160615,6.2,"
"##MN-00 00 76 0000 02711 5728 317672 024280 203"
"167.103299"
"$GPRMC,022842,A,2421.8297,N,08050.0946,W,2.2,146.4,160615,6.2,"
"##MN-00 00 66 0000 02711 5729 010896 024291 203"
"167.103345"
"$GPRMC,022846,A,2421.8275,N,08050.0931,W,2.2,146.4,160615,6.2,"
"##MN-00 00 58 0000 02713 5730 460528 024290 203"
"167.103391"
"$GPRMC,022850,A,2421.8254,N,08050.0916,W,2.2,146.0,160615,6.2,"
"##MN-00 00 43 0000 02714 5730 464864 024290 203"
"167.103438"
"$GPRMC,022854,A,2421.8232,N,08050.0902,W,2.3,145.8,160615,6.2,"
"##MN-00 00 42 0000 02711 5730 462560 024293 203"
"167.103484"
"$GPRMC,022858,A,2421.8211,N,08050.0887,W,2.3,144.8,160615,6.2,"
"##MN-00 00 30 0000 02711 5731 354912 024284 203"
"167.10353"
"$GPRMC,022902,A,2421.8192,N,08050.0872,W,2.3,143.4,160615,6.2,"
"##MN-00 00 25 0000 02712 5731 528784 024288 203"
"167.103576"
"$GPRMC,022906,A,2421.8174,N,08050.0856,W,2.3,143.0,160615,6.2,"
"##MN-00 00 25 0000 02712 5732 484984 024263 203"
"167.103634"
"$GPRMC,022910,A,2421.8153,N,08050.0837,W,2.3,141.7,160615,6.2,"
"##MN-00 00 13 0000 02710 5732 214000 024298 203"
"167.103681"
"$GPRMC,022914,A,2421.8136,N,08050.0819,W,2.3,140.5,160615,6.2,"
"##MN-00 00 03 0000 02710 5732 492856 024266 203"
"167.103727"
"$GPRMC,022918,A,2421.8118,N,08050.0802,W,2.3,139.8,160615,6.2,"
"##MN-00 00 00 0000 02711 5733 499920 024280 203"
"167.103773"
"$GPRMC,022922,A,2421.8100,N,08050.0783,W,2.3,138.9,160615,6.2,"
"##MN-00 00 27 0000 02712 5733 499872 024288 203"
"167.103819"
"$GPRMC,022926,A,2421.8080,N,08050.0763,W,2.3,138.6,160615,6.2,"
"##MN-00 00 00 0000 02711 5734 256480 024257 203"
"167.103866"
"$GPRMC,022930,A,2421.8060,N,08050.0745,W,2.3,138.5,160615,6.2,"
"##MN-00 00 00 0000 02711 5734 515792 024236 203"
"167.103912"
"$GPRMC,022934,A,2421.8041,N,08050.0727,W,2.3,137.9,160615,6.2,"
"##MN-00 00 00 0000 02712 5734 516136 024257 203"
"167.103958"
"$GPRMC,022938,A,2421.8020,N,08050.0712,W,2.3,138.9,160615,6.2,"
"##MN-00 00 14 0000 02712 5735 522768 024259 203"
"167.104005"
"$GPRMC,022942,A,2421.8000,N,08050.0694,W,2.2,139.5,160615,6.2,"
"##MN-00 00 25 0000 02711 5735 517776 024287 203"
"167.104051"
"$GPRMC,022946,A,2421.7979,N,08050.0678,W,2.1,139.9,160615,6.2,"
"##MN-00 00 33 0000 02710 5735 512864 024300 203"
"167.104097"
"$GPRMC,022950,A,2421.7958,N,08050.0662,W,2.1,141.2,160615,6.2,"
"##MN-00 00 43 0000 02712 5736 518600 024273 203"
"167.104144"
"$GPRMC,022954,A,2421.7940,N,08050.0646,W,2.1,141.5,160615,6.2,"
"##MN-00 00 44 0000 02711 5737 520688 024320 203"
"167.10419"
"$GPRMC,022958,A,2421.7923,N,08050.0631,W,2.0,141.8,160615,6.2,"
"##MN-00 00 44 0001 02712 5737 517008 024284 203"
"167.104236"
"$GPRMC,023002,A,2421.7908,N,08050.0620,W,1.9,142.4,160615,6.2,"
"##MN-00 00 44 0002 02711 5737 529232 024259 203"
"167.104282"
"$GPRMC,023006,A,2421.7894,N,08050.0609,W,1.8,143.3,160615,6.2,"
"##MN-00 00 51 0002 02710 5738 261648 024260 203"
"167.104329"
"$GPRMC,023010,A,2421.7879,N,08050.0596,W,1.8,143.5,160615,6.2,"
"##MN-00 00 51 0003 02712 5738 540872 024250 203"
"167.104375"
"$GPRMC,023014,A,2421.7865,N,08050.0582,W,1.8,142.8,160615,6.2,"
"##MN-00 00 51 0004 02713 5738 546032 024248 203"
"167.104421"
"$GPRMC,023018,A,2421.7849,N,08050.0568,W,1.8,141.5,160615,6.2,"
"##MN-00 00 51 0005 02714 5739 551584 024246 203"
"167.104468"
"$GPRMC,023022,A,2421.7835,N,08050.0554,W,1.8,140.5,160615,6.2,"
"##MN-00 00 51 0006 02710 5739 302736 024253 203"
"167.104514"
"$GPRMC,023026,A,2421.7821,N,08050.0540,W,1.8,139.2,160615,6.2,"
"##MN-00 00 51 0007 02712 5739 558448 024237 203"
"167.10456"
"$GPRMC,023030,A,2421.7806,N,08050.0526,W,1.8,138.6,160615,6.2,"
"##MN-00 00 51 0008 02713 5740 564072 024226 203"
"167.104606"
"$GPRMC,023034,A,2421.7792,N,08050.0512,W,1.7,138.7,160615,6.2,"
"##MN-00 00 51 0008 02711 5740 030976 024227 203"
"167.104653"
"$GPRMC,023038,A,2421.7777,N,08050.0496,W,1.8,138.6,160615,6.2,"
"##MN-00 00 51 0009 02713 5741 319960 024251 203"
"167.104699"
"$GPRMC,023042,A,2421.7762,N,08050.0482,W,1.8,137.8,160615,6.2,"
"##MN-00 00 51 0010 02712 5741 573000 024294 203"
"167.104745"
"$GPRMC,023046,A,2421.7747,N,08050.0467,W,1.8,137.2,160615,6.2,"
"##MN-00 00 51 0011 02713 5741 028880 024261 203"
"167.104792"
"$GPRMC,023050,A,2421.7731,N,08050.0452,W,1.8,136.7,160615,6.2,"
"##MN-00 00 51 0012 02712 5742 572792 024275 203"
"167.104838"
"$GPRMC,023054,A,2421.7716,N,08050.0436,W,1.9,135.7,160615,6.2,"
"##MN-00 00 50 0013 02710 5742 572688 024255 203"
"167.104884"
"$GPRMC,023059,A,2421.7698,N,08050.0415,W,1.8,135.3,160615,6.2,"
"##MN-00 00 51 0014 02712 5742 578416 024245 203"
"167.104931"
"$GPRMC,023103,A,2421.7681,N,08050.0397,W,1.8,135.0,160615,6.2,"
"##MN-00 00 50 0015 02712 5743 200792 024231 203"
"167.104977"
"$GPRMC,023107,A,2421.7668,N,08050.0380,W,1.8,134.4,160615,6.2,"
"##MN-00 00 51 0016 02714 5743 594704 024227 203"
"167.105023"
"$GPRMC,023111,A,2421.7652,N,08050.0362,W,1.9,133.9,160615,6.2,"
"##MN-00 00 51 0017 02712 5743 599960 024224 203"
"167.105069"
"$GPRMC,023115,A,2421.7636,N,08050.0344,W,1.9,132.9,160615,6.2,"
"##MN-00 00 50 0017 02713 5744 600800 024227 203"
"167.105116"
"$GPRMC,023118,A,2421.7626,N,08050.0329,W,2.0,132.2,160615,6.2,"
"##MN-00 00 51 0018 02713 5744 604720 024226 203"
"167.105162"
"$GPRMC,023122,A,2421.7612,N,08050.0311,W,2.1,131.8,160615,6.2,"
"##MN-00 00 50 0019 02714 5745 357248 024240 203"
"167.105208"
"$GPRMC,023127,A,2421.7593,N,08050.0290,W,1.9,131.7,160615,6.2,"
"##MN-00 00 51 0020 02712 5745 612128 024231 203"
"167.105255"
"$GPRMC,023131,A,2421.7581,N,08050.0273,W,1.9,131.7,160615,6.2,"
"##MN-00 00 50 0021 02713 5746 614672 024230 203"
"167.105301"
"$GPRMC,023135,A,2421.7565,N,08050.0255,W,1.9,131.2,160615,6.2,"
"##MN-00 00 51 0022 02715 5746 620896 024222 203"
"167.105347"
"$GPRMC,023139,A,2421.7555,N,08050.0236,W,1.9,132.0,160615,6.2,"
"##MN-00 00 51 0023 02716 5746 625280 024222 203"
"167.105394"
"$GPRMC,023143,A,2421.7534,N,08050.0216,W,2.0,131.8,160615,6.2,"
"##MN-00 00 50 0024 02716 5747 352544 024217 203"
"167.10544"
"$GPRMC,023147,A,2421.7518,N,08050.0198,W,2.1,132.0,160615,6.2,"
"##MN-00 00 51 0025 02717 5748 629256 024241 203"
"167.105486"
"$GPRMC,023151,A,2421.7503,N,08050.0181,W,2.0,132.2,160615,6.2,"
"##MN-00 00 51 0026 02718 5748 628720 024250 203"
"167.105532"
"$GPRMC,023155,A,2421.7487,N,08050.0164,W,1.9,132.6,160615,6.2,"
"##MN-00 00 50 0026 02717 5748 628656 024256 203"
"167.105579"
"$GPRMC,023159,A,2421.7473,N,08050.0147,W,1.9,132.8,160615,6.2,"
"##MN-00 00 51 0027 02716 5749 628624 024245 203"
"167.105625"
"$GPRMC,023203,A,2421.7462,N,08050.0128,W,1.9,132.7,160615,6.2,"
"##MN-00 00 51 0028 02720 5749 628512 024245 203"
"167.105671"
"$GPRMC,023207,A,2421.7448,N,08050.0110,W,1.9,133.3,160615,6.2,"
"##MN-00 00 51 0029 02721 5750 628440 024251 203"
"167.105718"
"$GPRMC,023211,A,2421.7434,N,08050.0093,W,1.9,133.5,160615,6.2,"
"##MN-00 00 51 0030 02721 5750 627904 024269 203"
"167.105764"
"$GPRMC,023215,A,2421.7420,N,08050.0078,W,1.9,133.2,160615,6.2,"
"##MN-00 00 51 0031 02722 5751 638160 024240 203"
"167.10581"
"$GPRMC,023219,A,2421.7406,N,08050.0064,W,1.9,133.2,160615,6.2,"
"##MN-00 00 51 0032 02724 5751 644784 024233 203"
"167.105856"
"$GPRMC,023223,A,2421.7390,N,08050.0048,W,1.8,134.2,160615,6.2,"
"##MN-00 00 50 0033 02725 5751 647856 024242 203"
"167.105903"
"$GPRMC,023227,A,2421.7375,N,08050.0030,W,1.8,134.9,160615,6.2,"
"##MN-00 00 51 0034 02726 5752 650944 024241 203"
"167.105949"
"$GPRMC,023231,A,2421.7359,N,08050.0015,W,1.9,135.4,160615,6.2,"
"##MN-00 00 51 0034 02730 5752 652224 024246 203"
"167.105995"
"$GPRMC,023235,A,2421.7344,N,08049.9999,W,1.8,135.6,160615,6.2,"
"##MN-00 00 51 0035 02730 5753 656624 024236 203"
"167.106042"
"$GPRMC,023239,A,2421.7328,N,08049.9983,W,1.8,136.2,160615,6.2,"
"##MN-00 00 51 0036 02730 5753 404336 024246 203"
"167.106088"
"$GPRMC,023243,A,2421.7312,N,08049.9967,W,1.8,136.6,160615,6.2,"
"##MN-00 00 51 0037 02734 5754 662784 024238 203"
"167.106134"
"$GPRMC,023247,A,2421.7296,N,08049.9952,W,1.8,136.8,160615,6.2,"
"##MN-00 00 51 0038 02735 5754 664944 024244 203"
"167.106181"
"$GPRMC,023251,A,2421.7280,N,08049.9936,W,1.9,136.9,160615,6.2,"
"##MN-00 00 51 0039 02736 5755 665312 024253 203"
"167.106227"
"$GPRMC,023255,A,2421.7263,N,08049.9919,W,1.9,137.3,160615,6.2,"
"##MN-00 00 51 0040 02738 5755 666208 024246 203"
"167.106273"
"$GPRMC,023259,A,2421.7245,N,08049.9904,W,1.9,136.6,160615,6.2,"
"##MN-00 00 51 0041 02740 5756 658144 024245 203"
"167.106319"
"$GPRMC,023303,A,2421.7228,N,08049.9888,W,1.9,136.2,160615,6.2,"
"##MN-00 00 51 0042 02742 5756 676384 024244 203"
"167.106366"
"$GPRMC,023307,A,2421.7211,N,08049.9871,W,1.9,136.2,160615,6.2,"
"##MN-00 00 51 0043 02744 5757 674960 024242 203"
"167.106412"
"$GPRMC,023311,A,2421.7195,N,08049.9854,W,1.9,135.5,160615,6.2,"
"##MN-00 00 51 0043 02746 5757 678432 024250 203"
"167.106458"
"$GPRMC,023315,A,2421.7178,N,08049.9835,W,1.9,135.0,160615,6.2,"
"##MN-00 00 51 0044 02750 5758 682008 024230 203"
"167.106505"
"$GPRMC,023319,A,2421.7163,N,08049.9817,W,1.9,133.8,160615,6.2,"
"##MN-00 00 51 0045 02752 5758 683776 024240 203"
"167.106551"
"$GPRMC,023323,A,2421.7148,N,08049.9800,W,2.0,133.1,160615,6.2,"
"##MN-00 00 51 0046 02755 5759 548304 024238 203"
"167.106597"
"$GPRMC,023327,A,2421.7131,N,08049.9782,W,2.0,132.8,160615,6.2,"
"##MN-00 00 51 0047 02756 5759 430144 024252 203"
"167.106644"
"$GPRMC,023331,A,2421.7115,N,08049.9764,W,2.0,133.2,160615,6.2,"
"##MN-00 00 51 0048 02758 5760 685472 024267 203"
"167.10669"
"$GPRMC,023335,A,2421.7099,N,08049.9747,W,2.1,133.1,160615,6.2,"
"##MN-00 00 51 0049 02762 5761 684992 024264 203"
"167.106736"
"$GPRMC,023339,A,2421.7083,N,08049.9730,W,1.9,133.8,160615,6.2,"
"##MN-00 00 51 0050 02766 5761 683664 024263 203"
"167.106782"
"$GPRMC,023343,A,2421.7067,N,08049.9715,W,1.9,134.5,160615,6.2,"
"##MN-00 00 51 0051 02770 5761 684504 024272 203"
"167.10684"
"$GPRMC,023347,A,2421.7051,N,08049.9697,W,1.9,134.9,160615,6.2,"
"##MN-00 00 51 0051 02772 5762 682704 024268 203"
"167.106887"
"$GPRMC,023351,A,2421.7036,N,08049.9681,W,1.8,135.1,160615,6.2,"
"##MN-00 00 51 0052 02772 5763 685360 024270 203"
"167.106933"
"$GPRMC,023355,A,2421.7022,N,08049.9665,W,1.8,135.3,160615,6.2,"
"##MN-00 00 51 0053 02778 5764 630872 024274 203"
"167.106979"
"$GPRMC,023359,A,2421.7005,N,08049.9648,W,1.9,135.7,160615,6.2,"
"##MN-00 00 51 0054 02781 5764 792352 024260 203"
"167.107025"
"$GPRMC,023403,A,2421.6989,N,08049.9630,W,1.9,134.7,160615,6.2,"
"##MN-00 00 51 0055 02784 5765 687488 024257 203"
"167.107072"
"$GPRMC,023407,A,2421.6974,N,08049.9613,W,1.9,134.9,160615,6.2,"
"##MN-00 00 51 0056 02788 5765 698624 024248 203"
"167.107118"
"$GPRMC,023411,A,2421.6958,N,08049.9595,W,1.9,134.8,160615,6.2,"
"##MN-00 00 50 0057 02793 5766 701704 024248 203"
"167.107164"
"$GPRMC,023415,A,2421.6943,N,08049.9577,W,2.0,134.1,160615,6.2,"
"##MN-00 00 51 0058 02800 5766 703008 024239 203"
"167.107211"
"$GPRMC,023419,A,2421.6932,N,08049.9566,W,1.9,133.9,160615,6.2,"
"##MN-00 00 50 0058 02801 5767 703440 024252 203"
"167.107257"
"$GPRMC,023423,A,2421.6914,N,08049.9543,W,1.9,132.8,160615,6.2,"
"##MN-00 00 51 0059 02807 5767 706552 024241 203"
"167.107303"
"$GPRMC,023427,A,2421.6902,N,08049.9527,W,1.9,133.0,160615,6.2,"
"##MN-00 00 50 0060 02813 5768 706544 024246 203"
"167.10735"
"$GPRMC,023431,A,2421.6890,N,08049.9509,W,1.9,133.6,160615,6.2,"
"##MN-00 00 50 0061 02816 5769 710048 024245 203"
"167.107396"
"$GPRMC,023435,A,2421.6877,N,08049.9495,W,1.8,133.7,160615,6.2,"
"##MN-00 00 50 0062 02820 5769 712720 024244 203"
"167.107442"
"$GPRMC,023439,A,2421.6862,N,08049.9479,W,1.8,134.1,160615,6.2,"
"##MN-00 00 50 0063 02828 5770 712688 024241 203"
"167.107488"
"$GPRMC,023443,A,2421.6848,N,08049.9462,W,1.8,135.2,160615,6.2,"
"##MN-00 00 50 0064 02831 5770 712640 024233 203"
"167.107535"
"$GPRMC,023447,A,2421.6832,N,08049.9447,W,1.8,135.8,160615,6.2,"
"##MN-00 00 50 0064 02839 5771 712640 024243 203"
"167.107581"
"$GPRMC,023451,A,2421.6819,N,08049.9433,W,1.8,135.9,160615,6.2,"
"##MN-00 00 50 0065 02845 5771 717984 024238 203"
"167.107627"
"$GPRMC,023455,A,2421.6802,N,08049.9417,W,1.8,135.7,160615,6.2,"
"##MN-00 00 50 0066 02850 5772 722416 024226 203"
"167.107674"
"$GPRMC,023459,A,2421.6785,N,08049.9401,W,1.8,135.9,160615,6.2,"
"##MN-00 00 50 0067 02855 5773 585152 024235 203"
"167.10772"
"$GPRMC,023503,A,2421.6768,N,08049.9384,W,1.8,136.2,160615,6.2,"
"##MN-00 00 50 0068 02861 5773 724128 024236 203"
"167.107766"
"$GPRMC,023507,A,2421.6752,N,08049.9367,W,1.8,136.2,160615,6.2,"
"##MN-00 00 50 0069 02866 5774 721888 024235 203"
"167.107813"
"$GPRMC,023511,A,2421.6737,N,08049.9351,W,1.9,135.7,160615,6.2,"
"##MN-00 00 50 0070 02872 5774 725424 024232 203"
"167.107859"
"$GPRMC,023515,A,2421.6721,N,08049.9334,W,1.9,135.0,160615,6.2,"
"##MN-00 00 50 0071 02877 5775 726704 024231 203"
"167.107905"
"$GPRMC,023519,A,2421.6705,N,08049.9317,W,1.9,134.2,160615,6.2,"
"##MN-00 00 50 0071 02883 5776 728488 024252 203"
"167.107951"
"$GPRMC,023524,A,2421.6686,N,08049.9297,W,1.9,134.4,160615,6.2,"
"##MN-00 00 50 0072 02891 5776 729360 024244 203"
"167.107998"
"$GPRMC,023527,A,2421.6674,N,08049.9284,W,1.9,134.0,160615,6.2,"
"##MN-00 00 50 0073 02894 5777 731568 024226 203"
"167.108044"
"$GPRMC,023531,A,2421.6660,N,08049.9266,W,1.9,134.4,160615,6.2,"
"##MN-00 00 50 0074 02898 5777 734688 024234 203"
"167.10809"
"$GPRMC,023535,A,2421.6643,N,08049.9249,W,2.0,134.4,160615,6.2,"
"##MN-00 00 50 0075 02905 5778 737776 024220 203"
"167.108137"
"$GPRMC,023539,A,2421.6628,N,08049.9232,W,2.0,134.4,160615,6.2,"
"##MN-00 00 50 0076 02907 5779 739968 024209 203"
"167.108183"
"$GPRMC,023543,A,2421.6611,N,08049.9215,W,2.0,134.1,160615,6.2,"
"##MN-00 00 50 0076 02914 5779 741728 024215 203"
"167.108229"
"$GPRMC,023548,A,2421.6593,N,08049.9195,W,1.9,133.2,160615,6.2,"
"##MN-00 00 50 0077 02920 5780 740864 024234 203"
"167.108275"
"$GPRMC,023552,A,2421.6577,N,08049.9177,W,1.9,133.1,160615,6.2,"
"##MN-00 00 50 0078 02924 5781 740832 024240 203"
"167.108322"
"$GPRMC,023556,A,2421.6561,N,08049.9161,W,1.9,134.0,160615,6.2,"
"##MN-00 00 50 0079 02931 5781 739912 024234 203"
"167.108368"
"$GPRMC,023600,A,2421.6550,N,08049.9141,W,1.9,134.6,160615,6.2,"
"##MN-00 00 50 0080 02932 5782 740760 024242 203"
"167.108414"
"$GPRMC,023604,A,2421.6535,N,08049.9124,W,1.9,135.2,160615,6.2,"
"##MN-00 00 50 0081 02939 5782 233600 024249 203"
"167.108461"
"$GPRMC,023608,A,2421.6521,N,08049.9108,W,1.9,136.1,160615,6.2,"
"##MN-00 00 50 0082 02940 5783 740296 024246 203"
"167.108507"
"$GPRMC,023612,A,2421.6505,N,08049.9091,W,1.8,137.1,160615,6.2,"
"##MN-00 00 50 0082 02945 5784 738048 024253 203"
"167.108553"
"$GPRMC,023616,A,2421.6489,N,08049.9075,W,1.8,137.8,160615,6.2,"
"##MN-00 00 50 0083 02949 5784 742480 024252 203"
"167.1086"
"$GPRMC,023620,A,2421.6472,N,08049.9060,W,1.8,138.2,160615,6.2,"
"##MN-00 00 50 0084 02953 5785 738928 024255 203"
"167.108646"
"$GPRMC,023624,A,2421.6456,N,08049.9044,W,1.8,138.5,160615,6.2,"
"##MN-00 00 50 0085 02958 5785 741576 024261 203"
"167.108692"
"$GPRMC,023628,A,2421.6440,N,08049.9028,W,1.8,139.1,160615,6.2,"
"##MN-00 00 50 0086 02959 5786 740208 024258 203"
"167.108738"
"$GPRMC,023632,A,2421.6423,N,08049.9016,W,1.8,139.6,160615,6.2,"
"##MN-00 00 50 0087 02964 5786 467024 024258 203"
"167.108785"
"$GPRMC,023636,A,2421.6407,N,08049.9001,W,1.8,140.0,160615,6.2,"
"##MN-00 00 50 0088 02967 5787 740640 024253 203"
"167.108831"
"$GPRMC,023640,A,2421.6393,N,08049.8986,W,1.8,140.1,160615,6.2,"
"##MN-00 00 50 0089 02971 5788 740624 024261 203"
"167.108877"
"$GPRMC,023644,A,2421.6376,N,08049.8972,W,1.9,139.9,160615,6.2,"
"##MN-00 00 50 0090 02972 5788 741440 024258 203"
"167.108924"
"$GPRMC,023648,A,2421.6359,N,08049.8956,W,1.9,139.1,160615,6.2,"
"##MN-00 00 50 0090 02977 5789 486936 024263 203"
"167.10897"
"$GPRMC,023652,A,2421.6342,N,08049.8939,W,1.9,137.3,160615,6.2,"
"##MN-00 00 50 0091 02976 5790 749440 024229 203"
"167.109016"
"$GPRMC,023656,A,2421.6328,N,08049.8922,W,1.9,135.7,160615,6.2,"
"##MN-00 00 50 0092 02981 5790 751664 024244 203"
"167.109063"
"$GPRMC,023700,A,2421.6312,N,08049.8905,W,2.0,134.5,160615,6.2,"
"##MN-00 00 49 0093 02982 5791 757440 024251 203"
"167.109109"
"$GPRMC,023704,A,2421.6296,N,08049.8890,W,2.0,134.2,160615,6.2,"
"##MN-00 00 50 0094 02990 5791 757432 024254 203"
"167.109155"
"$GPRMC,023708,A,2421.6283,N,08049.8872,W,1.9,134.1,160615,6.2,"
"##MN-00 00 49 0095 02991 5792 760128 024253 203"
"167.109201"
"$GPRMC,023712,A,2421.6267,N,08049.8855,W,1.9,133.2,160615,6.2,"
"##MN-00 00 49 0095 02995 5793 759200 024244 203"
"167.109248"
"$GPRMC,023716,A,2421.6250,N,08049.8837,W,2.0,133.3,160615,6.2,"
"##MN-00 00 49 0096 02998 5793 623296 024251 203"
"167.109294"
"$GPRMC,023720,A,2421.6235,N,08049.8818,W,2.1,133.1,160615,6.2,"
"##MN-00 00 49 0097 03001 5794 760096 024252 203"
"167.10934"
"$GPRMC,023724,A,2421.6220,N,08049.8799,W,2.1,132.4,160615,6.2,"
"##MN-00 00 49 0098 03005 5794 760016 024251 203"
"167.109387"
"$GPRMC,023728,A,2421.6205,N,08049.8781,W,2.1,132.2,160615,6.2,"
"##MN-00 00 49 0099 03008 5795 762688 024260 203"
"167.109433"
"$GPRMC,023732,A,2421.6188,N,08049.8761,W,2.1,132.5,160615,6.2,"
"##MN-00 00 49 0100 03011 5795 763984 024247 203"
"167.109479"
"$GPRMC,023736,A,2421.6172,N,08049.8742,W,2.1,132.7,160615,6.2,"
"##MN-00 00 49 0101 03015 5797 767056 024249 203"
"167.109525"
"$GPRMC,023740,A,2421.6158,N,08049.8723,W,2.1,132.9,160615,6.2,"
"##MN-00 00 49 0101 03018 5797 769768 024255 203"
"167.109572"
"$GPRMC,023744,A,2421.6141,N,08049.8706,W,2.1,133.7,160615,6.2,"
"##MN-00 00 49 0102 03023 5797 514816 024259 203"
"167.109618"
"$GPRMC,023748,A,2421.6124,N,08049.8691,W,2.0,135.1,160615,6.2,"
"##MN-00 00 49 0103 03025 5798 767024 024262 203"
"167.109664"
"$GPRMC,023752,A,2421.6109,N,08049.8674,W,1.9,135.8,160615,6.2,"
"##MN-00 00 49 0104 03026 5799 768800 024255 203"
"167.109711"
"$GPRMC,023756,A,2421.6094,N,08049.8658,W,1.9,137.1,160615,6.2,"
"##MN-00 00 49 0105 03029 5799 769744 024259 203"
"167.109757"
"$GPRMC,023800,A,2421.6079,N,08049.8642,W,1.9,138.0,160615,6.2,"
"##MN-00 00 48 0106 03032 5800 633392 024261 203"
"167.109803"
"$GPRMC,023804,A,2421.6062,N,08049.8626,W,1.9,138.7,160615,6.2,"
"##MN-00 00 49 0107 03034 5801 770544 024247 203"
"167.10985"
"$GPRMC,023808,A,2421.6046,N,08049.8611,W,1.9,138.9,160615,6.2,"
"##MN-00 00 49 0108 03035 5801 773712 024256 203"
"167.109896"
"$GPRMC,023812,A,2421.6030,N,08049.8597,W,1.8,138.9,160615,6.2,"
"##MN-00 00 49 0108 03037 5802 775032 024252 203"
"167.109942"
"$GPRMC,023816,A,2421.6014,N,08049.8583,W,1.8,138.7,160615,6.2,"
"##MN-00 00 49 0109 03041 5802 777680 024251 203"
"167.109988"
"$GPRMC,023820,A,2421.5999,N,08049.8569,W,1.8,138.4,160615,6.2,"
"##MN-00 00 49 0110 03042 5803 778536 024243 203"
"167.110035"
"$GPRMC,023824,A,2421.5984,N,08049.8555,W,1.8,138.1,160615,6.2,"
"##MN-00 00 49 0111 03047 5803 777648 024248 203"
"167.110093"
"$GPRMC,023828,A,2421.5968,N,08049.8540,W,1.8,137.8,160615,6.2,"
"##MN-00 00 49 0112 03051 5804 523184 024251 203"
"167.110139"
"$GPRMC,023832,A,2421.5952,N,08049.8526,W,1.8,138.0,160615,6.2,"
"##MN-00 00 49 0113 03053 5805 778112 024246 203"
"167.110185"
"$GPRMC,023836,A,2421.5936,N,08049.8510,W,1.8,137.6,160615,6.2,"
"##MN-00 00 49 0114 03057 5805 778400 024254 203"
"167.110231"
"$GPRMC,023840,A,2421.5920,N,08049.8494,W,1.8,137.4,160615,6.2,"
"##MN-00 00 49 0114 03059 5806 779808 024252 203"
"167.110278"
"$GPRMC,023844,A,2421.5905,N,08049.8477,W,1.9,137.4,160615,6.2,"
"##MN-00 00 49 0115 03060 5807 781120 024246 203"
"167.110324"
"$GPRMC,023848,A,2421.5887,N,08049.8461,W,1.9,137.5,160615,6.2,"
"##MN-00 00 49 0116 03062 5807 784232 024258 203"
"167.11037"
"$GPRMC,023852,A,2421.5869,N,08049.8444,W,1.9,137.7,160615,6.2,"
"##MN-00 00 49 0117 03068 5808 784672 024249 203"
"167.110417"
"$GPRMC,023856,A,2421.5852,N,08049.8429,W,2.1,137.1,160615,6.2,"
"##MN-00 00 49 0118 03069 5808 783768 024260 203"
"167.110463"
"$GPRMC,023900,A,2421.5837,N,08049.8412,W,2.1,137.1,160615,6.2,"
"##MN-00 00 49 0119 03072 5809 786384 024258 203"
"167.110509"
"$GPRMC,023904,A,2421.5820,N,08049.8395,W,2.0,136.4,160615,6.2,"
"##MN-00 00 49 0120 03073 5810 786352 024261 203"
"167.110556"
"$GPRMC,023908,A,2421.5804,N,08049.8377,W,2.0,135.8,160615,6.2,"
"##MN-00 00 49 0120 03077 5810 783272 024261 203"
"167.110602"
"$GPRMC,023912,A,2421.5787,N,08049.8359,W,2.1,135.2,160615,6.2,"
"##MN-00 00 49 0121 03081 5811 795360 024248 203"
"167.110648"
"$GPRMC,023916,A,2421.5771,N,08049.8342,W,2.0,134.7,160615,6.2,"
"##MN-00 00 49 0122 03082 5811 788176 024250 203"
"167.110694"
"$GPRMC,023920,A,2421.5755,N,08049.8325,W,2.1,135.2,160615,6.2,"
"##MN-00 00 49 0123 03084 5812 789904 024261 203"
"167.110741"
"$GPRMC,023924,A,2421.5739,N,08049.8308,W,2.0,136.2,160615,6.2,"
"##MN-00 00 49 0124 03087 5812 789952 024259 203"
"167.110787"
"$GPRMC,023928,A,2421.5723,N,08049.8292,W,2.0,136.7,160615,6.2,"
"##MN-00 00 49 0125 03090 5813 794768 024238 203"
"167.110833"
"$GPRMC,023932,A,2421.5710,N,08049.8278,W,1.9,137.1,160615,6.2,"
"##MN-00 00 49 0126 03095 5814 795248 024246 203"
"167.11088"
"$GPRMC,023936,A,2421.5692,N,08049.8262,W,1.9,137.7,160615,6.2,"
"##MN-00 00 49 0126 03096 5814 797472 024252 203"
"167.110926"
"$GPRMC,023940,A,2421.5676,N,08049.8247,W,1.9,138.7,160615,6.2,"
"##MN-00 00 49 0127 03102 5815 524336 024236 203"
"167.110972"
"$GPRMC,023944,A,2421.5660,N,08049.8232,W,1.9,139.5,160615,6.2,"
"##MN-00 00 49 0128 03102 5815 797480 024232 203"
"167.111019"
"$GPRMC,023948,A,2421.5643,N,08049.8217,W,1.9,139.6,160615,6.2,"
"##MN-00 00 49 0129 03102 5816 796976 024227 203"
"167.111065"
"$GPRMC,023952,A,2421.5627,N,08049.8201,W,1.9,140.2,160615,6.2,"
"##MN-00 00 49 0130 03106 5816 796080 024245 203"
"167.111111"
"$GPRMC,023956,A,2421.5609,N,08049.8185,W,1.9,140.4,160615,6.2,"
"##MN-00 00 49 0131 03107 5817 797840 024265 203"
"167.111157"
"$GPRMC,024000,A,2421.5591,N,08049.8170,W,2.0,140.7,160615,6.2,"
"##MN-00 00 49 0132 03107 5818 285360 024253 203"
"167.111204"
"$GPRMC,024004,A,2421.5573,N,08049.8154,W,1.9,140.9,160615,6.2,"
"##MN-00 00 49 0133 03112 5818 796936 024249 203"
"167.11125"
"$GPRMC,024008,A,2421.5556,N,08049.8138,W,2.0,140.1,160615,6.2,"
"##MN-00 00 49 0133 03112 5819 683600 024255 203"
"167.111296"
"$GPRMC,024012,A,2421.5540,N,08049.8121,W,2.1,140.0,160615,6.2,"
"##MN-00 00 49 0134 03114 5819 853568 024256 203"
"167.111343"
"$GPRMC,024016,A,2421.5522,N,08049.8107,W,2.1,139.2,160615,6.2,"
"##MN-00 00 49 0135 03114 5820 796904 024253 203"
"167.111389"
"$GPRMC,024020,A,2421.5508,N,08049.8092,W,2.1,137.9,160615,6.2,"
"##MN-00 00 49 0136 03117 5820 797808 024250 203"
"167.111435"
"$GPRMC,024024,A,2421.5493,N,08049.8075,W,2.0,137.1,160615,6.2,"
"##MN-00 00 49 0137 03121 5821 796400 024252 203"
"167.111481"
"$GPRMC,024029,A,2421.5472,N,08049.8053,W,1.9,136.7,160615,6.2,"
"##MN-00 00 48 0138 03121 5822 796928 024264 203"
"167.111528"
"$GPRMC,024032,A,2421.5461,N,08049.8040,W,2.0,136.6,160615,6.2,"
"##MN-00 00 49 0139 03126 5822 796808 024264 203"
"167.111574"
"$GPRMC,024036,A,2421.5444,N,08049.8023,W,2.1,135.8,160615,6.2,"
"##MN-00 00 49 0140 03128 5823 796864 024260 203"
"167.11162"
"$GPRMC,024041,A,2421.5422,N,08049.8003,W,2.0,135.5,160615,6.2,"
"##MN-00 00 50 0140 03132 5823 796840 024256 203"
"167.111667"
"$GPRMC,024045,A,2421.5405,N,08049.7986,W,2.0,135.0,160615,6.2,"
"##MN-00 00 49 0141 03136 5824 796864 024262 203"
"167.111713"
"$GPRMC,024049,A,2421.5389,N,08049.7969,W,2.1,134.9,160615,6.2,"
"##MN-00 00 49 0142 03139 5824 795984 024262 203"
"167.111759"
"$GPRMC,024053,A,2421.5374,N,08049.7952,W,2.0,135.3,160615,6.2,"
"##MN-00 00 49 0143 03142 5825 797400 024261 203"
"167.111806"
"$GPRMC,024057,A,2421.5358,N,08049.7936,W,1.9,135.5,160615,6.2,"
"##MN-00 00 49 0144 03145 5825 796992 024260 203"
"167.111852"
"$GPRMC,024100,A,2421.5346,N,08049.7923,W,1.9,135.3,160615,6.2,"
"##MN-00 00 49 0145 03148 5826 797488 024260 203"
"167.111898"
"$GPRMC,024104,A,2421.5331,N,08049.7905,W,1.9,135.1,160615,6.2,"
"##MN-00 00 49 0145 03151 5827 796224 024267 203"
"167.111944"
"$GPRMC,024108,A,2421.5313,N,08049.7889,W,2.0,134.7,160615,6.2,"
"##MN-00 00 49 0146 03153 5827 660848 024253 203"
"167.111991"
"$GPRMC,024113,A,2421.5294,N,08049.7866,W,1.9,135.2,160615,6.2,"
"##MN-00 00 49 0147 03158 5828 797272 024265 203"
"167.112037"
"$GPRMC,024117,A,2421.5278,N,08049.7849,W,1.9,136.0,160615,6.2,"
"##MN-00 00 49 0148 03161 5828 799088 024265 203"
"167.112083"
"$GPRMC,024121,A,2421.5262,N,08049.7834,W,1.8,136.4,160615,6.2,"
"##MN-00 00 49 0149 03165 5829 797408 024249 203"
"167.11213"
"$GPRMC,024125,A,2421.5246,N,08049.7818,W,1.9,136.3,160615,6.2,"
"##MN-00 00 48 0150 03167 5830 797440 024256 203"
"167.112176"
"$GPRMC,024129,A,2421.5230,N,08049.7803,W,1.8,137.2,160615,6.2,"
"##MN-00 00 48 0150 03170 5830 797552 024257 203"
"167.112222"
"$GPRMC,024133,A,2421.5213,N,08049.7787,W,1.9,137.6,160615,6.2,"
"##MN-00 00 48 0151 03175 5831 797600 024256 203"
"167.112269"
"$GPRMC,024137,A,2421.5198,N,08049.7772,W,1.8,138.1,160615,6.2,"
"##MN-00 00 48 0152 03177 5831 797672 024254 203"
"167.112315"
"$GPRMC,024141,A,2421.5181,N,08049.7756,W,1.8,139.2,160615,6.2,"
"##MN-00 00 48 0153 03180 5832 797768 024258 203"
"167.112361"
"$GPRMC,024145,A,2421.5163,N,08049.7742,W,1.8,140.1,160615,6.2,"
"##MN-00 00 48 0154 03183 5832 797872 024258 203"
"167.112407"
"$GPRMC,024149,A,2421.5146,N,08049.7727,W,1.9,140.5,160615,6.2,"
"##MN-00 00 48 0155 03187 5832 797888 024256 203"
"167.112454"
"$GPRMC,024153,A,2421.5128,N,08049.7713,W,1.9,140.8,160615,6.2,"
"##MN-00 00 48 0155 03188 5833 797968 024258 203"
"167.1125"
"$GPRMC,024157,A,2421.5112,N,08049.7697,W,1.9,140.2,160615,6.2,"
"##MN-00 00 48 0156 03190 5833 542648 024246 203"
"167.112546"
"$GPRMC,024201,A,2421.5097,N,08049.7680,W,2.0,138.9,160615,6.2,"
"##MN-00 00 48 0157 03194 5834 797672 024247 203"
"167.112593"
"$GPRMC,024205,A,2421.5082,N,08049.7665,W,1.9,138.4,160615,6.2,"
"##MN-00 00 49 0158 03197 5834 799072 024250 203"
"167.112639"
"$GPRMC,024209,A,2421.5069,N,08049.7647,W,1.9,136.5,160615,6.2,"
"##MN-00 00 49 0159 03200 5835 662408 024243 203"
"167.112685"
"$GPRMC,024213,A,2421.5053,N,08049.7630,W,1.9,135.6,160615,6.2,"
"##MN-00 00 48 0159 03203 5835 796608 024244 203"
"167.112731"
"$GPRMC,024217,A,2421.5038,N,08049.7613,W,2.0,135.1,160615,6.2,"
"##MN-00 00 48 0160 03209 5836 798480 024246 203"
"167.112778"
"$GPRMC,024221,A,2421.5020,N,08049.7595,W,2.0,135.2,160615,6.2,"
"##MN-00 00 48 0161 03213 5836 800368 024249 203"
"167.112824"
"$GPRMC,024225,A,2421.5004,N,08049.7577,W,2.0,135.0,160615,6.2,"
"##MN-00 00 48 0162 03217 5836 798632 024250 203"
"167.11287"
"$GPRMC,024229,A,2421.4987,N,08049.7561,W,2.1,135.2,160615,6.2,"
"##MN-00 00 48 0163 03222 5837 792976 024247 203"
"167.112917"
"$GPRMC,024233,A,2421.4970,N,08049.7543,W,2.1,134.8,160615,6.2,"
"##MN-00 00 48 0163 03224 5837 791760 024253 203"
"167.112963"
"$GPRMC,024237,A,2421.4955,N,08049.7525,W,2.1,134.8,160615,6.2,"
"##MN-00 00 48 0164 03227 5838 789616 024244 203"
"167.113009"
"$GPRMC,024241,A,2421.4937,N,08049.7506,W,2.0,135.5,160615,6.2,"
"##MN-00 00 48 0165 03234 5838 785584 024258 203"
"167.113056"
"$GPRMC,024245,A,2421.4921,N,08049.7491,W,2.0,136.2,160615,6.2,"
"##MN-00 00 48 0166 03237 5839 787936 024255 203"
"167.113102"
"$GPRMC,024249,A,2421.4905,N,08049.7474,W,2.0,136.5,160615,6.2,"
"##MN-00 00 48 0167 03240 5839 785824 024252 203"
"167.113148"
"$GPRMC,024253,A,2421.4888,N,08049.7458,W,1.9,135.6,160615,6.2,"
"##MN-00 00 48 0167 03246 5839 783640 024249 203"
"167.113194"
"$GPRMC,024257,A,2421.4872,N,08049.7442,W,2.0,135.7,160615,6.2,"
"##MN-00 00 48 0168 03248 5840 780232 024253 203"
"167.113241"
"$GPRMC,024301,A,2421.4855,N,08049.7424,W,1.9,136.7,160615,6.2,"
"##MN-00 00 48 0169 03252 5840 782624 024238 203"
"167.113287"
"$GPRMC,024305,A,2421.4839,N,08049.7407,W,1.9,137.0,160615,6.2,"
"##MN-00 00 47 0170 03256 5841 780896 024250 203"
"167.113345"
"$GPRMC,024309,A,2421.4823,N,08049.7392,W,1.9,137.5,160615,6.2,"
"##MN-00 00 47 0170 03262 5841 780112 024249 203"
"167.113391"
"$GPRMC,024313,A,2421.4807,N,08049.7376,W,1.9,138.6,160615,6.2,"
"##MN-00 00 47 0171 03265 5841 775752 024261 203"
"167.113438"
"$GPRMC,024317,A,2421.4792,N,08049.7362,W,1.8,139.5,160615,6.2,"
"##MN-00 00 47 0172 03268 5842 774096 024251 203"
"167.113484"
"$GPRMC,024321,A,2421.4776,N,08049.7350,W,1.8,140.6,160615,6.2,"
"##MN-00 00 48 0173 03273 5842 771576 024260 203"
"167.11353"
"$GPRMC,024325,A,2421.4761,N,08049.7339,W,1.8,141.7,160615,6.2,"
"##MN-00 00 46 0173 03275 5842 770392 024261 203"
"167.113576"
"$GPRMC,024329,A,2421.4746,N,08049.7328,W,1.7,142.6,160615,6.2,"
"##MN-00 00 46 0174 03281 5842 763008 024258 203"
"167.113623"
"$GPRMC,024333,A,2421.4732,N,08049.7316,W,1.6,143.4,160615,6.2,"
"##MN-00 00 46 0175 03285 5843 763600 024245 203"
"167.113669"
"$GPRMC,024337,A,2421.4720,N,08049.7308,W,1.6,143.8,160615,6.2,"
"##MN-00 00 46 0176 03289 5843 762352 024245 203"
"167.113715"
"$GPRMC,024341,A,2421.4709,N,08049.7300,W,1.6,144.7,160615,6.2,"
"##MN-00 00 46 0176 03295 5843 758080 024247 203"
"167.113762"
"$GPRMC,024345,A,2421.4696,N,08049.7293,W,1.6,145.6,160615,6.2,"
"##MN-00 00 46 0177 03299 5843 746184 024257 203"
"167.113808"
"$GPRMC,024349,A,2421.4682,N,08049.7283,W,1.5,146.5,160615,6.2,"
"##MN-00 00 46 0178 03304 5844 744080 024279 203"
"167.113854"
"$GPRMC,024353,A,2421.4666,N,08049.7272,W,1.5,146.6,160615,6.2,"
"##MN-00 00 46 0179 03308 5844 744216 024265 203"
"167.1139"
"$GPRMC,024357,A,2421.4650,N,08049.7262,W,1.5,147.0,160615,6.2,"
"##MN-00 00 46 0179 03311 5844 746144 024261 203"
"167.113947"
"$GPRMC,024401,A,2421.4635,N,08049.7252,W,1.6,147.6,160615,6.2,"
"##MN-00 00 45 0180 03315 5844 744040 024258 203"
"167.113993"
"$GPRMC,024405,A,2421.4619,N,08049.7243,W,1.6,148.0,160615,6.2,"
"##MN-00 00 45 0181 03320 5844 744576 024250 203"
"167.114039"
"$GPRMC,024409,A,2421.4603,N,08049.7233,W,1.5,148.5,160615,6.2,"
"##MN-00 00 45 0181 03320 5844 744720 024249 203"
"167.114086"
"$GPRMC,024413,A,2421.4590,N,08049.7224,W,1.6,149.1,160615,6.2,"
"##MN-00 00 44 0182 03323 5844 748024 024232 203"
"167.114132"
"$GPRMC,024417,A,2421.4576,N,08049.7215,W,1.6,149.5,160615,6.2,"
"##MN-00 00 45 0183 03326 5845 733456 024238 203"
"167.114178"
"$GPRMC,024421,A,2421.4561,N,08049.7206,W,1.6,150.0,160615,6.2,"
"##MN-00 00 45 0184 03329 5845 737136 024235 203"
"167.114225"
"$GPRMC,024425,A,2421.4547,N,08049.7198,W,1.5,150.0,160615,6.2,"
"##MN-00 00 44 0184 03334 5845 733648 024245 203"
"167.114271"
"$GPRMC,024429,A,2421.4532,N,08049.7189,W,1.4,151.0,160615,6.2,"
"##MN-00 00 45 0185 03336 5845 729288 024236 203"
"167.114317"
"$GPRMC,024433,A,2421.4518,N,08049.7180,W,1.3,151.6,160615,6.2,"
"##MN-00 00 45 0186 03340 5845 725840 024232 203"
"167.114363"
"$GPRMC,024437,A,2421.4504,N,08049.7173,W,1.4,152.1,160615,6.2,"
"##MN-00 00 45 0187 03342 5845 725040 024223 203"
"167.11441"
"$GPRMC,024441,A,2421.4490,N,08049.7168,W,1.4,152.4,160615,6.2,"
"##MN-00 00 44 0187 03346 5845 719440 024235 203"
"167.114456"
"$GPRMC,024445,A,2421.4476,N,08049.7160,W,1.3,153.1,160615,6.2,"
"##MN-00 00 45 0188 03349 5845 717264 024241 203"
"167.114502"
"$GPRMC,024449,A,2421.4462,N,08049.7152,W,1.2,153.5,160615,6.2,"
"##MN-00 00 45 0189 03353 5845 715624 024229 203"
"167.114549"
"$GPRMC,024453,A,2421.4449,N,08049.7144,W,1.3,154.6,160615,6.2,"
"##MN-00 00 45 0190 03357 5845 707728 024242 203"
"167.114595"
"$GPRMC,024457,A,2421.4433,N,08049.7138,W,1.3,155.1,160615,6.2,"
"##MN-00 00 44 0190 03359 5845 707904 024232 203"
"167.114641"
"$GPRMC,024501,A,2421.4420,N,08049.7132,W,1.4,156.0,160615,6.2,"
"##MN-00 00 45 0191 03363 5845 305640 024234 203"
"167.114688"
"$GPRMC,024506,A,2421.4403,N,08049.7124,W,1.3,156.4,160615,6.2,"
"##MN-00 00 45 0192 03367 5844 689488 024245 203"
"167.114734"
"$GPRMC,024510,A,2421.4389,N,08049.7116,W,1.3,156.1,160615,6.2,"
"##MN-00 00 45 0192 03371 5844 689608 024254 203"
"167.11478"
"$GPRMC,024514,A,2421.4374,N,08049.7109,W,1.3,156.1,160615,6.2,"
"##MN-00 00 45 0193 03372 5844 689712 024246 203"
"167.114826"
"$GPRMC,024518,A,2421.4361,N,08049.7101,W,1.3,155.6,160615,6.2,"
"##MN-00 00 45 0194 03378 5844 689864 024257 203"
"167.114873"
"$GPRMC,024522,A,2421.4346,N,08049.7094,W,1.4,155.7,160615,6.2,"
"##MN-00 00 44 0195 03379 5844 691776 024242 203"
"167.114919"
"$GPRMC,024526,A,2421.4332,N,08049.7087,W,1.5,155.0,160615,6.2,"
"##MN-00 00 45 0195 03385 5844 689248 024228 203"
"167.114965"
"$GPRMC,024530,A,2421.4319,N,08049.7081,W,1.5,154.1,160615,6.2,"
"##MN-00 00 44 0196 03387 5843 686744 024211 203"
"167.115012"
"$GPRMC,024534,A,2421.4306,N,08049.7072,W,1.4,154.1,160615,6.2,"
"##MN-00 00 45 0197 03391 5843 680640 024230 203"
"167.115058"
"$GPRMC,024538,A,2421.4294,N,08049.7064,W,1.3,154.9,160615,6.2,"
"##MN-00 00 44 0197 03393 5843 675864 024221 203"
"167.115104"
"$GPRMC,024542,A,2421.4281,N,08049.7057,W,1.3,155.1,160615,6.2,"
"##MN-00 00 44 0198 03397 5842 672864 024240 203"
"167.11515"
"$GPRMC,024546,A,2421.4267,N,08049.7051,W,1.3,156.7,160615,6.2,"
"##MN-00 00 44 0199 03403 5842 668984 024235 203"
"167.115197"
"$GPRMC,024550,A,2421.4258,N,08049.7049,W,1.2,158.1,160615,6.2,"
"##MN-00 00 43 0200 03405 5842 154272 024221 203"
"167.115243"
"$GPRMC,024554,A,2421.4248,N,08049.7044,W,1.1,159.2,160615,6.2,"
"##MN-00 00 44 0200 03412 5842 662536 024241 203"
"167.115289"
"$GPRMC,024558,A,2421.4238,N,08049.7042,W,1.1,159.6,160615,6.2,"
"##MN-00 00 44 0201 03415 5841 657808 024228 203"
"167.115336"
"$GPRMC,024602,A,2421.4227,N,08049.7037,W,1.1,158.9,160615,6.2,"
"##MN-00 00 44 0202 03420 5841 653936 024245 203"
"167.115382"
"$GPRMC,024606,A,2421.4216,N,08049.7033,W,1.1,159.2,160615,6.2,"
"##MN-00 00 43 0202 03426 5841 647840 024239 203"
"167.115428"
"$GPRMC,024610,A,2421.4205,N,08049.7030,W,1.1,160.4,160615,6.2,"
"##MN-00 00 43 0203 03430 5840 634720 024256 203"
"167.115475"
"$GPRMC,024614,A,2421.4193,N,08049.7026,W,1.0,161.1,160615,6.2,"
"##MN-00 00 43 0204 03434 5840 635184 024246 203"
"167.115521"
"$GPRMC,024618,A,2421.4182,N,08049.7023,W,1.0,162.5,160615,6.2,"
"##MN-00 00 43 0204 03437 5840 635056 024249 203"
"167.115567"
"$GPRMC,024622,A,2421.4172,N,08049.7021,W,1.0,163.5,160615,6.2,"
"##MN-00 00 43 0205 03442 5839 635264 024247 203"
"167.115613"
"$GPRMC,024626,A,2421.4164,N,08049.7021,W,0.9,164.8,160615,6.2,"
"##MN-00 00 43 0206 03445 5838 635440 024218 203"
"167.11566"
"$GPRMC,024630,A,2421.4153,N,08049.7020,W,0.9,166.8,160615,6.2,"
"##MN-00 00 40 0206 03449 5837 634784 024234 203"
"167.115706"
"$GPRMC,024634,A,2421.4142,N,08049.7017,W,0.9,168.9,160615,6.2,"
"##MN-00 00 40 0207 03448 5837 625144 024227 203"
"167.115752"
"$GPRMC,024638,A,2421.4130,N,08049.7016,W,0.9,171.6,160615,6.2,"
"##MN-00 00 40 0208 03450 5836 617312 024238 203"
"167.115799"
"$GPRMC,024642,A,2421.4119,N,08049.7016,W,0.9,173.8,160615,6.2,"
"##MN+00 00 41 0209 03452 5836 613088 024225 203"
"167.115845"
"$GPRMC,024646,A,2421.4111,N,08049.7017,W,0.9,176.4,160615,6.2,"
"##MN+00 00 41 0209 03453 5835 608032 024224 203"
"167.115891"
"$GPRMC,024650,A,2421.4100,N,08049.7016,W,0.9,179.1,160615,6.2,"
"##MN+00 00 40 0210 03453 5834 325696 024223 203"
"167.115938"
"$GPRMC,024654,A,2421.4090,N,08049.7020,W,0.8,180.9,160615,6.2,"
"##MN-00 00 42 0211 03452 5834 591088 024241 203"
"167.115984"
"#increment_net"
"$GPRMC,024658,A,2421.4082,N,08049.7019,W,0.8,183.0,160615,6.2,"
"##MN-00 00 42 0212 03455 5833 581952 024244 203"
"167.11603"
"$GPRMC,024702,A,2421.4073,N,08049.7020,W,0.7,185.2,160615,6.2,"
"##MN+00 00 42 0212 03455 5833 580312 024239 203"
"167.116076"
"$GPRMC,024706,A,2421.4066,N,08049.7021,W,0.7,187.2,160615,6.2,"
"##MN+00 00 42 0213 03456 5832 579656 024245 203"
"167.116123"
"$GPRMC,024710,A,2421.4057,N,08049.7023,W,0.6,189.4,160615,6.2,"
"##MN+00 00 45 0214 03456 5831 582496 024216 203"
"167.116169"
"$GPRMC,024714,A,2421.4049,N,08049.7027,W,0.6,191.5,160615,6.2,"
"##MN-00 00 43 0215 03452 5831 576872 024219 203"
"167.116215"
"$GPRMC,024718,A,2421.4043,N,08049.7027,W,0.6,193.3,160615,6.2,"
"##MN-00 00 43 0216 03453 5830 571264 024218 203"
"167.116262"
"$GPRMC,024722,A,2421.4036,N,08049.7030,W,0.7,195.9,160615,6.2,"
"##MN-00 00 43 0217 03448 5829 562912 024223 203"
"167.116308"
"#increment_net"
"$GPRMC,024726,A,2421.4028,N,08049.7034,W,0.6,197.7,160615,6.2,"
"##MN-00 00 43 0217 03444 5828 559040 024226 203"
"167.116354"
"$GPRMC,024730,A,2421.4021,N,08049.7034,W,0.6,199.6,160615,6.2,"
"##MN-00 00 43 0218 03442 5828 301072 024240 203"
"167.1164"
"$GPRMC,024734,A,2421.4013,N,08049.7037,W,0.6,200.6,160615,6.2,"
"##MN-00 00 43 0219 03441 5826 546360 024223 203"
"167.116447"
"$GPRMC,024738,A,2421.4006,N,08049.7041,W,0.6,200.8,160615,6.2,"
"##MN-00 00 44 0220 03439 5825 540640 024233 203"
"167.116493"
"$GPRMC,024742,A,2421.4003,N,08049.7042,W,0.6,200.5,160615,6.2,"
"##MN-00 00 44 0221 03434 5825 527360 024257 203"
"167.116539"
"$GPRMC,024746,A,2421.3996,N,08049.7042,W,0.6,201.0,160615,6.2,"
"##MN-00 00 44 0222 03431 5824 524704 024316 203"
"167.116597"
"$GPRMC,024750,A,2421.3990,N,08049.7045,W,0.5,201.2,160615,6.2,"
"##MN-00 00 44 0222 03429 5823 524784 024262 203"
"167.116644"
"$GPRMC,024754,A,2421.3985,N,08049.7045,W,0.5,202.3,160615,6.2,"
"##MN-00 00 44 0223 03426 5822 524840 024271 203"
"167.11669"
"$GPRMC,024758,A,2421.3980,N,08049.7047,W,0.5,203.2,160615,6.2,"
"##MN-00 00 44 0224 03426 5821 520704 024242 203"
"167.116736"
"$GPRMC,024802,A,2421.3976,N,08049.7049,W,0.5,204.7,160615,6.2,"
"##MN-00 00 44 0225 03424 5820 523592 024205 203"
"167.116782"
"$GPRMC,024806,A,2421.3973,N,08049.7056,W,0.5,206.5,160615,6.2,"
"##MN-00 00 44 0226 03419 5819 516960 024241 203"
"167.116829"
"$GPRMC,024810,A,2421.3969,N,08049.7063,W,0.5,209.1,160615,6.2,"
"##MN-00 00 44 0226 03416 5818 509848 024235 203"
"167.116875"
"$GPRMC,024814,A,2421.3967,N,08049.7070,W,0.5,212.5,160615,6.2,"
"##MN-00 00 44 0227 03414 5817 505424 024235 203"
"167.116921"
"$GPRMC,024818,A,2421.3965,N,08049.7074,W,0.6,218.0,160615,6.2,"
"##MN-00 00 44 0228 03411 5816 502784 024255 203"
"167.116968"
"$GPRMC,024822,A,2421.3960,N,08049.7079,W,0.5,223.8,160615,6.2,"
"##MN-00 00 45 0229 03410 5815 498320 024252 203"
"167.117014"
"$GPRMC,024826,A,2421.3958,N,08049.7085,W,0.5,229.9,160615,6.2,"
"##MN-00 00 44 0230 03407 5813 496528 024263 203"
"167.11706"
"$GPRMC,024830,A,2421.3955,N,08049.7090,W,0.6,236.1,160615,6.2,"
"##MN-00 00 44 0231 03403 5812 241496 024262 203"
"167.117106"
"$GPRMC,024834,A,2421.3954,N,08049.7096,W,0.6,241.7,160615,6.2,"
"##MN-00 00 44 0232 03402 5811 215728 024253 203"
"167.117153"
"$GPRMC,024838,A,2421.3952,N,08049.7103,W,0.5,245.4,160615,6.2,"
"##MN-00 00 44 0233 03400 5810 620480 024293 203"
"167.117199"
"$GPRMC,024842,A,2421.3951,N,08049.7108,W,0.5,249.2,160615,6.2,"
"##MN-00 00 44 0233 03395 5809 473224 024289 203"
"167.117245"
"$GPRMC,024846,A,2421.3950,N,08049.7113,W,0.5,252.5,160615,6.2,"
"##MN-00 00 44 0234 03391 5808 013600 024293 203"
"167.117292"
"$GPRMC,024850,A,2421.3950,N,08049.7120,W,0.5,256.4,160615,6.2,"
"##MN-00 00 44 0235 03389 5807 415176 024295 203"
"167.117338"
"$GPRMC,024854,A,2421.3949,N,08049.7125,W,0.5,259.9,160615,6.2,"
"##MN-00 00 44 0236 03386 5805 574096 024288 203"
"167.117384"
"$GPRMC,024858,A,2421.3949,N,08049.7130,W,0.5,262.3,160615,6.2,"
"##MN-00 00 44 0237 03385 5804 467416 024297 203"
"167.117431"
"$GPRMC,024902,A,2421.3949,N,08049.7137,W,0.5,264.3,160615,6.2,"
"##MN-00 00 44 0238 03379 5803 468240 024285 203"
"167.117477"
"$GPRMC,024906,A,2421.3949,N,08049.7143,W,0.5,265.9,160615,6.2,"
"##MN-00 00 45 0239 03374 5802 466896 024294 203"
"167.117523"
"$GPRMC,024910,A,2421.3948,N,08049.7147,W,0.5,267.9,160615,6.2,"
"##MN-00 00 45 0240 03372 5800 467824 024296 203"
"167.117569"
"$GPRMC,024914,A,2421.3948,N,08049.7154,W,0.5,269.2,160615,6.2,"
"##MN-00 00 45 0241 03367 5799 739040 024252 203"
"167.117616"
"$GPRMC,024918,A,2421.3948,N,08049.7161,W,0.5,268.5,160615,6.2,"
"##MN-00 00 46 0242 03360 5798 330520 024241 203"
"167.117662"
"$GPRMC,024922,A,2421.3948,N,08049.7168,W,0.5,267.5,160615,6.2,"
"##MN-00 00 45 0243 03357 5797 467776 024246 203"
"167.117708"
"$GPRMC,024927,A,2421.3949,N,08049.7175,W,0.5,266.5,160615,6.2,"
"##MN-00 00 46 0244 03352 5795 232592 024243 203"
"167.117755"
"$GPRMC,024930,A,2421.3947,N,08049.7178,W,0.5,265.3,160615,6.2,"
"##MN-00 00 46 0245 03346 5794 460128 024255 203"
"167.117801"
"$GPRMC,024934,A,2421.3944,N,08049.7184,W,0.5,264.3,160615,6.2,"
"##MN-00 00 46 0245 03344 5793 273968 024261 203"
"167.117847"
"$GPRMC,024939,A,2421.3941,N,08049.7189,W,0.5,261.2,160615,6.2,"
"##MN-00 00 46 0246 03338 5791 680464 024281 203"
"167.117894"
"$GPRMC,024942,A,2421.3938,N,08049.7197,W,0.5,259.0,160615,6.2,"
"##MN-00 00 46 0247 03333 5790 450184 024292 203"
"167.11794"
"$GPRMC,024946,A,2421.3936,N,08049.7205,W,0.5,257.6,160615,6.2,"
"##MN-00 00 46 0248 03330 5789 340768 024275 203"
"167.117986"
"$GPRMC,024950,A,2421.3936,N,08049.7211,W,0.5,255.9,160615,6.2,"
"##MN-00 00 46 0249 03324 5788 364624 024283 203"
"167.118032"
"$GPRMC,024954,A,2421.3932,N,08049.7212,W,0.5,252.7,160615,6.2,"
"##MN-00 00 47 0250 03322 5786 990912 024282 203"
"167.118079"
"$GPRMC,024958,A,2421.3929,N,08049.7215,W,0.5,248.4,160615,6.2,"
"##MN-00 00 46 0251 03317 5785 306080 024281 203"
"167.118125"
"$GPRMC,025003,A,2421.3924,N,08049.7219,W,0.5,242.3,160615,6.2,"
"##MN-00 00 46 0252 03312 5784 437936 024274 203"
"167.118171"
"$GPRMC,025007,A,2421.3922,N,08049.7222,W,0.4,236.4,160615,6.2,"
"##MN-00 00 47 0253 03311 5783 661640 024281 203"
"167.118218"
"$GPRMC,025011,A,2421.3918,N,08049.7223,W,0.4,230.9,160615,6.2,"
"##MN-00 00 46 0254 03310 5781 625184 024272 203"
"167.118264"
"$GPRMC,025015,A,2421.3915,N,08049.7225,W,0.4,228.3,160615,6.2,"
"##MN-00 00 48 0255 03302 5780 163264 024283 203"
"167.11831"
"$GPRMC,025019,A,2421.3912,N,08049.7231,W,0.5,229.6,160615,6.2,"
"##MN-00 00 46 0256 03301 5779 711928 024272 203"
"167.118356"
"$GPRMC,025023,A,2421.3909,N,08049.7236,W,0.6,232.2,160615,6.2,"
"##MN-00 00 47 0257 03300 5778 329664 024279 203"
"167.118403"
"$GPRMC,025027,A,2421.3908,N,08049.7240,W,0.5,233.3,160615,6.2,"
"##MN-00 00 47 0258 03296 5776 355776 024281 203"
"167.118449"
"$GPRMC,025031,A,2421.3907,N,08049.7244,W,0.4,235.1,160615,6.2,"
"##MN-00 00 48 0259 03291 5775 437568 024280 203"
"167.118495"
"$GPRMC,025035,A,2421.3905,N,08049.7249,W,0.4,239.2,160615,6.2,"
"##MN-00 00 46 0260 03289 5774 387488 024268 203"
"167.118542"
"$GPRMC,025039,A,2421.3904,N,08049.7252,W,0.4,243.5,160615,6.2,"
"##MN-00 00 46 0260 03286 5773 590560 024278 203"
"167.118588"
"$GPRMC,025043,A,2421.3905,N,08049.7258,W,0.4,249.0,160615,6.2,"
"##MN-00 00 47 0261 03285 5771 431184 024272 203"
"167.118634"
"$GPRMC,025047,A,2421.3905,N,08049.7262,W,0.4,254.7,160615,6.2,"
"##MN-00 00 46 0262 03280 5770 429800 024274 203"
"167.118681"
"$GPRMC,025051,A,2421.3906,N,08049.7267,W,0.4,260.3,160615,6.2,"
"##MN-00 00 47 0263 03278 5769 565360 024274 203"
"167.118727"
"$GPRMC,025055,A,2421.3907,N,08049.7272,W,0.4,266.0,160615,6.2,"
"##MN-00 00 47 0264 03277 5768 974992 024271 203"
"167.118773"
"$GPRMC,025059,A,2421.3910,N,08049.7276,W,0.4,271.7,160615,6.2,"
"##MN-00 00 47 0265 03275 5767 428744 024275 203"
"167.118819"
"$GPRMC,025103,A,2421.3913,N,08049.7280,W,0.5,277.2,160615,6.2,"
"##MN-00 00 46 0266 03272 5766 322896 024271 203"
"167.118866"
"$GPRMC,025107,A,2421.3914,N,08049.7285,W,0.5,281.2,160615,6.2,"
"##MN-00 00 47 0267 03270 5765 481296 024272 203"
"167.118912"
"$GPRMC,025111,A,2421.3917,N,08049.7292,W,0.5,283.7,160615,6.2,"
"##MN+00 00 47 0268 03265 5763 427272 024270 203"
"167.118958"
"$GPRMC,025115,A,2421.3918,N,08049.7298,W,0.5,285.2,160615,6.2,"
"##MN+00 00 47 0269 03263 5762 424512 024272 202"
"167.119005"
"$GPRMC,025119,A,2421.3918,N,08049.7305,W,0.5,283.5,160615,6.2,"
"##MN+00 00 51 0270 03259 5761 426224 024275 202"
"167.119051"
"$GPRMC,025123,A,2421.3919,N,08049.7310,W,0.5,281.1,160615,6.2,"
"##MN-00 00 49 0271 03256 5760 148976 024267 202"
"167.119097"
"#increment_net"
"$GPRMC,025127,A,2421.3921,N,08049.7316,W,0.5,276.9,160615,6.2,"
"##MN-00 00 50 0272 03254 5759 425704 024272 203"
"167.119144"
"$GPRMC,025131,A,2421.3919,N,08049.7323,W,0.5,270.8,160615,6.2,"
"##MN-00 00 49 0273 03247 5758 971776 024276 203"
"167.11919"
"$GPRMC,025135,A,2421.3917,N,08049.7327,W,0.4,264.7,160615,6.2,"
"##MN-00 00 49 0274 03242 5756 426392 024270 203"
"167.119236"
"$GPRMC,025139,A,2421.3914,N,08049.7330,W,0.4,257.6,160615,6.2,"
"##MN-00 00 49 0275 03242 5755 425384 024276 203"
"167.119282"
"$GPRMC,025143,A,2421.3909,N,08049.7333,W,0.4,251.2,160615,6.2,"
"##MN-00 00 49 0276 03236 5755 426640 024261 203"
"167.119329"
"$GPRMC,025147,A,2421.3907,N,08049.7336,W,0.4,245.1,160615,6.2,"
"##MN-00 00 50 0277 03235 5753 286136 024276 203"
"167.119375"
"$GPRMC,025151,A,2421.3904,N,08049.7340,W,0.4,239.8,160615,6.2,"
"##MN-00 00 50 0278 03229 5752 428240 024268 203"
"167.119421"
"$GPRMC,025155,A,2421.3901,N,08049.7346,W,0.4,237.9,160615,6.2,"
"##MN-00 00 50 0279 03227 5751 427648 024275 203"
"167.119468"
"$GPRMC,025159,A,2421.3900,N,08049.7350,W,0.4,237.3,160615,6.2,"
"##MN-00 00 50 0279 03225 5750 701712 024270 203"
"167.119514"
"$GPRMC,025203,A,2421.3898,N,08049.7356,W,0.4,237.4,160615,6.2,"
"##MN-00 00 50 0280 03221 5749 429664 024278 203"
"167.11956"
"$GPRMC,025207,A,2421.3896,N,08049.7360,W,0.4,238.0,160615,6.2,"
"##MN-00 00 49 0281 03219 5748 291496 024268 203"
"167.119606"
"$GPRMC,025211,A,2421.3894,N,08049.7367,W,0.5,239.2,160615,6.2,"
"##MN-00 00 49 0282 03214 5747 431360 024281 203"
"167.119653"
"$GPRMC,025215,A,2421.3893,N,08049.7374,W,0.6,240.8,160615,6.2,"
"##MN-00 00 50 0283 03211 5746 568176 024268 203"
"167.119699"
"$GPRMC,025219,A,2421.3893,N,08049.7379,W,0.6,243.1,160615,6.2,"
"##MN-00 00 51 0284 03206 5745 435536 024281 203"
"167.119757"
"$GPRMC,025223,A,2421.3892,N,08049.7384,W,0.6,247.1,160615,6.2,"
"##MN-00 00 49 0286 03203 5744 436288 024279 203"
"167.119803"
"$GPRMC,025227,A,2421.3889,N,08049.7389,W,0.5,250.3,160615,6.2,"
"##MN-00 00 50 0287 03197 5744 437496 024274 203"
"167.11985"
"$GPRMC,025231,A,2421.3886,N,08049.7393,W,0.6,254.6,160615,6.2,"
"##MN-00 00 49 0288 03193 5742 433328 024280 203"
"167.119896"
"$GPRMC,025235,A,2421.3883,N,08049.7395,W,0.6,258.7,160615,6.2,"
"##MN-00 00 49 0289 03190 5741 436344 024274 203"
"167.119942"
"$GPRMC,025239,A,2421.3883,N,08049.7400,W,0.5,261.7,160615,6.2,"
"##MN-00 00 50 0290 03187 5741 438368 024276 203"
"167.119988"
"$GPRMC,025243,A,2421.3883,N,08049.7406,W,0.5,264.5,160615,6.2,"
"##MN-00 00 50 0291 03182 5740 987600 024279 203"
"167.120035"
"$GPRMC,025247,A,2421.3884,N,08049.7410,W,0.5,266.8,160615,6.2,"
"##MN-00 00 51 0292 03178 5739 444840 024276 203"
"167.120081"
"$GPRMC,025251,A,2421.3884,N,08049.7412,W,0.5,268.7,160615,6.2,"
"##MN-00 00 51 0293 03177 5738 338928 024282 203"
"167.120127"
"$GPRMC,025255,A,2421.3882,N,08049.7421,W,0.5,268.8,160615,6.2,"
"##MN-00 00 51 0294 03173 5737 554328 024282 203"
"167.120174"
"$GPRMC,025259,A,2421.3880,N,08049.7427,W,0.5,267.9,160615,6.2,"
"##MN-00 00 51 0295 03171 5737 493136 024287 203"
"167.12022"
"$GPRMC,025303,A,2421.3879,N,08049.7433,W,0.5,265.3,160615,6.2,"
"##MN-00 00 51 0296 03166 5736 502424 024278 203"
"167.120266"
"$GPRMC,025307,A,2421.3878,N,08049.7438,W,0.5,263.2,160615,6.2,"
"##MN-00 00 51 0297 03164 5735 451408 024287 203"
"167.120313"
"$GPRMC,025311,A,2421.3876,N,08049.7444,W,0.5,260.8,160615,6.2,"
"##MN-00 00 51 0298 03160 5735 452592 024266 203"
"167.120359"
"$GPRMC,025315,A,2421.3875,N,08049.7449,W,0.5,258.9,160615,6.2,"
"##MN-00 00 52 0299 03160 5733 318376 024262 203"
"167.120405"
"$GPRMC,025319,A,2421.3875,N,08049.7453,W,0.5,257.6,160615,6.2,"
"##MN-00 00 52 0300 03155 5733 729904 024256 203"
"167.120451"
"$GPRMC,025323,A,2421.3872,N,08049.7457,W,0.5,257.3,160615,6.2,"
"##MN-00 00 52 0301 03153 5732 599040 024249 203"
"167.120498"
"$GPRMC,025327,A,2421.3873,N,08049.7460,W,0.4,257.6,160615,6.2,"
"##MN-00 00 52 0302 03152 5731 598392 024283 203"
"167.120544"
"$GPRMC,025331,A,2421.3873,N,08049.7467,W,0.4,258.2,160615,6.2,"
"##MN-00 00 52 0303 03148 5731 462624 024291 203"
"167.12059"
"$GPRMC,025335,A,2421.3873,N,08049.7473,W,0.4,259.5,160615,6.2,"
"##MN-00 00 52 0304 03146 5730 462448 024289 203"
"167.120637"
"$GPRMC,025339,A,2421.3872,N,08049.7479,W,0.4,260.6,160615,6.2,"
"##MN-00 00 52 0305 03145 5730 462288 024291 203"
"167.120683"
"$GPRMC,025343,A,2421.3871,N,08049.7482,W,0.4,260.0,160615,6.2,"
"##MN-00 00 52 0306 03142 5729 462136 024292 203"
"167.120729"
"$GPRMC,025347,A,2421.3872,N,08049.7486,W,0.4,258.6,160615,6.2,"
"##MN-00 00 52 0307 03138 5728 461928 024282 203"
"167.120775"
"$GPRMC,025351,A,2421.3874,N,08049.7491,W,0.4,256.5,160615,6.2,"
"##MN-00 00 52 0308 03137 5728 461776 024292 203"
"167.120822"
"$GPRMC,025355,A,2421.3873,N,08049.7498,W,0.4,254.5,160615,6.2,"
"##MN-00 00 52 0309 03136 5727 463424 024294 203"
"167.120868"
"$GPRMC,025359,A,2421.3872,N,08049.7504,W,0.4,252.8,160615,6.2,"
"##MN-00 00 52 0310 03133 5727 471280 024259 203"
"167.120914"
"$GPRMC,025403,A,2421.3871,N,08049.7509,W,0.4,252.2,160615,6.2,"
"##MN-00 00 53 0311 03129 5727 750760 024256 203"
"167.120961"
"$GPRMC,025407,A,2421.3871,N,08049.7514,W,0.4,251.8,160615,6.2,"
"##MN-00 00 52 0312 03129 5726 345400 024253 203"
"167.121007"
"$GPRMC,025412,A,2421.3868,N,08049.7522,W,0.4,253.4,160615,6.2,"
"##MN-00 00 53 0313 03124 5725 486144 024258 203"
"167.121053"
"$GPRMC,025416,A,2421.3867,N,08049.7526,W,0.4,254.3,160615,6.2,"
"##MN-00 00 53 0314 03124 5725 489536 024255 203"
"167.1211"
"$GPRMC,025420,A,2421.3866,N,08049.7533,W,0.5,255.7,160615,6.2,"
"##MN-00 00 53 0315 03121 5724 489440 024265 203"
"167.121146"
"$GPRMC,025424,A,2421.3865,N,08049.7538,W,0.5,256.7,160615,6.2,"
"##MN-00 00 52 0316 03119 5724 492896 024253 203"
"167.121192"
"$GPRMC,025428,A,2421.3864,N,08049.7543,W,0.5,256.8,160615,6.2,"
"##MN-00 00 52 0317 03116 5724 499056 024257 203"
"167.121238"
"$GPRMC,025432,A,2421.3864,N,08049.7550,W,0.5,257.3,160615,6.2,"
"##MN-00 00 52 0318 03116 5724 497616 024251 203"
"167.121285"
"$GPRMC,025436,A,2421.3863,N,08049.7554,W,0.6,257.5,160615,6.2,"
"##MN-00 00 53 0320 03113 5723 499752 024251 203"
"167.121331"
"$GPRMC,025440,A,2421.3862,N,08049.7558,W,0.6,257.0,160615,6.2,"
"##MN-00 00 52 0321 03110 5723 503232 024256 203"
"167.121377"
"$GPRMC,025444,A,2421.3860,N,08049.7565,W,0.5,256.3,160615,6.2,"
"##MN-00 00 52 0322 03109 5723 254456 024251 203"
"167.121424"
"$GPRMC,025448,A,2421.3858,N,08049.7568,W,0.5,256.2,160615,6.2,"
"##MN-00 00 52 0323 03105 5722 511104 024239 203"
"167.12147"
"$GPRMC,025452,A,2421.3855,N,08049.7572,W,0.5,255.7,160615,6.2,"
"##MN-00 00 53 0324 03104 5722 516360 024221 203"
"167.121516"
"$GPRMC,025456,A,2421.3851,N,08049.7576,W,0.5,255.4,160615,6.2,"
"##MN-00 00 53 0325 03103 5722 379864 024239 203"
"167.121563"
"$GPRMC,025500,A,2421.3847,N,08049.7580,W,0.5,254.6,160615,6.2,"
"##MN-00 00 53 0326 03099 5722 517968 024249 203"
"167.121609"
"$GPRMC,025504,A,2421.3846,N,08049.7584,W,0.4,254.0,160615,6.2,"
"##MN-00 00 53 0327 03098 5722 264704 024313 203"
"167.121655"
"$GPRMC,025508,A,2421.3846,N,08049.7588,W,0.4,254.2,160615,6.2,"
"##MN-00 00 54 0328 03099 5721 516896 024319 202"
"167.121701"
"$GPRMC,025512,A,2421.3843,N,08049.7594,W,0.4,254.7,160615,6.2,"
"##MN-00 00 53 0329 03094 5721 516856 024314 203"
"167.121748"
"$GPRMC,025516,A,2421.3844,N,08049.7598,W,0.4,255.5,160615,6.2,"
"##MN-00 00 54 0330 03095 5721 407008 024305 203"
"167.121794"
"$GPRMC,025520,A,2421.3842,N,08049.7603,W,0.4,256.9,160615,6.2,"
"##MN-00 00 53 0331 03093 5721 572080 024268 203"
"167.12184"
"$GPRMC,025524,A,2421.3842,N,08049.7608,W,0.4,258.0,160615,6.2,"
"##MN-00 00 53 0332 03092 5721 516200 024310 203"
"167.121887"
"$GPRMC,025528,A,2421.3840,N,08049.7612,W,0.4,259.1,160615,6.2,"
"##MN-00 00 53 0333 03087 5721 516608 024264 203"
"167.121933"
"$GPRMC,025532,A,2421.3842,N,08049.7617,W,0.4,259.8,160615,6.2,"
"##MN-00 00 53 0334 03086 5721 516960 024311 203"
"167.121979"
"$GPRMC,025536,A,2421.3839,N,08049.7620,W,0.4,259.7,160615,6.2,"
"##MN-00 00 53 0335 03086 5721 520864 024297 203"
"167.122025"
"$GPRMC,025540,A,2421.3839,N,08049.7624,W,0.5,259.3,160615,6.2,"
"##MN+00 00 54 0336 03083 5721 531512 024253 203"
"167.122072"
"$GPRMC,025544,A,2421.3839,N,08049.7630,W,0.5,259.5,160615,6.2,"
"##MN+00 00 54 0337 03083 5720 535448 024247 202"
"167.122118"
"#increment_net"
"$GPRMC,025548,A,2421.3839,N,08049.7634,W,0.5,259.8,160615,6.2,"
"##MN+00 00 57 0338 03080 5721 538560 024254 202"
"167.122164"
"$GPRMC,025552,A,2421.3836,N,08049.7639,W,0.5,259.7,160615,6.2,"
"##MN-00 00 54 0339 03078 5721 542072 024251 202"
"167.122211"
"$GPRMC,025556,A,2421.3835,N,08049.7644,W,0.5,259.7,160615,6.2,"
"##MN-00 00 53 0340 03080 5720 271072 024260 203"
"167.122257"
"$GPRMC,025600,A,2421.3835,N,08049.7647,W,0.5,258.8,160615,6.2,"
"##MN-00 00 53 0341 03076 5721 544624 024252 203"
"167.122303"
"$GPRMC,025604,A,2421.3834,N,08049.7652,W,0.4,257.0,160615,6.2,"
"##MN-00 00 53 0342 03077 5721 548176 024264 203"
"167.12235"
"$GPRMC,025608,A,2421.3832,N,08049.7659,W,0.5,255.7,160615,6.2,"
"##MN-00 00 53 0344 03074 5721 551712 024261 203"
"167.122396"
"$GPRMC,025612,A,2421.3831,N,08049.7660,W,0.5,253.9,160615,6.2,"
"##MN-00 00 53 0345 03074 5721 554744 024270 203"
"167.122442"
"$GPRMC,025616,A,2421.3831,N,08049.7667,W,0.4,252.9,160615,6.2,"
"##MN-00 00 53 0346 03072 5721 047968 024265 203"
"167.122488"
"$GPRMC,025620,A,2421.3830,N,08049.7673,W,0.5,252.2,160615,6.2,"
"##MN-00 00 53 0347 03071 5721 556456 024248 203"
"167.122535"
"$GPRMC,025624,A,2421.3828,N,08049.7681,W,0.5,252.8,160615,6.2,"
"##MN-00 00 54 0348 03069 5721 559504 024250 203"
"167.122581"
"$GPRMC,025628,A,2421.3825,N,08049.7688,W,0.5,252.5,160615,6.2,"
"##MN-00 00 53 0349 03067 5721 561696 024254 203"
"167.122627"
"$GPRMC,025632,A,2421.3824,N,08049.7691,W,0.5,251.7,160615,6.2,"
"##MN-00 00 53 0350 03065 5722 487944 024245 203"
"167.122674"
"$GPRMC,025636,A,2421.3821,N,08049.7697,W,0.5,250.3,160615,6.2,"
"##MN-00 00 54 0351 03063 5722 727104 024249 203"
"167.12272"
"$GPRMC,025640,A,2421.3819,N,08049.7702,W,0.5,249.1,160615,6.2,"
"##MN-00 00 53 0352 03063 5722 434952 024228 203"
"167.122766"
"$GPRMC,025644,A,2421.3817,N,08049.7713,W,0.5,247.7,160615,6.2,"
"##MN-00 00 54 0353 03062 5722 068080 024247 203"
"167.122812"
"$GPRMC,025648,A,2421.3814,N,08049.7717,W,0.5,246.4,160615,6.2,"
"##MN-00 00 53 0354 03057 5723 436208 024269 203"
"167.122859"
"$GPRMC,025652,A,2421.3812,N,08049.7720,W,0.4,245.6,160615,6.2,"
"##MN-00 00 53 0355 03059 5723 572496 024291 203"
"167.122917"
"$GPRMC,025656,A,2421.3810,N,08049.7727,W,0.4,245.4,160615,6.2,"
"##MN-00 00 53 0356 03059 5723 570656 024281 203"
"167.122963"
"$GPRMC,025700,A,2421.3810,N,08049.7731,W,0.4,245.4,160615,6.2,"
"##MN-00 00 54 0357 03056 5723 572408 024277 203"
"167.123009"
"$GPRMC,025704,A,2421.3808,N,08049.7735,W,0.5,247.8,160615,6.2,"
"##MN-00 00 54 0358 03054 5724 572320 024290 203"
"167.123056"
"$GPRMC,025708,A,2421.3806,N,08049.7739,W,0.5,249.8,160615,6.2,"
"##MN-00 00 53 0359 03055 5724 572280 024320 203"
"167.123102"
"$GPRMC,025712,A,2421.3806,N,08049.7743,W,0.5,252.1,160615,6.2,"
"##MN-00 00 53 0361 03053 5724 572304 024276 203"
"167.123148"
"$GPRMC,025716,A,2421.3805,N,08049.7750,W,0.5,253.2,160615,6.2,"
"##MN-00 00 54 0362 03050 5724 572224 024289 203"
"167.123194"
"$GPRMC,025720,A,2421.3803,N,08049.7751,W,0.5,253.3,160615,6.2,"
"##MN-00 00 53 0363 03051 5725 572616 024281 203"
"167.123241"
"$GPRMC,025724,A,2421.3801,N,08049.7758,W,0.5,253.4,160615,6.2,"
"##MN-00 00 53 0364 03048 5725 576576 024273 203"
"167.123287"
"$GPRMC,025728,A,2421.3799,N,08049.7765,W,0.5,251.4,160615,6.2,"
"##MN-00 00 53 0365 03046 5725 584112 024278 203"
"167.123333"
"$GPRMC,025732,A,2421.3799,N,08049.7769,W,0.5,250.9,160615,6.2,"
"##MN-00 00 54 0366 03044 5726 588064 024261 203"
"167.12338"
"$GPRMC,025736,A,2421.3796,N,08049.7775,W,0.5,249.8,160615,6.2,"
"##MN-00 00 53 0367 03043 5726 591152 024265 203"
"167.123426"
"$GPRMC,025740,A,2421.3794,N,08049.7783,W,0.4,249.3,160615,6.2,"
"##MN-00 00 53 0368 03041 5726 339288 024257 203"
"167.123472"
"$GPRMC,025744,A,2421.3794,N,08049.7789,W,0.4,248.9,160615,6.2,"
"##MN-00 00 53 0369 03043 5727 596848 024274 203"
"167.123519"
"$GPRMC,025748,A,2421.3792,N,08049.7794,W,0.5,249.1,160615,6.2,"
"##MN-00 00 54 0370 03039 5727 597264 024266 203"
"167.123565"
"$GPRMC,025752,A,2421.3790,N,08049.7800,W,0.5,249.9,160615,6.2,"
"##MN-00 00 53 0371 03039 5728 599424 024255 203"
"167.123611"
"$GPRMC,025756,A,2421.3788,N,08049.7804,W,0.4,250.3,160615,6.2,"
"##MN-00 00 54 0372 03039 5728 600744 024252 203"
"167.123657"
"$GPRMC,025800,A,2421.3788,N,08049.7809,W,0.4,251.2,160615,6.2,"
"##MN-00 00 53 0373 03036 5728 326672 024249 203"
"167.123704"
"$GPRMC,025804,A,2421.3788,N,08049.7815,W,0.5,253.7,160615,6.2,"
"##MN-00 00 53 0374 03034 5728 601144 024258 203"
"167.12375"
