" Tow: 2-ns-d-i   RVWS/WS15161"
" Date: 11/06/2015"
" Temperature Probe #  4762    Conductivity Probe #  710"
" Pressure Probe #  159"
" Flow Meter Calibration  4.71 (m/count)  "
"163.012083"
"$GPRMC,001720,A,2430.3029,N,08113.4928,W,2.0,262.1,120615,6.0,"
"##MN-00 00 48 0012 01538 6173 000053 743737 197"
"163.01213"
"$GPRMC,001725,A,2430.3026,N,08113.4957,W,2.0,262.7,120615,6.0,"
"##MN-00 00 46 0013 01540 6173 447447 205123 197"
"163.012176"
"$GPRMC,001729,A,2430.3025,N,08113.4979,W,2.0,262.7,120615,6.0,"
"##MN-00 00 44 0014 01540 6173 447452 205100 197"
"163.012674"
"$GPRMC,001811,A,2430.3002,N,08113.5224,W,1.9,265.1,120615,6.0,"
"##MN-00 00 43 0021 01533 6167 447488 205079 197"
"163.01272"
"$GPRMC,001816,A,2430.2999,N,08113.5251,W,1.9,264.7,120615,6.0,"
"##MN-00 00 38 0022 01532 6167 447471 205048 197"
"163.012766"
"$GPRMC,001820,A,2430.2997,N,08113.5275,W,1.9,264.6,120615,6.0,"
"##MN-00 00 44 0023 01535 6166 447506 205056 197"
"163.013206"
"$GPRMC,001857,A,2430.2978,N,08113.5484,W,1.9,264.7,120615,6.0,"
"##MN-00 00 38 0029 01542 6161 447475 205072 197"
"163.013252"
"$GPRMC,001902,A,2430.2975,N,08113.5516,W,1.9,264.6,120615,6.0,"
"##MN-00 00 46 0030 01538 6160 447483 205079 197"
"163.013299"
"$GPRMC,001905,A,2430.2971,N,08113.5533,W,1.9,264.1,120615,6.0,"
"##MN-00 00 49 0030 01533 6160 447493 205032 197"
"163.013345"
"$GPRMC,001910,A,2430.2969,N,08113.5565,W,2.0,263.5,120615,6.0,"
"##MN-00 00 52 0031 01536 6159 447476 205037 197"
"163.013391"
"$GPRMC,001914,A,2430.2965,N,08113.5596,W,2.0,262.9,120615,6.0,"
"##MN-00 00 51 0032 01541 6159 447460 205034 197"
"163.013437"
"$GPRMC,001918,A,2430.2962,N,08113.5612,W,1.9,261.7,120615,6.0,"
"##MN-00 00 45 0033 01537 6158 447442 205034 197"
"163.013484"
"$GPRMC,001922,A,2430.2959,N,08113.5641,W,1.9,262.1,120615,6.0,"
"##MN-00 00 47 0033 01533 6157 447432 205027 197"
"163.01353"
"$GPRMC,001926,A,2430.2957,N,08113.5665,W,1.9,262.5,120615,6.0,"
"##MN-00 00 51 0034 01533 6157 447416 205023 197"
"163.013576"
"$GPRMC,001930,A,2430.2954,N,08113.5690,W,2.0,263.9,120615,6.0,"
"##MN-00 00 45 0035 01537 6156 447421 205024 197"
"163.013623"
"$GPRMC,001934,A,2430.2951,N,08113.5713,W,2.0,262.8,120615,6.0,"
"##MN-00 00 50 0036 01537 6155 447425 205023 197"
"163.013669"
"$GPRMC,001938,A,2430.2948,N,08113.5737,W,1.9,261.7,120615,6.0,"
"##MN-00 00 49 0036 01543 6155 447421 205019 197"
"163.013715"
"$GPRMC,001942,A,2430.2946,N,08113.5760,W,1.9,262.0,120615,6.0,"
"##MN-00 00 50 0037 01550 6154 447420 205017 197"
"163.013762"
"$GPRMC,001946,A,2430.2943,N,08113.5784,W,1.9,262.6,120615,6.0,"
"##MN-00 00 50 0038 01556 6154 447428 205017 197"
"163.013808"
"$GPRMC,001950,A,2430.2941,N,08113.5809,W,1.9,262.5,120615,6.0,"
"##MN-00 00 44 0038 01558 6153 447446 205017 197"
"163.013854"
"$GPRMC,001954,A,2430.2939,N,08113.5831,W,2.0,262.8,120615,6.0,"
"##MN-00 00 45 0039 01559 6153 447461 205017 197"
"163.0139"
"$GPRMC,001958,A,2430.2936,N,08113.5854,W,2.0,262.9,120615,6.0,"
"##MN-00 00 47 0040 01562 6152 447459 205015 197"
"163.013947"
"$GPRMC,002002,A,2430.2933,N,08113.5878,W,2.0,263.3,120615,6.0,"
"##MN-00 00 50 0041 01570 6151 447440 205009 197"
"163.013993"
"$GPRMC,002006,A,2430.2932,N,08113.5900,W,1.9,263.5,120615,6.0,"
"##MN-00 00 46 0041 01575 6151 447427 205006 197"
"163.014039"
"$GPRMC,002010,A,2430.2929,N,08113.5925,W,1.9,264.0,120615,6.0,"
"##MN-00 00 42 0042 01573 6151 447432 205005 197"
"163.014086"
"$GPRMC,002014,A,2430.2928,N,08113.5948,W,2.0,264.4,120615,6.0,"
"##MN-00 00 46 0043 01575 6150 447470 205013 197"
"163.014132"
"$GPRMC,002018,A,2430.2928,N,08113.5972,W,2.0,265.2,120615,6.0,"
"##MN-00 00 49 0043 01584 6150 447468 205009 197"
"163.014178"
"$GPRMC,002022,A,2430.2927,N,08113.5997,W,2.0,265.2,120615,6.0,"
"##MN-00 00 48 0044 01591 6149 447424 205000 197"
"163.014225"
"$GPRMC,002026,A,2430.2925,N,08113.6022,W,2.0,265.9,120615,6.0,"
"##MN-00 00 43 0045 01590 6148 447404 204994 197"
"163.014271"
"$GPRMC,002030,A,2430.2923,N,08113.6045,W,2.0,266.2,120615,6.0,"
"##MN-00 00 48 0046 01592 6148 447433 204999 197"
"163.014317"
"$GPRMC,002034,A,2430.2922,N,08113.6070,W,1.9,266.0,120615,6.0,"
"##MN-00 00 47 0046 01600 6147 447436 204998 197"
"163.014363"
"$GPRMC,002038,A,2430.2921,N,08113.6092,W,2.0,265.6,120615,6.0,"
"##MN-00 00 50 0047 01602 6147 447479 205008 197"
"163.01441"
"$GPRMC,002042,A,2430.2920,N,08113.6116,W,1.9,264.7,120615,6.0,"
"##MN-00 00 47 0048 01608 6146 447519 205012 197"
"163.014456"
"$GPRMC,002046,A,2430.2916,N,08113.6138,W,1.9,263.4,120615,6.0,"
"##MN-00 00 47 0049 01609 6146 447496 205006 197"
"163.014502"
"$GPRMC,002050,A,2430.2912,N,08113.6161,W,1.9,262.4,120615,6.0,"
"##MN-00 00 49 0049 01616 6145 447475 204998 197"
"163.014549"
"$GPRMC,002054,A,2430.2906,N,08113.6185,W,1.9,262.3,120615,6.0,"
"##MN-00 00 49 0050 01622 6144 447463 205000 197"
"163.014595"
"$GPRMC,002058,A,2430.2900,N,08113.6208,W,1.9,262.0,120615,6.0,"
"##MN-00 00 48 0051 01628 6144 447502 205011 197"
"163.014641"
"$GPRMC,002102,A,2430.2896,N,08113.6232,W,1.9,261.6,120615,6.0,"
"##MN-00 00 46 0052 01629 6144 447544 205015 197"
"163.014687"
"$GPRMC,002106,A,2430.2892,N,08113.6257,W,2.0,261.7,120615,6.0,"
"##MN-00 00 47 0052 01628 6143 447500 205004 197"
"163.014734"
"$GPRMC,002110,A,2430.2888,N,08113.6282,W,2.0,262.2,120615,6.0,"
"##MN-00 00 48 0053 01631 6142 447451 204993 197"
"163.01478"
"$GPRMC,002114,A,2430.2885,N,08113.6306,W,1.9,262.1,120615,6.0,"
"##MN-00 00 50 0054 01641 6142 447403 204983 197"
"163.014826"
"$GPRMC,002118,A,2430.2880,N,08113.6331,W,2.0,262.1,120615,6.0,"
"##MN-00 00 45 0055 01641 6141 447429 204984 197"
"163.014873"
"$GPRMC,002122,A,2430.2878,N,08113.6356,W,2.0,262.8,120615,6.0,"
"##MN-00 00 47 0055 01644 6141 447486 204997 197"
"163.014919"
"$GPRMC,002126,A,2430.2877,N,08113.6383,W,2.1,263.1,120615,6.0,"
"##MN-00 00 48 0056 01651 6141 447496 205003 197"
"163.014965"
"$GPRMC,002130,A,2430.2876,N,08113.6407,W,2.0,263.4,120615,6.0,"
"##MN-00 00 47 0057 01653 6139 447526 205006 197"
"163.015012"
"$GPRMC,002134,A,2430.2874,N,08113.6431,W,2.0,263.3,120615,6.0,"
"##MN-00 00 47 0058 01656 6139 447533 205010 197"
"163.015058"
"$GPRMC,002138,A,2430.2872,N,08113.6456,W,2.1,263.3,120615,6.0,"
"##MN-00 00 48 0059 01659 6138 447511 205002 197"
"163.015104"
"$GPRMC,002142,A,2430.2869,N,08113.6481,W,2.1,263.7,120615,6.0,"
"##MN-00 00 48 0059 01661 6138 447480 204997 197"
"163.01515"
"$GPRMC,002146,A,2430.2867,N,08113.6506,W,2.0,263.9,120615,6.0,"
"##MN-00 00 48 0060 01665 6137 447486 204996 197"
"163.015197"
"$GPRMC,002150,A,2430.2865,N,08113.6532,W,2.1,264.2,120615,6.0,"
"##MN-00 00 48 0061 01671 6137 447469 204991 197"
"163.015243"
"$GPRMC,002154,A,2430.2863,N,08113.6554,W,2.1,264.2,120615,6.0,"
"##MN-00 00 48 0062 01674 6136 447447 204986 197"
"163.015289"
"$GPRMC,002158,A,2430.2860,N,08113.6582,W,2.1,264.6,120615,6.0,"
"##MN-00 00 48 0063 01679 6136 447442 204988 197"
"163.015336"
"$GPRMC,002202,A,2430.2859,N,08113.6605,W,2.1,264.5,120615,6.0,"
"##MN-00 00 47 0063 01680 6135 447478 204998 197"
"163.015382"
"$GPRMC,002206,A,2430.2857,N,08113.6630,W,2.1,264.8,120615,6.0,"
"##MN-00 00 49 0064 01686 6135 447579 205015 197"
"163.015428"
"$GPRMC,002210,A,2430.2856,N,08113.6656,W,2.1,264.3,120615,6.0,"
"##MN-00 00 48 0065 01691 6134 447664 205032 197"
"163.015475"
"$GPRMC,002214,A,2430.2852,N,08113.6683,W,2.1,263.4,120615,6.0,"
"##MN-00 00 47 0066 01691 6134 447677 205037 197"
"163.015521"
"$GPRMC,002218,A,2430.2845,N,08113.6709,W,2.1,262.9,120615,6.0,"
"##MN-00 00 47 0067 01696 6133 447641 205022 197"
"163.015567"
"$GPRMC,002222,A,2430.2841,N,08113.6734,W,2.1,262.7,120615,6.0,"
"##MN-00 00 48 0067 01701 6133 447706 205041 197"
"163.015613"
"$GPRMC,002226,A,2430.2842,N,08113.6757,W,2.1,262.4,120615,6.0,"
"##MN-00 00 47 0068 01701 6132 447768 205052 197"
"163.01566"
"$GPRMC,002230,A,2430.2834,N,08113.6783,W,2.1,261.9,120615,6.0,"
"##MN-00 00 49 0069 01706 6132 447781 205055 197"
"163.015706"
"$GPRMC,002234,A,2430.2831,N,08113.6808,W,2.1,261.0,120615,6.0,"
"##MN-00 00 48 0070 01712 6131 447766 205050 197"
"163.015752"
"$GPRMC,002238,A,2430.2829,N,08113.6836,W,2.1,260.5,120615,6.0,"
"##MN-00 00 49 0071 01714 6130 447744 205044 197"
"163.01581"
"$GPRMC,002242,A,2430.2824,N,08113.6865,W,2.1,259.9,120615,6.0,"
"##MN-00 00 48 0072 01720 6130 447730 205041 197"
"163.015856"
"$GPRMC,002246,A,2430.2820,N,08113.6894,W,2.1,260.5,120615,6.0,"
"##MN-00 00 48 0073 01725 6129 447752 205044 197"
"163.015903"
"$GPRMC,002250,A,2430.2814,N,08113.6922,W,2.2,261.5,120615,6.0,"
"##MN-00 00 47 0073 01729 6129 447847 205073 197"
"163.015949"
"$GPRMC,002254,A,2430.2811,N,08113.6947,W,2.2,261.9,120615,6.0,"
"##MN-00 00 49 0074 01733 6128 448044 205109 197"
"163.015995"
"$GPRMC,002258,A,2430.2809,N,08113.6973,W,2.2,261.7,120615,6.0,"
"##MN-00 00 48 0075 01736 6128 448160 205125 197"
"163.016042"
"$GPRMC,002302,A,2430.2806,N,08113.6998,W,2.1,261.9,120615,6.0,"
"##MN-00 00 48 0076 01739 6127 448287 205164 197"
"163.016088"
"$GPRMC,002306,A,2430.2805,N,08113.7023,W,2.1,262.6,120615,6.0,"
"##MN-00 00 49 0076 01739 6127 448340 205169 197"
"163.016134"
"$GPRMC,002310,A,2430.2803,N,08113.7048,W,2.1,264.1,120615,6.0,"
"##MN-00 00 49 0077 01744 6126 448341 205170 197"
"163.016181"
"$GPRMC,002314,A,2430.2800,N,08113.7074,W,2.1,264.9,120615,6.0,"
"##MN-00 00 49 0078 01752 6126 448337 205169 197"
"163.016227"
"$GPRMC,002318,A,2430.2796,N,08113.7106,W,2.1,265.0,120615,6.0,"
"##MN-00 00 47 0079 01754 6125 448347 205169 197"
"163.016273"
"$GPRMC,002322,A,2430.2794,N,08113.7135,W,2.1,265.4,120615,6.0,"
"##MN-00 00 49 0080 01753 6125 448381 205180 197"
"163.016319"
"$GPRMC,002326,A,2430.2791,N,08113.7161,W,2.1,266.1,120615,6.0,"
"##MN-00 00 49 0080 01762 6124 448418 205188 197"
"163.016366"
"$GPRMC,002330,A,2430.2791,N,08113.7182,W,2.1,266.1,120615,6.0,"
"##MN-00 00 46 0081 01764 6124 448449 205192 197"
"163.016412"
"$GPRMC,002335,A,2430.2790,N,08113.7212,W,2.1,266.1,120615,6.0,"
"##MN-00 00 48 0082 01763 6123 448470 205202 197"
"163.016458"
"$GPRMC,002339,A,2430.2788,N,08113.7238,W,2.1,266.1,120615,6.0,"
"##MN-00 00 49 0083 01768 6123 448516 205210 197"
"163.016505"
"$GPRMC,002343,A,2430.2788,N,08113.7262,W,2.1,265.5,120615,6.0,"
"##MN-00 00 48 0084 01770 6122 448520 205211 197"
"163.016551"
"$GPRMC,002346,A,2430.2787,N,08113.7280,W,2.1,264.7,120615,6.0,"
"##MN-00 00 48 0085 01775 6121 448524 205210 197"
"163.016597"
"$GPRMC,002350,A,2430.2784,N,08113.7302,W,2.1,264.0,120615,6.0,"
"##MN-00 00 51 0085 01780 6121 448535 205210 197"
"163.016644"
"$GPRMC,002354,A,2430.2782,N,08113.7326,W,2.1,264.1,120615,6.0,"
"##MN-00 00 49 0086 01783 6120 448578 205219 197"
"163.01669"
"$GPRMC,002359,A,2430.2780,N,08113.7353,W,2.0,262.8,120615,6.0,"
"##MN-00 00 48 0087 01787 6120 448618 205227 197"
"163.016736"
"$GPRMC,002402,A,2430.2777,N,08113.7371,W,2.1,263.1,120615,6.0,"
"##MN-00 00 49 0088 01791 6119 448639 205231 197"
"163.016782"
"$GPRMC,002407,A,2430.2773,N,08113.7399,W,2.0,262.5,120615,6.0,"
"##MN-00 00 49 0089 01795 6119 448645 205232 197"
"163.016829"
"$GPRMC,002411,A,2430.2770,N,08113.7422,W,2.0,262.0,120615,6.0,"
"##MN-00 00 50 0090 01801 6118 448661 205233 197"
"163.016875"
"$GPRMC,002415,A,2430.2769,N,08113.7446,W,2.1,261.5,120615,6.0,"
"##MN-00 00 49 0091 01804 6118 448705 205239 197"
"163.016921"
"$GPRMC,002419,A,2430.2766,N,08113.7471,W,2.1,260.8,120615,6.0,"
"##MN-00 00 48 0091 01805 6117 448745 205253 197"
"163.016968"
"$GPRMC,002423,A,2430.2762,N,08113.7497,W,2.1,261.6,120615,6.0,"
"##MN-00 00 49 0092 01809 6117 448768 205260 197"
"163.017014"
"$GPRMC,002427,A,2430.2758,N,08113.7522,W,2.1,261.6,120615,6.0,"
"##MN-00 00 46 0093 01813 6116 448883 205289 197"
"163.01706"
"$GPRMC,002431,A,2430.2753,N,08113.7547,W,2.1,261.2,120615,6.0,"
"##MN-00 00 46 0094 01813 6116 449004 205318 197"
"163.017106"
"$GPRMC,002435,A,2430.2749,N,08113.7572,W,2.1,260.7,120615,6.0,"
"##MN-00 00 50 0095 01812 6115 449122 205341 197"
"163.017153"
"$GPRMC,002439,A,2430.2744,N,08113.7601,W,2.1,260.0,120615,6.0,"
"##MN-00 00 49 0096 01819 6115 449439 205407 197"
"163.017199"
"$GPRMC,002443,A,2430.2739,N,08113.7630,W,2.1,259.3,120615,6.0,"
"##MN-00 00 46 0096 01821 6114 449569 205433 197"
"163.017245"
"$GPRMC,002447,A,2430.2737,N,08113.7650,W,2.1,259.3,120615,6.0,"
"##MN-00 00 46 0097 01819 6114 449584 205433 197"
"163.017292"
"$GPRMC,002451,A,2430.2730,N,08113.7677,W,2.0,259.1,120615,6.0,"
"##MN-00 00 50 0098 01825 6113 449576 205426 197"
"163.017338"
"$GPRMC,002455,A,2430.2732,N,08113.7702,W,2.0,258.0,120615,6.0,"
"##MN-00 00 49 0099 01832 6112 449608 205436 197"
"163.017384"
"$GPRMC,002459,A,2430.2726,N,08113.7728,W,2.0,256.1,120615,6.0,"
"##MN-00 00 48 0100 01833 6112 449669 205452 197"
"163.017431"
"$GPRMC,002503,A,2430.2719,N,08113.7753,W,2.0,255.3,120615,6.0,"
"##MN-00 00 50 0101 01835 6112 449733 205467 197"
"163.017477"
"$GPRMC,002507,A,2430.2715,N,08113.7776,W,1.9,255.3,120615,6.0,"
"##MN-00 00 50 0101 01841 6111 449743 205466 197"
"163.017523"
"$GPRMC,002511,A,2430.2710,N,08113.7800,W,1.9,254.3,120615,6.0,"
"##MN-00 00 51 0102 01848 6110 449760 205468 197"
"163.017569"
"$GPRMC,002515,A,2430.2702,N,08113.7822,W,1.9,253.3,120615,6.0,"
"##MN-00 00 49 0103 01851 6110 449895 205502 197"
"163.017616"
"$GPRMC,002519,A,2430.2697,N,08113.7845,W,1.9,253.1,120615,6.0,"
"##MN-00 00 50 0104 01853 6109 449979 205517 197"
"163.017662"
"$GPRMC,002523,A,2430.2686,N,08113.7872,W,1.9,253.6,120615,6.0,"
"##MN-00 00 50 0104 01856 6109 449975 205515 197"
"163.017708"
"$GPRMC,002527,A,2430.2680,N,08113.7894,W,1.9,254.2,120615,6.0,"
"##MN-00 00 49 0105 01860 6108 450023 205527 197"
"163.017755"
"$GPRMC,002531,A,2430.2673,N,08113.7917,W,2.0,254.9,120615,6.0,"
"##MN-00 00 50 0106 01861 6108 450102 205544 197"
"163.017801"
"$GPRMC,002535,A,2430.2665,N,08113.7938,W,1.9,255.0,120615,6.0,"
"##MN-00 00 49 0107 01865 6107 450163 205555 197"
"163.017847"
"$GPRMC,002539,A,2430.2659,N,08113.7960,W,1.9,254.4,120615,6.0,"
"##MN-00 00 47 0108 01865 6106 450185 205560 197"
"163.017894"
"$GPRMC,002543,A,2430.2654,N,08113.7982,W,2.0,254.0,120615,6.0,"
"##MN-00 00 50 0109 01865 6105 450201 205567 197"
"163.01794"
"$GPRMC,002547,A,2430.2649,N,08113.8006,W,2.0,255.3,120615,6.0,"
"##MN-00 00 49 0110 01872 6105 450244 205571 197"
"163.017986"
"$GPRMC,002551,A,2430.2643,N,08113.8028,W,2.1,256.0,120615,6.0,"
"##MN-00 00 49 0110 01875 6104 450262 205573 197"
"163.018032"
"$GPRMC,002555,A,2430.2639,N,08113.8051,W,2.1,256.2,120615,6.0,"
"##MN-00 00 50 0111 01875 6104 450300 205582 197"
"163.018079"
"$GPRMC,002559,A,2430.2633,N,08113.8075,W,2.0,256.9,120615,6.0,"
"##MN-00 00 50 0112 01880 6103 450350 205593 197"
"163.018125"
"$GPRMC,002603,A,2430.2630,N,08113.8097,W,1.9,257.6,120615,6.0,"
"##MN-00 00 50 0113 01883 6103 450362 205603 197"
"163.018171"
"$GPRMC,002607,A,2430.2627,N,08113.8121,W,1.9,258.3,120615,6.0,"
"##MN-00 00 47 0114 01883 6103 450430 205613 197"
"163.018218"
"$GPRMC,002611,A,2430.2622,N,08113.8144,W,2.0,258.8,120615,6.0,"
"##MN-00 00 49 0115 01885 6102 450405 205608 197"
"163.018264"
"$GPRMC,002615,A,2430.2622,N,08113.8168,W,1.9,258.2,120615,6.0,"
"##MN-00 00 49 0116 01892 6101 450475 205614 197"
"163.01831"
"$GPRMC,002619,A,2430.2617,N,08113.8190,W,1.9,257.1,120615,6.0,"
"##MN-00 00 49 0116 01896 6101 450587 205646 197"
"163.018356"
"$GPRMC,002623,A,2430.2609,N,08113.8212,W,1.9,256.6,120615,6.0,"
"##MN-00 00 48 0117 01897 6100 450644 205656 197"
"163.018403"
"$GPRMC,002627,A,2430.2600,N,08113.8237,W,1.9,256.2,120615,6.0,"
"##MN-00 00 50 0118 01903 6099 450746 205687 197"
"163.018449"
"$GPRMC,002631,A,2430.2593,N,08113.8259,W,1.9,255.7,120615,6.0,"
"##MN-00 00 50 0119 01907 6099 450862 205709 196"
"163.018495"
"$GPRMC,002635,A,2430.2589,N,08113.8280,W,1.8,254.9,120615,6.0,"
"##MN-00 00 50 0120 01913 6099 451133 205804 197"
"163.018542"
"$GPRMC,002639,A,2430.2580,N,08113.8302,W,1.8,254.6,120615,6.0,"
"##MN-00 00 49 0121 01917 6098 451712 205936 197"
"163.018588"
"$GPRMC,002643,A,2430.2578,N,08113.8322,W,1.8,253.9,120615,6.0,"
"##MN-00 00 49 0122 01919 6097 452338 206135 197"
"163.018634"
"$GPRMC,002647,A,2430.2576,N,08113.8343,W,1.8,253.6,120615,6.0,"
"##MN-00 00 50 0122 01928 6097 453031 206198 197"
"163.018681"
"$GPRMC,002651,A,2430.2569,N,08113.8363,W,1.8,253.1,120615,6.0,"
"##MN-00 00 50 0123 01935 6096 454739 206600 197"
"163.018727"
"$GPRMC,002655,A,2430.2563,N,08113.8385,W,1.8,252.4,120615,6.0,"
"##MN-00 00 46 0124 01939 6095 456602 207002 197"
"163.018773"
"$GPRMC,002659,A,2430.2558,N,08113.8410,W,1.9,253.7,120615,6.0,"
"##MN-00 00 48 0125 01944 6095 458816 207364 196"
"163.018819"
"$GPRMC,002703,A,2430.2552,N,08113.8433,W,1.9,255.6,120615,6.0,"
"##MN-00 00 50 0126 01951 6094 459792 207642 197"
"163.018866"
"$GPRMC,002707,A,2430.2547,N,08113.8457,W,1.9,256.2,120615,6.0,"
"##MN-00 00 49 0127 01954 6093 460573 207731 197"
"163.018912"
"$GPRMC,002711,A,2430.2542,N,08113.8482,W,2.0,256.3,120615,6.0,"
"##MN-00 00 50 0127 01961 6093 461321 207968 196"
"163.018958"
"$GPRMC,002715,A,2430.2533,N,08113.8504,W,1.9,255.9,120615,6.0,"
"##MN-00 00 51 0128 01969 6092 462037 208107 196"
"163.019005"
"$GPRMC,002719,A,2430.2529,N,08113.8530,W,1.9,255.9,120615,6.0,"
"##MN-00 00 49 0129 01976 6091 462307 208120 196"
"163.019063"
"$GPRMC,002723,A,2430.2524,N,08113.8555,W,1.9,256.1,120615,6.0,"
"##MN-00 00 50 0130 01982 6091 462947 208149 197"
"163.019109"
"$GPRMC,002727,A,2430.2527,N,08113.8571,W,1.9,256.5,120615,6.0,"
"##MN-00 00 50 0130 01989 6090 463840 208459 196"
"163.019155"
"$GPRMC,002731,A,2430.2523,N,08113.8592,W,2.0,256.7,120615,6.0,"
"##MN-00 00 49 0130 01995 6090 465150 208717 196"
"163.019201"
"$GPRMC,002735,A,2430.2515,N,08113.8625,W,1.9,257.3,120615,6.0,"
"##MN-00 00 49 0130 02003 6089 465934 208870 196"
"163.019248"
"$GPRMC,002739,A,2430.2509,N,08113.8649,W,2.0,257.7,120615,6.0,"
"##MN-00 00 48 0131 02010 6088 466314 208973 197"
"163.019294"
"$GPRMC,002743,A,2430.2502,N,08113.8671,W,2.1,257.3,120615,6.0,"
"##MN-00 00 46 0131 02012 6087 466959 209146 196"
"163.01934"
"$GPRMC,002747,A,2430.2492,N,08113.8701,W,2.1,257.1,120615,6.0,"
"##MN-00 00 49 0132 02020 6086 468017 209372 197"
"163.019387"
"$GPRMC,002751,A,2430.2484,N,08113.8725,W,2.0,256.6,120615,6.0,"
"##MN-00 00 49 0133 02027 6086 469214 209613 196"
"163.019433"
"$GPRMC,002755,A,2430.2480,N,08113.8748,W,2.1,255.7,120615,6.0,"
"##MN-00 00 44 0134 02029 6084 470159 209748 196"
"163.019479"
"$GPRMC,002759,A,2430.2473,N,08113.8772,W,2.2,254.4,120615,6.0,"
"##MN-00 00 44 0134 02034 6084 471662 210033 196"
"163.019525"
"$GPRMC,002803,A,2430.2466,N,08113.8797,W,2.2,253.2,120615,6.0,"
"##MN-00 00 48 0134 02042 6083 472985 210356 196"
"163.019572"
"$GPRMC,002807,A,2430.2455,N,08113.8822,W,2.2,251.9,120615,6.0,"
"##MN-00 00 49 0134 02051 6081 473903 210634 196"
"163.019618"
"$GPRMC,002811,A,2430.2449,N,08113.8845,W,2.1,251.0,120615,6.0,"
"##MN-00 00 50 0134 02061 6081 474732 210755 196"
"163.019664"
"$GPRMC,002816,A,2430.2445,N,08113.8871,W,2.1,251.5,120615,6.0,"
"##MN-00 00 49 0134 02068 6079 475375 210802 196"
"163.019711"
"$GPRMC,002819,A,2430.2440,N,08113.8889,W,2.1,252.8,120615,6.0,"
"##MN-00 00 49 0134 02076 6078 475961 211014 196"
"163.019757"
"$GPRMC,002824,A,2430.2430,N,08113.8920,W,2.1,252.7,120615,6.0,"
"##MN-00 00 49 0134 02085 6077 477799 211542 196"
"163.019803"
"$GPRMC,002828,A,2430.2426,N,08113.8941,W,2.0,253.2,120615,6.0,"
"##MN-00 00 49 0134 02091 6076 481616 212120 196"
"163.01985"
"$GPRMC,002832,A,2430.2422,N,08113.8965,W,2.0,253.5,120615,6.0,"
"##MN-00 00 48 0134 02101 6075 483358 212483 196"
"163.019896"
"$GPRMC,002836,A,2430.2415,N,08113.8989,W,2.1,254.0,120615,6.0,"
"##MN-00 00 48 0134 02106 6074 484526 212654 196"
"163.019942"
"$GPRMC,002840,A,2430.2408,N,08113.9015,W,2.1,255.0,120615,6.0,"
"##MN-00 00 46 0134 02109 6072 485246 212848 196"
"163.019988"
"$GPRMC,002844,A,2430.2403,N,08113.9040,W,2.1,255.8,120615,6.0,"
"##MN-00 00 48 0134 02115 6071 487055 213330 196"
"163.020035"
"$GPRMC,002848,A,2430.2397,N,08113.9068,W,2.1,256.9,120615,6.0,"
"##MN-00 00 47 0134 02122 6070 489425 213693 196"
"163.020081"
"$GPRMC,002852,A,2430.2392,N,08113.9093,W,2.2,256.9,120615,6.0,"
"##MN-00 00 48 0134 02130 6068 491677 214110 196"
"163.020127"
"$GPRMC,002856,A,2430.2390,N,08113.9115,W,2.1,256.1,120615,6.0,"
"##MN-00 00 49 0134 02136 6067 493583 214459 196"
"163.020174"
"$GPRMC,002900,A,2430.2383,N,08113.9141,W,2.1,255.8,120615,6.0,"
"##MN-00 00 46 0134 02137 6065 494409 214541 196"
"163.02022"
"$GPRMC,002904,A,2430.2372,N,08113.9169,W,2.1,255.7,120615,6.0,"
"##MN-00 00 46 0134 02144 6063 495267 214784 196"
"163.020266"
"$GPRMC,002908,A,2430.2363,N,08113.9192,W,2.1,256.0,120615,6.0,"
"##MN-00 00 47 0134 02150 6062 496409 214949 196"
"163.020313"
"$GPRMC,002912,A,2430.2358,N,08113.9216,W,2.1,255.2,120615,6.0,"
"##MN-00 00 45 0134 02154 6060 497171 215087 196"
"163.020359"
"$GPRMC,002916,A,2430.2354,N,08113.9238,W,2.1,254.3,120615,6.0,"
"##MN-00 00 46 0134 02161 6058 498164 215325 196"
"163.020405"
"$GPRMC,002920,A,2430.2344,N,08113.9259,W,2.1,254.2,120615,6.0,"
"##MN-00 00 46 0134 02165 6057 498996 215464 196"
"163.020451"
"$GPRMC,002924,A,2430.2338,N,08113.9286,W,2.1,254.1,120615,6.0,"
"##MN-00 00 45 0134 02171 6055 499870 215689 196"
"163.020498"
"$GPRMC,002928,A,2430.2329,N,08113.9314,W,2.1,254.3,120615,6.0,"
"##MN-00 00 47 0134 02176 6053 500449 215843 196"
"163.020544"
"$GPRMC,002932,A,2430.2320,N,08113.9342,W,2.1,253.4,120615,6.0,"
"##MN-00 00 46 0134 02185 6051 501996 216104 196"
"163.02059"
"$GPRMC,002936,A,2430.2314,N,08113.9364,W,2.1,252.7,120615,6.0,"
"##MN-00 00 46 0134 02190 6048 502986 216313 196"
"163.020637"
"$GPRMC,002940,A,2430.2307,N,08113.9389,W,2.1,251.8,120615,6.0,"
"##MN-00 00 46 0134 02195 6046 504028 216483 196"
"163.020683"
"$GPRMC,002944,A,2430.2297,N,08113.9412,W,2.1,251.2,120615,6.0,"
"##MN-00 00 47 0134 02202 6044 506053 216918 196"
"163.020729"
"$GPRMC,002948,A,2430.2296,N,08113.9433,W,2.1,251.9,120615,6.0,"
"##MN-00 00 46 0134 02211 6042 506738 217006 196"
"163.020775"
"$GPRMC,002952,A,2430.2286,N,08113.9458,W,2.1,253.6,120615,6.0,"
"##MN-00 00 45 0134 02215 6039 508898 217596 196"
"163.020822"
"$GPRMC,002956,A,2430.2281,N,08113.9478,W,2.0,255.0,120615,6.0,"
"##MN-00 00 46 0134 02220 6037 509775 217746 196"
"163.020868"
"$GPRMC,003000,A,2430.2278,N,08113.9498,W,2.0,256.0,120615,6.0,"
"##MN-00 00 44 0134 02225 6035 510604 217932 196"
"163.020914"
"$GPRMC,003004,A,2430.2271,N,08113.9520,W,2.1,256.0,120615,6.0,"
"##MN-00 00 45 0134 02231 6032 512127 218235 196"
"163.020961"
"$GPRMC,003008,A,2430.2267,N,08113.9542,W,2.1,255.4,120615,6.0,"
"##MN-00 00 46 0134 02237 6029 512825 218412 196"
"163.021007"
"$GPRMC,003012,A,2430.2261,N,08113.9566,W,2.1,255.5,120615,6.0,"
"##MN-00 00 46 0134 02240 6027 513325 218499 196"
"163.021053"
"$GPRMC,003016,A,2430.2255,N,08113.9590,W,2.0,256.0,120615,6.0,"
"##MN-00 00 46 0134 02244 6024 513926 218632 196"
"163.0211"
"$GPRMC,003020,A,2430.2250,N,08113.9614,W,2.0,256.4,120615,6.0,"
"##MN-00 00 46 0134 02253 6022 515029 218827 196"
"163.021146"
"$GPRMC,003024,A,2430.2243,N,08113.9640,W,2.0,256.1,120615,6.0,"
"##MN+00 00 47 0134 02260 6019 516200 219064 196"
"163.021192"
"$GPRMC,003028,A,2430.2236,N,08113.9668,W,2.0,255.4,120615,6.0,"
"##MN+00 00 47 0134 02262 6016 517323 219341 196"
"163.021238"
"$GPRMC,003032,A,2430.2227,N,08113.9696,W,2.0,255.3,120615,6.0,"
"##MN+00 00 45 0134 02264 6014 518608 219648 196"
"163.021285"
"$GPRMC,003036,A,2430.2224,N,08113.9718,W,2.1,255.3,120615,6.0,"
"##MN-00 00 44 0134 02264 6011 519816 219719 196"
"163.021331"
"$GPRMC,003040,A,2430.2219,N,08113.9743,W,2.1,255.0,120615,6.0,"
"##MN+00 00 43 0134 02265 6007 520052 219811 196"
"163.021377"
"$GPRMC,003044,A,2430.2214,N,08113.9765,W,2.0,255.1,120615,6.0,"
"##MN+00 00 44 0134 02267 6004 519867 219724 196"
"163.021424"
"$GPRMC,003048,A,2430.2208,N,08113.9788,W,1.9,254.8,120615,6.0,"
"##MN+00 00 50 0134 02264 6001 520137 219803 196"
"163.02147"
"$GPRMC,003052,A,2430.2203,N,08113.9808,W,1.9,254.8,120615,6.0,"
"##MN-00 00 46 0134 02257 5998 519307 219669 196"
"163.021516"
"$GPRMC,003056,A,2430.2197,N,08113.9830,W,1.8,256.1,120615,6.0,"
"##MN-00 00 44 0134 02251 5994 517817 219383 196"
"163.021562"
"#increment_net"
"$GPRMC,003100,A,2430.2189,N,08113.9850,W,1.8,256.5,120615,6.0,"
"##MN-00 00 43 0134 02247 5991 516053 219100 196"
"163.021609"
"$GPRMC,003104,A,2430.2186,N,08113.9871,W,1.8,255.0,120615,6.0,"
"##MN-00 00 42 0134 02240 5988 515012 218961 196"
"163.021655"
"$GPRMC,003108,A,2430.2185,N,08113.9892,W,1.8,256.5,120615,6.0,"
"##MN-00 00 42 0134 02232 5984 514276 218699 196"
"163.021701"
"$GPRMC,003112,A,2430.2182,N,08113.9917,W,1.8,258.5,120615,6.0,"
"##MN-00 00 43 0134 02221 5981 512772 218442 196"
"163.021748"
"$GPRMC,003116,A,2430.2181,N,08113.9939,W,1.8,260.4,120615,6.0,"
"##MN-00 00 43 0134 02215 5977 511475 218176 196"
"163.021794"
"$GPRMC,003120,A,2430.2175,N,08113.9962,W,1.8,260.3,120615,6.0,"
"##MN-00 00 43 0134 02211 5974 510433 217970 196"
"163.02184"
"$GPRMC,003124,A,2430.2170,N,08113.9986,W,1.8,260.7,120615,6.0,"
"##MN-00 00 43 0134 02205 5971 509528 217789 196"
"163.021887"
"$GPRMC,003128,A,2430.2167,N,08114.0007,W,1.7,259.9,120615,6.0,"
"##MN-00 00 42 0134 02202 5967 507998 217418 196"
"163.021933"
"$GPRMC,003132,A,2430.2164,N,08114.0025,W,1.7,258.7,120615,6.0,"
"##MN-00 00 43 0134 02196 5963 506663 217218 196"
"163.021979"
"$GPRMC,003136,A,2430.2160,N,08114.0047,W,1.7,257.0,120615,6.0,"
"##MN-00 00 42 0134 02190 5960 505351 216868 196"
"163.022025"
"$GPRMC,003140,A,2430.2153,N,08114.0066,W,1.7,256.7,120615,6.0,"
"##MN-00 00 46 0134 02180 5956 504026 216588 196"
"163.022072"
"$GPRMC,003144,A,2430.2146,N,08114.0090,W,1.8,256.3,120615,6.0,"
"##MN-00 00 42 0134 02175 5952 502330 216222 196"
"163.022118"
"$GPRMC,003148,A,2430.2143,N,08114.0110,W,1.8,256.5,120615,6.0,"
"##MN-00 00 42 0134 02168 5949 501270 216023 196"
"163.022164"
"$GPRMC,003152,A,2430.2137,N,08114.0133,W,1.8,255.6,120615,6.0,"
"##MN-00 00 42 0134 02163 5945 500212 215942 196"
"163.022211"
"$GPRMC,003156,A,2430.2132,N,08114.0155,W,1.8,255.5,120615,6.0,"
"##MN-00 00 42 0134 02152 5942 499582 215847 196"
"163.022257"
"$GPRMC,003200,A,2430.2126,N,08114.0178,W,1.9,255.8,120615,6.0,"
"##MN-00 00 41 0134 02145 5938 498168 215525 196"
"163.022315"
"$GPRMC,003204,A,2430.2122,N,08114.0200,W,1.9,256.0,120615,6.0,"
"##MN-00 00 40 0134 02140 5934 496773 215131 196"
"163.022361"
"$GPRMC,003208,A,2430.2119,N,08114.0224,W,1.9,256.8,120615,6.0,"
"##MN-00 00 42 0134 02132 5931 494652 214791 196"
"163.022407"
"$GPRMC,003212,A,2430.2112,N,08114.0249,W,2.0,257.4,120615,6.0,"
"##MN-00 00 43 0134 02125 5927 492900 214479 196"
"163.022454"
"$GPRMC,003216,A,2430.2108,N,08114.0274,W,1.9,257.2,120615,6.0,"
"##MN-00 00 43 0134 02123 5924 491099 214129 196"
"163.0225"
"$GPRMC,003220,A,2430.2105,N,08114.0292,W,1.9,256.4,120615,6.0,"
"##MN-00 00 43 0134 02118 5920 489836 213837 196"
"163.022546"
"$GPRMC,003224,A,2430.2101,N,08114.0311,W,1.9,255.8,120615,6.0,"
"##MN-00 00 43 0134 02117 5917 488417 213498 196"
"163.022593"
"$GPRMC,003228,A,2430.2092,N,08114.0334,W,1.9,254.8,120615,6.0,"
"##MN+00 00 42 0134 02119 5914 487985 213492 196"
"163.022639"
"$GPRMC,003232,A,2430.2083,N,08114.0358,W,1.9,254.0,120615,6.0,"
"##MN+00 00 42 0134 02116 5910 487205 213339 196"
"163.022685"
"$GPRMC,003236,A,2430.2073,N,08114.0383,W,1.9,253.6,120615,6.0,"
"##MN+00 00 44 0134 02110 5907 486078 213024 196"
"163.022731"
"$GPRMC,003240,A,2430.2067,N,08114.0408,W,1.9,253.2,120615,6.0,"
"##MN-00 00 41 0134 02112 5904 485620 212937 196"
"163.022778"
"$GPRMC,003244,A,2430.2058,N,08114.0433,W,2.0,253.0,120615,6.0,"
"##MN-00 00 38 0134 02108 5900 485277 212846 196"
"163.022824"
"$GPRMC,003248,A,2430.2052,N,08114.0455,W,2.0,253.3,120615,6.0,"
"##MN-00 00 44 0134 02102 5897 484829 212775 196"
"163.02287"
"$GPRMC,003252,A,2430.2047,N,08114.0477,W,2.0,252.8,120615,6.0,"
"##MN-00 00 40 0134 02107 5894 484423 212673 196"
"163.022917"
"$GPRMC,003257,A,2430.2039,N,08114.0504,W,2.0,251.5,120615,6.0,"
"##MN-00 00 39 0134 02105 5890 484294 212634 196"
"163.022963"
"$GPRMC,003301,A,2430.2032,N,08114.0527,W,2.0,250.8,120615,6.0,"
"##MN-00 00 41 0134 02097 5887 484170 212624 196"
"163.023009"
"$GPRMC,003305,A,2430.2023,N,08114.0549,W,2.0,250.5,120615,6.0,"
"##MN-00 00 42 0134 02098 5884 483829 212547 196"
"163.023056"
"$GPRMC,003309,A,2430.2015,N,08114.0571,W,2.0,251.2,120615,6.0,"
"##MN-00 00 42 0134 02101 5881 483731 212513 196"
"163.023102"
"$GPRMC,003313,A,2430.2008,N,08114.0592,W,2.1,251.3,120615,6.0,"
"##MN-00 00 42 0134 02097 5879 483719 212519 196"
"163.023148"
"$GPRMC,003317,A,2430.2000,N,08114.0616,W,2.1,251.9,120615,6.0,"
"##MN-00 00 44 0134 02089 5876 483550 212486 196"
"163.023194"
"$GPRMC,003321,A,2430.2000,N,08114.0633,W,2.1,253.4,120615,6.0,"
"##MN+00 00 42 0134 02089 5873 483237 212416 196"
"163.023241"
"$GPRMC,003325,A,2430.1996,N,08114.0655,W,2.0,253.9,120615,6.0,"
"##MN+00 00 41 0134 02089 5870 482875 212314 196"
"163.023287"
"$GPRMC,003329,A,2430.1991,N,08114.0676,W,1.9,254.2,120615,6.0,"
"##MN+00 00 47 0134 02086 5867 482441 212287 196"
"163.023333"
"$GPRMC,003333,A,2430.1986,N,08114.0697,W,1.9,254.7,120615,6.0,"
"##MN-00 00 44 0134 02084 5864 481819 212141 196"
"163.02338"
"#increment_net"
"$GPRMC,003337,A,2430.1982,N,08114.0719,W,2.0,254.0,120615,6.0,"
"##MN-00 00 42 0134 02080 5862 480306 211848 196"
"163.023426"
"$GPRMC,003341,A,2430.1974,N,08114.0748,W,2.0,253.8,120615,6.0,"
"##MN-00 00 40 0134 02075 5859 479107 211606 196"
"163.023472"
"$GPRMC,003345,A,2430.1970,N,08114.0773,W,2.0,253.9,120615,6.0,"
"##MN-00 00 41 0134 02071 5856 478285 211456 196"
"163.023519"
"$GPRMC,003349,A,2430.1958,N,08114.0802,W,2.0,253.9,120615,6.0,"
"##MN-00 00 41 0134 02068 5853 477425 211308 196"
"163.023565"
"$GPRMC,003353,A,2430.1953,N,08114.0827,W,2.0,254.6,120615,6.0,"
"##MN-00 00 42 0134 02069 5851 476842 211186 196"
"163.023611"
"$GPRMC,003357,A,2430.1945,N,08114.0852,W,1.9,254.5,120615,6.0,"
"##MN-00 00 41 0134 02064 5849 476178 211107 196"
"163.023657"
"$GPRMC,003401,A,2430.1936,N,08114.0875,W,1.9,254.4,120615,6.0,"
"##MN-00 00 41 0134 02060 5846 475701 211010 196"
"163.023704"
"$GPRMC,003405,A,2430.1929,N,08114.0900,W,1.9,254.0,120615,6.0,"
"##MN-00 00 41 0134 02055 5844 475477 210945 196"
"163.02375"
"$GPRMC,003409,A,2430.1924,N,08114.0922,W,1.9,253.7,120615,6.0,"
"##MN-00 00 41 0134 02054 5841 475330 210959 196"
"163.023796"
"$GPRMC,003413,A,2430.1919,N,08114.0946,W,1.9,253.2,120615,6.0,"
"##MN-00 00 41 0134 02050 5838 475099 210844 196"
"163.023843"
"$GPRMC,003417,A,2430.1912,N,08114.0969,W,1.9,253.1,120615,6.0,"
"##MN-00 00 41 0134 02050 5836 474974 210801 196"
"163.023889"
"$GPRMC,003421,A,2430.1906,N,08114.0993,W,2.0,253.4,120615,6.0,"
"##MN-00 00 41 0134 02047 5834 474880 210765 196"
"163.023935"
"$GPRMC,003425,A,2430.1898,N,08114.1016,W,2.0,253.2,120615,6.0,"
"##MN-00 00 39 0134 02039 5831 474794 210755 196"
"163.023981"
"$GPRMC,003429,A,2430.1890,N,08114.1042,W,2.0,252.6,120615,6.0,"
"##MN-00 00 43 0134 02036 5829 474634 210719 196"
"163.024028"
"$GPRMC,003433,A,2430.1886,N,08114.1066,W,2.0,253.4,120615,6.0,"
"##MN-00 00 41 0134 02035 5827 474592 210704 196"
"163.024074"
"$GPRMC,003437,A,2430.1877,N,08114.1091,W,2.0,253.6,120615,6.0,"
"##MN-00 00 41 0134 02032 5825 474537 210707 196"
"163.02412"
"$GPRMC,003441,A,2430.1872,N,08114.1114,W,1.9,253.7,120615,6.0,"
"##MN-00 00 41 0134 02032 5822 474481 210695 196"
"163.024167"
"$GPRMC,003445,A,2430.1866,N,08114.1138,W,1.9,253.7,120615,6.0,"
"##MN-00 00 40 0134 02025 5820 474381 210668 196"
"163.024213"
"$GPRMC,003449,A,2430.1861,N,08114.1160,W,1.9,254.7,120615,6.0,"
"##MN-00 00 40 0134 02018 5818 474266 210641 196"
"163.024259"
"$GPRMC,003453,A,2430.1856,N,08114.1186,W,2.0,256.2,120615,6.0,"
"##MN-00 00 41 0134 02020 5816 474172 210642 196"
"163.024306"
"$GPRMC,003457,A,2430.1850,N,08114.1212,W,1.9,256.3,120615,6.0,"
"##MN-00 00 41 0134 02013 5814 474104 210623 196"
"163.024352"
"$GPRMC,003501,A,2430.1843,N,08114.1236,W,2.0,255.8,120615,6.0,"
"##MN-00 00 42 0134 02011 5812 474016 210583 196"
"163.024398"
"$GPRMC,003505,A,2430.1838,N,08114.1257,W,1.9,255.0,120615,6.0,"
"##MN-00 00 41 0134 02011 5810 473752 210552 196"
"163.024444"
"$GPRMC,003509,A,2430.1834,N,08114.1279,W,1.9,255.3,120615,6.0,"
"##MN-00 00 40 0134 02008 5808 473361 210503 196"
"163.024491"
"$GPRMC,003513,A,2430.1830,N,08114.1301,W,1.9,255.0,120615,6.0,"
"##MN-00 00 43 0134 02002 5806 472406 210300 196"
"163.024537"
"$GPRMC,003517,A,2430.1823,N,08114.1324,W,1.9,254.8,120615,6.0,"
"##MN-00 00 40 0134 02001 5804 470494 209848 196"
"163.024583"
"$GPRMC,003521,A,2430.1819,N,08114.1347,W,1.9,255.2,120615,6.0,"
"##MN-00 00 41 0134 01997 5802 469282 209583 196"
"163.02463"
"$GPRMC,003525,A,2430.1812,N,08114.1370,W,1.9,255.0,120615,6.0,"
"##MN-00 00 40 0134 01993 5800 468340 209476 196"
"163.024676"
"$GPRMC,003529,A,2430.1808,N,08114.1388,W,1.9,255.1,120615,6.0,"
"##MN-00 00 40 0134 01989 5798 467576 209323 196"
"163.024722"
"$GPRMC,003533,A,2430.1801,N,08114.1417,W,1.9,254.5,120615,6.0,"
"##MN-00 00 41 0134 01986 5797 467192 209283 196"
"163.024769"
"$GPRMC,003537,A,2430.1795,N,08114.1434,W,1.9,255.3,120615,6.0,"
"##MN-00 00 41 0134 01982 5795 466825 209176 196"
"163.024815"
"$GPRMC,003541,A,2430.1788,N,08114.1456,W,1.9,255.1,120615,6.0,"
"##MN-00 00 40 0134 01979 5793 466375 209063 196"
"163.024861"
"$GPRMC,003545,A,2430.1780,N,08114.1483,W,1.9,255.1,120615,6.0,"
"##MN-00 00 42 0134 01969 5791 466200 209013 196"
"163.024907"
"$GPRMC,003549,A,2430.1779,N,08114.1500,W,2.0,255.0,120615,6.0,"
"##MN-00 00 44 0134 01967 5790 465629 208886 196"
"163.024954"
"$GPRMC,003553,A,2430.1776,N,08114.1518,W,1.9,255.0,120615,6.0,"
"##MN-00 00 39 0134 01964 5788 464578 208645 196"
"163.025"
"$GPRMC,003557,A,2430.1769,N,08114.1546,W,2.1,254.2,120615,6.0,"
"##MN-00 00 40 0134 01955 5786 463583 208427 196"
"163.025046"
"$GPRMC,003601,A,2430.1761,N,08114.1569,W,2.0,253.9,120615,6.0,"
"##MN-00 00 43 0134 01948 5784 462376 208248 196"
"163.025093"
"$GPRMC,003605,A,2430.1758,N,08114.1593,W,1.9,254.0,120615,6.0,"
"##MN-00 00 42 0134 01951 5783 461609 208129 196"
"163.025139"
"$GPRMC,003609,A,2430.1752,N,08114.1616,W,1.9,254.7,120615,6.0,"
"##MN-00 00 40 0134 01938 5782 460463 207850 196"
"163.025185"
"$GPRMC,003613,A,2430.1748,N,08114.1640,W,1.9,256.2,120615,6.0,"
"##MN+00 00 45 0134 01929 5780 458991 207494 196"
"163.025231"
"$GPRMC,003617,A,2430.1747,N,08114.1659,W,1.9,256.8,120615,6.0,"
"##MN+00 00 42 0134 01927 5778 455727 206777 196"
"163.025278"
"$GPRMC,003621,A,2430.1740,N,08114.1687,W,1.9,256.3,120615,6.0,"
"##MN+00 00 42 0134 01923 5777 453663 206323 196"
"163.025324"
"$GPRMC,003625,A,2430.1733,N,08114.1710,W,1.9,256.0,120615,6.0,"
"##MN-00 00 41 0134 01912 5776 452306 206106 196"
"163.02537"
"$GPRMC,003629,A,2430.1729,N,08114.1732,W,1.9,255.6,120615,6.0,"
"##MN-00 00 43 0134 01908 5775 451414 205945 196"
"163.025417"
"$GPRMC,003633,A,2430.1722,N,08114.1756,W,1.8,255.2,120615,6.0,"
"##MN-00 00 45 0134 01902 5773 451080 205906 196"
"163.025463"
"$GPRMC,003637,A,2430.1720,N,08114.1777,W,1.8,255.2,120615,6.0,"
"##MN+00 00 44 0134 01898 5772 450917 205813 196"
"163.025521"
"$GPRMC,003641,A,2430.1712,N,08114.1799,W,1.8,255.3,120615,6.0,"
"##MN+00 00 45 0134 01893 5771 450835 205795 196"
"163.025567"
"$GPRMC,003645,A,2430.1707,N,08114.1819,W,1.7,255.0,120615,6.0,"
"##MN+00 00 44 0134 01889 5770 450698 205734 196"
"163.025613"
"$GPRMC,003649,A,2430.1700,N,08114.1842,W,1.8,254.8,120615,6.0,"
"##MN-00 00 53 0134 01888 5768 450573 205711 196"
"163.02566"
"#increment_net"
"$GPRMC,003653,A,2430.1695,N,08114.1861,W,1.8,254.7,120615,6.0,"
"##MN-00 00 46 0134 01883 5768 450425 205653 196"
"163.025706"
"$GPRMC,003657,A,2430.1690,N,08114.1879,W,1.8,254.8,120615,6.0,"
"##MN-00 00 44 0134 01878 5767 450273 205612 196"
"163.025752"
"$GPRMC,003701,A,2430.1686,N,08114.1904,W,1.8,254.7,120615,6.0,"
"##MN-00 00 44 0134 01868 5766 450228 205590 196"
"163.025799"
"$GPRMC,003705,A,2430.1682,N,08114.1926,W,1.9,255.1,120615,6.0,"
"##MN-00 00 46 0134 01862 5765 450175 205572 196"
"163.025845"
"$GPRMC,003709,A,2430.1674,N,08114.1948,W,1.9,256.6,120615,6.0,"
"##MN-00 00 44 0134 01862 5764 450121 205569 196"
"163.025891"
"$GPRMC,003713,A,2430.1668,N,08114.1969,W,1.9,257.1,120615,6.0,"
"##MN-00 00 44 0134 01861 5763 450029 205544 196"
"163.025938"
"$GPRMC,003717,A,2430.1664,N,08114.1994,W,1.8,256.6,120615,6.0,"
"##MN-00 00 44 0134 01853 5763 449959 205529 196"
"163.025984"
"$GPRMC,003721,A,2430.1660,N,08114.2013,W,1.8,256.9,120615,6.0,"
"##MN-00 00 44 0134 01854 5762 449873 205515 196"
"163.02603"
"$GPRMC,003725,A,2430.1660,N,08114.2030,W,1.8,257.6,120615,6.0,"
"##MN-00 00 43 0134 01852 5761 449836 205503 196"
"163.026076"
"$GPRMC,003730,A,2430.1655,N,08114.2052,W,1.8,258.7,120615,6.0,"
"##MN-00 00 43 0134 01846 5761 449792 205485 196"
"163.026123"
"$GPRMC,003734,A,2430.1653,N,08114.2068,W,1.8,259.1,120615,6.0,"
"##MN-00 00 44 0134 01841 5760 449710 205467 196"
"163.026169"
"$GPRMC,003737,A,2430.1653,N,08114.2084,W,1.8,259.6,120615,6.0,"
"##MN-00 00 46 0134 01843 5760 449659 205476 196"
"163.026215"
"$GPRMC,003742,A,2430.1642,N,08114.2117,W,1.8,257.9,120615,6.0,"
"##MN-00 00 45 0134 01840 5759 449589 205455 196"
"163.026262"
"$GPRMC,003745,A,2430.1637,N,08114.2132,W,1.8,258.4,120615,6.0,"
"##MN-00 00 45 0134 01840 5759 449541 205440 196"
"163.026308"
"$GPRMC,003750,A,2430.1632,N,08114.2158,W,1.8,258.4,120615,6.0,"
"##MN-00 00 44 0134 01833 5759 449463 205419 196"
"163.026354"
"$GPRMC,003754,A,2430.1626,N,08114.2186,W,1.8,258.0,120615,6.0,"
"##MN-00 00 46 0134 01833 5758 449403 205405 196"
"163.0264"
"$GPRMC,003758,A,2430.1619,N,08114.2212,W,1.9,257.4,120615,6.0,"
"##MN-00 00 45 0134 01830 5758 449352 205393 196"
"163.026447"
"$GPRMC,003802,A,2430.1617,N,08114.2234,W,1.9,257.4,120615,6.0,"
"##MN-00 00 46 0134 01825 5757 449321 205386 196"
"163.026493"
"$GPRMC,003806,A,2430.1610,N,08114.2258,W,1.9,257.3,120615,6.0,"
"##MN-00 00 47 0134 01825 5757 449280 205373 196"
"163.026539"
"$GPRMC,003810,A,2430.1606,N,08114.2279,W,1.9,257.0,120615,6.0,"
"##MN-00 00 47 0134 01823 5757 449216 205358 196"
"163.026586"
"$GPRMC,003814,A,2430.1597,N,08114.2302,W,1.9,255.6,120615,6.0,"
"##MN-00 00 45 0134 01820 5756 449176 205354 196"
"163.026632"
"$GPRMC,003818,A,2430.1594,N,08114.2323,W,1.8,255.1,120615,6.0,"
"##MN-00 00 45 0134 01822 5756 449138 205349 196"
"163.026678"
"$GPRMC,003822,A,2430.1592,N,08114.2342,W,1.8,256.2,120615,6.0,"
"##MN-00 00 45 0134 01820 5756 449088 205337 196"
"163.026725"
"$GPRMC,003826,A,2430.1588,N,08114.2364,W,1.8,256.2,120615,6.0,"
"##MN-00 00 47 0134 01817 5756 449071 205334 196"
"163.026771"
"$GPRMC,003830,A,2430.1585,N,08114.2385,W,1.8,255.6,120615,6.0,"
"##MN-00 00 48 0134 01817 5756 449075 205331 196"
"163.026817"
"$GPRMC,003834,A,2430.1584,N,08114.2403,W,1.8,255.8,120615,6.0,"
"##MN-00 00 44 0134 01816 5755 449067 205328 196"
"163.026863"
"$GPRMC,003838,A,2430.1577,N,08114.2424,W,1.8,255.8,120615,6.0,"
"##MN-00 00 44 0134 01815 5756 449040 205325 196"
"163.02691"
"$GPRMC,003842,A,2430.1570,N,08114.2446,W,1.8,256.4,120615,6.0,"
"##MN-00 00 43 0134 01810 5755 449037 205320 196"
"163.026956"
"$GPRMC,003846,A,2430.1564,N,08114.2465,W,1.8,257.2,120615,6.0,"
"##MN-00 00 45 0134 01807 5755 449002 205312 196"
"163.027002"
"$GPRMC,003850,A,2430.1559,N,08114.2486,W,1.9,258.0,120615,6.0,"
"##MN-00 00 44 0134 01807 5755 448876 205296 196"
"163.027049"
"$GPRMC,003854,A,2430.1556,N,08114.2508,W,1.9,258.3,120615,6.0,"
"##MN-00 00 44 0134 01802 5755 448697 205260 196"
"163.027095"
"$GPRMC,003858,A,2430.1555,N,08114.2533,W,1.9,258.5,120615,6.0,"
"##MN-00 00 44 0134 01799 5755 448541 205212 196"
"163.027141"
"$GPRMC,003902,A,2430.1554,N,08114.2554,W,1.9,259.1,120615,6.0,"
"##MN-00 00 44 0134 01796 5755 448442 205205 196"
"163.027187"
"$GPRMC,003906,A,2430.1548,N,08114.2580,W,2.0,259.8,120615,6.0,"
"##MN-00 00 45 0134 01791 5755 448402 205186 196"
"163.027234"
"$GPRMC,003910,A,2430.1544,N,08114.2605,W,1.9,259.0,120615,6.0,"
"##MN-00 00 45 0134 01786 5755 448363 205177 196"
"163.02728"
"$GPRMC,003914,A,2430.1541,N,08114.2624,W,1.9,258.2,120615,6.0,"
"##MN-00 00 47 0134 01785 5755 448341 205177 196"
"163.027326"
"$GPRMC,003918,A,2430.1535,N,08114.2648,W,2.0,257.2,120615,6.0,"
"##MN-00 00 44 0134 01783 5755 448321 205170 196"
"163.027373"
"$GPRMC,003922,A,2430.1529,N,08114.2675,W,1.9,257.2,120615,6.0,"
"##MN-00 00 45 0134 01781 5755 448284 205160 196"
"163.027419"
"$GPRMC,003926,A,2430.1520,N,08114.2702,W,1.9,256.9,120615,6.0,"
"##MN-00 00 44 0134 01777 5755 448272 205156 196"
"163.027465"
"$GPRMC,003930,A,2430.1521,N,08114.2717,W,1.9,256.9,120615,6.0,"
"##MN-00 00 47 0134 01774 5755 448246 205149 196"
"163.027512"
"$GPRMC,003934,A,2430.1516,N,08114.2738,W,1.9,257.4,120615,6.0,"
"##MN-00 00 44 0134 01774 5755 448237 205147 196"
"163.027558"
"$GPRMC,003938,A,2430.1516,N,08114.2760,W,1.8,258.1,120615,6.0,"
"##MN-00 00 44 0134 01772 5755 448238 205146 196"
"163.027604"
"$GPRMC,003942,A,2430.1510,N,08114.2785,W,1.8,258.1,120615,6.0,"
"##MN-00 00 44 0134 01771 5756 448235 205147 196"
"163.02765"
"$GPRMC,003946,A,2430.1505,N,08114.2807,W,1.8,258.1,120615,6.0,"
"##MN-00 00 44 0134 01767 5756 448225 205142 196"
"163.027697"
"$GPRMC,003950,A,2430.1501,N,08114.2826,W,1.8,258.0,120615,6.0,"
"##MN-00 00 44 0134 01763 5756 448229 205145 196"
"163.027743"
"$GPRMC,003954,A,2430.1494,N,08114.2850,W,1.8,258.1,120615,6.0,"
"##MN-00 00 44 0134 01764 5756 448175 205140 196"
"163.027789"
"$GPRMC,003958,A,2430.1487,N,08114.2872,W,1.9,258.0,120615,6.0,"
"##MN-00 00 44 0134 01760 5756 448142 205126 196"
"163.027836"
"$GPRMC,004002,A,2430.1487,N,08114.2894,W,1.9,258.0,120615,6.0,"
"##MN-00 00 45 0134 01755 5756 448188 205136 196"
"163.027882"
"$GPRMC,004006,A,2430.1485,N,08114.2916,W,1.9,258.2,120615,6.0,"
"##MN-00 00 43 0134 01754 5756 448204 205138 196"
"163.027928"
"$GPRMC,004010,A,2430.1483,N,08114.2937,W,1.9,258.0,120615,6.0,"
"##MN-00 00 44 0134 01752 5757 448163 205129 196"
"163.027975"
"$GPRMC,004014,A,2430.1478,N,08114.2959,W,1.9,258.0,120615,6.0,"
"##MN-00 00 44 0134 01747 5757 448091 205111 196"
"163.028021"
"$GPRMC,004018,A,2430.1473,N,08114.2982,W,1.9,257.4,120615,6.0,"
"##MN+00 00 44 0134 01748 5757 447983 205099 196"
"163.028067"
"$GPRMC,004022,A,2430.1465,N,08114.3009,W,1.9,257.0,120615,6.0,"
"##MN+00 00 43 0134 01744 5757 447918 205081 196"
"163.028113"
"$GPRMC,004026,A,2430.1454,N,08114.3035,W,1.9,256.8,120615,6.0,"
"##MN+00 00 44 0134 01736 5757 447916 205078 196"
"163.02816"
"$GPRMC,004030,A,2430.1447,N,08114.3064,W,1.9,257.2,120615,6.0,"
"##MN-00 00 46 0134 01737 5758 447930 205079 196"
"163.028206"
"$GPRMC,004034,A,2430.1440,N,08114.3089,W,1.9,256.9,120615,6.0,"
"##MN-00 00 44 0134 01738 5758 447782 205048 196"
"163.028252"
"$GPRMC,004038,A,2430.1432,N,08114.3112,W,1.9,255.7,120615,6.0,"
"##MN-00 00 42 0134 01731 5758 447724 205037 196"
"163.028299"
"$GPRMC,004042,A,2430.1425,N,08114.3133,W,1.9,255.3,120615,6.0,"
"##MN-00 00 44 0134 01728 5758 447750 205043 196"
"163.028345"
"$GPRMC,004046,A,2430.1420,N,08114.3155,W,1.8,254.3,120615,6.0,"
"##MN-00 00 45 0134 01732 5759 447727 205042 196"
"163.028391"
"$GPRMC,004050,A,2430.1413,N,08114.3176,W,1.8,253.4,120615,6.0,"
"##MN-00 00 44 0134 01731 5759 447722 205037 196"
"163.028438"
"$GPRMC,004054,A,2430.1411,N,08114.3193,W,1.8,254.3,120615,6.0,"
"##MN-00 00 43 0134 01727 5759 447694 205031 196"
"163.028484"
"$GPRMC,004058,A,2430.1412,N,08114.3212,W,1.8,255.4,120615,6.0,"
"##MN-00 00 42 0134 01722 5759 447668 205027 196"
"163.02853"
"$GPRMC,004102,A,2430.1413,N,08114.3230,W,1.9,256.6,120615,6.0,"
"##MN-00 00 43 0134 01718 5760 447666 205026 196"
"163.028576"
"$GPRMC,004106,A,2430.1409,N,08114.3253,W,1.9,257.8,120615,6.0,"
"##MN-00 00 44 0134 01715 5760 447657 205022 196"
"163.028634"
"$GPRMC,004110,A,2430.1400,N,08114.3280,W,1.9,258.6,120615,6.0,"
"##MN-00 00 43 0134 01710 5760 447665 205025 196"
"163.028681"
"$GPRMC,004114,A,2430.1396,N,08114.3299,W,1.9,259.1,120615,6.0,"
"##MN+00 00 42 0134 01708 5761 447631 205012 196"
"163.028727"
"$GPRMC,004118,A,2430.1390,N,08114.3324,W,1.9,259.4,120615,6.0,"
"##MN+00 00 42 0134 01700 5761 447556 205000 196"
"163.028773"
"$GPRMC,004122,A,2430.1382,N,08114.3353,W,1.9,259.1,120615,6.0,"
"##MN+00 00 43 0134 01695 5761 447479 204988 196"
"163.028819"
"$GPRMC,004126,A,2430.1385,N,08114.3368,W,1.9,258.5,120615,6.0,"
"##MN-00 00 52 0134 01693 5761 447377 204977 196"
"163.028866"
"$GPRMC,004130,A,2430.1378,N,08114.3394,W,1.9,258.2,120615,6.0,"
"##MN-00 00 46 0134 01690 5762 447345 204961 196"
"163.028912"
"#increment_net"
"$GPRMC,004134,A,2430.1376,N,08114.3412,W,1.8,257.9,120615,6.0,"
"##MN-00 00 44 0134 01684 5763 447336 204959 196"
"163.028958"
"$GPRMC,004138,A,2430.1371,N,08114.3433,W,1.9,257.9,120615,6.0,"
"##MN-00 00 44 0134 01679 5763 447303 204955 196"
"163.029005"
"$GPRMC,004142,A,2430.1362,N,08114.3459,W,1.9,257.6,120615,6.0,"
"##MN-00 00 43 0134 01676 5763 447327 204957 196"
"163.029051"
"$GPRMC,004146,A,2430.1354,N,08114.3484,W,1.8,257.0,120615,6.0,"
"##MN-00 00 42 0134 01673 5763 447308 204950 196"
"163.029097"
"$GPRMC,004150,A,2430.1350,N,08114.3501,W,1.9,256.9,120615,6.0,"
"##MN-00 00 42 0134 01667 5764 447281 204942 196"
"163.029144"
"$GPRMC,004154,A,2430.1346,N,08114.3523,W,1.9,257.6,120615,6.0,"
"##MN-00 00 44 0134 01659 5764 447233 204936 196"
"163.02919"
"$GPRMC,004159,A,2430.1339,N,08114.3553,W,1.8,256.8,120615,6.0,"
"##MN-00 00 44 0134 01658 5765 447253 204941 196"
"163.029236"
"$GPRMC,004203,A,2430.1334,N,08114.3576,W,1.8,256.5,120615,6.0,"
"##MN-00 00 42 0134 01654 5765 447256 204938 196"
"163.029282"
"$GPRMC,004206,A,2430.1332,N,08114.3588,W,1.8,257.3,120615,6.0,"
"##MN-00 00 43 0134 01646 5765 447174 204920 196"
"163.029329"
"$GPRMC,004210,A,2430.1326,N,08114.3611,W,1.8,256.4,120615,6.0,"
"##MN-00 00 44 0134 01649 5766 447078 204913 196"
"163.029375"
"$GPRMC,004215,A,2430.1320,N,08114.3642,W,1.8,255.6,120615,6.0,"
"##MN-00 00 43 0134 01646 5766 446976 204887 196"
"163.029421"
"$GPRMC,004218,A,2430.1316,N,08114.3657,W,1.9,254.5,120615,6.0,"
"##MN-00 00 43 0134 01639 5766 446966 204880 196"
"163.029468"
"$GPRMC,004222,A,2430.1310,N,08114.3678,W,1.8,254.1,120615,6.0,"
"##MN-00 00 45 0134 01635 5767 447062 204905 196"
"163.029514"
"$GPRMC,004226,A,2430.1301,N,08114.3704,W,1.8,254.3,120615,6.0,"
"##MN-00 00 43 0134 01637 5767 447057 204900 196"
"163.02956"
"$GPRMC,004230,A,2430.1299,N,08114.3721,W,1.8,253.8,120615,6.0,"
"##MN-00 00 41 0134 01634 5768 447074 204903 196"
"163.029606"
"$GPRMC,004234,A,2430.1295,N,08114.3740,W,1.8,253.6,120615,6.0,"
"##MN-00 00 43 0134 01628 5768 447058 204896 196"
"163.029653"
"$GPRMC,004238,A,2430.1291,N,08114.3761,W,1.8,254.2,120615,6.0,"
"##MN-00 00 45 0134 01627 5768 447052 204897 196"
"163.029699"
"$GPRMC,004243,A,2430.1282,N,08114.3790,W,1.9,254.1,120615,6.0,"
"##MN-00 00 42 0134 01625 5769 446967 204882 196"
"163.029745"
"$GPRMC,004247,A,2430.1277,N,08114.3812,W,1.9,254.8,120615,6.0,"
"##MN-00 00 43 0134 01619 5769 446949 204876 196"
"163.029792"
"$GPRMC,004251,A,2430.1272,N,08114.3835,W,1.9,255.1,120615,6.0,"
"##MN-00 00 44 0134 01614 5769 446961 204878 196"
"163.029838"
"$GPRMC,004255,A,2430.1268,N,08114.3859,W,1.9,255.2,120615,6.0,"
"##MN-00 00 44 0134 01617 5770 446931 204873 196"
"163.029884"
"$GPRMC,004259,A,2430.1268,N,08114.3876,W,1.9,255.8,120615,6.0,"
"##MN-00 00 43 0134 01612 5770 446929 204872 196"
"163.029931"
"$GPRMC,004303,A,2430.1263,N,08114.3902,W,1.9,256.2,120615,6.0,"
"##MN-00 00 44 0134 01610 5771 446903 204870 196"
"163.029977"
"$GPRMC,004307,A,2430.1260,N,08114.3920,W,1.9,256.3,120615,6.0,"
"##MN-00 00 44 0134 01608 5771 446923 204873 196"
"163.030023"
"$GPRMC,004311,A,2430.1249,N,08114.3947,W,1.8,256.3,120615,6.0,"
"##MN-00 00 44 0134 01604 5772 446941 204874 196"
"163.030069"
"$GPRMC,004315,A,2430.1243,N,08114.3971,W,1.8,256.0,120615,6.0,"
"##MN-00 00 43 0134 01605 5772 446895 204865 196"
"163.030116"
"$GPRMC,004319,A,2430.1238,N,08114.3989,W,1.8,255.4,120615,6.0,"
"##MN-00 00 42 0134 01598 5773 446871 204861 196"
"163.030162"
"$GPRMC,004323,A,2430.1234,N,08114.4010,W,1.8,254.1,120615,6.0,"
"##MN-00 00 43 0134 01595 5773 446890 204864 196"
"163.030208"
"$GPRMC,004327,A,2430.1225,N,08114.4035,W,1.8,254.6,120615,6.0,"
"##MN-00 00 43 0134 01595 5774 446915 204868 196"
"163.030255"
"$GPRMC,004331,A,2430.1223,N,08114.4053,W,1.8,254.9,120615,6.0,"
"##MN-00 00 44 0134 01591 5774 446907 204867 196"
"163.030301"
"$GPRMC,004335,A,2430.1219,N,08114.4073,W,1.9,254.8,120615,6.0,"
"##MN-00 00 43 0134 01592 5774 446918 204872 196"
"163.030347"
"$GPRMC,004339,A,2430.1213,N,08114.4098,W,1.9,255.3,120615,6.0,"
"##MN-00 00 42 0134 01586 5775 446958 204880 196"
"163.030394"
"$GPRMC,004343,A,2430.1208,N,08114.4118,W,1.9,254.9,120615,6.0,"
"##MN-00 00 42 0134 01580 5776 446979 204881 196"
"163.03044"
"$GPRMC,004347,A,2430.1198,N,08114.4151,W,1.9,254.8,120615,6.0,"
"##MN-00 00 46 0134 01579 5776 446958 204878 196"
"163.030486"
"$GPRMC,004351,A,2430.1190,N,08114.4169,W,1.9,254.7,120615,6.0,"
"##MN-00 00 44 0134 01581 5776 446943 204877 196"
"163.030532"
"$GPRMC,004355,A,2430.1180,N,08114.4192,W,1.9,253.1,120615,6.0,"
"##MN-00 00 44 0134 01578 5777 446942 204876 196"
"163.030579"
"$GPRMC,004359,A,2430.1174,N,08114.4212,W,1.8,251.9,120615,6.0,"
"##MN-00 00 43 0134 01573 5777 446924 204869 196"
"163.030625"
"$GPRMC,004403,A,2430.1167,N,08114.4231,W,1.8,251.6,120615,6.0,"
"##MN-00 00 43 0134 01575 5778 446951 204877 196"
"163.030671"
"$GPRMC,004407,A,2430.1161,N,08114.4252,W,1.8,251.7,120615,6.0,"
"##MN-00 00 40 0134 01572 5778 446918 204866 196"
"163.030718"
"$GPRMC,004411,A,2430.1153,N,08114.4274,W,1.8,251.8,120615,6.0,"
"##MN-00 00 41 0134 01567 5779 446860 204857 196"
"163.030764"
"$GPRMC,004415,A,2430.1143,N,08114.4300,W,1.8,252.3,120615,6.0,"
"##MN-00 00 44 0134 01563 5779 446861 204859 196"
"163.03081"
"$GPRMC,004419,A,2430.1138,N,08114.4318,W,1.8,252.8,120615,6.0,"
"##MN-00 00 43 0134 01563 5780 446883 204866 196"
"163.030856"
"$GPRMC,004423,A,2430.1136,N,08114.4336,W,1.8,252.7,120615,6.0,"
"##MN-00 00 43 0134 01562 5780 446912 204870 196"
"163.030903"
"$GPRMC,004427,A,2430.1131,N,08114.4355,W,1.8,252.7,120615,6.0,"
"##MN-00 00 42 0134 01559 5781 446929 204871 196"
"163.030949"
"$GPRMC,004431,A,2430.1129,N,08114.4373,W,1.8,252.8,120615,6.0,"
"##MN-00 00 39 0134 01553 5781 446907 204867 196"
"163.030995"
"$GPRMC,004435,A,2430.1122,N,08114.4393,W,1.8,253.6,120615,6.0,"
"##MN-00 00 42 0134 01550 5782 446899 204868 196"
"163.031042"
"$GPRMC,004439,A,2430.1118,N,08114.4415,W,1.8,254.6,120615,6.0,"
"##MN-00 00 43 0134 01549 5782 446904 204867 196"
"163.031088"
"$GPRMC,004443,A,2430.1111,N,08114.4443,W,1.9,254.8,120615,6.0,"
"##MN-00 00 41 0134 01547 5783 446849 204859 196"
"163.031134"
"$GPRMC,004447,A,2430.1105,N,08114.4463,W,1.9,254.7,120615,6.0,"
"##MN-00 00 41 0134 01545 5783 446853 204859 196"
"163.031181"
"$GPRMC,004451,A,2430.1103,N,08114.4487,W,1.9,254.5,120615,6.0,"
"##MN-00 00 42 0134 01547 5784 446864 204861 196"
"163.031227"
"$GPRMC,004455,A,2430.1096,N,08114.4506,W,1.9,254.5,120615,6.0,"
"##MN-00 00 42 0134 01546 5784 446885 204865 196"
"163.031273"
"$GPRMC,004459,A,2430.1086,N,08114.4530,W,1.9,253.7,120615,6.0,"
"##MN-00 00 43 0134 01544 5785 446895 204867 196"
"163.031319"
"$GPRMC,004503,A,2430.1080,N,08114.4552,W,2.0,253.4,120615,6.0,"
"##MN-00 00 44 0134 01544 5785 446905 204870 196"
"163.031366"
"$GPRMC,004507,A,2430.1075,N,08114.4577,W,2.1,252.7,120615,6.0,"
"##MN-00 00 41 0134 01544 5786 446918 204872 196"
"163.031412"
"$GPRMC,004511,A,2430.1069,N,08114.4599,W,2.1,252.5,120615,6.0,"
"##MN-00 00 43 0134 01542 5787 446918 204873 196"
"163.031458"
"$GPRMC,004515,A,2430.1064,N,08114.4624,W,2.1,252.5,120615,6.0,"
"##MN+00 00 45 0134 01542 5787 446926 204873 196"
"163.031505"
"$GPRMC,004519,A,2430.1057,N,08114.4650,W,2.1,252.6,120615,6.0,"
"##MN+00 00 44 0134 01544 5787 446922 204872 196"
"163.031551"
"$GPRMC,004523,A,2430.1046,N,08114.4675,W,2.1,252.8,120615,6.0,"
"##MN+00 00 42 0134 01546 5787 446891 204867 196"
"163.031597"
"$GPRMC,004527,A,2430.1044,N,08114.4697,W,2.2,252.7,120615,6.0,"
"##MN+00 00 42 0134 01542 5788 446895 204866 196"
"163.031644"
"$GPRMC,004531,A,2430.1039,N,08114.4720,W,2.1,252.4,120615,6.0,"
"##MN+00 00 46 0134 01541 5789 446905 204869 196"
"163.03169"
"$GPRMC,004535,A,2430.1029,N,08114.4747,W,2.1,253.1,120615,6.0,"
"##MN+00 00 50 0134 01542 5789 446918 204872 196"
"163.031736"
"$GPRMC,004539,A,2430.1027,N,08114.4772,W,2.1,253.4,120615,6.0,"
"##MN-00 00 50 0134 01548 5790 446944 204893 196"
"163.031782"
"#increment_net"
"$GPRMC,004543,A,2430.1017,N,08114.4798,W,2.1,254.0,120615,6.0,"
"##MN-00 00 48 0134 01546 5790 446919 204924 196"
"163.03184"
"$GPRMC,004547,A,2430.1008,N,08114.4824,W,2.2,253.0,120615,6.0,"
"##MN-00 00 44 0134 01546 5791 446909 204875 196"
"163.031887"
"$GPRMC,004551,A,2430.0996,N,08114.4848,W,2.2,252.3,120615,6.0,"
"##MN-00 00 46 0134 01547 5791 446912 204874 196"
