" Tow: 3-ns-n-ed   RVWS/WS15161"
" Date: 12/06/2015"
" Temperature Probe #  2089    Conductivity Probe #  2870"
" Pressure Probe #  188"
" Flow Meter Calibration  4.71 (m/count)  "
"163.318345"
"$GPRMC,073821,A,2429.2292,N,08118.2627,W,1.9,241.4,120615,5.9,"
"##MN-00 00 00 0803 02700 5775 604032 000018 197"
"163.318391"
"$GPRMC,073826,A,2429.2282,N,08118.2655,W,2.0,240.2,120615,5.9,"
"##MN-00 00 00 0804 02702 5775 630808 024269 196"
"163.318437"
"$GPRMC,073830,A,2429.2271,N,08118.2674,W,2.0,240.5,120615,5.9,"
"##MN-00 00 00 0804 02701 5776 631680 024283 196"
"163.318484"
"$GPRMC,073834,A,2429.2257,N,08118.2695,W,1.9,241.2,120615,5.9,"
"##MN-00 00 00 0804 02701 5775 630808 024281 196"
"163.31853"
"$GPRMC,073838,A,2429.2245,N,08118.2713,W,2.0,243.8,120615,5.9,"
"##MN-00 00 00 0804 02700 5775 629952 024311 196"
"163.318576"
"$GPRMC,073842,A,2429.2235,N,08118.2735,W,2.1,243.7,120615,5.9,"
"##MN-00 00 00 0804 02701 5775 377656 024290 196"
"163.318623"
"$GPRMC,073846,A,2429.2226,N,08118.2757,W,2.0,242.7,120615,5.9,"
"##MN-00 00 00 0805 02701 5775 631192 024298 196"
"163.318669"
"$GPRMC,073850,A,2429.2213,N,08118.2778,W,1.9,242.6,120615,5.9,"
"##MN-00 00 00 0806 02701 5775 356176 024310 196"
"163.318727"
"$GPRMC,073854,A,2429.2202,N,08118.2796,W,1.9,242.6,120615,5.9,"
"##MN-00 00 00 0806 02702 5775 630576 024310 197"
"163.318773"
"$GPRMC,073858,A,2429.2195,N,08118.2814,W,1.8,241.2,120615,5.9,"
"##MN-00 00 00 0807 02700 5775 630496 024312 196"
"163.318819"
"$GPRMC,073902,A,2429.2185,N,08118.2834,W,1.8,240.9,120615,5.9,"
"##MN-00 00 00 0807 02701 5775 631264 024297 196"
"163.318866"
"$GPRMC,073906,A,2429.2175,N,08118.2854,W,1.7,241.7,120615,5.9,"
"##MN-00 00 00 0808 02700 5775 628384 024293 196"
"163.318912"
"$GPRMC,073910,A,2429.2166,N,08118.2873,W,1.8,241.0,120615,5.9,"
"##MN-00 00 00 0808 02701 5775 630056 024296 197"
"163.318958"
"$GPRMC,073914,A,2429.2156,N,08118.2894,W,1.8,241.2,120615,5.9,"
"##MN-00 00 00 0809 02701 5775 376824 024287 197"
"163.319005"
"$GPRMC,073918,A,2429.2144,N,08118.2915,W,1.9,240.9,120615,5.9,"
"##MN-00 00 00 0809 02701 5775 629872 024287 196"
"163.319051"
"$GPRMC,073922,A,2429.2133,N,08118.2937,W,1.9,241.8,120615,5.9,"
"##MN-00 00 00 0810 02700 5775 629800 024281 196"
"163.319097"
"$GPRMC,073926,A,2429.2120,N,08118.2955,W,1.9,241.7,120615,5.9,"
"##MN-00 00 00 0810 02701 5775 629744 024286 196"
"163.319144"
"$GPRMC,073930,A,2429.2109,N,08118.2978,W,2.0,243.2,120615,5.9,"
"##MN-00 00 00 0811 02700 5776 629680 024288 197"
"163.31919"
"$GPRMC,073934,A,2429.2099,N,08118.3000,W,2.0,244.2,120615,5.9,"
"##MN-00 00 00 0812 02702 5775 629600 024284 196"
"163.319236"
"$GPRMC,073938,A,2429.2090,N,08118.3022,W,2.0,244.8,120615,5.9,"
"##MN-00 00 00 0812 02702 5775 630416 024282 196"
"163.319282"
"$GPRMC,073942,A,2429.2079,N,08118.3046,W,2.0,244.2,120615,5.9,"
"##MN-00 00 00 0813 02703 5775 629024 024276 196"
"163.319329"
"$GPRMC,073947,A,2429.2067,N,08118.3076,W,2.1,246.5,120615,5.9,"
"##MN-00 00 00 0814 02702 5776 631184 024268 197"
"163.319375"
"$GPRMC,073950,A,2429.2061,N,08118.3094,W,2.1,246.2,120615,5.9,"
"##MN-00 00 00 0814 02702 5776 640512 024251 197"
"163.319421"
"$GPRMC,073955,A,2429.2050,N,08118.3118,W,2.1,247.6,120615,5.9,"
"##MN-00 00 00 0815 02702 5776 645360 024268 196"
"163.319468"
"$GPRMC,073959,A,2429.2041,N,08118.3140,W,2.1,248.0,120615,5.9,"
"##MN-00 00 00 0816 02701 5776 648432 024253 196"
"163.319514"
"$GPRMC,074003,A,2429.2030,N,08118.3170,W,2.1,248.0,120615,5.9,"
"##MN-00 00 00 0817 02703 5776 647960 024259 196"
"163.31956"
"$GPRMC,074007,A,2429.2021,N,08118.3194,W,2.1,248.5,120615,5.9,"
"##MN-00 00 00 0818 02702 5776 647952 024261 196"
"163.319606"
"$GPRMC,074010,A,2429.2014,N,08118.3212,W,2.1,248.9,120615,5.9,"
"##MN-00 00 00 0818 02703 5776 649216 024265 196"
"163.319653"
"$GPRMC,074015,A,2429.2003,N,08118.3244,W,2.2,249.7,120615,5.9,"
"##MN-00 00 00 0819 02703 5776 640688 024251 196"
"163.319699"
"$GPRMC,074018,A,2429.1997,N,08118.3263,W,2.2,249.4,120615,5.9,"
"##MN-00 00 00 0820 02703 5777 656712 024277 196"
"163.319745"
"$GPRMC,074023,A,2429.1986,N,08118.3295,W,2.2,249.7,120615,5.9,"
"##MN-00 00 00 0821 02702 5776 651312 024268 196"
"163.319792"
"$GPRMC,074027,A,2429.1978,N,08118.3322,W,2.3,249.5,120615,5.9,"
"##MN-00 00 00 0822 02703 5777 655296 024273 196"
"163.319838"
"$GPRMC,074031,A,2429.1967,N,08118.3350,W,2.3,249.4,120615,5.9,"
"##MN-00 00 00 0823 02701 5777 657488 024262 196"
"163.319884"
"$GPRMC,074035,A,2429.1960,N,08118.3378,W,2.4,250.6,120615,5.9,"
"##MN-00 00 00 0824 02703 5777 385648 024261 196"
"163.319931"
"$GPRMC,074039,A,2429.1950,N,08118.3407,W,2.4,249.3,120615,5.9,"
"##MN-00 00 00 0825 02703 5777 656520 024269 196"
"163.319977"
"$GPRMC,074043,A,2429.1942,N,08118.3432,W,2.4,250.0,120615,5.9,"
"##MN-00 00 00 0826 02703 5777 659168 024256 196"
"163.320023"
"$GPRMC,074047,A,2429.1931,N,08118.3459,W,2.4,248.8,120615,5.9,"
"##MN-00 00 00 0826 02702 5777 656432 024264 196"
"163.320069"
"$GPRMC,074051,A,2429.1921,N,08118.3486,W,2.4,248.7,120615,5.9,"
"##MN-00 00 00 0827 02702 5777 661336 024251 196"
"163.320116"
"$GPRMC,074055,A,2429.1910,N,08118.3513,W,2.5,247.4,120615,5.9,"
"##MN-00 00 00 0828 02704 5777 663552 024254 196"
"163.320162"
"$GPRMC,074059,A,2429.1898,N,08118.3540,W,2.4,247.2,120615,5.9,"
"##MN-00 00 00 0829 02704 5778 664360 024255 196"
"163.320208"
"$GPRMC,074103,A,2429.1888,N,08118.3569,W,2.5,248.6,120615,5.9,"
"##MN-00 00 00 0830 02704 5778 668848 024263 196"
"163.320255"
"$GPRMC,074107,A,2429.1880,N,08118.3598,W,2.5,250.1,120615,5.9,"
"##MN-00 00 00 0831 02703 5778 412080 024259 197"
"163.320301"
"$GPRMC,074111,A,2429.1871,N,08118.3627,W,2.5,250.7,120615,5.9,"
"##MN-00 00 00 0832 02704 5778 666960 024264 196"
"163.320347"
"$GPRMC,074115,A,2429.1861,N,08118.3657,W,2.5,249.6,120615,5.9,"
"##MN-00 00 00 0833 02704 5778 666528 024254 196"
"163.320394"
"$GPRMC,074119,A,2429.1852,N,08118.3686,W,2.5,249.6,120615,5.9,"
"##MN-00 00 00 0834 02705 5778 666960 024260 196"
"163.32044"
"$GPRMC,074123,A,2429.1841,N,08118.3717,W,2.6,248.3,120615,5.9,"
"##MN-00 00 00 0835 02707 5779 666928 024258 196"
"163.320486"
"$GPRMC,074127,A,2429.1826,N,08118.3746,W,2.6,248.2,120615,5.9,"
"##MN-00 00 00 0836 02706 5779 531888 024257 196"
"163.320532"
"$GPRMC,074131,A,2429.1814,N,08118.3773,W,2.5,248.0,120615,5.9,"
"##MN-00 00 00 0837 02705 5779 673120 024269 196"
"163.320579"
"$GPRMC,074135,A,2429.1802,N,08118.3801,W,2.5,247.7,120615,5.9,"
"##MN-00 00 00 0838 02706 5779 670840 024254 196"
"163.320625"
"$GPRMC,074139,A,2429.1790,N,08118.3829,W,2.5,247.8,120615,5.9,"
"##MN-00 00 00 0839 02704 5779 672624 024255 196"
"163.320671"
"$GPRMC,074143,A,2429.1780,N,08118.3858,W,2.6,247.8,120615,5.9,"
"##MN-00 00 00 0840 02705 5779 165904 024266 196"
"163.320718"
"$GPRMC,074147,A,2429.1768,N,08118.3888,W,2.6,247.4,120615,5.9,"
"##MN-00 00 00 0840 02705 5780 674384 024258 197"
"163.320764"
"$GPRMC,074151,A,2429.1758,N,08118.3917,W,2.5,247.4,120615,5.9,"
"##MN-00 00 00 0841 02709 5780 673888 024260 196"
"163.32081"
"$GPRMC,074155,A,2429.1749,N,08118.3947,W,2.6,249.1,120615,5.9,"
"##MN-00 00 00 0842 02708 5780 677000 024265 196"
"163.320856"
"$GPRMC,074159,A,2429.1740,N,08118.3974,W,2.5,250.1,120615,5.9,"
"##MN-00 00 00 0843 02707 5781 677440 024250 196"
"163.320903"
"$GPRMC,074203,A,2429.1730,N,08118.4003,W,2.6,249.2,120615,5.9,"
"##MN-00 00 00 0844 02709 5781 676064 024265 196"
"163.320949"
"$GPRMC,074207,A,2429.1719,N,08118.4030,W,2.5,247.2,120615,5.9,"
"##MN-00 00 00 0845 02709 5781 690272 024224 196"
"163.320995"
"$GPRMC,074211,A,2429.1708,N,08118.4058,W,2.5,247.6,120615,5.9,"
"##MN-00 00 00 0846 02710 5781 410832 024230 196"
"163.321042"
"$GPRMC,074215,A,2429.1697,N,08118.4089,W,2.6,246.8,120615,5.9,"
"##MN-00 00 00 0847 02713 5781 686232 024236 196"
"163.321088"
"$GPRMC,074219,A,2429.1689,N,08118.4115,W,2.5,247.6,120615,5.9,"
"##MN-00 00 00 0848 02714 5781 683536 024244 196"
"163.321134"
"$GPRMC,074223,A,2429.1678,N,08118.4145,W,2.6,249.4,120615,5.9,"
"##MN-00 00 00 0849 02711 5782 819232 024240 196"
"163.321181"
"$GPRMC,074227,A,2429.1667,N,08118.4173,W,2.5,249.1,120615,5.9,"
"##MN-00 00 00 0849 02714 5782 295808 024239 196"
"163.321227"
"$GPRMC,074231,A,2429.1655,N,08118.4202,W,2.6,249.6,120615,5.9,"
"##MN-00 00 00 0850 02714 5782 176272 024273 196"
"163.321273"
"$GPRMC,074235,A,2429.1644,N,08118.4230,W,2.6,249.0,120615,5.9,"
"##MN-00 00 00 0851 02717 5783 685240 024288 196"
"163.321319"
"$GPRMC,074239,A,2429.1632,N,08118.4259,W,2.6,248.8,120615,5.9,"
"##MN-00 00 00 0852 02718 5782 685232 024284 196"
"163.321366"
"$GPRMC,074243,A,2429.1621,N,08118.4288,W,2.6,247.9,120615,5.9,"
"##MN-00 00 00 0853 02719 5783 685192 024281 196"
"163.321412"
"$GPRMC,074247,A,2429.1610,N,08118.4317,W,2.6,247.4,120615,5.9,"
"##MN-00 00 00 0854 02721 5783 684256 024290 196"
"163.321458"
"$GPRMC,074251,A,2429.1599,N,08118.4347,W,2.6,246.6,120615,5.9,"
"##MN-00 00 00 0855 02725 5783 685632 024284 196"
"163.321505"
"$GPRMC,074255,A,2429.1588,N,08118.4378,W,2.6,246.5,120615,5.9,"
"##MN-00 00 00 0856 02723 5784 685176 024289 196"
"163.321551"
"$GPRMC,074259,A,2429.1577,N,08118.4408,W,2.6,247.7,120615,5.9,"
"##MN-00 00 00 0857 02725 5784 685168 024297 196"
"163.321597"
"$GPRMC,074303,A,2429.1567,N,08118.4437,W,2.6,248.3,120615,5.9,"
"##MN-00 00 00 0858 02725 5784 685104 024297 196"
"163.321644"
"$GPRMC,074307,A,2429.1556,N,08118.4467,W,2.6,248.7,120615,5.9,"
"##MN-00 00 00 0859 02728 5785 682400 024293 196"
"163.32169"
"$GPRMC,074311,A,2429.1544,N,08118.4498,W,2.6,248.1,120615,5.9,"
"##MN-00 00 00 0859 02729 5785 686408 024294 196"
"163.321736"
"$GPRMC,074315,A,2429.1534,N,08118.4527,W,2.5,247.5,120615,5.9,"
"##MN-00 00 00 0860 02733 5785 411440 024283 196"
"163.321782"
"$GPRMC,074319,A,2429.1524,N,08118.4557,W,2.6,248.6,120615,5.9,"
"##MN-00 00 00 0861 02732 5785 684992 024287 196"
"163.321829"
"$GPRMC,074323,A,2429.1516,N,08118.4588,W,2.5,249.9,120615,5.9,"
"##MN-00 00 00 0862 02735 5786 685936 024282 196"
"163.321887"
"$GPRMC,074327,A,2429.1505,N,08118.4618,W,2.6,249.7,120615,5.9,"
"##MN-00 00 00 0863 02739 5786 686800 024282 196"
"163.321933"
"$GPRMC,074331,A,2429.1494,N,08118.4647,W,2.6,249.3,120615,5.9,"
"##MN-00 00 00 0864 02739 5786 683192 024278 196"
"163.321979"
"$GPRMC,074335,A,2429.1483,N,08118.4678,W,2.6,249.3,120615,5.9,"
"##MN-00 00 00 0865 02742 5787 686768 024283 196"
"163.322025"
"$GPRMC,074339,A,2429.1472,N,08118.4707,W,2.6,249.0,120615,5.9,"
"##MN-00 00 00 0866 02745 5787 684072 024283 196"
"163.322072"
"$GPRMC,074343,A,2429.1463,N,08118.4738,W,2.6,250.1,120615,5.9,"
"##MN-00 00 00 0867 02748 5787 684936 024282 196"
"163.322118"
"$GPRMC,074347,A,2429.1455,N,08118.4769,W,2.6,250.8,120615,5.9,"
"##MN-00 00 00 0868 02751 5787 687648 024275 196"
"163.322164"
"$GPRMC,074351,A,2429.1445,N,08118.4799,W,2.6,250.6,120615,5.9,"
"##MN-00 00 00 0869 02753 5788 686712 024277 196"
"163.322211"
"$GPRMC,074355,A,2429.1434,N,08118.4830,W,2.6,250.4,120615,5.9,"
"##MN-00 00 00 0869 02756 5788 694736 024273 196"
"163.322257"
"$GPRMC,074359,A,2429.1424,N,08118.4860,W,2.6,249.7,120615,5.9,"
"##MN-00 00 00 0870 02759 5788 695608 024276 196"
"163.322303"
"$GPRMC,074403,A,2429.1413,N,08118.4893,W,2.7,249.5,120615,5.9,"
"##MN-00 00 00 0871 02762 5789 696512 024277 196"
"163.32235"
"$GPRMC,074407,A,2429.1401,N,08118.4920,W,2.6,248.9,120615,5.9,"
"##MN-00 00 00 0872 02765 5789 694320 024274 197"
"163.322396"
"$GPRMC,074411,A,2429.1390,N,08118.4954,W,2.7,248.0,120615,5.9,"
"##MN-00 00 00 0873 02768 5789 697808 024271 196"
"163.322442"
"$GPRMC,074415,A,2429.1378,N,08118.4982,W,2.6,246.5,120615,5.9,"
"##MN-00 00 00 0874 02775 5790 699984 024272 196"
"163.322488"
"$GPRMC,074419,A,2429.1367,N,08118.5011,W,2.6,247.7,120615,5.9,"
"##MN-00 00 00 0875 02775 5790 700920 024278 196"
"163.322535"
"$GPRMC,074424,A,2429.1354,N,08118.5051,W,2.6,248.7,120615,5.9,"
"##MN-00 00 00 0876 02780 5790 703552 024278 196"
"163.322581"
"$GPRMC,074427,A,2429.1346,N,08118.5074,W,2.6,247.9,120615,5.9,"
"##MN-00 00 00 0877 02784 5791 702624 024272 196"
"163.322627"
"$GPRMC,074432,A,2429.1331,N,08118.5115,W,2.6,248.5,120615,5.9,"
"##MN-00 00 00 0878 02789 5791 703000 024281 196"
"163.322674"
"$GPRMC,074435,A,2429.1321,N,08118.5135,W,2.6,249.6,120615,5.9,"
"##MN-00 00 00 0878 02796 5791 705232 024285 196"
"163.32272"
"$GPRMC,074440,A,2429.1306,N,08118.5173,W,2.7,249.1,120615,5.9,"
"##MN-00 00 00 0879 02798 5792 703880 024289 196"
"163.322766"
"$GPRMC,074443,A,2429.1297,N,08118.5193,W,2.6,249.3,120615,5.9,"
"##MN-00 00 00 0880 02804 5792 702560 024275 197"
"163.322812"
"$GPRMC,074447,A,2429.1284,N,08118.5221,W,2.6,249.2,120615,5.9,"
"##MN-00 00 00 0881 02809 5792 706136 024276 196"
"163.322859"
"$GPRMC,074451,A,2429.1273,N,08118.5250,W,2.6,248.9,120615,5.9,"
"##MN-00 00 00 0882 02816 5793 704336 024276 197"
"163.322905"
"$GPRMC,074455,A,2429.1263,N,08118.5276,W,2.6,248.3,120615,5.9,"
"##MN-00 00 00 0883 02820 5793 708760 024280 196"
"163.322951"
"$GPRMC,074459,A,2429.1252,N,08118.5307,W,2.6,248.2,120615,5.9,"
"##MN-00 00 00 0884 02827 5793 709640 024276 197"
"163.322998"
"$GPRMC,074504,A,2429.1237,N,08118.5344,W,2.6,248.3,120615,5.9,"
"##MN-00 00 00 0885 02834 5793 711392 024273 196"
"163.323044"
"$GPRMC,074508,A,2429.1225,N,08118.5373,W,2.6,246.7,120615,5.9,"
"##MN-00 00 00 0885 02840 5794 711800 024283 196"
"163.32309"
"$GPRMC,074512,A,2429.1214,N,08118.5404,W,2.5,246.0,120615,5.9,"
"##MN-00 00 00 0886 02847 5794 713120 024299 196"
"163.323137"
"$GPRMC,074516,A,2429.1205,N,08118.5433,W,2.5,246.5,120615,5.9,"
"##MN-00 00 00 0887 02853 5795 714024 024286 196"
"163.323183"
"$GPRMC,074520,A,2429.1192,N,08118.5459,W,2.5,247.2,120615,5.9,"
"##MN-00 00 00 0888 02863 5795 713136 024281 196"
"163.323229"
"$GPRMC,074524,A,2429.1182,N,08118.5488,W,2.5,246.2,120615,5.9,"
"##MN-00 00 00 0889 02870 5795 713088 024279 196"
"163.323275"
"$GPRMC,074528,A,2429.1170,N,08118.5517,W,2.5,245.5,120615,5.9,"
"##MN-00 00 00 0890 02877 5796 712160 024285 196"
"163.323322"
"$GPRMC,074532,A,2429.1161,N,08118.5545,W,2.5,247.2,120615,5.9,"
"##MN-00 00 00 0890 02886 5796 713088 024271 196"
"163.323368"
"$GPRMC,074536,A,2429.1151,N,08118.5574,W,2.5,247.0,120615,5.9,"
"##MN-00 00 00 0891 02895 5796 713936 024280 196"
"163.323414"
"$GPRMC,074540,A,2429.1140,N,08118.5601,W,2.5,248.2,120615,5.9,"
"##MN-00 00 00 0892 02903 5797 713008 024280 196"
"163.323461"
"$GPRMC,074544,A,2429.1130,N,08118.5632,W,2.5,248.3,120615,5.9,"
"##MN-00 00 00 0893 02913 5797 714792 024278 196"
"163.323507"
"$GPRMC,074548,A,2429.1122,N,08118.5661,W,2.5,248.7,120615,5.9,"
"##MN-00 00 00 0894 02920 5797 714792 024267 196"
"163.323553"
"$GPRMC,074552,A,2429.1115,N,08118.5688,W,2.5,250.3,120615,5.9,"
"##MN-00 00 00 0894 02930 5798 715616 024266 196"
"163.3236"
"$GPRMC,074556,A,2429.1106,N,08118.5719,W,2.5,251.0,120615,5.9,"
"##MN-00 00 00 0895 02938 5798 720144 024284 197"
"163.323646"
"$GPRMC,074600,A,2429.1097,N,08118.5745,W,2.5,251.1,120615,5.9,"
"##MN-00 00 00 0896 02947 5799 721904 024273 196"
"163.323692"
"$GPRMC,074604,A,2429.1088,N,08118.5775,W,2.5,252.0,120615,5.9,"
"##MN-00 00 00 0897 02958 5799 412040 024277 196"
"163.323738"
"$GPRMC,074608,A,2429.1080,N,08118.5803,W,2.5,252.7,120615,5.9,"
"##MN-00 00 00 0898 02967 5799 829856 024270 196"
"163.323785"
"$GPRMC,074612,A,2429.1073,N,08118.5832,W,2.5,252.9,120615,5.9,"
"##MN-00 00 00 0898 02977 5799 586824 024276 196"
"163.323831"
"$GPRMC,074616,A,2429.1064,N,08118.5860,W,2.4,251.2,120615,5.9,"
"##MN-00 00 00 0899 02985 5800 856192 024277 196"
"163.323877"
"$GPRMC,074620,A,2429.1055,N,08118.5892,W,2.5,250.7,120615,5.9,"
"##MN-00 00 00 0900 02992 5800 724496 024279 196"
"163.323924"
"$GPRMC,074624,A,2429.1046,N,08118.5923,W,2.5,251.2,120615,5.9,"
"##MN-00 00 00 0901 03002 5801 722248 024275 196"
"163.32397"
"$GPRMC,074628,A,2429.1036,N,08118.5948,W,2.4,250.3,120615,5.9,"
"##MN-00 00 00 0901 03009 5801 726256 024284 196"
"163.324016"
"$GPRMC,074632,A,2429.1028,N,08118.5977,W,2.5,250.4,120615,5.9,"
"##MN-00 00 00 0902 03018 5801 725352 024260 196"
"163.324063"
"$GPRMC,074636,A,2429.1018,N,08118.6004,W,2.4,250.4,120615,5.9,"
"##MN-00 00 00 0903 03021 5802 723488 024272 196"
"163.324109"
"$GPRMC,074640,A,2429.1010,N,08118.6034,W,2.5,251.1,120615,5.9,"
"##MN-00 00 00 0904 03033 5802 727048 024275 196"
"163.324248"
"$GPRMC,074651,A,2429.0995,N,08118.6116,W,2.5,250.7,120615,5.9,"
"##MN-00 00 00 0906 03053 5803 625939 024276 197"
"163.324294"
"$GPRMC,074656,A,2429.0986,N,08118.6149,W,2.4,250.9,120615,5.9,"
"##MN-00 00 00 0907 03060 5803 730496 024269 196"
"163.32434"
"$GPRMC,074700,A,2429.0977,N,08118.6178,W,2.5,251.1,120615,5.9,"
"##MN-00 00 00 0908 03066 5804 731912 024270 196"
"163.324387"
"$GPRMC,074704,A,2429.0970,N,08118.6207,W,2.4,251.3,120615,5.9,"
"##MN-00 00 00 0909 03071 5804 733144 024270 196"
"163.324433"
"$GPRMC,074708,A,2429.0960,N,08118.6235,W,2.5,251.5,120615,5.9,"
"##MN-00 00 00 0909 03078 5804 734096 024289 196"
"163.324479"
"$GPRMC,074712,A,2429.0952,N,08118.6261,W,2.4,252.7,120615,5.9,"
"##MN-00 00 00 0910 03081 5805 732784 024278 196"
"163.324525"
"$GPRMC,074716,A,2429.0943,N,08118.6293,W,2.5,253.5,120615,5.9,"
"##MN-00 00 00 0911 03089 5805 735008 024275 196"
"163.324572"
"$GPRMC,074720,A,2429.0934,N,08118.6322,W,2.5,253.5,120615,5.9,"
"##MN-00 00 00 0912 03090 5805 738080 024249 196"
"163.324618"
"$GPRMC,074724,A,2429.0927,N,08118.6351,W,2.5,253.7,120615,5.9,"
"##MN-00 00 00 0912 03097 5806 738496 024262 196"
"163.324664"
"$GPRMC,074728,A,2429.0918,N,08118.6373,W,2.5,253.0,120615,5.9,"
"##MN-00 00 00 0913 03102 5806 604792 024241 196"
"163.324711"
"$GPRMC,074732,A,2429.0909,N,08118.6400,W,2.5,254.0,120615,5.9,"
"##MN-00 00 00 0914 03106 5807 486704 024246 196"
"163.324757"
"$GPRMC,074736,A,2429.0899,N,08118.6438,W,2.5,256.2,120615,5.9,"
"##MN-00 00 00 0915 03111 5807 468368 024245 197"
"163.324803"
"$GPRMC,074740,A,2429.0891,N,08118.6467,W,2.5,255.8,120615,5.9,"
"##MN-00 00 00 0916 03116 5808 741160 024248 196"
"163.32485"
"$GPRMC,074744,A,2429.0883,N,08118.6493,W,2.4,255.7,120615,5.9,"
"##MN-00 00 00 0916 03120 5808 741168 024249 196"
"163.324896"
"$GPRMC,074748,A,2429.0874,N,08118.6525,W,2.5,253.9,120615,5.9,"
"##MN-00 00 00 0917 03125 5808 620152 024244 196"
"163.324942"
"$GPRMC,074752,A,2429.0865,N,08118.6550,W,2.4,252.2,120615,5.9,"
"##MN-00 00 00 0918 03128 5809 740720 024286 196"
"163.324988"
"$GPRMC,074756,A,2429.0859,N,08118.6579,W,2.5,252.5,120615,5.9,"
"##MN-00 00 00 0919 03133 5809 638480 024289 196"
"163.325046"
"$GPRMC,074800,A,2429.0853,N,08118.6605,W,2.5,251.6,120615,5.9,"
"##MN-00 00 00 0920 03138 5809 792512 024287 196"
"163.325093"
"$GPRMC,074804,A,2429.0845,N,08118.6631,W,2.5,251.9,120615,5.9,"
"##MN-00 00 00 0920 03140 5810 741248 024292 196"
"163.325139"
"$GPRMC,074808,A,2429.0836,N,08118.6662,W,2.5,251.8,120615,5.9,"
"##MN-00 00 00 0921 03146 5810 741704 024292 196"
"163.325185"
"$GPRMC,074812,A,2429.0827,N,08118.6688,W,2.5,252.0,120615,5.9,"
"##MN-00 00 00 0922 03148 5810 740688 024285 196"
"163.325231"
"$GPRMC,074816,A,2429.0816,N,08118.6723,W,2.5,251.3,120615,5.9,"
"##MN-00 00 00 0923 03153 5811 741256 024294 196"
"163.325278"
"$GPRMC,074820,A,2429.0806,N,08118.6749,W,2.4,252.0,120615,5.9,"
"##MN-00 00 00 0924 03154 5811 741888 024294 196"
"163.325324"
"$GPRMC,074824,A,2429.0797,N,08118.6783,W,2.5,251.7,120615,5.9,"
"##MN-00 00 00 0924 03160 5811 741488 024280 196"
"163.32537"
"$GPRMC,074828,A,2429.0786,N,08118.6811,W,2.5,251.1,120615,5.9,"
"##MN-00 00 00 0925 03163 5812 741592 024283 196"
"163.325417"
"$GPRMC,074832,A,2429.0779,N,08118.6839,W,2.5,250.9,120615,5.9,"
"##MN-00 00 00 0926 03168 5812 741616 024280 196"
"163.325463"
"$GPRMC,074836,A,2429.0769,N,08118.6864,W,2.4,250.2,120615,5.9,"
"##MN-00 00 00 0927 03172 5812 742160 024280 196"
"163.325509"
"$GPRMC,074840,A,2429.0761,N,08118.6891,W,2.4,251.0,120615,5.9,"
"##MN-00 00 00 0928 03177 5813 740112 024274 196"
"163.325556"
"$GPRMC,074844,A,2429.0753,N,08118.6918,W,2.4,251.7,120615,5.9,"
"##MN-00 00 00 0928 03181 5813 605960 024279 196"
"163.325602"
"$GPRMC,074848,A,2429.0744,N,08118.6945,W,2.5,251.6,120615,5.9,"
"##MN-00 00 00 0929 03184 5814 742080 024264 196"
"163.325648"
"$GPRMC,074852,A,2429.0737,N,08118.6973,W,2.4,252.2,120615,5.9,"
"##MN-00 00 00 0930 03186 5814 742208 024248 196"
"163.325694"
"$GPRMC,074856,A,2429.0728,N,08118.7001,W,2.5,252.6,120615,5.9,"
"##MN-00 00 00 0931 03191 5814 741480 024260 196"
"163.325741"
"$GPRMC,074900,A,2429.0721,N,08118.7028,W,2.4,252.6,120615,5.9,"
"##MN-00 00 00 0932 03194 5814 738960 024256 196"
"163.325787"
"$GPRMC,074904,A,2429.0712,N,08118.7056,W,2.5,253.1,120615,5.9,"
"##MN-00 00 00 0933 03198 5815 735104 024273 196"
"163.325833"
"$GPRMC,074908,A,2429.0703,N,08118.7085,W,2.5,254.5,120615,5.9,"
"##MN-00 00 00 0934 03201 5815 731248 024265 196"
"163.32588"
"$GPRMC,074912,A,2429.0694,N,08118.7113,W,2.5,253.8,120615,5.9,"
"##MN-00 00 00 0934 03202 5815 730928 024285 196"
"163.325926"
"$GPRMC,074916,A,2429.0685,N,08118.7144,W,2.6,252.6,120615,5.9,"
"##MN-00 00 00 0935 03204 5816 727072 024261 196"
"163.325972"
"$GPRMC,074921,A,2429.0674,N,08118.7184,W,2.6,251.8,120615,5.9,"
"##MN-00 00 00 0936 03207 5816 724496 024270 196"
"163.326019"
"$GPRMC,074924,A,2429.0664,N,08118.7207,W,2.6,252.0,120615,5.9,"
"##MN-00 00 00 0937 03209 5816 723256 024268 197"
"163.326065"
"$GPRMC,074928,A,2429.0656,N,08118.7236,W,2.6,251.1,120615,5.9,"
"##MN-00 00 00 0938 03213 5817 722928 024266 196"
"163.326111"
"$GPRMC,074932,A,2429.0647,N,08118.7265,W,2.5,250.8,120615,5.9,"
"##MN-00 00 00 0939 03213 5817 720368 024278 196"
"163.326157"
"$GPRMC,074937,A,2429.0635,N,08118.7301,W,2.6,251.9,120615,5.9,"
"##MN-00 00 00 0940 03216 5817 717792 024273 196"
"163.326204"
"$GPRMC,074941,A,2429.0625,N,08118.7327,W,2.5,251.3,120615,5.9,"
"##MN-00 00 00 0941 03219 5817 715168 024279 196"
"163.32625"
"$GPRMC,074945,A,2429.0616,N,08118.7355,W,2.5,250.9,120615,5.9,"
"##MN-00 00 00 0942 03218 5817 714416 024282 197"
"163.326296"
"$GPRMC,074949,A,2429.0609,N,08118.7384,W,2.5,250.8,120615,5.9,"
"##MN-00 00 00 0943 03221 5818 715424 024274 196"
"163.326343"
"$GPRMC,074953,A,2429.0598,N,08118.7411,W,2.4,249.8,120615,5.9,"
"##MN-00 00 00 0944 03220 5818 716408 024275 196"
"163.326389"
"$GPRMC,074957,A,2429.0589,N,08118.7442,W,2.5,250.5,120615,5.9,"
"##MN-00 00 00 0945 03219 5818 696880 024272 196"
"163.326435"
"$GPRMC,075001,A,2429.0580,N,08118.7471,W,2.5,251.5,120615,5.9,"
"##MN-00 00 00 0946 03219 5818 450496 024256 196"
"163.326481"
"$GPRMC,075005,A,2429.0573,N,08118.7498,W,2.5,252.7,120615,5.9,"
"##MN-00 00 00 0947 03219 5818 703296 024267 196"
"163.326528"
"$GPRMC,075009,A,2429.0562,N,08118.7529,W,2.5,252.8,120615,5.9,"
"##MN-00 00 00 0948 03218 5819 970272 024272 196"
"163.326574"
"$GPRMC,075013,A,2429.0553,N,08118.7558,W,2.4,253.4,120615,5.9,"
"##MN-00 00 00 0949 03217 5819 553680 024268 196"
"163.32662"
"$GPRMC,075017,A,2429.0545,N,08118.7587,W,2.4,253.6,120615,5.9,"
"##MN-00 00 00 0950 03217 5819 685584 024276 196"
"163.326667"
"$GPRMC,075021,A,2429.0537,N,08118.7619,W,2.5,253.7,120615,5.9,"
"##MN-00 00 00 0951 03217 5819 687872 024285 196"
"163.326713"
"$GPRMC,075025,A,2429.0531,N,08118.7648,W,2.4,253.0,120615,5.9,"
"##MN-00 00 00 0952 03215 5819 433448 024268 196"
"163.326759"
"$GPRMC,075029,A,2429.0522,N,08118.7680,W,2.5,252.0,120615,5.9,"
"##MN-00 00 00 0953 03214 5819 686624 024287 196"
"163.326806"
"$GPRMC,075033,A,2429.0513,N,08118.7706,W,2.4,251.6,120615,5.9,"
"##MN-00 00 00 0954 03215 5819 688056 024282 196"
"163.326852"
"$GPRMC,075037,A,2429.0504,N,08118.7735,W,2.4,252.4,120615,5.9,"
"##MN-00 00 00 0955 03214 5820 687680 024277 196"
"163.326898"
"$GPRMC,075041,A,2429.0495,N,08118.7760,W,2.4,252.5,120615,5.9,"
"##MN-00 00 00 0956 03214 5819 687728 024281 196"
"163.326944"
"$GPRMC,075045,A,2429.0488,N,08118.7789,W,2.4,252.8,120615,5.9,"
"##MN-00 00 00 0957 03214 5820 687744 024278 196"
"163.326991"
"$GPRMC,075049,A,2429.0479,N,08118.7818,W,2.4,252.7,120615,5.9,"
"##MN-00 00 00 0958 03212 5820 687776 024281 196"
"163.327037"
"$GPRMC,075053,A,2429.0471,N,08118.7854,W,2.4,252.7,120615,5.9,"
"##MN-00 00 00 0959 03213 5820 687848 024275 196"
"163.327083"
"$GPRMC,075057,A,2429.0461,N,08118.7886,W,2.5,252.3,120615,5.9,"
"##MN-00 00 00 0960 03213 5820 687872 024274 196"
"163.32713"
"$GPRMC,075101,A,2429.0454,N,08118.7912,W,2.4,252.8,120615,5.9,"
"##MN-00 00 00 0960 03213 5820 687896 024241 196"
"163.327176"
"$GPRMC,075105,A,2429.0445,N,08118.7941,W,2.4,253.1,120615,5.9,"
"##MN-00 00 00 0961 03213 5820 687952 024246 196"
"163.327222"
"$GPRMC,075109,A,2429.0437,N,08118.7964,W,2.4,252.7,120615,5.9,"
"##MN-00 00 00 0962 03216 5820 683048 024248 196"
"163.327269"
"$GPRMC,075113,A,2429.0428,N,08118.7991,W,2.4,253.1,120615,5.9,"
"##MN-00 00 00 0963 03215 5820 682624 024243 196"
"163.327315"
"$GPRMC,075117,A,2429.0421,N,08118.8018,W,2.4,252.9,120615,5.9,"
"##MN-00 00 00 0964 03216 5820 679560 024259 196"
"163.327361"
"$GPRMC,075121,A,2429.0414,N,08118.8047,W,2.5,252.1,120615,5.9,"
"##MN-00 00 00 0965 03219 5820 675600 024253 196"
"163.327407"
"$GPRMC,075125,A,2429.0407,N,08118.8076,W,2.5,251.7,120615,5.9,"
"##MN-00 00 00 0966 03220 5820 676512 024256 196"
"163.327454"
"$GPRMC,075129,A,2429.0403,N,08118.8105,W,2.5,251.2,120615,5.9,"
"##MN-00 00 00 0967 03223 5820 672120 024256 196"
"163.3275"
"$GPRMC,075133,A,2429.0392,N,08118.8132,W,2.6,249.2,120615,5.9,"
"##MN-00 00 00 0968 03225 5820 669504 024244 196"
"163.327546"
"$GPRMC,075137,A,2429.0385,N,08118.8158,W,2.5,249.5,120615,5.9,"
"##MN-00 00 00 0969 03225 5820 669136 024261 196"
"163.327593"
"$GPRMC,075141,A,2429.0378,N,08118.8188,W,2.5,249.3,120615,5.9,"
"##MN-00 00 00 0970 03228 5820 619720 024240 196"
"163.327639"
"$GPRMC,075145,A,2429.0367,N,08118.8222,W,2.5,249.8,120615,5.9,"
"##MN-00 00 00 0971 03231 5820 764432 024253 196"
"163.327685"
"$GPRMC,075149,A,2429.0356,N,08118.8251,W,2.5,250.3,120615,5.9,"
"##MN-00 00 00 0972 03232 5819 661472 024254 196"
"163.327731"
"$GPRMC,075153,A,2429.0349,N,08118.8280,W,2.5,250.7,120615,5.9,"
"##MN-00 00 00 0972 03235 5820 660272 024256 196"
"163.327778"
"$GPRMC,075157,A,2429.0338,N,08118.8310,W,2.5,250.4,120615,5.9,"
"##MN-00 00 00 0973 03239 5819 660352 024266 196"
"163.327824"
"$GPRMC,075201,A,2429.0328,N,08118.8340,W,2.5,250.8,120615,5.9,"
"##MN-00 00 00 0974 03241 5819 660464 024243 196"
"163.32787"
"$GPRMC,075205,A,2429.0320,N,08118.8370,W,2.5,251.8,120615,5.9,"
"##MN-00 00 00 0975 03240 5819 654376 024257 196"
"163.327917"
"$GPRMC,075209,A,2429.0311,N,08118.8400,W,2.5,252.6,120615,5.9,"
"##MN-00 00 00 0976 03246 5819 651016 024252 196"
"163.327963"
"$GPRMC,075213,A,2429.0302,N,08118.8426,W,2.4,254.1,120615,5.9,"
"##MN-00 00 00 0977 03245 5819 376688 024254 196"
"163.328009"
"$GPRMC,075217,A,2429.0292,N,08118.8454,W,2.5,254.8,120615,5.9,"
"##MN-00 00 00 0978 03248 5819 637552 024274 196"
"163.328056"
"$GPRMC,075221,A,2429.0282,N,08118.8484,W,2.5,254.5,120615,5.9,"
"##MN-00 00 00 0979 03249 5818 631936 024276 196"
"163.328102"
"$GPRMC,075225,A,2429.0273,N,08118.8513,W,2.5,254.2,120615,5.9,"
"##MN-00 00 00 0980 03251 5818 378912 024281 196"
"163.328148"
"$GPRMC,075229,A,2429.0264,N,08118.8538,W,2.5,252.9,120615,5.9,"
"##MN-00 00 00 0981 03251 5818 496832 024294 196"
"163.328194"
"$GPRMC,075233,A,2429.0257,N,08118.8567,W,2.5,252.6,120615,5.9,"
"##MN-00 00 00 0982 03253 5818 633344 024304 196"
"163.328252"
"$GPRMC,075237,A,2429.0247,N,08118.8591,W,2.5,252.3,120615,5.9,"
"##MN-00 00 00 0982 03257 5817 633520 024265 196"
"163.328299"
"$GPRMC,075241,A,2429.0240,N,08118.8620,W,2.5,252.3,120615,5.9,"
"##MN-00 00 00 0983 03256 5817 633664 024231 196"
"163.328345"
"$GPRMC,075245,A,2429.0235,N,08118.8652,W,2.6,250.1,120615,5.9,"
"##MN-00 00 00 0984 03259 5817 629312 024259 197"
"163.328391"
"$GPRMC,075249,A,2429.0229,N,08118.8679,W,2.5,249.9,120615,5.9,"
"##MN-00 00 00 0985 03259 5817 624976 024247 196"
"163.328438"
"$GPRMC,075253,A,2429.0219,N,08118.8710,W,2.5,249.2,120615,5.9,"
"##MN-00 00 00 0986 03262 5816 616640 024272 196"
"163.328484"
"$GPRMC,075257,A,2429.0211,N,08118.8739,W,2.4,248.3,120615,5.9,"
"##MN-00 00 00 0987 03264 5816 615456 024248 196"
"163.32853"
"$GPRMC,075301,A,2429.0201,N,08118.8768,W,2.4,248.0,120615,5.9,"
"##MN-00 00 00 0988 03266 5816 609296 024267 196"
"163.328576"
"$GPRMC,075305,A,2429.0193,N,08118.8795,W,2.4,248.0,120615,5.9,"
"##MN-00 00 00 0989 03268 5815 606288 024266 196"
"163.328623"
"$GPRMC,075309,A,2429.0183,N,08118.8824,W,2.4,249.8,120615,5.9,"
"##MN-00 00 00 0990 03272 5815 607728 024273 196"
"163.328669"
"$GPRMC,075313,A,2429.0174,N,08118.8856,W,2.5,251.3,120615,5.9,"
"##MN-00 00 00 0991 03271 5815 601632 024264 196"
"163.328715"
"$GPRMC,075317,A,2429.0165,N,08118.8885,W,2.5,252.1,120615,5.9,"
"##MN-00 00 00 0991 03273 5814 595944 024277 196"
"163.328762"
"$GPRMC,075321,A,2429.0155,N,08118.8914,W,2.4,251.7,120615,5.9,"
"##MN-00 00 00 0992 03275 5814 587568 024289 196"
"163.328808"
"$GPRMC,075325,A,2429.0145,N,08118.8942,W,2.4,251.7,120615,5.9,"
"##MN-00 00 00 0993 03278 5814 578296 024292 197"
"163.328854"
"$GPRMC,075329,A,2429.0135,N,08118.8972,W,2.5,251.8,120615,5.9,"
"##MN-00 00 00 0994 03281 5813 578000 024292 196"
"163.3289"
"$GPRMC,075333,A,2429.0125,N,08118.8999,W,2.5,251.7,120615,5.9,"
"##MN-00 00 00 0995 03284 5813 578088 024300 196"
"163.328947"
"$GPRMC,075337,A,2429.0115,N,08118.9026,W,2.4,251.2,120615,5.9,"
"##MN-00 00 00 0996 03285 5812 578208 024337 196"
"163.328993"
"$GPRMC,075341,A,2429.0105,N,08118.9050,W,2.4,250.8,120615,5.9,"
"##MN-00 00 00 0997 03292 5812 325224 024284 196"
"163.329039"
"$GPRMC,075345,A,2429.0097,N,08118.9080,W,2.4,251.3,120615,5.9,"
"##MN-00 00 00 0997 03295 5811 713832 024237 196"
"163.329086"
"$GPRMC,075349,A,2429.0089,N,08118.9109,W,2.4,251.8,120615,5.9,"
"##MN-00 00 00 0998 03299 5811 302560 024250 197"
"163.329132"
"$GPRMC,075353,A,2429.0079,N,08118.9138,W,2.5,251.9,120615,5.9,"
"##MN-00 00 00 0999 03302 5811 566936 024253 196"
"163.329178"
"$GPRMC,075357,A,2429.0070,N,08118.9167,W,2.5,252.7,120615,5.9,"
"##MN-00 00 00 1000 03304 5810 563136 024266 196"
"163.329225"
"$GPRMC,075402,A,2429.0058,N,08118.9203,W,2.5,253.6,120615,5.9,"
"##MN-00 00 00 1001 03310 5809 556656 024246 196"
"163.329271"
"$GPRMC,075406,A,2429.0050,N,08118.9231,W,2.4,253.6,120615,5.9,"
"##MN-00 00 00 1002 03313 5809 551112 024257 196"
"163.329317"
"$GPRMC,075409,A,2429.0042,N,08118.9252,W,2.5,253.3,120615,5.9,"
"##MN-00 00 00 1002 03318 5808 549504 024258 196"
"163.329363"
"$GPRMC,075413,A,2429.0031,N,08118.9281,W,2.4,252.5,120615,5.9,"
"##MN-00 00 00 1003 03323 5807 543432 024269 196"
"163.32941"
"$GPRMC,075418,A,2429.0023,N,08118.9318,W,2.5,255.6,120615,5.9,"
"##MN-00 00 00 1004 03326 5807 529344 024268 196"
"163.329456"
"$GPRMC,075421,A,2429.0014,N,08118.9342,W,2.6,254.4,120615,5.9,"
"##MN-00 00 00 1005 03331 5806 523400 024309 196"
"163.329502"
"$GPRMC,075426,A,2429.0003,N,08118.9375,W,2.4,254.7,120615,5.9,"
"##MN-00 00 00 1006 03335 5805 523552 024269 196"
"163.329549"
"$GPRMC,075430,A,2428.9995,N,08118.9402,W,2.5,254.1,120615,5.9,"
"##MN-00 00 00 1007 03339 5805 523784 024320 196"
"163.329595"
"$GPRMC,075434,A,2428.9986,N,08118.9433,W,2.4,253.5,120615,5.9,"
"##MN-00 00 00 1007 03342 5804 524928 024235 196"
"163.329641"
"$GPRMC,075438,A,2428.9978,N,08118.9462,W,2.4,253.0,120615,5.9,"
"##MN-00 00 00 1008 03346 5803 517088 024247 196"
"163.329687"
"$GPRMC,075442,A,2428.9968,N,08118.9488,W,2.4,251.1,120615,5.9,"
"##MN-00 00 00 1009 03352 5803 508384 024253 196"
"163.329734"
"$GPRMC,075446,A,2428.9960,N,08118.9519,W,2.4,251.2,120615,5.9,"
"##MN-00 00 00 1010 03357 5802 504992 024258 196"
"163.32978"
"$GPRMC,075450,A,2428.9952,N,08118.9548,W,2.4,251.4,120615,5.9,"
"##MN-00 00 00 1011 03363 5801 499408 024258 196"
"163.329826"
"$GPRMC,075454,A,2428.9944,N,08118.9577,W,2.4,251.5,120615,5.9,"
"##MN-00 00 00 1011 03369 5800 493384 024256 196"
"163.329873"
"$GPRMC,075458,A,2428.9935,N,08118.9606,W,2.4,251.9,120615,5.9,"
"##MN-00 00 00 1012 03374 5800 486016 024301 196"
"163.329919"
"$GPRMC,075502,A,2428.9926,N,08118.9635,W,2.5,251.5,120615,5.9,"
"##MN-00 00 00 1013 03379 5799 474632 024283 196"
"163.329965"
"$GPRMC,075506,A,2428.9919,N,08118.9662,W,2.4,251.4,120615,5.9,"
"##MN-00 00 00 1014 03388 5798 469488 024290 196"
"163.330012"
"$GPRMC,075510,A,2428.9909,N,08118.9693,W,2.5,251.2,120615,5.9,"
"##MN-00 00 00 1015 03389 5797 741224 024295 196"
"163.330058"
"$GPRMC,075514,A,2428.9899,N,08118.9720,W,2.5,250.3,120615,5.9,"
"##MN-00 00 00 1015 03396 5796 468976 024260 196"
"163.330104"
"$GPRMC,075518,A,2428.9892,N,08118.9748,W,2.5,251.3,120615,5.9,"
"##MN-00 00 00 1016 03401 5795 719712 024257 196"
"163.33015"
"$GPRMC,075522,A,2428.9884,N,08118.9776,W,2.5,251.2,120615,5.9,"
"##MN-00 00 00 1017 03407 5794 728512 024267 196"
"163.330197"
"$GPRMC,075526,A,2428.9876,N,08118.9802,W,2.5,252.6,120615,5.9,"
"##MN-00 00 00 1018 03413 5793 450032 024284 196"
"163.330243"
"$GPRMC,075530,A,2428.9868,N,08118.9835,W,2.5,253.1,120615,5.9,"
"##MN-00 00 00 1018 03418 5792 444008 024277 196"
"163.330289"
"$GPRMC,075534,A,2428.9859,N,08118.9866,W,2.5,252.5,120615,5.9,"
"##MN-00 00 00 1019 03423 5791 438848 024281 196"
"163.330336"
"$GPRMC,075538,A,2428.9850,N,08118.9896,W,2.5,252.8,120615,5.9,"
"##MN-00 00 00 1020 03427 5790 430160 024278 196"
"163.330382"
"$GPRMC,075542,A,2428.9841,N,08118.9924,W,2.5,252.6,120615,5.9,"
"##MN-00 00 00 1021 03431 5789 413952 024289 196"
"163.330428"
"$GPRMC,075546,A,2428.9833,N,08118.9956,W,2.5,252.6,120615,5.9,"
"##MN-00 00 00 1021 03434 5788 413728 024267 196"
"163.330475"
"$GPRMC,075550,A,2428.9825,N,08118.9982,W,2.6,253.2,120615,5.9,"
"##MN-00 00 00 1022 03437 5787 413944 024263 197"
"163.330521"
"$GPRMC,075554,A,2428.9815,N,08119.0014,W,2.5,252.4,120615,5.9,"
"##MN-00 00 00 1023 03442 5786 415056 024265 196"
"163.330567"
"$GPRMC,075558,A,2428.9807,N,08119.0045,W,2.5,252.2,120615,5.9,"
"##MN-00 00 00 1024 03447 5785 267736 024264 196"
"163.330613"
"$GPRMC,075602,A,2428.9798,N,08119.0077,W,2.6,251.7,120615,5.9,"
"##MN-00 00 00 1025 03448 5783 395496 024254 196"
"163.33066"
"$GPRMC,075606,A,2428.9787,N,08119.0105,W,2.5,251.3,120615,5.9,"
"##MN-00 00 00 1025 03455 5782 387232 024249 196"
"163.330706"
"$GPRMC,075610,A,2428.9778,N,08119.0135,W,2.6,251.3,120615,5.9,"
"##MN+00 00 00 1026 03459 5781 611648 024257 196"
"163.330752"
"$GPRMC,075614,A,2428.9769,N,08119.0167,W,2.5,250.6,120615,5.9,"
"##MN+00 00 00 1027 03460 5779 464464 024243 196"
"163.330799"
"$GPRMC,075618,A,2428.9762,N,08119.0197,W,2.5,251.5,120615,5.9,"
"##MN+00 00 00 1028 03465 5778 496704 024235 196"
"163.330845"
"$GPRMC,075622,A,2428.9753,N,08119.0227,W,2.6,251.6,120615,5.9,"
"##MN+00 00 00 1029 03469 5777 359176 024271 196"
"163.330891"
"$GPRMC,075626,A,2428.9743,N,08119.0256,W,2.5,252.6,120615,5.9,"
"##MN+00 00 00 1030 03468 5776 358944 024235 196"
"163.330938"
"$GPRMC,075630,A,2428.9734,N,08119.0283,W,2.6,253.5,120615,5.9,"
"##MN+00 00 00 1031 03472 5774 442552 024264 196"
"163.330984"
"$GPRMC,075634,A,2428.9724,N,08119.0311,W,2.5,252.8,120615,5.9,"
"##MN-00 00 00 1032 03473 5773 434416 024236 196"
"163.33103"
"$GPRMC,075638,A,2428.9715,N,08119.0340,W,2.5,252.2,120615,5.9,"
"##MN-00 00 00 1032 03477 5772 335064 024226 197"
"163.331076"
"$GPRMC,075642,A,2428.9706,N,08119.0366,W,2.4,251.2,120615,5.9,"
"##MN-00 00 00 1033 03476 5770 463752 024255 196"
"163.331123"
"$GPRMC,075646,A,2428.9696,N,08119.0394,W,2.4,251.3,120615,5.9,"
"##MN-00 00 00 1034 03478 5768 316320 024279 197"
"163.331169"
"$GPRMC,075650,A,2428.9688,N,08119.0421,W,2.4,250.2,120615,5.9,"
"##MN-00 00 00 1035 03477 5767 303680 024302 197"
"163.331215"
"$GPRMC,075654,A,2428.9680,N,08119.0449,W,2.4,250.2,120615,5.9,"
"##MN-00 00 00 1036 03480 5765 853536 024296 196"
"163.331262"
"$GPRMC,075658,A,2428.9671,N,08119.0475,W,2.4,251.0,120615,5.9,"
"##MN-00 00 00 1037 03480 5764 303080 024235 196"
"163.331308"
"$GPRMC,075702,A,2428.9662,N,08119.0503,W,2.4,251.4,120615,5.9,"
"##MN-00 00 00 1038 03482 5762 159352 024232 196"
"163.331354"
"$GPRMC,075706,A,2428.9655,N,08119.0532,W,2.4,251.7,120615,5.9,"
"##MN-00 00 00 1039 03483 5761 836256 024278 196"
"163.3314"
"$GPRMC,075710,A,2428.9646,N,08119.0560,W,2.4,252.9,120615,5.9,"
"##MN-00 00 00 1040 03482 5759 417392 024284 196"
"163.331447"
"$GPRMC,075714,A,2428.9638,N,08119.0589,W,2.4,254.0,120615,5.9,"
"##MN-00 00 00 1041 03483 5757 048000 024291 196"
"163.331505"
"$GPRMC,075718,A,2428.9632,N,08119.0618,W,2.4,252.8,120615,5.9,"
"##MN-00 00 00 1042 03485 5756 403024 024301 196"
"163.331551"
"$GPRMC,075722,A,2428.9621,N,08119.0644,W,2.5,253.0,120615,5.9,"
"##MN-00 00 00 1043 03486 5754 524944 024321 196"
"163.331597"
"$GPRMC,075726,A,2428.9613,N,08119.0675,W,2.5,253.0,120615,5.9,"
"##MN-00 00 00 1043 03486 5752 019968 024325 196"
"163.331644"
"$GPRMC,075730,A,2428.9605,N,08119.0701,W,2.5,253.2,120615,5.9,"
"##MN-00 00 00 1044 03484 5751 909096 024260 196"
"163.33169"
"$GPRMC,075734,A,2428.9598,N,08119.0730,W,2.4,254.0,120615,5.9,"
"##MN-00 00 00 1045 03486 5749 615152 024276 196"
"163.331736"
"#increment_net"
"$GPRMC,075738,A,2428.9590,N,08119.0764,W,2.4,254.4,120615,5.9,"
"##MN-00 00 00 1046 03487 5747 600520 024291 196"
"163.331782"
"$GPRMC,075742,A,2428.9583,N,08119.0791,W,2.4,254.6,120615,5.9,"
"##MN-00 00 00 1047 03485 5745 748200 024287 196"
"163.331829"
"$GPRMC,075746,A,2428.9576,N,08119.0822,W,2.5,254.5,120615,5.9,"
"##MN-00 00 00 1048 03486 5743 771024 024294 196"
"163.331875"
"$GPRMC,075750,A,2428.9568,N,08119.0849,W,2.4,254.3,120615,5.9,"
"##MN-00 00 00 1049 03482 5742 735112 024295 196"
"163.331921"
"$GPRMC,075754,A,2428.9564,N,08119.0879,W,2.4,253.9,120615,5.9,"
"##MN-00 00 00 1050 03483 5740 202416 024309 196"
"163.331968"
"$GPRMC,075758,A,2428.9556,N,08119.0903,W,2.4,254.1,120615,5.9,"
"##MN-00 00 00 1051 03478 5738 469080 024312 196"
"163.332014"
"$GPRMC,075802,A,2428.9547,N,08119.0928,W,2.4,254.6,120615,5.9,"
"##MN-00 00 00 1052 03478 5736 715456 024296 196"
"163.33206"
"$GPRMC,075806,A,2428.9537,N,08119.0954,W,2.4,253.8,120615,5.9,"
"##MN-00 00 00 1053 03479 5734 193008 024285 196"
"163.332106"
"$GPRMC,075810,A,2428.9529,N,08119.0980,W,2.3,253.5,120615,5.9,"
"##MN-00 00 00 1054 03476 5732 874808 024305 196"
"163.332153"
"$GPRMC,075814,A,2428.9519,N,08119.1006,W,2.3,252.7,120615,5.9,"
"##MN-00 00 00 1055 03474 5730 837136 024297 196"
"163.332199"
"$GPRMC,075818,A,2428.9510,N,08119.1034,W,2.3,251.8,120615,5.9,"
"##MN-00 00 00 1056 03471 5728 443968 024295 196"
"163.332245"
"$GPRMC,075822,A,2428.9502,N,08119.1062,W,2.3,251.5,120615,5.9,"
"##MN-00 00 00 1057 03473 5726 438256 024307 196"
"163.332292"
"$GPRMC,075826,A,2428.9492,N,08119.1089,W,2.4,250.2,120615,5.9,"
"##MN-00 00 00 1058 03470 5724 430848 024309 196"
"163.332338"
"$GPRMC,075830,A,2428.9482,N,08119.1116,W,2.3,248.9,120615,5.9,"
"##MN-00 00 00 1059 03469 5722 421112 024321 196"
"163.332384"
"$GPRMC,075835,A,2428.9471,N,08119.1150,W,2.3,249.3,120615,5.9,"
"##MN-00 00 00 1060 03469 5720 412336 024319 196"
"163.332431"
"$GPRMC,075838,A,2428.9464,N,08119.1171,W,2.3,249.2,120615,5.9,"
"##MN-00 00 00 1061 03466 5718 965168 024298 196"
"163.332477"
"$GPRMC,075842,A,2428.9453,N,08119.1197,W,2.4,248.8,120615,5.9,"
"##MN-00 00 00 1062 03466 5716 274304 024273 196"
"163.332523"
"$GPRMC,075846,A,2428.9445,N,08119.1225,W,2.4,249.6,120615,5.9,"
"##MN-00 00 00 1063 03464 5714 134480 024293 196"
"163.332569"
"$GPRMC,075850,A,2428.9437,N,08119.1253,W,2.4,250.0,120615,5.9,"
"##MN-00 00 00 1064 03465 5711 402416 024296 196"
"163.332616"
"$GPRMC,075854,A,2428.9429,N,08119.1280,W,2.4,250.4,120615,5.9,"
"##MN-00 00 00 1065 03462 5709 394944 024306 196"
"163.332662"
"$GPRMC,075859,A,2428.9419,N,08119.1315,W,2.4,251.1,120615,5.9,"
"##MN-00 00 00 1066 03460 5707 664240 024308 196"
"163.332708"
"$GPRMC,075903,A,2428.9411,N,08119.1344,W,2.4,251.3,120615,5.9,"
"##MN-00 00 00 1067 03460 5705 768688 024310 196"
"163.332755"
"$GPRMC,075907,A,2428.9403,N,08119.1371,W,2.4,252.2,120615,5.9,"
"##MN-00 00 00 1068 03458 5703 623024 024311 196"
"163.332801"
"$GPRMC,075911,A,2428.9395,N,08119.1398,W,2.4,253.5,120615,5.9,"
"##MN-00 00 00 1069 03450 5701 741808 024319 196"
"163.332847"
"$GPRMC,075915,A,2428.9388,N,08119.1425,W,2.4,254.7,120615,5.9,"
"##MN-00 00 00 1070 03451 5699 833728 024333 196"
"163.332894"
"$GPRMC,075919,A,2428.9378,N,08119.1452,W,2.4,254.2,120615,5.9,"
"##MN-00 00 00 1071 03450 5696 633440 024332 196"
"163.33294"
"$GPRMC,075923,A,2428.9370,N,08119.1478,W,2.4,254.8,120615,5.9,"
"##MN-00 00 00 1072 03447 5694 495312 024291 196"
"163.332986"
"$GPRMC,075927,A,2428.9362,N,08119.1510,W,2.4,254.8,120615,5.9,"
"##MN-00 00 00 1073 03443 5692 218608 024288 196"
"163.333032"
"$GPRMC,075931,A,2428.9355,N,08119.1542,W,2.4,254.6,120615,5.9,"
"##MN-00 00 00 1074 03445 5690 349312 024310 196"
"163.333079"
"$GPRMC,075935,A,2428.9346,N,08119.1571,W,2.4,254.5,120615,5.9,"
"##MN-00 00 00 1075 03438 5687 727888 024317 196"
"163.333125"
"$GPRMC,075939,A,2428.9338,N,08119.1600,W,2.5,254.1,120615,5.9,"
"##MN-00 00 00 1076 03437 5685 723496 024314 196"
"163.333171"
"$GPRMC,075943,A,2428.9330,N,08119.1629,W,2.5,253.4,120615,5.9,"
"##MN-00 00 00 1077 03435 5683 607984 024306 196"
"163.333218"
"$GPRMC,075947,A,2428.9323,N,08119.1658,W,2.5,253.1,120615,5.9,"
"##MN-00 00 00 1078 03431 5681 436896 024316 196"
"163.333264"
"$GPRMC,075951,A,2428.9313,N,08119.1687,W,2.5,252.1,120615,5.9,"
"##MN-00 00 00 1079 03426 5678 045472 024310 196"
"163.33331"
"$GPRMC,075955,A,2428.9305,N,08119.1713,W,2.5,252.1,120615,5.9,"
"##MN-00 00 00 1080 03425 5676 704464 024302 196"
"163.333356"
"$GPRMC,075959,A,2428.9299,N,08119.1739,W,2.4,253.0,120615,5.9,"
"##MN-00 00 00 1081 03422 5674 304144 024317 196"
"163.333403"
"$GPRMC,080003,A,2428.9292,N,08119.1771,W,2.5,253.1,120615,5.9,"
"##MN-00 00 00 1082 03421 5672 024256 024304 196"
"163.333449"
"$GPRMC,080007,A,2428.9285,N,08119.1799,W,2.4,254.2,120615,5.9,"
"##MN-00 00 00 1083 03419 5669 686696 024317 196"
"163.333495"
"$GPRMC,080011,A,2428.9277,N,08119.1828,W,2.4,253.9,120615,5.9,"
"##MN-00 00 00 1084 03415 5667 749040 024288 196"
"163.333542"
"$GPRMC,080015,A,2428.9270,N,08119.1855,W,2.4,253.3,120615,5.9,"
"##MN-00 00 00 1085 03412 5665 324424 024286 196"
"163.333588"
"$GPRMC,080019,A,2428.9262,N,08119.1882,W,2.4,252.5,120615,5.9,"
"##MN-00 00 00 1086 03412 5662 294512 024293 196"
"163.333634"
"$GPRMC,080023,A,2428.9254,N,08119.1908,W,2.4,253.0,120615,5.9,"
"##MN-00 00 00 1087 03409 5660 782304 024292 196"
"163.333681"
"$GPRMC,080027,A,2428.9244,N,08119.1933,W,2.3,252.5,120615,5.9,"
"##MN-00 00 00 1088 03407 5658 007456 024298 196"
"163.333727"
"$GPRMC,080031,A,2428.9236,N,08119.1960,W,2.4,252.8,120615,5.9,"
"##MN-00 00 00 1089 03405 5655 003920 024300 196"
"163.333773"
"$GPRMC,080035,A,2428.9225,N,08119.1985,W,2.4,252.6,120615,5.9,"
"##MN-00 00 00 1090 03403 5652 523392 024302 196"
"163.333819"
"$GPRMC,080039,A,2428.9216,N,08119.2012,W,2.4,252.6,120615,5.9,"
"##MN-00 00 00 1091 03402 5651 043232 024297 196"
"163.333866"
"$GPRMC,080043,A,2428.9207,N,08119.2038,W,2.4,251.7,120615,5.9,"
"##MN-00 00 00 1092 03399 5648 547008 024296 196"
"163.333912"
"$GPRMC,080047,A,2428.9200,N,08119.2067,W,2.3,251.0,120615,5.9,"
"##MN-00 00 00 1093 03397 5646 036152 024297 196"
"163.333958"
"$GPRMC,080051,A,2428.9193,N,08119.2095,W,2.3,250.6,120615,5.9,"
"##MN-00 00 00 1094 03394 5644 031288 024288 196"
"163.334005"
"$GPRMC,080055,A,2428.9187,N,08119.2124,W,2.3,251.3,120615,5.9,"
"##MN-00 00 00 1095 03394 5641 028624 024282 196"
"163.334051"
"$GPRMC,080059,A,2428.9178,N,08119.2150,W,2.3,251.4,120615,5.9,"
"##MN-00 00 00 1096 03392 5639 017496 024296 196"
"163.334097"
"$GPRMC,080103,A,2428.9171,N,08119.2175,W,2.3,252.6,120615,5.9,"
"##MN-00 00 00 1097 03389 5636 014432 024293 196"
"163.334144"
"$GPRMC,080107,A,2428.9161,N,08119.2201,W,2.3,253.0,120615,5.9,"
"##MN-00 00 00 1098 03387 5634 015800 024298 196"
"163.33419"
"$GPRMC,080111,A,2428.9153,N,08119.2227,W,2.3,253.6,120615,5.9,"
"##MN-00 00 00 1099 03384 5632 014952 024274 196"
"163.334236"
"$GPRMC,080115,A,2428.9146,N,08119.2255,W,2.3,253.2,120615,5.9,"
"##MN-00 00 00 1100 03384 5630 016352 024274 196"
"163.334282"
"$GPRMC,080119,A,2428.9138,N,08119.2284,W,2.4,252.4,120615,5.9,"
"##MN-00 00 00 1101 03383 5627 013704 024280 196"
"163.334329"
"$GPRMC,080123,A,2428.9129,N,08119.2310,W,2.3,252.6,120615,5.9,"
"##MN-00 00 00 1102 03380 5625 515248 024280 196"
"163.334375"
"$GPRMC,080127,A,2428.9120,N,08119.2338,W,2.4,250.7,120615,5.9,"
"##MN-00 00 00 1103 03374 5622 003544 024285 196"
"163.334421"
"$GPRMC,080131,A,2428.9109,N,08119.2364,W,2.3,249.3,120615,5.9,"
"##MN-00 00 00 1104 03370 5620 719584 024286 196"
"163.334468"
"$GPRMC,080135,A,2428.9100,N,08119.2389,W,2.3,249.2,120615,5.9,"
"##MN-00 00 00 1105 03371 5618 996944 024276 196"
"163.334514"
"$GPRMC,080139,A,2428.9091,N,08119.2417,W,2.3,248.9,120615,5.9,"
"##MN-00 00 00 1106 03366 5616 990296 024294 196"
"163.33456"
"$GPRMC,080143,A,2428.9083,N,08119.2442,W,2.3,249.6,120615,5.9,"
"##MN-00 00 00 1107 03363 5613 987184 024278 196"
"163.334606"
"$GPRMC,080147,A,2428.9075,N,08119.2468,W,2.3,251.2,120615,5.9,"
"##MN-00 00 00 1108 03360 5611 986344 024294 196"
"163.334653"
"$GPRMC,080151,A,2428.9066,N,08119.2494,W,2.3,252.1,120615,5.9,"
"##MN-00 00 00 1109 03357 5609 979672 024293 196"
"163.334699"
"$GPRMC,080155,A,2428.9057,N,08119.2519,W,2.3,252.7,120615,5.9,"
"##MN-00 00 00 1110 03356 5606 978304 024300 196"
"163.334757"
"$GPRMC,080159,A,2428.9049,N,08119.2547,W,2.3,252.0,120615,5.9,"
"##MN-00 00 00 1111 03352 5604 975656 024301 196"
"163.334803"
"$GPRMC,080203,A,2428.9041,N,08119.2572,W,2.3,252.0,120615,5.9,"
"##MN-00 00 00 1112 03350 5602 972112 024304 196"
"163.33485"
"$GPRMC,080207,A,2428.9035,N,08119.2608,W,2.3,252.9,120615,5.9,"
"##MN-00 00 00 1113 03346 5599 961832 024300 196"
"163.334896"
"$GPRMC,080211,A,2428.9027,N,08119.2637,W,2.3,252.9,120615,5.9,"
"##MN-00 00 00 1114 03341 5597 959136 024305 196"
"163.334942"
"$GPRMC,080215,A,2428.9020,N,08119.2667,W,2.3,252.3,120615,5.9,"
"##MN-00 00 00 1115 03337 5595 960528 024311 196"
"163.334988"
"$GPRMC,080219,A,2428.9014,N,08119.2695,W,2.4,252.8,120615,5.9,"
"##MN-00 00 00 1116 03335 5593 958304 024311 196"
"163.335035"
"$GPRMC,080223,A,2428.9005,N,08119.2721,W,2.3,253.0,120615,5.9,"
"##MN-00 00 00 1117 03333 5590 959632 024301 196"
"163.335081"
"$GPRMC,080227,A,2428.8997,N,08119.2749,W,2.4,253.0,120615,5.9,"
"##MN-00 00 00 1118 03331 5588 958344 024291 196"
"163.335127"
"$GPRMC,080231,A,2428.8989,N,08119.2775,W,2.3,252.7,120615,5.9,"
"##MN-00 00 00 1119 03326 5586 714064 024290 196"
"163.335174"
"$GPRMC,080235,A,2428.8983,N,08119.2801,W,2.3,253.4,120615,5.9,"
"##MN-00 00 00 1120 03326 5584 955280 024294 196"
"163.33522"
"$GPRMC,080239,A,2428.8973,N,08119.2827,W,2.3,252.7,120615,5.9,"
"##MN-00 00 00 1121 03321 5582 950368 024298 196"
"163.335266"
"$GPRMC,080243,A,2428.8967,N,08119.2854,W,2.4,254.7,120615,5.9,"
"##MN-00 00 00 1122 03320 5579 948144 024304 196"
"163.335312"
"$GPRMC,080247,A,2428.8958,N,08119.2881,W,2.4,254.4,120615,5.9,"
"##MN-00 00 00 1123 03317 5577 944520 024306 196"
"163.335359"
"$GPRMC,080251,A,2428.8948,N,08119.2908,W,2.3,253.5,120615,5.9,"
"##MN-00 00 00 1124 03313 5575 943488 024314 196"
"163.335405"
"$GPRMC,080255,A,2428.8941,N,08119.2937,W,2.4,253.8,120615,5.9,"
"##MN-00 00 00 1125 03310 5572 381776 024312 196"
"163.335451"
"$GPRMC,080259,A,2428.8933,N,08119.2962,W,2.3,253.7,120615,5.9,"
"##MN-00 00 00 1126 03308 5570 939368 024321 196"
"163.335498"
"$GPRMC,080303,A,2428.8926,N,08119.2989,W,2.3,253.7,120615,5.9,"
"##MN-00 00 00 1127 03305 5568 939712 024323 196"
"163.335544"
"$GPRMC,080307,A,2428.8920,N,08119.3018,W,2.4,253.7,120615,5.9,"
"##MN-00 00 00 1128 03301 5566 936504 024314 196"
"163.33559"
"$GPRMC,080312,A,2428.8913,N,08119.3045,W,2.3,254.7,120615,5.9,"
"##MN-00 00 00 1129 03300 5564 933264 024324 196"
"163.335637"
"$GPRMC,080315,A,2428.8904,N,08119.3072,W,2.4,253.9,120615,5.9,"
"##MN-00 00 00 1130 03298 5562 931376 024317 196"
"163.335683"
"$GPRMC,080320,A,2428.8894,N,08119.3103,W,2.3,253.5,120615,5.9,"
"##MN-00 00 00 1131 03294 5559 930856 024321 196"
"163.335729"
"$GPRMC,080324,A,2428.8887,N,08119.3132,W,2.3,253.6,120615,5.9,"
"##MN-00 00 00 1132 03292 5557 930272 024312 196"
"163.335775"
"$GPRMC,080328,A,2428.8880,N,08119.3158,W,2.3,253.5,120615,5.9,"
"##MN-00 00 00 1133 03287 5555 929288 024320 196"
"163.335822"
"$GPRMC,080332,A,2428.8875,N,08119.3184,W,2.4,253.8,120615,5.9,"
"##MN-00 00 00 1135 03287 5553 929144 024336 196"
"163.335868"
"$GPRMC,080336,A,2428.8866,N,08119.3213,W,2.4,254.4,120615,5.9,"
"##MN-00 00 00 1136 03280 5551 928976 024313 196"
"163.335914"
"$GPRMC,080340,A,2428.8863,N,08119.3242,W,2.4,256.4,120615,5.9,"
"##MN+00 00 00 1137 03278 5549 928848 024317 196"
"163.335961"
"$GPRMC,080344,A,2428.8855,N,08119.3273,W,2.4,256.6,120615,5.9,"
"##MN+00 00 00 1138 03274 5547 929096 024325 196"
"163.336007"
"$GPRMC,080348,A,2428.8849,N,08119.3305,W,2.4,257.5,120615,5.9,"
"##MN+00 00 00 1139 03271 5545 438032 024321 196"
"163.336053"
"$GPRMC,080352,A,2428.8842,N,08119.3331,W,2.4,256.3,120615,5.9,"
"##MN-00 00 00 1140 03265 5543 928760 024329 196"
"163.3361"
"#increment_net"
"$GPRMC,080356,A,2428.8835,N,08119.3360,W,2.4,256.2,120615,5.9,"
"##MN-00 00 00 1141 03263 5541 928192 024317 197"
"163.336146"
"$GPRMC,080400,A,2428.8829,N,08119.3390,W,2.4,255.4,120615,5.9,"
"##MN-00 00 00 1142 03260 5539 877128 024323 196"
"163.336192"
"$GPRMC,080404,A,2428.8822,N,08119.3418,W,2.4,255.4,120615,5.9,"
"##MN-00 00 00 1143 03260 5537 980944 024332 196"
"163.336238"
"$GPRMC,080408,A,2428.8814,N,08119.3447,W,2.3,254.6,120615,5.9,"
"##MN-00 00 00 1144 03256 5535 930384 024338 196"
"163.336285"
"$GPRMC,080412,A,2428.8806,N,08119.3472,W,2.4,252.8,120615,5.9,"
"##MN-00 00 00 1145 03253 5533 651616 024321 196"
"163.336331"
"$GPRMC,080416,A,2428.8799,N,08119.3499,W,2.3,252.3,120615,5.9,"
"##MN-00 00 00 1146 03250 5531 931872 024328 196"
"163.336377"
"$GPRMC,080420,A,2428.8789,N,08119.3526,W,2.3,252.7,120615,5.9,"
"##MN-00 00 00 1147 03246 5529 689176 024332 196"
"163.336424"
"$GPRMC,080424,A,2428.8779,N,08119.3551,W,2.3,252.4,120615,5.9,"
"##MN-00 00 00 1148 03244 5527 935976 024331 196"
"163.33647"
"$GPRMC,080428,A,2428.8768,N,08119.3574,W,2.4,251.3,120615,5.9,"
"##MN-00 00 00 1149 03242 5526 936736 024329 196"
"163.336516"
"$GPRMC,080432,A,2428.8759,N,08119.3602,W,2.4,250.4,120615,5.9,"
"##MN-00 00 00 1150 03240 5524 936112 024334 196"
"163.336563"
"$GPRMC,080436,A,2428.8748,N,08119.3625,W,2.3,249.3,120615,5.9,"
"##MN-00 00 00 1151 03238 5522 939088 024319 196"
"163.336609"
"$GPRMC,080440,A,2428.8737,N,08119.3652,W,2.3,248.9,120615,5.9,"
"##MN-00 00 00 1152 03234 5520 938592 024321 196"
"163.336655"
"$GPRMC,080444,A,2428.8730,N,08119.3675,W,2.3,248.2,120615,5.9,"
"##MN-00 00 00 1153 03233 5518 939728 024330 196"
"163.336701"
"$GPRMC,080448,A,2428.8719,N,08119.3703,W,2.3,248.1,120615,5.9,"
"##MN-00 00 00 1154 03229 5517 942272 024312 196"
"163.336748"
"$GPRMC,080452,A,2428.8712,N,08119.3728,W,2.2,248.8,120615,5.9,"
"##MN-00 00 00 1155 03229 5515 942568 024329 196"
"163.336794"
"$GPRMC,080456,A,2428.8705,N,08119.3754,W,2.4,250.7,120615,5.9,"
"##MN-00 00 00 1156 03224 5513 944704 024323 196"
"163.33684"
"$GPRMC,080500,A,2428.8694,N,08119.3783,W,2.4,251.8,120615,5.9,"
"##MN-00 00 00 1157 03225 5512 948144 024325 196"
"163.336887"
"$GPRMC,080504,A,2428.8687,N,08119.3811,W,2.4,252.8,120615,5.9,"
"##MN-00 00 00 1158 03220 5510 813312 024319 196"
"163.336933"
"$GPRMC,080508,A,2428.8678,N,08119.3838,W,2.4,252.0,120615,5.9,"
"##MN-00 00 00 1159 03218 5508 953088 024319 196"
"163.336979"
"$GPRMC,080512,A,2428.8670,N,08119.3866,W,2.4,252.5,120615,5.9,"
"##MN-00 00 00 1161 03213 5507 953832 024315 196"
"163.337025"
"$GPRMC,080516,A,2428.8663,N,08119.3896,W,2.4,251.6,120615,5.9,"
"##MN-00 00 00 1162 03212 5505 954496 024323 196"
"163.337072"
"$GPRMC,080520,A,2428.8655,N,08119.3921,W,2.4,252.2,120615,5.9,"
"##MN-00 00 00 1163 03207 5504 953376 024335 196"
"163.337118"
"$GPRMC,080524,A,2428.8647,N,08119.3953,W,2.4,251.5,120615,5.9,"
"##MN-00 00 00 1164 03203 5502 952640 024347 196"
"163.337164"
"$GPRMC,080528,A,2428.8640,N,08119.3981,W,2.4,251.8,120615,5.9,"
"##MN-00 00 00 1165 03201 5500 953728 024330 196"
"163.337211"
"$GPRMC,080532,A,2428.8633,N,08119.4010,W,2.4,252.0,120615,5.9,"
"##MN-00 00 00 1166 03197 5499 956648 024347 196"
"163.337257"
"$GPRMC,080536,A,2428.8623,N,08119.4037,W,2.4,252.5,120615,5.9,"
"##MN-00 00 00 1167 03194 5498 969312 024322 196"
"163.337303"
"$GPRMC,080540,A,2428.8615,N,08119.4065,W,2.4,253.6,120615,5.9,"
"##MN-00 00 00 1168 03194 5496 971728 024333 196"
"163.33735"
"$GPRMC,080544,A,2428.8608,N,08119.4093,W,2.4,254.6,120615,5.9,"
"##MN-00 00 00 1169 03189 5495 978048 024318 196"
"163.337396"
"$GPRMC,080548,A,2428.8600,N,08119.4122,W,2.5,254.8,120615,5.9,"
"##MN-00 00 00 1170 03188 5494 979952 024318 196"
"163.337442"
"$GPRMC,080552,A,2428.8589,N,08119.4148,W,2.4,252.9,120615,5.9,"
"##MN-00 00 00 1171 03183 5492 984160 024322 196"
"163.337488"
"$GPRMC,080556,A,2428.8582,N,08119.4174,W,2.3,250.7,120615,5.9,"
"##MN-00 00 00 1172 03184 5491 988336 024322 196"
"163.337535"
"$GPRMC,080600,A,2428.8572,N,08119.4201,W,2.3,249.3,120615,5.9,"
"##MN-00 00 00 1173 03177 5490 992976 024323 196"
"163.337581"
"$GPRMC,080604,A,2428.8561,N,08119.4225,W,2.3,249.3,120615,5.9,"
"##MN-00 00 00 1174 03175 5489 001104 024303 196"
"163.337627"
"$GPRMC,080608,A,2428.8549,N,08119.4249,W,2.3,248.2,120615,5.9,"
"##MN-00 00 00 1175 03176 5487 007120 024304 196"
"163.337674"
"$GPRMC,080612,A,2428.8540,N,08119.4275,W,2.3,249.0,120615,5.9,"
"##MN-00 00 00 1175 03173 5486 007320 024322 196"
"163.33772"
"$GPRMC,080616,A,2428.8531,N,08119.4301,W,2.3,249.1,120615,5.9,"
"##MN-00 00 00 1176 03172 5486 006672 024337 196"
"163.337766"
"$GPRMC,080620,A,2428.8521,N,08119.4326,W,2.3,249.4,120615,5.9,"
"##MN-00 00 00 1177 03169 5484 006880 024333 196"
"163.337813"
"$GPRMC,080624,A,2428.8514,N,08119.4353,W,2.3,249.8,120615,5.9,"
"##MN-00 00 00 1178 03167 5483 015088 024317 196"
"163.337859"
"$GPRMC,080628,A,2428.8506,N,08119.4380,W,2.3,250.2,120615,5.9,"
"##MN-00 00 00 1179 03164 5482 023808 024316 196"
"163.337905"
"$GPRMC,080632,A,2428.8501,N,08119.4408,W,2.3,251.6,120615,5.9,"
"##MN-00 00 00 1180 03164 5481 027216 024312 196"
"163.337951"
"$GPRMC,080636,A,2428.8492,N,08119.4434,W,2.4,251.9,120615,5.9,"
"##MN-00 00 00 1181 03162 5480 033224 024321 196"
"163.338009"
"$GPRMC,080640,A,2428.8484,N,08119.4462,W,2.3,252.3,120615,5.9,"
"##MN-00 00 00 1182 03159 5479 035760 024318 196"
"163.338056"
"$GPRMC,080644,A,2428.8476,N,08119.4487,W,2.3,252.7,120615,5.9,"
"##MN-00 00 00 1183 03159 5478 040928 024314 196"
"163.338102"
"$GPRMC,080648,A,2428.8468,N,08119.4516,W,2.4,252.9,120615,5.9,"
"##MN-00 00 00 1184 03155 5478 046992 024314 196"
"163.338148"
"$GPRMC,080652,A,2428.8463,N,08119.4542,W,2.4,253.5,120615,5.9,"
"##MN-00 00 00 1185 03151 5477 525672 024323 196"
"163.338194"
"$GPRMC,080656,A,2428.8458,N,08119.4571,W,2.4,254.5,120615,5.9,"
"##MN-00 00 00 1186 03148 5476 011400 024308 196"
"163.338241"
"$GPRMC,080700,A,2428.8454,N,08119.4600,W,2.4,255.2,120615,5.9,"
"##MN-00 00 00 1187 03147 5475 013056 024313 196"
"163.338287"
"$GPRMC,080704,A,2428.8448,N,08119.4628,W,2.3,255.4,120615,5.9,"
"##MN-00 00 00 1188 03146 5475 012912 024334 196"
"163.338333"
"$GPRMC,080708,A,2428.8442,N,08119.4658,W,2.4,254.7,120615,5.9,"
"##MN-00 00 00 1189 03140 5474 012736 024348 196"
"163.33838"
"$GPRMC,080712,A,2428.8435,N,08119.4684,W,2.3,253.8,120615,5.9,"
"##MN-00 00 00 1190 03138 5473 013056 024345 196"
"163.338426"
"$GPRMC,080716,A,2428.8427,N,08119.4712,W,2.4,253.3,120615,5.9,"
"##MN-00 00 00 1191 03136 5473 025328 024350 196"
"163.338472"
"$GPRMC,080720,A,2428.8418,N,08119.4738,W,2.4,251.5,120615,5.9,"
"##MN-00 00 00 1192 03133 5472 031840 024337 196"
"163.338519"
"$GPRMC,080724,A,2428.8409,N,08119.4765,W,2.3,250.6,120615,5.9,"
"##MN-00 00 00 1193 03133 5471 035720 024346 196"
"163.338565"
"$GPRMC,080728,A,2428.8398,N,08119.4792,W,2.4,250.4,120615,5.9,"
"##MN-00 00 00 1194 03131 5471 596896 024347 196"
"163.338611"
"$GPRMC,080732,A,2428.8388,N,08119.4819,W,2.3,249.5,120615,5.9,"
"##MN-00 00 00 1195 03127 5470 428240 024351 196"
"163.338657"
"$GPRMC,080736,A,2428.8378,N,08119.4845,W,2.4,249.2,120615,5.9,"
"##MN-00 00 00 1196 03123 5470 048624 024345 196"
"163.338704"
"$GPRMC,080740,A,2428.8369,N,08119.4871,W,2.3,248.8,120615,5.9,"
"##MN-00 00 00 1197 03121 5469 052528 024343 196"
"163.33875"
"$GPRMC,080744,A,2428.8359,N,08119.4899,W,2.4,249.0,120615,5.9,"
"##MN-00 00 00 1198 03121 5469 197760 024338 196"
"163.338796"
"$GPRMC,080748,A,2428.8351,N,08119.4926,W,2.3,248.7,120615,5.9,"
"##MN-00 00 00 1199 03117 5469 066448 024334 196"
"163.338843"
"$GPRMC,080752,A,2428.8341,N,08119.4953,W,2.4,249.1,120615,5.9,"
"##MN-00 00 00 1200 03115 5468 067640 024320 196"
"163.338889"
"$GPRMC,080756,A,2428.8333,N,08119.4979,W,2.3,250.0,120615,5.9,"
"##MN-00 00 00 1201 03111 5468 068384 024353 196"
"163.338935"
"$GPRMC,080800,A,2428.8322,N,08119.5007,W,2.4,250.4,120615,5.9,"
"##MN-00 00 00 1202 03112 5468 622496 024361 196"
"163.338981"
"$GPRMC,080804,A,2428.8315,N,08119.5034,W,2.3,251.3,120615,5.9,"
"##MN-00 00 00 1203 03108 5467 067664 024353 196"
"163.339028"
"$GPRMC,080809,A,2428.8304,N,08119.5068,W,2.3,251.6,120615,5.9,"
"##MN-00 00 00 1204 03106 5467 068448 024351 196"
"163.339074"
"$GPRMC,080813,A,2428.8295,N,08119.5094,W,2.4,252.4,120615,5.9,"
"##MN-00 00 00 1205 03104 5467 079936 024344 196"
"163.33912"
"$GPRMC,080816,A,2428.8288,N,08119.5113,W,2.3,252.9,120615,5.9,"
"##MN-00 00 00 1206 03101 5467 087376 024342 196"
"163.339167"
"$GPRMC,080820,A,2428.8280,N,08119.5142,W,2.4,254.2,120615,5.9,"
"##MN-00 00 00 1207 03098 5467 090416 024348 196"
"163.339213"
"$GPRMC,080825,A,2428.8272,N,08119.5177,W,2.4,255.5,120615,5.9,"
"##MN-00 00 00 1208 03095 5466 095232 024355 196"
"163.339259"
"$GPRMC,080829,A,2428.8265,N,08119.5206,W,2.4,255.5,120615,5.9,"
"##MN-00 00 00 1209 03090 5467 096448 024337 196"
"163.339306"
"$GPRMC,080833,A,2428.8257,N,08119.5235,W,2.4,254.1,120615,5.9,"
"##MN-00 00 00 1210 03087 5467 486920 024345 196"
"163.339352"
"$GPRMC,080837,A,2428.8250,N,08119.5264,W,2.4,254.7,120615,5.9,"
"##MN+00 00 00 1211 03086 5467 383376 024340 196"
"163.339398"
"$GPRMC,080841,A,2428.8242,N,08119.5293,W,2.5,254.1,120615,5.9,"
"##MN+00 00 00 1212 03080 5467 110400 024334 196"
"163.339444"
"$GPRMC,080845,A,2428.8233,N,08119.5319,W,2.4,254.6,120615,5.9,"
"##MN+00 00 00 1213 03081 5466 115200 024335 196"
"163.339491"
"$GPRMC,080849,A,2428.8226,N,08119.5347,W,2.4,253.8,120615,5.9,"
"##MN-00 00 00 1214 03078 5466 120928 024328 196"
"163.339537"
"#increment_net"
"$GPRMC,080853,A,2428.8218,N,08119.5374,W,2.3,253.7,120615,5.9,"
"##MN-00 00 00 1215 03075 5467 509200 024327 196"
"163.339583"
"$GPRMC,080857,A,2428.8211,N,08119.5401,W,2.3,253.4,120615,5.9,"
"##MN-00 00 00 1216 03070 5467 400288 024343 196"
"163.33963"
"$GPRMC,080901,A,2428.8203,N,08119.5430,W,2.4,252.1,120615,5.9,"
"##MN-00 00 00 1217 03068 5467 124176 024373 196"
"163.339676"
"$GPRMC,080905,A,2428.8194,N,08119.5456,W,2.3,251.4,120615,5.9,"
"##MN-00 00 00 1218 03066 5467 122776 024365 196"
"163.339722"
"$GPRMC,080909,A,2428.8185,N,08119.5484,W,2.3,250.7,120615,5.9,"
"##MN-00 00 00 1219 03063 5467 123168 024370 196"
"163.339769"
"$GPRMC,080913,A,2428.8175,N,08119.5511,W,2.3,250.1,120615,5.9,"
"##MN-00 00 00 1220 03062 5467 513680 024354 196"
"163.339815"
"$GPRMC,080917,A,2428.8168,N,08119.5539,W,2.3,250.2,120615,5.9,"
"##MN-00 00 00 1221 03060 5467 415472 024351 196"
"163.339861"
"$GPRMC,080921,A,2428.8159,N,08119.5567,W,2.4,249.6,120615,5.9,"
"##MN-00 00 00 1221 03053 5467 143424 024347 196"
"163.339907"
"$GPRMC,080925,A,2428.8149,N,08119.5593,W,2.3,250.2,120615,5.9,"
"##MN-00 00 00 1222 03053 5468 531720 024346 196"
"163.339954"
"$GPRMC,080929,A,2428.8140,N,08119.5621,W,2.4,250.3,120615,5.9,"
"##MN-00 00 00 1223 03051 5468 705120 024345 196"
"163.34"
"$GPRMC,080933,A,2428.8130,N,08119.5650,W,2.4,251.8,120615,5.9,"
"##MN-00 00 00 1224 03049 5469 151664 024342 196"
"163.340046"
"$GPRMC,080937,A,2428.8120,N,08119.5679,W,2.4,252.7,120615,5.9,"
"##MN-00 00 00 1225 03045 5468 542592 024353 196"
"163.340093"
"$GPRMC,080941,A,2428.8111,N,08119.5706,W,2.4,252.2,120615,5.9,"
"##MN-00 00 00 1226 03039 5469 713824 024349 196"
"163.340139"
