" Tow: 3-ns-n-out   RVWS/WS15161"
" Date: 11/06/2015"
" Temperature Probe #  2089    Conductivity Probe #  2870"
" Pressure Probe #  188"
" Flow Meter Calibration  4.71 (m/count)  "
"163.206516"
"$GPRMC,045719,A,2427.8391,N,08124.7465,W,2.0,278.5,120615,5.8,"
"##MN-00 00 32 0023 02702 5768 600170 380076 197"
"163.206562"
"$GPRMC,045724,A,2427.8396,N,08124.7494,W,1.9,278.1,120615,5.8,"
"##MN-00 00 48 0025 02700 5768 772936 024239 197"
"163.206609"
"$GPRMC,045728,A,2427.8398,N,08124.7518,W,2.0,278.5,120615,5.8,"
"##MN-00 00 47 0026 02704 5768 772064 024217 197"
"163.206655"
"$GPRMC,045732,A,2427.8407,N,08124.7544,W,2.1,278.9,120615,5.8,"
"##MN-00 00 63 0026 02703 5768 770248 024233 197"
"163.206701"
"$GPRMC,045736,A,2427.8411,N,08124.7569,W,2.0,279.4,120615,5.8,"
"##MN-00 00 76 0026 02700 5768 773800 024242 197"
"163.206748"
"$GPRMC,045740,A,2427.8411,N,08124.7591,W,2.0,280.2,120615,5.8,"
"##MN-00 00 74 0027 02701 5769 772880 024229 197"
"163.206794"
"$GPRMC,045744,A,2427.8419,N,08124.7617,W,2.0,280.7,120615,5.8,"
"##MN-00 00 81 0027 02700 5769 772464 024232 197"
"163.20684"
"$GPRMC,045748,A,2427.8425,N,08124.7639,W,1.9,280.3,120615,5.8,"
"##MN-00 00 75 0028 02699 5769 772896 024220 197"
"163.206898"
"$GPRMC,045752,A,2427.8430,N,08124.7666,W,2.0,280.1,120615,5.8,"
"##MN-00 00 78 0028 02702 5770 772848 024238 197"
"163.206944"
"$GPRMC,045756,A,2427.8432,N,08124.7685,W,1.9,279.2,120615,5.8,"
"##MN-00 00 85 0029 02701 5770 772768 024246 197"
"163.206991"
"$GPRMC,045800,A,2427.8434,N,08124.7710,W,1.9,279.8,120615,5.8,"
"##MN-00 00 79 0030 02702 5770 772712 024234 197"
"163.207037"
"$GPRMC,045804,A,2427.8437,N,08124.7733,W,1.9,280.3,120615,5.8,"
"##MN-00 00 87 0030 02703 5771 773536 024238 197"
"163.207083"
"$GPRMC,045808,A,2427.8441,N,08124.7756,W,1.9,281.3,120615,5.8,"
"##MN-00 00 85 0031 02700 5771 774352 024232 197"
"163.20713"
"$GPRMC,045812,A,2427.8447,N,08124.7779,W,2.0,281.8,120615,5.8,"
"##MN-00 00 77 0032 02700 5771 775192 024237 197"
"163.207176"
"$GPRMC,045816,A,2427.8449,N,08124.7801,W,1.9,280.7,120615,5.8,"
"##MN-00 00 85 0032 02701 5771 777792 024231 197"
"163.207222"
"$GPRMC,045820,A,2427.8455,N,08124.7826,W,1.9,280.5,120615,5.8,"
"##MN-00 00 87 0033 02700 5771 778248 024234 197"
"163.207269"
"$GPRMC,045824,A,2427.8461,N,08124.7847,W,2.0,281.3,120615,5.8,"
"##MN-00 00 82 0034 02702 5772 779032 024235 197"
"163.207315"
"$GPRMC,045828,A,2427.8462,N,08124.7869,W,1.9,281.2,120615,5.8,"
"##MN-00 00 86 0034 02702 5772 504992 024227 197"
"163.207361"
"$GPRMC,045832,A,2427.8463,N,08124.7891,W,1.9,281.2,120615,5.8,"
"##MN-00 00 87 0035 02699 5772 781640 024233 197"
"163.207407"
"$GPRMC,045836,A,2427.8469,N,08124.7915,W,1.9,281.9,120615,5.8,"
"##MN-00 00 81 0036 02702 5772 782064 024237 197"
"163.207454"
"$GPRMC,045840,A,2427.8473,N,08124.7937,W,1.9,281.8,120615,5.8,"
"##MN-00 00 84 0036 02704 5773 782904 024230 197"
"163.2075"
"$GPRMC,045844,A,2427.8476,N,08124.7959,W,1.8,282.1,120615,5.8,"
"##MN-00 00 82 0037 02705 5773 272944 024233 197"
"163.207546"
"$GPRMC,045848,A,2427.8480,N,08124.7980,W,1.8,281.8,120615,5.8,"
"##MN-00 00 86 0038 02704 5773 784576 024232 197"
"163.207593"
"$GPRMC,045852,A,2427.8484,N,08124.8000,W,1.7,281.5,120615,5.8,"
"##MN-00 00 84 0038 02705 5774 785456 024239 197"
"163.207639"
"$GPRMC,045856,A,2427.8488,N,08124.8022,W,1.7,280.9,120615,5.8,"
"##MN-00 00 80 0039 02707 5774 786304 024236 197"
"163.207685"
"$GPRMC,045900,A,2427.8492,N,08124.8042,W,1.7,280.2,120615,5.8,"
"##MN-00 00 84 0039 02707 5774 786720 024233 197"
"163.207731"
"$GPRMC,045904,A,2427.8497,N,08124.8060,W,1.7,279.2,120615,5.8,"
"##MN-00 00 83 0040 02708 5774 786224 024235 197"
"163.207778"
"$GPRMC,045908,A,2427.8499,N,08124.8081,W,1.7,278.4,120615,5.8,"
"##MN-00 00 82 0041 02711 5775 651640 024237 197"
"163.207824"
"$GPRMC,045912,A,2427.8501,N,08124.8098,W,1.7,279.1,120615,5.8,"
"##MN-00 00 82 0041 02711 5775 790640 024237 197"
"163.20787"
"$GPRMC,045916,A,2427.8505,N,08124.8119,W,1.7,278.9,120615,5.8,"
"##MN-00 00 83 0042 02714 5775 539224 024238 197"
"163.207917"
"$GPRMC,045920,A,2427.8505,N,08124.8137,W,1.7,278.7,120615,5.8,"
"##MN-00 00 79 0042 02715 5775 793720 024235 197"
"163.207963"
"$GPRMC,045924,A,2427.8506,N,08124.8158,W,1.6,277.6,120615,5.8,"
"##MN-00 00 81 0043 02717 5776 793216 024238 197"
"163.208009"
"$GPRMC,045928,A,2427.8506,N,08124.8180,W,1.7,276.4,120615,5.8,"
"##MN-00 00 81 0044 02720 5776 794144 024230 197"
"163.208056"
"$GPRMC,045932,A,2427.8509,N,08124.8204,W,1.7,275.4,120615,5.8,"
"##MN-00 00 79 0044 02721 5776 797664 024235 197"
"163.208102"
"$GPRMC,045936,A,2427.8509,N,08124.8223,W,1.6,274.8,120615,5.8,"
"##MN-00 00 86 0045 02724 5777 527880 024221 197"
"163.208148"
"$GPRMC,045940,A,2427.8510,N,08124.8248,W,1.8,275.3,120615,5.8,"
"##MN-00 00 79 0045 02724 5777 797632 024229 197"
"163.208194"
"$GPRMC,045944,A,2427.8508,N,08124.8267,W,1.7,273.7,120615,5.8,"
"##MN-00 00 80 0046 02730 5777 798976 024219 197"
"163.208241"
"$GPRMC,045948,A,2427.8506,N,08124.8288,W,1.8,273.6,120615,5.8,"
"##MN-00 00 81 0046 02732 5777 800328 024208 197"
"163.208287"
"$GPRMC,045953,A,2427.8506,N,08124.8314,W,1.8,272.4,120615,5.8,"
"##MN-00 00 87 0047 02735 5778 800304 024213 197"
"163.208333"
"$GPRMC,045956,A,2427.8505,N,08124.8329,W,1.8,271.8,120615,5.8,"
"##MN-00 00 85 0048 02742 5778 800304 024218 197"
"163.20838"
"$GPRMC,050000,A,2427.8506,N,08124.8353,W,1.8,271.1,120615,5.8,"
"##MN-00 00 79 0048 02742 5778 800288 024213 197"
"163.208426"
"$GPRMC,050004,A,2427.8506,N,08124.8376,W,1.8,269.6,120615,5.8,"
"##MN-00 00 81 0049 02746 5779 800320 024210 197"
"163.208472"
"$GPRMC,050008,A,2427.8499,N,08124.8396,W,1.8,268.8,120615,5.8,"
"##MN-00 00 85 0049 02749 5779 800288 024213 197"
"163.208519"
"$GPRMC,050012,A,2427.8497,N,08124.8418,W,1.8,266.8,120615,5.8,"
"##MN-00 00 84 0050 02753 5779 800272 024237 197"
"163.208565"
"$GPRMC,050016,A,2427.8494,N,08124.8439,W,1.8,265.0,120615,5.8,"
"##MN-00 00 82 0051 02760 5779 800216 024260 197"
"163.208611"
"$GPRMC,050020,A,2427.8492,N,08124.8461,W,1.8,263.9,120615,5.8,"
"##MN-00 00 83 0051 02764 5780 802016 024256 197"
"163.208657"
"$GPRMC,050025,A,2427.8488,N,08124.8487,W,1.7,262.0,120615,5.8,"
"##MN-00 00 79 0052 02771 5780 799328 024263 197"
"163.208704"
"$GPRMC,050028,A,2427.8483,N,08124.8502,W,1.7,260.9,120615,5.8,"
"##MN-00 00 88 0052 02777 5780 802032 024266 197"
"163.20875"
"$GPRMC,050033,A,2427.8482,N,08124.8530,W,1.7,257.5,120615,5.8,"
"##MN-00 00 82 0053 02783 5781 799336 024261 197"
"163.208796"
"$GPRMC,050036,A,2427.8481,N,08124.8548,W,1.7,256.2,120615,5.8,"
"##MN-00 00 81 0054 02792 5781 800248 024266 197"
"163.208843"
"$GPRMC,050040,A,2427.8475,N,08124.8566,W,1.7,258.3,120615,5.8,"
"##MN-00 00 90 0054 02799 5781 802944 024261 197"
"163.208889"
"$GPRMC,050045,A,2427.8476,N,08124.8592,W,1.7,258.7,120615,5.8,"
"##MN-00 00 82 0055 02808 5782 799848 024258 197"
"163.208935"
"$GPRMC,050049,A,2427.8473,N,08124.8613,W,1.6,257.4,120615,5.8,"
"##MN-00 00 84 0055 02818 5782 798544 024258 197"
"163.208981"
"$GPRMC,050053,A,2427.8465,N,08124.8631,W,1.7,256.2,120615,5.8,"
"##MN-00 00 84 0056 02828 5782 800320 024255 197"
"163.209028"
"$GPRMC,050057,A,2427.8456,N,08124.8649,W,1.6,253.4,120615,5.8,"
"##MN-00 00 86 0056 02837 5783 802160 024258 197"
"163.209074"
"$GPRMC,050101,A,2427.8449,N,08124.8667,W,1.6,252.0,120615,5.8,"
"##MN-00 00 79 0057 02850 5783 799936 024260 197"
"163.20912"
"$GPRMC,050105,A,2427.8442,N,08124.8685,W,1.6,251.3,120615,5.8,"
"##MN-00 00 79 0057 02860 5783 546400 024267 197"
"163.209167"
"$GPRMC,050109,A,2427.8435,N,08124.8703,W,1.6,250.7,120615,5.8,"
"##MN-00 00 86 0058 02876 5784 800448 024255 197"
"163.209213"
"$GPRMC,050113,A,2427.8430,N,08124.8721,W,1.6,249.2,120615,5.8,"
"##MN-00 00 80 0058 02889 5784 800536 024265 197"
"163.209259"
"$GPRMC,050117,A,2427.8421,N,08124.8739,W,1.5,248.6,120615,5.8,"
"##MN-00 00 80 0059 02905 5784 800592 024255 197"
"163.209306"
"$GPRMC,050121,A,2427.8416,N,08124.8757,W,1.5,249.1,120615,5.8,"
"##MN-00 00 81 0059 02922 5784 800576 024251 197"
"163.209352"
"$GPRMC,050125,A,2427.8409,N,08124.8773,W,1.5,248.8,120615,5.8,"
"##MN-00 00 80 0060 02939 5785 526160 024257 197"
"163.209398"
"$GPRMC,050129,A,2427.8403,N,08124.8790,W,1.5,248.5,120615,5.8,"
"##MN-00 00 80 0060 02958 5785 801072 024256 197"
"163.209444"
"$GPRMC,050133,A,2427.8398,N,08124.8808,W,1.4,248.5,120615,5.8,"
"##MN-00 00 82 0061 02976 5785 800664 024253 197"
"163.209491"
"$GPRMC,050137,A,2427.8391,N,08124.8824,W,1.5,249.4,120615,5.8,"
"##MN-00 00 78 0061 02999 5786 798848 024258 197"
"163.209537"
"$GPRMC,050141,A,2427.8385,N,08124.8844,W,1.5,250.5,120615,5.8,"
"##MN-00 00 77 0061 03018 5786 801648 024263 197"
"163.209583"
"$GPRMC,050145,A,2427.8380,N,08124.8860,W,1.5,250.2,120615,5.8,"
"##MN-00 00 81 0062 03039 5786 799040 024257 197"
"163.20963"
"$GPRMC,050149,A,2427.8373,N,08124.8878,W,1.5,249.4,120615,5.8,"
"##MN-00 00 80 0062 03058 5787 801448 024264 197"
"163.209676"
"$GPRMC,050153,A,2427.8366,N,08124.8895,W,1.5,248.7,120615,5.8,"
"##MN-00 00 80 0063 03080 5787 800304 024265 197"
"163.209722"
"$GPRMC,050157,A,2427.8359,N,08124.8912,W,1.5,248.5,120615,5.8,"
"##MN-00 00 78 0063 03097 5787 801376 024217 197"
"163.209769"
"$GPRMC,050201,A,2427.8353,N,08124.8928,W,1.5,249.0,120615,5.8,"
"##MN-00 00 76 0064 03117 5788 799792 024216 197"
"163.209815"
"$GPRMC,050205,A,2427.8348,N,08124.8945,W,1.4,248.8,120615,5.8,"
"##MN-00 00 78 0064 03134 5788 288368 024234 197"
"163.209861"
"$GPRMC,050209,A,2427.8342,N,08124.8961,W,1.4,249.0,120615,5.8,"
"##MN-00 00 74 0065 03151 5788 654144 024239 197"
"163.209907"
"$GPRMC,050213,A,2427.8335,N,08124.8978,W,1.5,248.1,120615,5.8,"
"##MN-00 00 75 0065 03169 5788 788096 024230 197"
"163.209954"
"$GPRMC,050217,A,2427.8329,N,08124.8995,W,1.5,247.9,120615,5.8,"
"##MN-00 00 76 0066 03184 5788 529888 024236 197"
"163.21"
"$GPRMC,050221,A,2427.8322,N,08124.9011,W,1.5,247.7,120615,5.8,"
"##MN-00 00 75 0066 03201 5789 780768 024233 197"
"163.210046"
"$GPRMC,050225,A,2427.8315,N,08124.9028,W,1.5,248.6,120615,5.8,"
"##MN-00 00 78 0067 03214 5789 774848 024232 197"
"163.210093"
"$GPRMC,050229,A,2427.8309,N,08124.9046,W,1.6,248.9,120615,5.8,"
"##MN-00 00 72 0067 03228 5789 635224 024238 197"
"163.21015"
"$GPRMC,050233,A,2427.8304,N,08124.9064,W,1.6,249.6,120615,5.8,"
"##MN-00 00 75 0067 03243 5790 769264 024240 197"
"163.210197"
"$GPRMC,050237,A,2427.8297,N,08124.9082,W,1.6,249.1,120615,5.8,"
"##MN-00 00 78 0068 03254 5789 756688 024264 197"
"163.210243"
"$GPRMC,050241,A,2427.8293,N,08124.9097,W,1.6,250.0,120615,5.8,"
"##MN-00 00 72 0068 03263 5790 750384 024259 197"
"163.210289"
"$GPRMC,050245,A,2427.8287,N,08124.9119,W,1.6,248.8,120615,5.8,"
"##MN-00 00 80 0069 03274 5790 747624 024234 197"
"163.210336"
"$GPRMC,050249,A,2427.8281,N,08124.9138,W,1.7,249.2,120615,5.8,"
"##MN-00 00 78 0069 03287 5790 746832 024221 197"
"163.210382"
"$GPRMC,050253,A,2427.8273,N,08124.9155,W,1.6,248.7,120615,5.8,"
"##MN-00 00 72 0070 03298 5790 740016 024212 197"
"163.210428"
"$GPRMC,050257,A,2427.8266,N,08124.9173,W,1.6,248.8,120615,5.8,"
"##MN-00 00 74 0070 03308 5790 731952 024217 197"
"163.210475"
"$GPRMC,050301,A,2427.8258,N,08124.9192,W,1.6,249.2,120615,5.8,"
"##MN-00 00 73 0071 03320 5790 219264 024221 197"
"163.210521"
"$GPRMC,050305,A,2427.8250,N,08124.9212,W,1.6,249.4,120615,5.8,"
"##MN-00 00 78 0071 03326 5790 718872 024230 197"
"163.210567"
"$GPRMC,050309,A,2427.8241,N,08124.9231,W,1.7,250.4,120615,5.8,"
"##MN-00 00 76 0072 03335 5790 706008 024227 197"
"163.210613"
"$GPRMC,050313,A,2427.8232,N,08124.9250,W,1.7,250.0,120615,5.8,"
"##MN-00 00 75 0072 03345 5790 693872 024273 197"
"163.21066"
"$GPRMC,050317,A,2427.8221,N,08124.9270,W,1.8,249.8,120615,5.8,"
"##MN-00 00 76 0073 03354 5790 694184 024257 197"
"163.210706"
"$GPRMC,050321,A,2427.8217,N,08124.9292,W,1.8,249.4,120615,5.8,"
"##MN-00 00 72 0073 03365 5790 694544 024220 197"
"163.210752"
"$GPRMC,050325,A,2427.8207,N,08124.9313,W,1.8,249.9,120615,5.8,"
"##MN-00 00 74 0074 03369 5790 685040 024239 197"
"163.210799"
"$GPRMC,050329,A,2427.8206,N,08124.9335,W,1.8,249.0,120615,5.8,"
"##MN-00 00 74 0074 03380 5790 676432 024233 197"
"163.210845"
"$GPRMC,050333,A,2427.8203,N,08124.9358,W,1.8,247.5,120615,5.8,"
"##MN-00 00 73 0075 03386 5789 666976 024258 197"
"163.210891"
"$GPRMC,050337,A,2427.8192,N,08124.9379,W,1.8,249.1,120615,5.8,"
"##MN-00 00 74 0075 03390 5789 654032 024242 197"
"163.210938"
"$GPRMC,050341,A,2427.8182,N,08124.9401,W,1.9,248.4,120615,5.8,"
"##MN-00 00 73 0076 03400 5789 640128 024257 197"
"163.210984"
"$GPRMC,050345,A,2427.8172,N,08124.9422,W,1.9,249.2,120615,5.8,"
"##MN-00 00 75 0077 03406 5788 639568 024248 197"
"163.21103"
"$GPRMC,050349,A,2427.8164,N,08124.9447,W,2.0,249.4,120615,5.8,"
"##MN-00 00 72 0077 03412 5788 364496 024235 197"
"163.211076"
"$GPRMC,050353,A,2427.8156,N,08124.9470,W,2.0,248.3,120615,5.8,"
"##MN-00 00 78 0078 03415 5788 374136 024247 197"
"163.211123"
"$GPRMC,050357,A,2427.8149,N,08124.9495,W,2.2,248.9,120615,5.8,"
"##MN-00 00 75 0078 03421 5787 616544 024251 197"
"163.211169"
"$GPRMC,050401,A,2427.8138,N,08124.9520,W,2.2,248.2,120615,5.8,"
"##MN-00 00 73 0079 03424 5787 608928 024239 197"
"163.211215"
"$GPRMC,050405,A,2427.8139,N,08124.9545,W,2.1,249.3,120615,5.8,"
"##MN-00 00 78 0079 03430 5787 589808 024252 197"
"163.211262"
"$GPRMC,050409,A,2427.8132,N,08124.9571,W,2.2,249.5,120615,5.8,"
"##MN-00 00 74 0080 03432 5786 584848 024254 197"
"163.211308"
"$GPRMC,050413,A,2427.8120,N,08124.9596,W,2.2,251.9,120615,5.8,"
"##MN-00 00 74 0081 03438 5786 584336 024234 197"
"163.211354"
"$GPRMC,050417,A,2427.8119,N,08124.9624,W,2.3,251.6,120615,5.8,"
"##MN-00 00 74 0081 03440 5785 573088 024244 197"
"163.2114"
"$GPRMC,050421,A,2427.8105,N,08124.9650,W,2.4,250.4,120615,5.8,"
"##MN-00 00 73 0082 03444 5784 173608 024261 197"
"163.211447"
"$GPRMC,050425,A,2427.8095,N,08124.9675,W,2.3,251.2,120615,5.8,"
"##MN-00 00 76 0083 03447 5784 552072 024252 197"
"163.211493"
"$GPRMC,050429,A,2427.8085,N,08124.9702,W,2.4,249.2,120615,5.8,"
"##MN-00 00 74 0083 03448 5783 527856 024293 197"
"163.211539"
"$GPRMC,050433,A,2427.8075,N,08124.9730,W,2.4,249.6,120615,5.8,"
"##MN-00 00 76 0084 03450 5782 143040 024271 197"
"163.211586"
"$GPRMC,050437,A,2427.8068,N,08124.9758,W,2.5,249.6,120615,5.8,"
"##MN-00 00 75 0085 03452 5781 253024 024242 197"
"163.211632"
"$GPRMC,050441,A,2427.8056,N,08124.9784,W,2.5,249.4,120615,5.8,"
"##MN-00 00 75 0085 03453 5780 521640 024273 197"
"163.211678"
"$GPRMC,050446,A,2427.8049,N,08124.9817,W,2.4,249.5,120615,5.8,"
"##MN-00 00 80 0086 03456 5779 505968 024264 197"
"163.211725"
"$GPRMC,050449,A,2427.8038,N,08124.9839,W,2.5,248.2,120615,5.8,"
"##MN-00 00 78 0087 03454 5778 499152 024296 197"
"163.211771"
"$GPRMC,050453,A,2427.8028,N,08124.9867,W,2.5,247.9,120615,5.8,"
"##MN-00 00 75 0087 03456 5778 480656 024301 197"
"163.211817"
"$GPRMC,050457,A,2427.8018,N,08124.9896,W,2.5,248.0,120615,5.8,"
"##MN-00 00 78 0088 03457 5776 474688 024289 197"
"163.211863"
"$GPRMC,050502,A,2427.8010,N,08124.9931,W,2.4,247.5,120615,5.8,"
"##MN-00 00 82 0089 03459 5775 474536 024268 197"
"163.21191"
"$GPRMC,050506,A,2427.8000,N,08124.9957,W,2.4,246.5,120615,5.8,"
"##MN-00 00 79 0089 03461 5774 468992 024270 197"
"163.211956"
"$GPRMC,050510,A,2427.7988,N,08124.9985,W,2.5,245.7,120615,5.8,"
"##MN-00 00 77 0090 03463 5773 732696 024275 197"
"163.212002"
"$GPRMC,050514,A,2427.7979,N,08125.0011,W,2.4,247.5,120615,5.8,"
"##MN+00 00 80 0091 03463 5772 308592 024274 197"
"163.212049"
"$GPRMC,050518,A,2427.7968,N,08125.0037,W,2.4,247.3,120615,5.8,"
"##MN+00 00 76 0091 03466 5770 987808 024280 197"
"163.212095"
"$GPRMC,050522,A,2427.7961,N,08125.0065,W,2.3,248.9,120615,5.8,"
"##MN+00 00 76 0092 03467 5769 421880 024266 197"
"163.212141"
"$GPRMC,050526,A,2427.7955,N,08125.0092,W,2.3,250.4,120615,5.8,"
"##MN-00 00 83 0093 03465 5768 419392 024269 197"
"163.212188"
"$GPRMC,050530,A,2427.7950,N,08125.0121,W,2.4,252.4,120615,5.8,"
"##MN-00 00 79 0094 03464 5767 420064 024266 197"
"163.212234"
"$GPRMC,050534,A,2427.7943,N,08125.0150,W,2.4,253.7,120615,5.8,"
"##MN+00 00 78 0095 03461 5765 403896 024263 197"
"163.21228"
"#increment_net"
"$GPRMC,050538,A,2427.7936,N,08125.0181,W,2.4,255.8,120615,5.8,"
"##MN+00 00 78 0096 03458 5764 669840 024259 197"
"163.212326"
"$GPRMC,050542,A,2427.7929,N,08125.0209,W,2.4,256.3,120615,5.8,"
"##MN+00 00 79 0097 03452 5762 665960 024252 197"
"163.212373"
"$GPRMC,050546,A,2427.7921,N,08125.0238,W,2.4,256.6,120615,5.8,"
"##MN-00 00 82 0098 03450 5760 384832 024249 197"
"163.212419"
"$GPRMC,050550,A,2427.7914,N,08125.0267,W,2.4,256.7,120615,5.8,"
"##MN-00 00 78 0099 03444 5759 506336 024249 197"
"163.212465"
"$GPRMC,050554,A,2427.7905,N,08125.0296,W,2.5,256.7,120615,5.8,"
"##MN-00 00 81 0100 03437 5757 363888 024234 197"
"163.212512"
"$GPRMC,050558,A,2427.7899,N,08125.0325,W,2.4,256.4,120615,5.8,"
"##MN-00 00 81 0101 03430 5756 086768 024245 197"
"163.212558"
"$GPRMC,050602,A,2427.7894,N,08125.0355,W,2.5,256.9,120615,5.8,"
"##MN-00 00 80 0102 03426 5754 358816 024237 197"
"163.212604"
"$GPRMC,050606,A,2427.7888,N,08125.0384,W,2.5,256.8,120615,5.8,"
"##MN-00 00 81 0103 03418 5752 350000 024229 197"
"163.21265"
"$GPRMC,050610,A,2427.7881,N,08125.0412,W,2.4,255.5,120615,5.8,"
"##MN-00 00 81 0104 03413 5750 342024 024234 197"
"163.212697"
"$GPRMC,050614,A,2427.7874,N,08125.0441,W,2.4,255.1,120615,5.8,"
"##MN-00 00 82 0105 03407 5749 611760 024229 197"
"163.212743"
"$GPRMC,050618,A,2427.7865,N,08125.0466,W,2.3,253.8,120615,5.8,"
"##MN-00 00 81 0106 03401 5747 330496 024222 197"
"163.212789"
"$GPRMC,050622,A,2427.7857,N,08125.0495,W,2.4,252.7,120615,5.8,"
"##MN-00 00 82 0107 03396 5745 327344 024220 197"
"163.212836"
"$GPRMC,050626,A,2427.7847,N,08125.0520,W,2.4,252.6,120615,5.8,"
"##MN-00 00 82 0108 03392 5743 318848 024219 197"
"163.212882"
"$GPRMC,050630,A,2427.7838,N,08125.0547,W,2.4,251.6,120615,5.8,"
"##MN-00 00 81 0109 03386 5741 309880 024223 197"
"163.212928"
"$GPRMC,050634,A,2427.7831,N,08125.0572,W,2.4,249.8,120615,5.8,"
"##MN-00 00 83 0110 03385 5740 307624 024262 197"
"163.212975"
"$GPRMC,050638,A,2427.7821,N,08125.0598,W,2.4,249.8,120615,5.8,"
"##MN-00 00 82 0110 03380 5738 028112 024242 197"
"163.213021"
"$GPRMC,050642,A,2427.7810,N,08125.0626,W,2.4,250.8,120615,5.8,"
"##MN-00 00 82 0111 03376 5736 583048 024249 197"
"163.213067"
"$GPRMC,050646,A,2427.7799,N,08125.0654,W,2.4,251.2,120615,5.8,"
"##MN-00 00 83 0112 03374 5734 803728 024217 197"
"163.213113"
"$GPRMC,050650,A,2427.7788,N,08125.0683,W,2.3,251.1,120615,5.8,"
"##MN-00 00 82 0113 03369 5732 719360 024211 197"
"163.21316"
"$GPRMC,050654,A,2427.7785,N,08125.0712,W,2.4,251.4,120615,5.8,"
"##MN-00 00 82 0114 03367 5730 305168 024210 197"
"163.213206"
"$GPRMC,050658,A,2427.7776,N,08125.0740,W,2.3,251.1,120615,5.8,"
"##MN-00 00 83 0115 03364 5728 019856 024208 197"
"163.213252"
"$GPRMC,050702,A,2427.7766,N,08125.0766,W,2.4,251.2,120615,5.8,"
"##MN-00 00 82 0116 03360 5726 570792 024206 197"
"163.213299"
"$GPRMC,050706,A,2427.7758,N,08125.0791,W,2.3,252.0,120615,5.8,"
"##MN-00 00 82 0117 03358 5724 291744 024206 197"
"163.213356"
"$GPRMC,050710,A,2427.7748,N,08125.0818,W,2.4,251.9,120615,5.8,"
"##MN-00 00 82 0118 03355 5722 148672 024247 197"
"163.213403"
"$GPRMC,050714,A,2427.7741,N,08125.0846,W,2.3,251.8,120615,5.8,"
"##MN-00 00 83 0119 03355 5719 561440 024249 197"
"163.213449"
"$GPRMC,050718,A,2427.7733,N,08125.0871,W,2.4,251.8,120615,5.8,"
"##MN-00 00 81 0120 03349 5717 282816 024251 197"
"163.213495"
"$GPRMC,050722,A,2427.7729,N,08125.0899,W,2.4,251.4,120615,5.8,"
"##MN-00 00 81 0121 03347 5715 278776 024267 197"
"163.213542"
"$GPRMC,050726,A,2427.7722,N,08125.0923,W,2.4,251.7,120615,5.8,"
"##MN-00 00 82 0122 03347 5714 278288 024259 197"
"163.213588"
"$GPRMC,050730,A,2427.7713,N,08125.0951,W,2.4,251.0,120615,5.8,"
"##MN-00 00 82 0123 03342 5711 276512 024258 197"
"163.213634"
"$GPRMC,050734,A,2427.7704,N,08125.0977,W,2.3,251.4,120615,5.8,"
"##MN-00 00 82 0124 03338 5709 272896 024252 197"
"163.213681"
"$GPRMC,050738,A,2427.7695,N,08125.1004,W,2.4,252.5,120615,5.8,"
"##MN-00 00 83 0125 03339 5707 654464 024270 197"
"163.213727"
"$GPRMC,050742,A,2427.7686,N,08125.1031,W,2.4,252.4,120615,5.8,"
"##MN-00 00 83 0126 03335 5705 544712 024268 197"
"163.213773"
"$GPRMC,050746,A,2427.7677,N,08125.1059,W,2.3,252.4,120615,5.8,"
"##MN-00 00 83 0127 03334 5703 262960 024271 197"
"163.213819"
"$GPRMC,050750,A,2427.7668,N,08125.1087,W,2.4,252.6,120615,5.8,"
"##MN-00 00 84 0128 03330 5700 638768 024304 197"
"163.213866"
"$GPRMC,050754,A,2427.7664,N,08125.1116,W,2.4,252.9,120615,5.8,"
"##MN-00 00 83 0129 03329 5699 249520 024289 197"
"163.213912"
"$GPRMC,050758,A,2427.7657,N,08125.1143,W,2.4,253.9,120615,5.8,"
"##MN-00 00 84 0130 03326 5696 249888 024304 197"
"163.213958"
"$GPRMC,050802,A,2427.7651,N,08125.1171,W,2.4,254.5,120615,5.8,"
"##MN-00 00 84 0131 03323 5694 525768 024291 197"
"163.214005"
"$GPRMC,050806,A,2427.7643,N,08125.1200,W,2.4,255.2,120615,5.8,"
"##MN-00 00 84 0132 03321 5692 250272 024298 197"
"163.214051"
"$GPRMC,050810,A,2427.7639,N,08125.1229,W,2.4,255.1,120615,5.8,"
"##MN-00 00 84 0133 03316 5690 248920 024299 197"
"163.214097"
"$GPRMC,050814,A,2427.7630,N,08125.1257,W,2.4,254.9,120615,5.8,"
"##MN-00 00 85 0134 03315 5688 249328 024288 197"
"163.214144"
"$GPRMC,050818,A,2427.7621,N,08125.1286,W,2.4,254.8,120615,5.8,"
"##MN-00 00 88 0135 03312 5686 634040 024282 197"
"163.21419"
"$GPRMC,050822,A,2427.7611,N,08125.1313,W,2.4,254.5,120615,5.8,"
"##MN-00 00 86 0136 03309 5684 249240 024251 197"
"163.214236"
"$GPRMC,050826,A,2427.7605,N,08125.1338,W,2.4,254.0,120615,5.8,"
"##MN-00 00 85 0137 03307 5682 248320 024251 197"
"163.214282"
"$GPRMC,050830,A,2427.7596,N,08125.1365,W,2.3,252.7,120615,5.8,"
"##MN-00 00 85 0138 03303 5680 249600 024239 197"
"163.214329"
"$GPRMC,050834,A,2427.7589,N,08125.1391,W,2.4,251.8,120615,5.8,"
"##MN-00 00 85 0139 03300 5677 249120 024229 197"
"163.214375"
"$GPRMC,050838,A,2427.7580,N,08125.1420,W,2.3,250.8,120615,5.8,"
"##MN-00 00 85 0140 03298 5675 249088 024223 197"
"163.214421"
"$GPRMC,050842,A,2427.7574,N,08125.1449,W,2.3,251.0,120615,5.8,"
"##MN-00 00 86 0141 03296 5673 246824 024262 197"
"163.214468"
"$GPRMC,050846,A,2427.7568,N,08125.1475,W,2.3,250.7,120615,5.8,"
"##MN-00 00 85 0142 03296 5671 242752 024242 197"
"163.214514"
"$GPRMC,050850,A,2427.7561,N,08125.1499,W,2.3,251.5,120615,5.8,"
"##MN-00 00 85 0143 03294 5669 240928 024261 197"
"163.21456"
"$GPRMC,050854,A,2427.7551,N,08125.1524,W,2.3,252.4,120615,5.8,"
"##MN-00 00 84 0144 03294 5667 240864 024248 197"
"163.214606"
"$GPRMC,050858,A,2427.7542,N,08125.1550,W,2.3,252.0,120615,5.8,"
"##MN-00 00 86 0145 03288 5665 236432 024270 197"
"163.214653"
"$GPRMC,050902,A,2427.7533,N,08125.1576,W,2.3,251.6,120615,5.8,"
"##MN-00 00 85 0146 03289 5663 234120 024268 197"
"163.214699"
"$GPRMC,050906,A,2427.7524,N,08125.1604,W,2.3,251.8,120615,5.8,"
"##MN-00 00 85 0147 03288 5661 232752 024261 197"
"163.214745"
"$GPRMC,050910,A,2427.7513,N,08125.1631,W,2.3,252.4,120615,5.8,"
"##MN-00 00 85 0148 03287 5659 506400 024259 197"
"163.214792"
"$GPRMC,050914,A,2427.7504,N,08125.1658,W,2.3,253.2,120615,5.8,"
"##MN-00 00 86 0149 03286 5657 229952 024266 197"
"163.214838"
"$GPRMC,050918,A,2427.7497,N,08125.1685,W,2.4,253.1,120615,5.8,"
"##MN-00 00 85 0150 03284 5655 229464 024278 197"
"163.214884"
"$GPRMC,050922,A,2427.7491,N,08125.1712,W,2.3,253.2,120615,5.8,"
"##MN-00 00 86 0151 03283 5652 228024 024263 197"
"163.214931"
"$GPRMC,050926,A,2427.7485,N,08125.1739,W,2.3,253.5,120615,5.8,"
"##MN-00 00 84 0152 03279 5651 226160 024277 197"
"163.214977"
"$GPRMC,050930,A,2427.7477,N,08125.1767,W,2.3,253.3,120615,5.8,"
"##MN+00 00 85 0153 03280 5649 225672 024271 197"
"163.215023"
"$GPRMC,050934,A,2427.7473,N,08125.1796,W,2.3,253.6,120615,5.8,"
"##MN+00 00 88 0154 03277 5647 223392 024265 197"
"163.215069"
"$GPRMC,050938,A,2427.7463,N,08125.1822,W,2.3,253.7,120615,5.8,"
"##MN+00 00 85 0155 03275 5645 221624 024272 197"
"163.215116"
"$GPRMC,050942,A,2427.7456,N,08125.1853,W,2.4,253.3,120615,5.8,"
"##MN-00 00 88 0156 03274 5643 219768 024270 197"
"163.215162"
"$GPRMC,050946,A,2427.7449,N,08125.1880,W,2.4,253.7,120615,5.8,"
"##MN-00 00 86 0157 03273 5640 220608 024263 197"
"163.215208"
"$GPRMC,050952,A,2427.7439,N,08125.1922,W,2.4,253.1,120615,5.8,"
"##MN+00 00 87 0159 03270 5638 660437 024279 197"
"163.215255"
"$GPRMC,050957,A,2427.7430,N,08125.1955,W,2.4,253.1,120615,5.8,"
"##MN+00 00 87 0159 03268 5636 216960 024278 197"
"163.215301"
"#increment_net"
"$GPRMC,051000,A,2427.7424,N,08125.1974,W,2.3,252.9,120615,5.8,"
"##MN+00 00 86 0160 03269 5635 216960 024274 197"
"163.215347"
"$GPRMC,051003,A,2427.7419,N,08125.1996,W,2.4,253.3,120615,5.8,"
"##MN-00 00 89 0161 03268 5633 599024 024269 197"
"163.215394"
"$GPRMC,051007,A,2427.7411,N,08125.2024,W,2.3,254.0,120615,5.8,"
"##MN-00 00 87 0162 03268 5631 765232 024273 197"
"163.21544"
"$GPRMC,051011,A,2427.7402,N,08125.2055,W,2.4,255.2,120615,5.8,"
"##MN-00 00 86 0163 03264 5630 211040 024282 197"
"163.215486"
"$GPRMC,051015,A,2427.7393,N,08125.2081,W,2.4,255.5,120615,5.8,"
"##MN-00 00 87 0164 03264 5628 209680 024278 197"
"163.215532"
"$GPRMC,051019,A,2427.7386,N,08125.2111,W,2.4,256.7,120615,5.8,"
"##MN-00 00 86 0165 03264 5626 210096 024275 197"
"163.215579"
"$GPRMC,051023,A,2427.7381,N,08125.2142,W,2.4,256.7,120615,5.8,"
"##MN-00 00 87 0166 03263 5624 206936 024272 197"
"163.215625"
"$GPRMC,051027,A,2427.7376,N,08125.2168,W,2.3,258.1,120615,5.8,"
"##MN-00 00 87 0167 03261 5622 201504 024282 197"
"163.215671"
"$GPRMC,051031,A,2427.7372,N,08125.2197,W,2.4,259.3,120615,5.8,"
"##MN-00 00 89 0169 03260 5620 201024 024277 197"
"163.215718"
"$GPRMC,051036,A,2427.7366,N,08125.2234,W,2.3,259.7,120615,5.8,"
"##MN-00 00 86 0170 03257 5619 200496 024284 197"
"163.215764"
"$GPRMC,051039,A,2427.7365,N,08125.2258,W,2.5,260.6,120615,5.8,"
"##MN-00 00 87 0171 03255 5617 196416 024292 197"
"163.21581"
"$GPRMC,051043,A,2427.7361,N,08125.2277,W,2.4,261.0,120615,5.8,"
"##MN-00 00 87 0172 03252 5615 195056 024288 197"
"163.215856"
"$GPRMC,051047,A,2427.7356,N,08125.2316,W,2.4,261.8,120615,5.8,"
"##MN-00 00 86 0173 03249 5613 195432 024288 197"
"163.215903"
"$GPRMC,051051,A,2427.7351,N,08125.2349,W,2.5,260.6,120615,5.8,"
"##MN-00 00 87 0174 03248 5612 194424 024295 197"
"163.215949"
"$GPRMC,051055,A,2427.7347,N,08125.2377,W,2.4,261.6,120615,5.8,"
"##MN-00 00 89 0175 03244 5610 190304 024303 197"
"163.215995"
"$GPRMC,051059,A,2427.7343,N,08125.2406,W,2.4,261.4,120615,5.8,"
"##MN-00 00 88 0176 03242 5608 191992 024301 197"
"163.216042"
"$GPRMC,051103,A,2427.7338,N,08125.2435,W,2.4,261.5,120615,5.8,"
"##MN-00 00 87 0177 03242 5606 192800 024295 197"
"163.216088"
"$GPRMC,051107,A,2427.7336,N,08125.2458,W,2.4,261.2,120615,5.8,"
"##MN-00 00 87 0178 03240 5605 192256 024307 197"
"163.216134"
"$GPRMC,051111,A,2427.7332,N,08125.2486,W,2.3,261.4,120615,5.8,"
"##MN-00 00 88 0179 03238 5603 193440 024294 197"
"163.216181"
"$GPRMC,051115,A,2427.7326,N,08125.2516,W,2.4,260.9,120615,5.8,"
"##MN-00 00 87 0180 03233 5602 197776 024289 197"
"163.216227"
"$GPRMC,051119,A,2427.7321,N,08125.2545,W,2.4,259.4,120615,5.8,"
"##MN-00 00 86 0181 03232 5600 193232 024305 197"
"163.216273"
"$GPRMC,051123,A,2427.7318,N,08125.2574,W,2.4,259.4,120615,5.8,"
"##MN-00 00 88 0182 03229 5599 195808 024296 197"
"163.216319"
"$GPRMC,051127,A,2427.7312,N,08125.2603,W,2.4,258.9,120615,5.8,"
"##MN-00 00 88 0183 03230 5597 452008 024292 197"
"163.216366"
"$GPRMC,051131,A,2427.7303,N,08125.2630,W,2.4,257.9,120615,5.8,"
"##MN-00 00 88 0184 03228 5595 201808 024289 197"
"163.216412"
"$GPRMC,051135,A,2427.7296,N,08125.2659,W,2.4,255.8,120615,5.8,"
"##MN-00 00 86 0185 03225 5594 203504 024289 197"
"163.21647"
"$GPRMC,051139,A,2427.7292,N,08125.2688,W,2.4,255.5,120615,5.8,"
"##MN-00 00 88 0186 03223 5592 205160 024280 197"
"163.216516"
"$GPRMC,051143,A,2427.7285,N,08125.2717,W,2.3,255.2,120615,5.8,"
"##MN-00 00 87 0187 03222 5591 207712 024294 197"
"163.216563"
"$GPRMC,051147,A,2427.7279,N,08125.2745,W,2.4,255.5,120615,5.8,"
"##MN-00 00 87 0188 03221 5589 207616 024295 197"
"163.216609"
"$GPRMC,051151,A,2427.7273,N,08125.2774,W,2.3,255.8,120615,5.8,"
"##MN-00 00 87 0189 03221 5588 485656 024292 197"
"163.216655"
"$GPRMC,051155,A,2427.7268,N,08125.2800,W,2.3,256.4,120615,5.8,"
"##MN-00 00 85 0190 03219 5586 978720 024293 197"
"163.216701"
"$GPRMC,051159,A,2427.7262,N,08125.2830,W,2.4,256.4,120615,5.8,"
"##MN-00 00 89 0191 03218 5585 209976 024303 197"
"163.216748"
"$GPRMC,051203,A,2427.7262,N,08125.2859,W,2.3,257.2,120615,5.8,"
"##MN-00 00 87 0192 03216 5584 762688 024298 197"
"163.216794"
"$GPRMC,051207,A,2427.7256,N,08125.2890,W,2.4,257.6,120615,5.8,"
"##MN-00 00 86 0193 03215 5582 210656 024298 197"
"163.21684"
"$GPRMC,051211,A,2427.7251,N,08125.2915,W,2.3,257.4,120615,5.8,"
"##MN-00 00 87 0194 03215 5581 213184 024295 197"
"163.216887"
"$GPRMC,051215,A,2427.7245,N,08125.2944,W,2.3,258.2,120615,5.8,"
"##MN-00 00 87 0195 03212 5580 214848 024301 197"
"163.216933"
"$GPRMC,051219,A,2427.7240,N,08125.2973,W,2.4,258.9,120615,5.8,"
"##MN-00 00 86 0196 03213 5578 601320 024304 197"
"163.216979"
"$GPRMC,051223,A,2427.7236,N,08125.2998,W,2.4,260.0,120615,5.8,"
"##MN-00 00 86 0197 03212 5576 216448 024299 197"
"163.217025"
"$GPRMC,051227,A,2427.7231,N,08125.3025,W,2.5,260.8,120615,5.8,"
"##MN-00 00 88 0198 03210 5576 492736 024289 197"
"163.217072"
"$GPRMC,051231,A,2427.7224,N,08125.3053,W,2.4,261.2,120615,5.8,"
"##MN-00 00 86 0199 03208 5574 878304 024311 197"
"163.217118"
"$GPRMC,051235,A,2427.7220,N,08125.3083,W,2.5,261.7,120615,5.8,"
"##MN-00 00 87 0200 03207 5573 217888 024305 197"
"163.217164"
"$GPRMC,051239,A,2427.7214,N,08125.3114,W,2.5,261.6,120615,5.8,"
"##MN-00 00 88 0201 03204 5572 605248 024297 197"
"163.217211"
"$GPRMC,051243,A,2427.7209,N,08125.3144,W,2.5,261.4,120615,5.8,"
"##MN-00 00 85 0202 03203 5570 223008 024297 197"
"163.217257"
"$GPRMC,051247,A,2427.7203,N,08125.3175,W,2.5,260.3,120615,5.8,"
"##MN-00 00 87 0203 03200 5569 225512 024299 197"
"163.217303"
"$GPRMC,051251,A,2427.7197,N,08125.3202,W,2.4,259.6,120615,5.8,"
"##MN-00 00 87 0204 03200 5568 225720 024292 197"
"163.21735"
"$GPRMC,051255,A,2427.7193,N,08125.3233,W,2.4,259.1,120615,5.8,"
"##MN-00 00 87 0205 03198 5567 504272 024291 197"
"163.217396"
"$GPRMC,051259,A,2427.7188,N,08125.3262,W,2.5,259.3,120615,5.8,"
"##MN-00 00 88 0206 03198 5566 371592 024287 197"
"163.217442"
"$GPRMC,051303,A,2427.7184,N,08125.3292,W,2.5,258.4,120615,5.8,"
"##MN-00 00 86 0207 03196 5565 235472 024290 197"
"163.217488"
"$GPRMC,051307,A,2427.7177,N,08125.3322,W,2.5,258.7,120615,5.8,"
"##MN-00 00 87 0208 03194 5563 240200 024274 197"
"163.217535"
"$GPRMC,051311,A,2427.7174,N,08125.3352,W,2.4,259.3,120615,5.8,"
"##MN-00 00 86 0209 03191 5562 628328 024272 197"
"163.217581"
"$GPRMC,051315,A,2427.7167,N,08125.3381,W,2.5,259.8,120615,5.8,"
"##MN-00 00 88 0210 03190 5561 242944 024276 197"
"163.217627"
"$GPRMC,051319,A,2427.7165,N,08125.3411,W,2.4,258.3,120615,5.8,"
"##MN-00 00 86 0211 03188 5560 242808 024287 197"
"163.217674"
"$GPRMC,051323,A,2427.7157,N,08125.3439,W,2.4,256.9,120615,5.8,"
"##MN-00 00 86 0212 03188 5559 795440 024307 197"
"163.21772"
"$GPRMC,051327,A,2427.7152,N,08125.3470,W,2.4,256.6,120615,5.8,"
"##MN-00 00 88 0213 03188 5558 242480 024324 197"
"163.217766"
"$GPRMC,051331,A,2427.7143,N,08125.3498,W,2.4,256.2,120615,5.8,"
"##MN-00 00 87 0214 03186 5557 627512 024320 197"
"163.217812"
"$GPRMC,051335,A,2427.7137,N,08125.3530,W,2.4,256.5,120615,5.8,"
"##MN-00 00 86 0215 03184 5556 242160 024328 197"
"163.217859"
"$GPRMC,051339,A,2427.7131,N,08125.3556,W,2.4,256.1,120615,5.8,"
"##MN-00 00 87 0216 03181 5555 241992 024335 197"
"163.217905"
"$GPRMC,051343,A,2427.7126,N,08125.3587,W,2.4,257.2,120615,5.8,"
"##MN-00 00 85 0218 03182 5555 241872 024318 197"
"163.217951"
"$GPRMC,051347,A,2427.7120,N,08125.3616,W,2.4,256.2,120615,5.8,"
"##MN-00 00 87 0219 03177 5554 246200 024302 197"
"163.217998"
"$GPRMC,051351,A,2427.7117,N,08125.3645,W,2.4,257.5,120615,5.8,"
"##MN-00 00 88 0220 03178 5553 250576 024309 197"
"163.218044"
"$GPRMC,051355,A,2427.7114,N,08125.3674,W,2.4,256.7,120615,5.8,"
"##MN-00 00 86 0221 03175 5552 259784 024315 197"
"163.21809"
"$GPRMC,051400,A,2427.7108,N,08125.3710,W,2.4,258.5,120615,5.8,"
"##MN-00 00 86 0222 03172 5551 538736 024300 197"
"163.218137"
"$GPRMC,051404,A,2427.7102,N,08125.3740,W,2.4,258.2,120615,5.8,"
"##MN-00 00 86 0223 03171 5550 264416 024297 197"
"163.218183"
"$GPRMC,051408,A,2427.7094,N,08125.3768,W,2.4,258.0,120615,5.8,"
"##MN-00 00 88 0224 03168 5550 269232 024305 197"
"163.218229"
"$GPRMC,051411,A,2427.7090,N,08125.3790,W,2.4,258.9,120615,5.8,"
"##MN-00 00 87 0225 03166 5549 268640 024303 197"
"163.218275"
"$GPRMC,051416,A,2427.7081,N,08125.3826,W,2.4,259.7,120615,5.8,"
"##MN-00 00 88 0226 03165 5548 519568 024295 197"
"163.218322"
"$GPRMC,051420,A,2427.7076,N,08125.3853,W,2.4,260.0,120615,5.8,"
"##MN-00 00 87 0227 03160 5548 552024 024305 197"
"163.218368"
"$GPRMC,051424,A,2427.7072,N,08125.3881,W,2.4,260.1,120615,5.8,"
"##MN-00 00 87 0228 03158 5547 279072 024294 197"
"163.218414"
"$GPRMC,051428,A,2427.7063,N,08125.3909,W,2.4,259.7,120615,5.8,"
"##MN-00 00 88 0229 03157 5546 416824 024299 197"
"163.218461"
"$GPRMC,051432,A,2427.7055,N,08125.3936,W,2.4,258.7,120615,5.8,"
"##MN-00 00 90 0230 03153 5546 002560 024306 197"
"163.218507"
"$GPRMC,051436,A,2427.7050,N,08125.3967,W,2.5,258.5,120615,5.8,"
"##MN-00 00 89 0231 03153 5545 285000 024301 197"
"163.218553"
"$GPRMC,051440,A,2427.7043,N,08125.3995,W,2.5,258.5,120615,5.8,"
"##MN-00 00 86 0232 03147 5544 291496 024303 197"
"163.2186"
"$GPRMC,051444,A,2427.7038,N,08125.4024,W,2.4,258.9,120615,5.8,"
"##MN-00 00 88 0233 03144 5544 848272 024288 197"
"163.218646"
"$GPRMC,051448,A,2427.7030,N,08125.4053,W,2.5,258.3,120615,5.8,"
"##MN-00 00 86 0234 03141 5543 157984 024282 197"
"163.218692"
"$GPRMC,051452,A,2427.7026,N,08125.4082,W,2.5,258.1,120615,5.8,"
"##MN-00 00 87 0236 03139 5543 296960 024296 197"
"163.218738"
"$GPRMC,051456,A,2427.7021,N,08125.4112,W,2.4,257.6,120615,5.8,"
"##MN-00 00 88 0237 03138 5542 296824 024312 197"
"163.218785"
"$GPRMC,051500,A,2427.7016,N,08125.4140,W,2.4,257.5,120615,5.8,"
"##MN-00 00 90 0238 03133 5542 572664 024331 197"
"163.218831"
"$GPRMC,051504,A,2427.7011,N,08125.4173,W,2.4,257.3,120615,5.8,"
"##MN-00 00 88 0239 03131 5541 296576 024341 197"
"163.218877"
"$GPRMC,051508,A,2427.7008,N,08125.4201,W,2.4,256.8,120615,5.8,"
"##MN-00 00 87 0240 03127 5541 296488 024343 197"
"163.218924"
"$GPRMC,051512,A,2427.7005,N,08125.4230,W,2.4,257.4,120615,5.8,"
"##MN-00 00 88 0241 03125 5540 018320 024340 197"
"163.21897"
"$GPRMC,051516,A,2427.7000,N,08125.4260,W,2.4,258.2,120615,5.8,"
"##MN-00 00 88 0242 03125 5540 573168 024319 197"
"163.219016"
"$GPRMC,051520,A,2427.6993,N,08125.4288,W,2.4,259.1,120615,5.8,"
"##MN-00 00 87 0243 03118 5540 303760 024320 197"
"163.219063"
"$GPRMC,051524,A,2427.6985,N,08125.4319,W,2.5,258.7,120615,5.8,"
"##MN-00 00 88 0244 03114 5539 311280 024311 197"
"163.219109"
"$GPRMC,051528,A,2427.6980,N,08125.4350,W,2.5,259.1,120615,5.8,"
"##MN-00 00 87 0245 03113 5539 177432 024314 197"
"163.219155"
"$GPRMC,051532,A,2427.6974,N,08125.4379,W,2.5,260.0,120615,5.8,"
"##MN-00 00 89 0246 03110 5539 318176 024314 197"
"163.219201"
"$GPRMC,051536,A,2427.6967,N,08125.4408,W,2.5,259.5,120615,5.8,"
"##MN-00 00 88 0248 03105 5539 598096 024303 197"
"163.219248"
"$GPRMC,051540,A,2427.6962,N,08125.4438,W,2.5,259.4,120615,5.8,"
"##MN-00 00 90 0249 03102 5538 186040 024326 197"
"163.219294"
"$GPRMC,051544,A,2427.6958,N,08125.4469,W,2.5,258.3,120615,5.8,"
"##MN-00 00 88 0250 03099 5538 325888 024308 197"
"163.21934"
"$GPRMC,051548,A,2427.6953,N,08125.4498,W,2.5,259.4,120615,5.8,"
"##MN-00 00 89 0251 03094 5538 606264 024300 197"
"163.219387"
"$GPRMC,051552,A,2427.6949,N,08125.4527,W,2.5,258.6,120615,5.8,"
"##MN-00 00 88 0252 03092 5537 605856 024295 197"
"163.219433"
"$GPRMC,051556,A,2427.6943,N,08125.4556,W,2.5,259.0,120615,5.8,"
"##MN-00 00 90 0253 03089 5537 194672 024309 197"
"163.219479"
"$GPRMC,051600,A,2427.6937,N,08125.4586,W,2.5,258.2,120615,5.8,"
"##MN-00 00 87 0254 03085 5537 611400 024281 197"
"163.219525"
"$GPRMC,051604,A,2427.6933,N,08125.4617,W,2.5,258.2,120615,5.8,"
"##MN-00 00 89 0255 03080 5537 338848 024309 197"
"163.219572"
"$GPRMC,051608,A,2427.6926,N,08125.4646,W,2.5,258.0,120615,5.8,"
"##MN-00 00 90 0257 03077 5537 338472 024300 197"
"163.219618"
"$GPRMC,051612,A,2427.6920,N,08125.4676,W,2.5,257.6,120615,5.8,"
"##MN+00 00 89 0258 03074 5537 343152 024292 197"
"163.219676"
"$GPRMC,051616,A,2427.6914,N,08125.4707,W,2.5,257.7,120615,5.8,"
"##MN+00 00 90 0259 03072 5537 760536 024290 197"
"163.219722"
"$GPRMC,051620,A,2427.6908,N,08125.4736,W,2.5,257.7,120615,5.8,"
"##MN+00 00 90 0260 03067 5536 213336 024240 197"
"163.219769"
"$GPRMC,051624,A,2427.6903,N,08125.4765,W,2.5,258.5,120615,5.8,"
"##MN+00 00 90 0261 03063 5536 351856 024232 197"
"163.219815"
"#increment_net"
"$GPRMC,051628,A,2427.6896,N,08125.4794,W,2.5,259.1,120615,5.8,"
"##MN+00 00 89 0262 03061 5536 353136 024254 197"
"163.219861"
"$GPRMC,051632,A,2427.6890,N,08125.4824,W,2.5,258.4,120615,5.8,"
"##MN+00 00 88 0263 03060 5536 899312 024297 197"
"163.219907"
"$GPRMC,051636,A,2427.6884,N,08125.4855,W,2.4,257.9,120615,5.8,"
"##MN-00 00 90 0264 03058 5536 350080 024319 197"
"163.219954"
"$GPRMC,051640,A,2427.6877,N,08125.4884,W,2.5,257.6,120615,5.8,"
"##MN-00 00 88 0266 03054 5536 763256 024320 197"
"163.22"
"$GPRMC,051644,A,2427.6870,N,08125.4913,W,2.4,257.0,120615,5.8,"
"##MN-00 00 90 0267 03049 5536 074352 024349 197"
"163.220046"
"$GPRMC,051648,A,2427.6863,N,08125.4940,W,2.4,256.5,120615,5.8,"
"##MN-00 00 88 0268 03047 5536 626144 024333 197"
"163.220093"
"$GPRMC,051652,A,2427.6861,N,08125.4971,W,2.5,256.0,120615,5.8,"
"##MN-00 00 90 0269 03044 5536 075120 024335 197"
"163.220139"
"$GPRMC,051656,A,2427.6853,N,08125.5000,W,2.4,256.4,120615,5.8,"
"##MN-00 00 88 0270 03042 5537 626000 024344 197"
"163.220185"
"$GPRMC,051700,A,2427.6850,N,08125.5029,W,2.5,257.5,120615,5.8,"
"##MN-00 00 87 0271 03039 5537 487744 024355 197"
"163.220231"
"$GPRMC,051704,A,2427.6842,N,08125.5058,W,2.5,257.7,120615,5.8,"
"##MN-00 00 88 0272 03036 5536 077520 024333 197"
"163.220278"
"$GPRMC,051708,A,2427.6834,N,08125.5085,W,2.4,257.3,120615,5.8,"
"##MN-00 00 87 0273 03034 5537 362720 024317 197"
"163.220324"
"$GPRMC,051712,A,2427.6827,N,08125.5115,W,2.4,256.5,120615,5.8,"
"##MN-00 00 88 0275 03031 5537 143632 024312 197"
"163.22037"
"$GPRMC,051716,A,2427.6828,N,08125.5144,W,2.4,256.2,120615,5.8,"
"##MN-00 00 87 0276 03027 5537 368592 024315 197"
"163.220417"
"$GPRMC,051720,A,2427.6819,N,08125.5171,W,2.5,255.8,120615,5.8,"
"##MN-00 00 90 0277 03026 5537 511112 024314 197"
"163.220463"
"$GPRMC,051724,A,2427.6812,N,08125.5197,W,2.4,256.1,120615,5.8,"
"##MN-00 00 90 0278 03023 5537 378576 024297 197"
"163.220509"
"$GPRMC,051728,A,2427.6806,N,08125.5224,W,2.4,256.9,120615,5.8,"
"##MN-00 00 90 0279 03018 5537 379376 024305 197"
"163.220556"
"$GPRMC,051732,A,2427.6799,N,08125.5250,W,2.4,256.8,120615,5.8,"
"##MN-00 00 87 0280 03016 5538 651488 024315 197"
"163.220602"
"$GPRMC,051736,A,2427.6796,N,08125.5278,W,2.4,257.4,120615,5.8,"
"##MN-00 00 88 0281 03012 5538 652744 024289 197"
"163.220648"
"$GPRMC,051740,A,2427.6788,N,08125.5309,W,2.4,257.1,120615,5.8,"
"##MN-00 00 90 0282 03011 5538 520616 024312 197"
"163.220694"
"$GPRMC,051744,A,2427.6784,N,08125.5339,W,2.4,258.1,120615,5.8,"
"##MN-00 00 87 0283 03010 5538 937424 024312 197"
"163.220741"
"$GPRMC,051748,A,2427.6778,N,08125.5368,W,2.4,258.4,120615,5.8,"
"##MN-00 00 88 0284 03006 5538 524536 024309 197"
"163.220787"
"$GPRMC,051752,A,2427.6773,N,08125.5397,W,2.4,259.3,120615,5.8,"
"##MN-00 00 89 0286 03002 5539 388832 024293 197"
"163.220833"
"$GPRMC,051756,A,2427.6769,N,08125.5423,W,2.3,260.4,120615,5.8,"
"##MN-00 00 87 0287 03002 5539 254208 024297 197"
"163.22088"
"$GPRMC,051800,A,2427.6765,N,08125.5455,W,2.4,261.8,120615,5.8,"
"##MN-00 00 90 0288 03000 5539 668024 024304 197"
"163.220926"
"$GPRMC,051804,A,2427.6760,N,08125.5482,W,2.4,262.6,120615,5.8,"
"##MN-00 00 88 0289 02998 5539 947824 024263 197"
"163.220972"
"$GPRMC,051808,A,2427.6756,N,08125.5513,W,2.4,262.9,120615,5.8,"
"##MN-00 00 89 0290 02993 5540 403800 024285 197"
"163.221019"
"$GPRMC,051812,A,2427.6751,N,08125.5542,W,2.4,262.4,120615,5.8,"
"##MN-00 00 89 0291 02991 5540 407296 024270 197"
"163.221065"
"$GPRMC,051816,A,2427.6747,N,08125.5568,W,2.4,262.0,120615,5.8,"
"##MN-00 00 88 0292 02988 5540 543352 024280 197"
"163.221111"
"$GPRMC,051820,A,2427.6741,N,08125.5600,W,2.4,261.4,120615,5.8,"
"##MN-00 00 88 0293 02986 5540 407200 024274 197"
"163.221157"
"$GPRMC,051824,A,2427.6733,N,08125.5629,W,2.4,259.9,120615,5.8,"
"##MN-00 00 89 0294 02983 5541 407136 024260 197"
"163.221204"
"$GPRMC,051828,A,2427.6731,N,08125.5658,W,2.4,260.0,120615,5.8,"
"##MN-00 00 87 0296 02980 5541 543184 024256 197"
"163.22125"
"$GPRMC,051832,A,2427.6729,N,08125.5681,W,2.4,258.7,120615,5.8,"
"##MN-00 00 89 0297 02980 5541 130784 024278 197"
"163.221296"
"$GPRMC,051837,A,2427.6728,N,08125.5715,W,2.5,257.4,120615,5.8,"
"##MN-00 00 88 0298 02975 5542 681280 024310 197"
"163.221343"
"$GPRMC,051840,A,2427.6722,N,08125.5744,W,2.4,257.3,120615,5.8,"
"##MN-00 00 87 0299 02972 5542 406992 024319 197"
"163.221389"
"$GPRMC,051845,A,2427.6714,N,08125.5778,W,2.4,256.5,120615,5.8,"
"##MN-00 00 89 0300 02970 5542 406928 024310 197"
"163.221435"
"$GPRMC,051848,A,2427.6709,N,08125.5800,W,2.4,256.0,120615,5.8,"
"##MN-00 00 88 0301 02965 5543 268752 024296 197"
"163.221481"
"$GPRMC,051852,A,2427.6700,N,08125.5829,W,2.4,254.8,120615,5.8,"
"##MN-00 00 89 0302 02965 5543 178832 024309 197"
"163.221528"
"$GPRMC,051857,A,2427.6689,N,08125.5864,W,2.4,255.2,120615,5.8,"
"##MN-00 00 90 0303 02961 5543 269488 024258 197"
"163.221574"
"$GPRMC,051900,A,2427.6684,N,08125.5883,W,2.3,255.8,120615,5.8,"
"##MN-00 00 88 0304 02960 5544 551240 024310 197"
"163.22162"
"$GPRMC,051904,A,2427.6675,N,08125.5914,W,2.3,255.7,120615,5.8,"
"##MN-00 00 87 0305 02955 5544 969360 024285 197"
"163.221667"
"$GPRMC,051909,A,2427.6675,N,08125.5950,W,2.3,255.7,120615,5.8,"
"##MN-00 00 85 0307 02953 5545 423272 024269 197"
"163.221713"
"$GPRMC,051912,A,2427.6668,N,08125.5970,W,2.3,255.8,120615,5.8,"
"##MN-00 00 88 0308 02949 5545 426160 024270 197"
"163.221759"
"$GPRMC,051917,A,2427.6658,N,08125.6004,W,2.3,256.3,120615,5.8,"
"##MN-00 00 87 0309 02948 5546 839144 024277 197"
"163.221806"
"$GPRMC,051920,A,2427.6655,N,08125.6026,W,2.4,256.1,120615,5.8,"
"##MN-00 00 88 0310 02944 5546 430280 024273 197"
"163.221852"
"$GPRMC,051925,A,2427.6646,N,08125.6059,W,2.3,256.1,120615,5.8,"
"##MN-00 00 88 0311 02942 5546 706288 024278 197"
"163.221898"
"$GPRMC,051929,A,2427.6638,N,08125.6087,W,2.3,256.7,120615,5.8,"
"##MN-00 00 87 0312 02940 5547 435832 024274 197"
"163.221944"
"$GPRMC,051933,A,2427.6632,N,08125.6116,W,2.3,256.9,120615,5.8,"
"##MN-00 00 88 0313 02938 5547 204272 024282 197"
"163.221991"
"$GPRMC,051937,A,2427.6628,N,08125.6145,W,2.4,258.1,120615,5.8,"
"##MN-00 00 87 0314 02934 5548 571832 024268 197"
"163.222037"
"$GPRMC,051941,A,2427.6621,N,08125.6174,W,2.4,258.2,120615,5.8,"
"##MN-00 00 90 0315 02932 5548 437216 024279 197"
"163.222083"
"$GPRMC,051945,A,2427.6617,N,08125.6203,W,2.4,259.4,120615,5.8,"
"##MN-00 00 88 0317 02930 5549 991248 024280 197"
"163.22213"
"$GPRMC,051949,A,2427.6611,N,08125.6232,W,2.4,259.3,120615,5.8,"
"##MN-00 00 88 0318 02929 5549 306000 024286 197"
"163.222176"
"$GPRMC,051953,A,2427.6606,N,08125.6262,W,2.4,260.0,120615,5.8,"
"##MN-00 00 90 0319 02925 5550 992080 024278 197"
"163.222222"
"$GPRMC,051957,A,2427.6602,N,08125.6294,W,2.4,260.2,120615,5.8,"
"##MN-00 00 87 0320 02921 5550 853192 024284 197"
"163.222269"
"$GPRMC,052001,A,2427.6596,N,08125.6322,W,2.4,260.3,120615,5.8,"
"##MN-00 00 90 0321 02920 5551 449728 024276 197"
"163.222315"
"$GPRMC,052005,A,2427.6591,N,08125.6352,W,2.4,259.9,120615,5.8,"
"##MN-00 00 87 0322 02916 5551 451424 024286 197"
"163.222361"
"$GPRMC,052009,A,2427.6583,N,08125.6377,W,2.4,259.1,120615,5.8,"
"##MN-00 00 89 0323 02914 5552 454944 024284 197"
"163.222407"
"$GPRMC,052013,A,2427.6577,N,08125.6405,W,2.4,259.0,120615,5.8,"
"##MN-00 00 89 0324 02913 5552 461968 024295 197"
"163.222454"
"$GPRMC,052017,A,2427.6570,N,08125.6434,W,2.4,258.8,120615,5.8,"
"##MN-00 00 88 0325 02909 5553 462432 024283 197"
"163.2225"
"$GPRMC,052021,A,2427.6566,N,08125.6463,W,2.4,259.6,120615,5.8,"
"##MN-00 00 90 0327 02909 5553 462352 024292 197"
"163.222546"
"$GPRMC,052025,A,2427.6560,N,08125.6492,W,2.4,260.6,120615,5.8,"
"##MN-00 00 89 0328 02907 5554 190000 024295 197"
"163.222593"
"$GPRMC,052029,A,2427.6556,N,08125.6519,W,2.4,261.3,120615,5.8,"
"##MN-00 00 89 0329 02903 5554 462656 024284 197"
"163.222639"
"$GPRMC,052033,A,2427.6552,N,08125.6548,W,2.4,261.0,120615,5.8,"
"##MN-00 00 87 0330 02898 5555 731264 024293 197"
"163.222685"
"$GPRMC,052037,A,2427.6548,N,08125.6577,W,2.4,260.6,120615,5.8,"
"##MN-00 00 90 0331 02894 5555 685456 024286 197"
"163.222731"
"$GPRMC,052041,A,2427.6542,N,08125.6605,W,2.3,259.9,120615,5.8,"
"##MN-00 00 87 0332 02895 5556 564224 024289 197"
"163.222778"
"$GPRMC,052045,A,2427.6538,N,08125.6634,W,2.4,259.9,120615,5.8,"
"##MN+00 00 88 0333 02892 5557 462424 024290 197"
"163.222824"
"$GPRMC,052049,A,2427.6534,N,08125.6662,W,2.3,260.1,120615,5.8,"
"##MN+00 00 88 0334 02888 5557 713224 024292 197"
"163.22287"
"$GPRMC,052053,A,2427.6530,N,08125.6691,W,2.3,260.8,120615,5.8,"
"##MN+00 00 87 0336 02888 5558 462320 024287 197"
"163.222928"
"$GPRMC,052057,A,2427.6525,N,08125.6720,W,2.4,260.5,120615,5.8,"
"##MN-00 00 88 0337 02886 5558 597880 024297 197"
"163.222975"
"$GPRMC,052101,A,2427.6520,N,08125.6749,W,2.4,259.7,120615,5.8,"
"##MN+00 00 85 0338 02882 5559 009776 024280 197"
"163.223021"
"#increment_net"
"$GPRMC,052105,A,2427.6517,N,08125.6777,W,2.4,259.4,120615,5.8,"
"##MN+00 00 84 0339 02882 5559 472392 024298 197"
"163.223067"
"$GPRMC,052109,A,2427.6509,N,08125.6807,W,2.4,258.0,120615,5.8,"
"##MN+00 00 87 0340 02877 5560 478584 024295 197"
"163.223113"
"$GPRMC,052113,A,2427.6510,N,08125.6835,W,2.4,257.3,120615,5.8,"
"##MN-00 00 88 0341 02875 5561 372816 024300 197"
"163.22316"
"$GPRMC,052117,A,2427.6508,N,08125.6860,W,2.4,257.9,120615,5.8,"
"##MN-00 00 84 0342 02873 5561 535656 024304 197"
"163.223206"
"$GPRMC,052121,A,2427.6505,N,08125.6887,W,2.4,258.4,120615,5.8,"
"##MN-00 00 86 0344 02870 5562 208912 024295 197"
"163.223252"
"$GPRMC,052125,A,2427.6500,N,08125.6915,W,2.3,257.9,120615,5.8,"
"##MN-00 00 86 0345 02869 5563 760264 024302 197"
"163.223299"
"$GPRMC,052129,A,2427.6494,N,08125.6943,W,2.3,258.6,120615,5.8,"
"##MN-00 00 86 0346 02865 5563 489536 024301 197"
"163.223345"
"$GPRMC,052133,A,2427.6489,N,08125.6969,W,2.2,258.8,120615,5.8,"
"##MN-00 00 88 0347 02864 5564 216784 024303 197"
"163.223391"
"$GPRMC,052137,A,2427.6486,N,08125.6994,W,2.2,259.6,120615,5.8,"
"##MN-00 00 85 0348 02862 5564 489880 024306 197"
"163.223438"
"$GPRMC,052141,A,2427.6480,N,08125.7020,W,2.2,260.6,120615,5.8,"
"##MN-00 00 87 0349 02859 5565 491120 024304 197"
"163.223484"
"$GPRMC,052145,A,2427.6476,N,08125.7048,W,2.2,261.0,120615,5.8,"
"##MN-00 00 85 0350 02856 5565 768464 024308 197"
"163.22353"
"$GPRMC,052149,A,2427.6474,N,08125.7075,W,2.2,262.4,120615,5.8,"
"##MN-00 00 87 0351 02855 5566 498256 024305 197"
"163.223576"
"$GPRMC,052153,A,2427.6469,N,08125.7104,W,2.3,262.0,120615,5.8,"
"##MN-00 00 87 0352 02853 5567 361408 024306 197"
"163.223623"
"$GPRMC,052157,A,2427.6467,N,08125.7131,W,2.3,263.1,120615,5.8,"
"##MN-00 00 86 0354 02849 5567 499504 024314 197"
"163.223669"
"$GPRMC,052201,A,2427.6463,N,08125.7160,W,2.3,264.1,120615,5.8,"
"##MN-00 00 87 0355 02847 5568 502608 024303 197"
"163.223715"
"$GPRMC,052205,A,2427.6459,N,08125.7189,W,2.3,263.7,120615,5.8,"
"##MN-00 00 87 0356 02845 5569 252944 024307 197"
"163.223762"
"$GPRMC,052209,A,2427.6458,N,08125.7218,W,2.3,264.7,120615,5.8,"
"##MN-00 00 88 0357 02842 5569 507840 024317 197"
"163.223808"
"$GPRMC,052213,A,2427.6452,N,08125.7245,W,2.3,263.6,120615,5.8,"
"##MN-00 00 85 0358 02842 5570 510032 024310 197"
"163.223854"
"$GPRMC,052217,A,2427.6449,N,08125.7276,W,2.3,264.1,120615,5.8,"
"##MN-00 00 86 0359 02840 5571 375008 024314 197"
"163.2239"
"$GPRMC,052221,A,2427.6447,N,08125.7303,W,2.4,264.4,120615,5.8,"
"##MN-00 00 88 0360 02838 5571 518464 024267 197"
"163.223947"
"$GPRMC,052225,A,2427.6445,N,08125.7334,W,2.4,265.9,120615,5.8,"
"##MN-00 00 85 0362 02834 5572 402264 024262 197"
"163.223993"
"$GPRMC,052229,A,2427.6445,N,08125.7363,W,2.4,267.0,120615,5.8,"
"##MN-00 00 90 0363 02834 5573 518400 024282 197"
"163.224039"
"$GPRMC,052233,A,2427.6442,N,08125.7392,W,2.4,266.8,120615,5.8,"
"##MN-00 00 87 0364 02832 5573 518352 024281 197"
"163.224086"
"$GPRMC,052237,A,2427.6441,N,08125.7422,W,2.4,267.5,120615,5.8,"
"##MN-00 00 86 0365 02829 5574 518320 024313 197"
"163.224132"
"$GPRMC,052241,A,2427.6440,N,08125.7449,W,2.4,267.2,120615,5.8,"
"##MN-00 00 89 0366 02827 5575 518224 024315 197"
"163.224178"
"$GPRMC,052245,A,2427.6440,N,08125.7478,W,2.4,268.1,120615,5.8,"
"##MN-00 00 86 0367 02827 5576 518200 024315 197"
"163.224225"
"$GPRMC,052249,A,2427.6440,N,08125.7507,W,2.3,268.1,120615,5.8,"
"##MN-00 00 87 0369 02824 5576 518128 024320 197"
"163.224271"
"$GPRMC,052253,A,2427.6440,N,08125.7536,W,2.3,269.4,120615,5.8,"
"##MN-00 00 87 0370 02822 5577 518104 024315 197"
"163.224317"
"$GPRMC,052257,A,2427.6440,N,08125.7565,W,2.4,270.7,120615,5.8,"
"##MN-00 00 88 0371 02820 5577 517184 024318 197"
"163.224363"
"$GPRMC,052301,A,2427.6442,N,08125.7595,W,2.4,271.9,120615,5.8,"
"##MN-00 00 89 0372 02819 5578 518488 024320 197"
"163.22441"
"$GPRMC,052305,A,2427.6446,N,08125.7623,W,2.4,273.8,120615,5.8,"
"##MN-00 00 89 0373 02816 5579 518416 024318 197"
"163.224456"
"$GPRMC,052309,A,2427.6450,N,08125.7656,W,2.6,275.3,120615,5.8,"
"##MN-00 00 87 0375 02815 5580 517072 024309 197"
"163.224502"
"$GPRMC,052314,A,2427.6454,N,08125.7692,W,2.4,277.8,120615,5.8,"
"##MN-00 00 87 0376 02813 5580 517960 024315 197"
"163.224549"
"$GPRMC,052317,A,2427.6458,N,08125.7714,W,2.5,278.7,120615,5.8,"
"##MN-00 00 86 0377 02812 5581 517888 024327 197"
"163.224595"
"$GPRMC,052322,A,2427.6465,N,08125.7750,W,2.4,280.3,120615,5.8,"
"##MN-00 00 85 0378 02811 5582 522320 024313 197"
"163.224641"
"$GPRMC,052326,A,2427.6469,N,08125.7775,W,2.4,281.5,120615,5.8,"
"##MN-00 00 88 0379 02809 5583 530776 024320 197"
"163.224687"
"$GPRMC,052329,A,2427.6474,N,08125.7798,W,2.4,281.6,120615,5.8,"
"##MN-00 00 86 0380 02806 5584 537392 024329 197"
"163.224734"
"$GPRMC,052334,A,2427.6482,N,08125.7834,W,2.4,282.9,120615,5.8,"
"##MN-00 00 86 0381 02803 5584 482952 024328 197"
"163.22478"
"$GPRMC,052337,A,2427.6486,N,08125.7857,W,2.4,282.5,120615,5.8,"
"##MN-00 00 90 0383 02805 5585 645408 024324 197"
"163.224826"
"$GPRMC,052342,A,2427.6494,N,08125.7894,W,2.4,283.5,120615,5.8,"
"##MN-00 00 89 0384 02801 5586 538280 024331 197"
"163.224873"
"$GPRMC,052346,A,2427.6501,N,08125.7923,W,2.4,283.0,120615,5.8,"
"##MN-00 00 86 0385 02800 5587 541384 024307 197"
"163.224919"
"$GPRMC,052350,A,2427.6505,N,08125.7953,W,2.4,281.9,120615,5.8,"
"##MN-00 00 83 0386 02799 5587 545376 024286 197"
"163.224965"
"$GPRMC,052354,A,2427.6510,N,08125.7981,W,2.3,281.7,120615,5.8,"
"##MN-00 00 88 0387 02797 5588 408480 024325 197"
"163.225012"
"$GPRMC,052358,A,2427.6514,N,08125.8009,W,2.3,281.3,120615,5.8,"
"##MN-00 00 87 0388 02797 5588 546160 024319 197"
"163.225058"
"$GPRMC,052402,A,2427.6519,N,08125.8033,W,2.2,280.2,120615,5.8,"
"##MN-00 00 84 0389 02794 5589 546592 024295 197"
"163.225104"
"$GPRMC,052406,A,2427.6523,N,08125.8058,W,2.1,280.2,120615,5.8,"
"##MN-00 00 82 0390 02792 5591 046912 024303 197"
"163.22515"
"$GPRMC,052410,A,2427.6526,N,08125.8078,W,1.9,280.0,120615,5.8,"
"##MN-00 00 86 0391 02793 5591 412408 024295 197"
"163.225197"
"$GPRMC,052414,A,2427.6530,N,08125.8100,W,1.9,280.7,120615,5.8,"
"##MN-00 00 77 0391 02790 5592 553664 024305 197"
"163.225243"
"$GPRMC,052418,A,2427.6534,N,08125.8121,W,1.8,280.7,120615,5.8,"
"##MN+00 00 75 0392 02790 5592 554912 024303 197"
"163.225289"
"$GPRMC,052422,A,2427.6539,N,08125.8139,W,1.7,281.3,120615,5.8,"
"##MN+00 00 90 0393 02790 5593 302672 024331 197"
"163.225336"
"$GPRMC,052426,A,2427.6543,N,08125.8161,W,1.7,281.6,120615,5.8,"
"##MN+00 00 74 0393 02791 5594 558496 024298 197"
"163.225382"
"#increment_net"
"$GPRMC,052430,A,2427.6545,N,08125.8177,W,1.6,282.0,120615,5.8,"
"##MN-00 00 81 0394 02787 5594 558488 024312 197"
"163.225428"
"$GPRMC,052434,A,2427.6551,N,08125.8197,W,1.6,282.7,120615,5.8,"
"##MN-00 00 74 0395 02781 5596 559808 024298 197"
"163.225475"
"$GPRMC,052438,A,2427.6555,N,08125.8215,W,1.6,283.2,120615,5.8,"
"##MN-00 00 72 0396 02785 5596 562944 024320 197"
"163.225521"
"$GPRMC,052442,A,2427.6559,N,08125.8234,W,1.6,283.5,120615,5.8,"
"##MN-00 00 66 0396 02783 5597 563760 024347 197"
"163.225567"
"$GPRMC,052446,A,2427.6563,N,08125.8255,W,1.6,283.9,120615,5.8,"
"##MN-00 00 64 0397 02784 5597 572592 024289 197"
"163.225613"
"$GPRMC,052450,A,2427.6568,N,08125.8274,W,1.6,284.7,120615,5.8,"
"##MN-00 00 63 0398 02783 5598 571248 024288 197"
"163.22566"
"$GPRMC,052454,A,2427.6573,N,08125.8295,W,1.7,285.0,120615,5.8,"
"##MN-00 00 63 0398 02784 5599 574336 024280 197"
"163.225706"
"$GPRMC,052458,A,2427.6580,N,08125.8318,W,1.7,285.1,120615,5.8,"
"##MN-00 00 67 0399 02784 5600 573888 024286 197"
"163.225752"
"$GPRMC,052502,A,2427.6584,N,08125.8339,W,1.8,284.7,120615,5.8,"
"##MN-00 00 66 0400 02783 5601 574736 024333 197"
"163.225799"
"$GPRMC,052506,A,2427.6588,N,08125.8365,W,1.9,282.4,120615,5.8,"
"##MN-00 00 67 0400 02785 5601 573376 024338 197"
"163.225845"
"$GPRMC,052510,A,2427.6591,N,08125.8392,W,2.1,280.4,120615,5.8,"
"##MN-00 00 67 0401 02783 5603 183000 024345 197"
"163.225891"
"$GPRMC,052514,A,2427.6592,N,08125.8417,W,2.1,278.3,120615,5.8,"
"##MN-00 00 69 0402 02779 5603 303296 024342 197"
"163.225938"
"$GPRMC,052518,A,2427.6595,N,08125.8443,W,2.2,276.9,120615,5.8,"
"##MN-00 00 67 0403 02776 5604 322376 024349 197"
"163.225984"
"$GPRMC,052522,A,2427.6597,N,08125.8469,W,2.2,275.5,120615,5.8,"
"##MN-00 00 70 0404 02776 5605 574168 024346 197"
"163.22603"
"$GPRMC,052526,A,2427.6598,N,08125.8499,W,2.3,273.8,120615,5.8,"
"##MN-00 00 73 0404 02781 5605 298720 024340 197"
"163.226076"
"$GPRMC,052530,A,2427.6598,N,08125.8526,W,2.2,271.7,120615,5.8,"
"##MN-00 00 70 0405 02782 5607 322240 024342 197"
"163.226123"
"$GPRMC,052534,A,2427.6599,N,08125.8559,W,2.4,271.1,120615,5.8,"
"##MN-00 00 73 0406 02782 5606 843648 024343 197"
"163.226181"
"$GPRMC,052538,A,2427.6599,N,08125.8588,W,2.4,270.7,120615,5.8,"
"##MN-00 00 73 0407 02777 5609 573152 024350 197"
"163.226227"
"$GPRMC,052542,A,2427.6599,N,08125.8618,W,2.4,271.1,120615,5.8,"
"##MN-00 00 74 0408 02781 5608 437224 024343 197"
"163.226273"
"$GPRMC,052546,A,2427.6600,N,08125.8649,W,2.4,271.2,120615,5.8,"
"##MN-00 00 76 0409 02784 5609 573968 024343 197"
"163.226319"
"$GPRMC,052550,A,2427.6601,N,08125.8679,W,2.4,271.5,120615,5.8,"
"##MN-00 00 73 0410 02786 5610 321648 024302 197"
"163.226366"
"$GPRMC,052554,A,2427.6603,N,08125.8711,W,2.6,273.0,120615,5.8,"
"##MN-00 00 80 0411 02786 5611 299440 024322 197"
"163.226412"
"$GPRMC,052558,A,2427.6603,N,08125.8740,W,2.5,272.5,120615,5.8,"
"##MN-00 00 76 0411 02784 5611 185264 024335 197"
"163.226458"
"$GPRMC,052602,A,2427.6606,N,08125.8772,W,2.6,273.4,120615,5.8,"
"##MN-00 00 77 0412 02786 5612 575648 024298 197"
"163.226505"
"$GPRMC,052606,A,2427.6607,N,08125.8793,W,2.4,273.0,120615,5.8,"
"##MN-00 00 75 0413 02787 5614 579648 024310 197"
"163.226551"
"$GPRMC,052610,A,2427.6612,N,08125.8833,W,2.5,273.9,120615,5.8,"
"##MN-00 00 77 0414 02791 5614 584952 024281 197"
"163.226597"
"$GPRMC,052614,A,2427.6613,N,08125.8865,W,2.5,273.6,120615,5.8,"
"##MN-00 00 75 0415 02791 5615 589872 024305 197"
"163.226644"
"$GPRMC,052618,A,2427.6616,N,08125.8892,W,2.6,273.4,120615,5.8,"
"##MN-00 00 76 0416 02795 5615 592520 024274 197"
"163.22669"
"$GPRMC,052622,A,2427.6617,N,08125.8925,W,2.6,272.5,120615,5.8,"
"##MN-00 00 76 0417 02796 5616 087968 024276 197"
"163.226736"
"$GPRMC,052626,A,2427.6619,N,08125.8960,W,2.6,272.9,120615,5.8,"
"##MN-00 00 76 0418 02799 5617 592912 024281 197"
"163.226782"
"$GPRMC,052630,A,2427.6622,N,08125.9001,W,2.6,271.4,120615,5.8,"
"##MN-00 00 76 0419 02802 5617 595136 024289 197"
"163.226829"
"$GPRMC,052634,A,2427.6621,N,08125.9032,W,2.6,272.2,120615,5.8,"
"##MN-00 00 77 0420 02806 5619 595136 024287 197"
"163.226875"
"$GPRMC,052638,A,2427.6621,N,08125.9065,W,2.6,270.8,120615,5.8,"
"##MN-00 00 76 0421 02804 5619 595976 024296 197"
"163.226921"
"$GPRMC,052642,A,2427.6620,N,08125.9095,W,2.6,270.0,120615,5.8,"
"##MN-00 00 78 0421 02812 5620 602240 024281 197"
"163.226968"
"$GPRMC,052646,A,2427.6619,N,08125.9126,W,2.6,268.8,120615,5.8,"
"##MN-00 00 76 0422 02811 5621 602648 024279 197"
"163.227014"
"$GPRMC,052650,A,2427.6617,N,08125.9156,W,2.5,266.9,120615,5.8,"
"##MN-00 00 76 0423 02821 5622 600464 024286 197"
"163.22706"
"$GPRMC,052654,A,2427.6615,N,08125.9187,W,2.5,265.8,120615,5.8,"
"##MN-00 00 76 0424 02823 5622 737432 024281 197"
"163.227106"
"$GPRMC,052658,A,2427.6610,N,08125.9219,W,2.5,264.6,120615,5.8,"
"##MN-00 00 76 0425 02832 5623 602672 024280 197"
"163.227153"
"$GPRMC,052702,A,2427.6606,N,08125.9249,W,2.5,263.6,120615,5.8,"
"##MN-00 00 76 0426 02836 5624 604000 024287 197"
"163.227199"
"$GPRMC,052706,A,2427.6602,N,08125.9279,W,2.5,262.0,120615,5.8,"
"##MN-00 00 74 0427 02841 5625 468504 024275 197"
"163.227245"
"$GPRMC,052710,A,2427.6595,N,08125.9310,W,2.5,260.8,120615,5.8,"
"##MN-00 00 75 0428 02846 5626 609344 024291 197"
"163.227292"
"$GPRMC,052714,A,2427.6588,N,08125.9339,W,2.5,259.6,120615,5.8,"
"##MN-00 00 75 0428 02852 5627 358400 024276 197"
"163.227338"
"$GPRMC,052718,A,2427.6583,N,08125.9368,W,2.5,258.8,120615,5.8,"
"##MN-00 00 75 0429 02863 5627 611624 024272 197"
"163.227384"
"$GPRMC,052722,A,2427.6577,N,08125.9397,W,2.5,256.8,120615,5.8,"
"##MN-00 00 75 0430 02867 5628 607648 024277 197"
"163.227431"
"$GPRMC,052726,A,2427.6570,N,08125.9425,W,2.5,255.8,120615,5.8,"
"##MN-00 00 73 0431 02879 5628 613904 024267 197"
"163.227477"
"$GPRMC,052730,A,2427.6566,N,08125.9455,W,2.5,254.5,120615,5.8,"
"##MN-00 00 75 0432 02882 5629 611216 024278 197"
"163.227523"
"$GPRMC,052734,A,2427.6563,N,08125.9483,W,2.4,253.4,120615,5.8,"
"##MN-00 00 73 0433 02895 5631 474920 024270 197"
"163.227569"
"$GPRMC,052738,A,2427.6556,N,08125.9512,W,2.5,254.3,120615,5.8,"
"##MN+00 00 74 0433 02900 5631 612160 024267 197"
"163.227616"
"$GPRMC,052742,A,2427.6544,N,08125.9539,W,2.4,254.0,120615,5.8,"
"##MN+00 00 74 0434 02909 5632 613056 024264 197"
"163.227662"
"$GPRMC,052746,A,2427.6535,N,08125.9568,W,2.5,252.9,120615,5.8,"
"##MN+00 00 74 0435 02917 5633 614472 024269 197"
"163.227708"
"$GPRMC,052750,A,2427.6525,N,08125.9595,W,2.4,250.6,120615,5.8,"
"##MN-00 00 74 0436 02931 5634 612288 024267 197"
"163.227755"
"$GPRMC,052754,A,2427.6512,N,08125.9621,W,2.4,248.2,120615,5.8,"
"##MN+00 00 73 0437 02945 5634 613216 024279 197"
"163.227801"
"$GPRMC,052759,A,2427.6492,N,08125.9654,W,2.4,246.4,120615,5.8,"
"##MN+00 00 72 0438 02956 5634 614112 024265 197"
"163.227847"
"$GPRMC,052802,A,2427.6480,N,08125.9675,W,2.5,244.6,120615,5.8,"
"##MN+00 00 73 0438 02971 5636 615440 024266 197"
"163.227894"
"$GPRMC,052807,A,2427.6463,N,08125.9707,W,2.4,245.2,120615,5.8,"
"##MN-00 00 73 0439 02979 5637 616368 024282 197"
"163.22794"
"#increment_net"
"$GPRMC,052810,A,2427.6458,N,08125.9725,W,2.4,244.3,120615,5.8,"
"##MN-00 00 72 0440 02994 5637 618624 024267 197"
"163.227986"
"$GPRMC,052815,A,2427.6444,N,08125.9758,W,2.4,243.7,120615,5.8,"
"##MN-00 00 73 0441 03008 5638 619056 024257 197"
"163.228032"
"$GPRMC,052819,A,2427.6436,N,08125.9783,W,2.3,243.4,120615,5.8,"
"##MN-00 00 72 0442 03018 5639 618656 024275 197"
"163.228079"
"$GPRMC,052823,A,2427.6423,N,08125.9809,W,2.4,244.4,120615,5.8,"
"##MN-00 00 73 0442 03033 5639 619584 024259 197"
"163.228125"
"$GPRMC,052827,A,2427.6411,N,08125.9834,W,2.4,243.7,120615,5.8,"
"##MN-00 00 74 0443 03046 5640 619568 024271 197"
"163.228171"
"$GPRMC,052831,A,2427.6398,N,08125.9859,W,2.3,244.3,120615,5.8,"
