" Tow: 3-ns-n-in   RVWS/WS15161"
" Date: 12/06/2015"
" Temperature Probe #  2089    Conductivity Probe #  2870"
" Pressure Probe #  188"
" Flow Meter Calibration  4.71 (m/count)  "
"163.428102"
"$GPRMC,101624,A,2429.9720,N,08114.8296,W,2.2,272.4,120615,5.9,"
"##MN-00 00 55 0009 02703 5681 411688 311194 197"
"163.428148"
"$GPRMC,101629,A,2429.9720,N,08114.8322,W,2.2,271.5,120615,5.9,"
"##MN-00 00 46 0010 02706 5682 409152 024282 197"
"163.428194"
"$GPRMC,101633,A,2429.9721,N,08114.8347,W,2.2,271.6,120615,5.9,"
"##MN-00 00 45 0011 02701 5682 550336 024299 197"
"163.428241"
"$GPRMC,101637,A,2429.9724,N,08114.8383,W,2.2,272.1,120615,5.9,"
"##MN-00 00 43 0011 02725 5680 552080 024298 197"
"163.428287"
"$GPRMC,101641,A,2429.9724,N,08114.8411,W,2.2,271.9,120615,5.9,"
"##MN-00 00 56 0012 02705 5682 555584 024302 197"
"163.428333"
"$GPRMC,101645,A,2429.9724,N,08114.8439,W,2.2,271.1,120615,5.9,"
"##MN-00 00 46 0013 02708 5682 690296 024279 197"
"163.42838"
"$GPRMC,101649,A,2429.9721,N,08114.8461,W,2.3,270.4,120615,5.9,"
"##MN-00 00 49 0013 02709 5683 302752 024278 197"
"163.428426"
"$GPRMC,101653,A,2429.9724,N,08114.8494,W,2.2,270.8,120615,5.9,"
"##MN-00 00 49 0014 02708 5683 561664 024290 197"
"163.428472"
"$GPRMC,101657,A,2429.9722,N,08114.8523,W,2.3,270.7,120615,5.9,"
"##MN-00 00 46 0015 02708 5683 560232 024302 197"
"163.428519"
"$GPRMC,101701,A,2429.9721,N,08114.8549,W,2.2,271.1,120615,5.9,"
"##MN-00 00 44 0015 02708 5684 565088 024284 197"
"163.428565"
"$GPRMC,101705,A,2429.9723,N,08114.8577,W,2.2,270.7,120615,5.9,"
"##MN-00 00 42 0016 02709 5684 564608 024287 197"
"163.428611"
"$GPRMC,101709,A,2429.9722,N,08114.8605,W,2.2,270.0,120615,5.9,"
"##MN-00 00 50 0017 02709 5684 567648 024275 196"
"163.428657"
"$GPRMC,101713,A,2429.9722,N,08114.8629,W,2.2,269.6,120615,5.9,"
"##MN-00 00 51 0017 02708 5685 571600 024273 197"
"163.428704"
"$GPRMC,101717,A,2429.9720,N,08114.8657,W,2.2,269.0,120615,5.9,"
"##MN-00 00 49 0018 02710 5685 495232 024289 197"
"163.42875"
"$GPRMC,101721,A,2429.9717,N,08114.8685,W,2.2,270.6,120615,5.9,"
"##MN-00 00 43 0019 02707 5685 455424 024268 197"
"163.428796"
"$GPRMC,101725,A,2429.9715,N,08114.8710,W,2.2,268.9,120615,5.9,"
"##MN-00 00 45 0020 02708 5685 574120 024279 197"
"163.428843"
"$GPRMC,101729,A,2429.9713,N,08114.8735,W,2.2,268.3,120615,5.9,"
"##MN-00 00 40 0020 02707 5686 070928 024333 197"
"163.428889"
"$GPRMC,101733,A,2429.9713,N,08114.8757,W,2.1,267.7,120615,5.9,"
"##MN-00 00 50 0021 02706 5686 570040 024343 197"
"163.428935"
"$GPRMC,101737,A,2429.9711,N,08114.8783,W,2.1,267.0,120615,5.9,"
"##MN-00 00 42 0022 02704 5687 438992 024335 196"
"163.428981"
"$GPRMC,101741,A,2429.9709,N,08114.8808,W,2.1,266.9,120615,5.9,"
"##MN-00 00 44 0022 02706 5687 573504 024291 197"
"163.429028"
"$GPRMC,101745,A,2429.9708,N,08114.8833,W,2.1,266.3,120615,5.9,"
"##MN-00 00 48 0023 02706 5687 573448 024338 197"
"163.429074"
"$GPRMC,101749,A,2429.9706,N,08114.8858,W,2.1,266.3,120615,5.9,"
"##MN-00 00 49 0024 02708 5688 573408 024350 197"
"163.42912"
"$GPRMC,101753,A,2429.9706,N,08114.8884,W,2.1,267.7,120615,5.9,"
"##MN-00 00 45 0025 02710 5688 573376 024346 197"
"163.429167"
"$GPRMC,101757,A,2429.9702,N,08114.8909,W,2.1,267.9,120615,5.9,"
"##MN-00 00 47 0025 02708 5688 573336 024336 197"
"163.429213"
"$GPRMC,101801,A,2429.9702,N,08114.8935,W,2.1,268.2,120615,5.9,"
"##MN-00 00 50 0026 02709 5689 573312 024287 197"
"163.429259"
"$GPRMC,101805,A,2429.9704,N,08114.8959,W,2.1,267.6,120615,5.9,"
"##MN-00 00 48 0027 02709 5689 573320 024325 197"
"163.429306"
"$GPRMC,101809,A,2429.9702,N,08114.8982,W,2.1,266.7,120615,5.9,"
"##MN-00 00 49 0028 02709 5689 573280 024300 197"
"163.429352"
"$GPRMC,101813,A,2429.9702,N,08114.9007,W,2.1,266.1,120615,5.9,"
"##MN-00 00 45 0029 02709 5690 573280 024343 196"
"163.429398"
"$GPRMC,101817,A,2429.9698,N,08114.9033,W,2.1,264.9,120615,5.9,"
"##MN-00 00 45 0029 02709 5690 574096 024308 196"
"163.429444"
"$GPRMC,101821,A,2429.9697,N,08114.9057,W,2.1,265.3,120615,5.9,"
"##MN-00 00 50 0030 02708 5690 574528 024279 197"
"163.429491"
"$GPRMC,101825,A,2429.9693,N,08114.9083,W,2.1,265.2,120615,5.9,"
"##MN-00 00 38 0031 02709 5691 586944 024274 197"
"163.429537"
"$GPRMC,101829,A,2429.9691,N,08114.9108,W,2.1,264.9,120615,5.9,"
"##MN-00 00 46 0032 02709 5691 590976 024285 197"
"163.429583"
"$GPRMC,101833,A,2429.9688,N,08114.9136,W,2.1,265.0,120615,5.9,"
"##MN-00 00 48 0032 02709 5691 590496 024276 197"
"163.42963"
"$GPRMC,101837,A,2429.9686,N,08114.9162,W,2.1,265.2,120615,5.9,"
"##MN-00 00 45 0033 02708 5692 087280 024266 197"
"163.429676"
"$GPRMC,101841,A,2429.9684,N,08114.9187,W,2.1,265.5,120615,5.9,"
"##MN-00 00 43 0034 02708 5692 592248 024269 197"
"163.429734"
"$GPRMC,101845,A,2429.9682,N,08114.9214,W,2.1,265.5,120615,5.9,"
"##MN-00 00 47 0035 02709 5692 593536 024276 197"
"163.42978"
"$GPRMC,101849,A,2429.9680,N,08114.9241,W,2.1,266.0,120615,5.9,"
"##MN-00 00 48 0036 02708 5693 594416 024267 196"
"163.429826"
"$GPRMC,101853,A,2429.9680,N,08114.9266,W,2.2,266.5,120615,5.9,"
"##MN-00 00 45 0036 02710 5693 598808 024270 197"
"163.429873"
"$GPRMC,101857,A,2429.9677,N,08114.9292,W,2.2,266.4,120615,5.9,"
"##MN-00 00 44 0037 02709 5694 601504 024261 196"
"163.429919"
"$GPRMC,101901,A,2429.9675,N,08114.9321,W,2.3,265.9,120615,5.9,"
"##MN-00 00 46 0038 02712 5694 601456 024271 197"
"163.429965"
"$GPRMC,101905,A,2429.9673,N,08114.9348,W,2.1,266.5,120615,5.9,"
"##MN-00 00 52 0039 02712 5695 326912 024263 197"
"163.430012"
"$GPRMC,101909,A,2429.9672,N,08114.9376,W,2.3,267.2,120615,5.9,"
"##MN-00 00 48 0040 02711 5695 601408 024272 197"
"163.430058"
"$GPRMC,101913,A,2429.9669,N,08114.9405,W,2.2,267.2,120615,5.9,"
"##MN-00 00 47 0041 02713 5696 602224 024270 197"
"163.430104"
"$GPRMC,101917,A,2429.9668,N,08114.9431,W,2.3,267.6,120615,5.9,"
"##MN-00 00 46 0041 02711 5696 604848 024260 197"
"163.43015"
"$GPRMC,101921,A,2429.9670,N,08114.9454,W,2.2,267.5,120615,5.9,"
"##MN-00 00 45 0042 02712 5696 604880 024268 196"
"163.430197"
"$GPRMC,101925,A,2429.9668,N,08114.9483,W,2.2,267.5,120615,5.9,"
"##MN-00 00 51 0043 02713 5697 607520 024265 196"
"163.430243"
"$GPRMC,101929,A,2429.9666,N,08114.9512,W,2.2,267.8,120615,5.9,"
"##MN-00 00 45 0044 02713 5698 609720 024260 197"
"163.430289"
"$GPRMC,101933,A,2429.9664,N,08114.9538,W,2.2,267.6,120615,5.9,"
"##MN-00 00 49 0045 02715 5698 610104 024265 197"
"163.430336"
"$GPRMC,101937,A,2429.9661,N,08114.9564,W,2.2,267.8,120615,5.9,"
"##MN-00 00 46 0046 02715 5698 610112 024263 197"
"163.430382"
"$GPRMC,101942,A,2429.9661,N,08114.9597,W,2.2,267.3,120615,5.9,"
"##MN-00 00 46 0047 02714 5699 610992 024283 197"
"163.430428"
"$GPRMC,101946,A,2429.9659,N,08114.9624,W,2.2,266.6,120615,5.9,"
"##MN-00 00 48 0048 02716 5699 611840 024256 197"
"163.430475"
"$GPRMC,101950,A,2429.9657,N,08114.9650,W,2.2,268.0,120615,5.9,"
"##MN-00 00 45 0049 02716 5699 360456 024263 196"
"163.430521"
"$GPRMC,101953,A,2429.9657,N,08114.9671,W,2.3,267.8,120615,5.9,"
"##MN-00 00 48 0049 02717 5700 614464 024260 197"
"163.430567"
"$GPRMC,101958,A,2429.9658,N,08114.9701,W,2.2,267.5,120615,5.9,"
"##MN-00 00 47 0050 02718 5701 617552 024263 197"
"163.430613"
"$GPRMC,102002,A,2429.9658,N,08114.9729,W,2.2,268.5,120615,5.9,"
"##MN-00 00 47 0051 02718 5701 229792 024273 197"
"163.43066"
"$GPRMC,102006,A,2429.9658,N,08114.9755,W,2.2,269.1,120615,5.9,"
"##MN-00 00 51 0052 02718 5702 345248 024256 197"
"163.430706"
"$GPRMC,102010,A,2429.9658,N,08114.9781,W,2.1,269.4,120615,5.9,"
"##MN-00 00 45 0053 02720 5702 621024 024252 197"
"163.431123"
"$GPRMC,102045,A,2429.9660,N,08115.0018,W,2.2,271.4,120615,5.9,"
"##MN-00 00 49 0061 02725 5706 591910 024266 197"
"163.431169"
"$GPRMC,102050,A,2429.9661,N,08115.0050,W,2.2,271.0,120615,5.9,"
"##MN-00 00 47 0062 02726 5707 239376 024329 197"
"163.431308"
"$GPRMC,102101,A,2429.9660,N,08115.0126,W,2.3,270.8,120615,5.9,"
"##MN-00 00 46 0065 02727 5708 629500 024308 197"
"163.431354"
"$GPRMC,102106,A,2429.9659,N,08115.0160,W,2.2,270.6,120615,5.9,"
"##MN-00 00 49 0066 02727 5709 628824 024309 197"
"163.4314"
"$GPRMC,102110,A,2429.9659,N,08115.0186,W,2.2,270.7,120615,5.9,"
"##MN-00 00 47 0067 02730 5709 629232 024313 197"
"163.431447"
"$GPRMC,102114,A,2429.9659,N,08115.0213,W,2.2,269.9,120615,5.9,"
"##MN-00 00 48 0067 02728 5710 629208 024300 197"
"163.431493"
"$GPRMC,102118,A,2429.9659,N,08115.0239,W,2.2,268.9,120615,5.9,"
"##MN-00 00 48 0068 02728 5710 629192 024308 197"
"163.431539"
"$GPRMC,102121,A,2429.9657,N,08115.0261,W,2.2,266.8,120615,5.9,"
"##MN-00 00 47 0069 02729 5711 629200 024312 197"
"163.431586"
"$GPRMC,102126,A,2429.9651,N,08115.0293,W,2.2,265.0,120615,5.9,"
"##MN-00 00 49 0070 02730 5711 629200 024307 197"
"163.431632"
"$GPRMC,102129,A,2429.9650,N,08115.0312,W,2.2,263.6,120615,5.9,"
"##MN-00 00 49 0071 02731 5712 629200 024300 196"
"163.431678"
"$GPRMC,102134,A,2429.9651,N,08115.0345,W,2.2,262.2,120615,5.9,"
"##MN-00 00 46 0072 02730 5712 629144 024305 197"
"163.431725"
"$GPRMC,102138,A,2429.9651,N,08115.0372,W,2.2,260.8,120615,5.9,"
"##MN-00 00 46 0072 02732 5712 629120 024310 197"
"163.431771"
"$GPRMC,102142,A,2429.9645,N,08115.0398,W,2.2,259.7,120615,5.9,"
"##MN-00 00 51 0073 02735 5713 629520 024317 197"
"163.431817"
"$GPRMC,102146,A,2429.9639,N,08115.0424,W,2.2,258.0,120615,5.9,"
"##MN-00 00 44 0074 02734 5714 629064 024309 197"
"163.431863"
"$GPRMC,102150,A,2429.9632,N,08115.0452,W,2.2,256.9,120615,5.9,"
"##MN-00 00 50 0075 02737 5714 637072 024286 197"
"163.43191"
"$GPRMC,102154,A,2429.9626,N,08115.0477,W,2.2,256.2,120615,5.9,"
"##MN-00 00 48 0075 02739 5715 503384 024262 197"
"163.431956"
"$GPRMC,102158,A,2429.9617,N,08115.0503,W,2.2,256.0,120615,5.9,"
"##MN-00 00 45 0076 02740 5715 644160 024272 197"
"163.432002"
"$GPRMC,102202,A,2429.9609,N,08115.0529,W,2.2,255.8,120615,5.9,"
"##MN-00 00 47 0077 02741 5716 391440 024267 197"
"163.432049"
"$GPRMC,102206,A,2429.9602,N,08115.0556,W,2.2,254.9,120615,5.9,"
"##MN-00 00 51 0078 02739 5716 648120 024275 196"
"163.432095"
"$GPRMC,102210,A,2429.9595,N,08115.0582,W,2.1,253.9,120615,5.9,"
"##MN-00 00 48 0078 02742 5717 549488 024267 197"
"163.432141"
"$GPRMC,102214,A,2429.9585,N,08115.0607,W,2.1,252.7,120615,5.9,"
"##MN-00 00 48 0079 02745 5717 697208 024272 196"
"163.432188"
"$GPRMC,102218,A,2429.9577,N,08115.0634,W,2.1,253.7,120615,5.9,"
"##MN-00 00 44 0080 02746 5718 648560 024275 197"
"163.432234"
"$GPRMC,102222,A,2429.9572,N,08115.0661,W,2.1,254.1,120615,5.9,"
"##MN-00 00 45 0081 02751 5718 649864 024270 197"
"163.43228"
"$GPRMC,102226,A,2429.9565,N,08115.0684,W,2.1,254.9,120615,5.9,"
"##MN-00 00 50 0081 02750 5719 649376 024266 197"
"163.432326"
"$GPRMC,102230,A,2429.9559,N,08115.0709,W,2.1,256.1,120615,5.9,"
"##MN-00 00 45 0082 02753 5719 651152 024280 197"
"163.432373"
"$GPRMC,102234,A,2429.9551,N,08115.0734,W,2.1,256.3,120615,5.9,"
"##MN-00 00 43 0083 02757 5720 513896 024266 197"
"163.432419"
"$GPRMC,102238,A,2429.9544,N,08115.0759,W,2.1,256.9,120615,5.9,"
"##MN-00 00 48 0084 02760 5720 146624 024286 197"
"163.432465"
"$GPRMC,102242,A,2429.9538,N,08115.0784,W,2.1,256.0,120615,5.9,"
"##MN-00 00 46 0084 02760 5721 518832 024273 197"
"163.432512"
"$GPRMC,102246,A,2429.9532,N,08115.0809,W,2.2,256.0,120615,5.9,"
"##MN-00 00 44 0085 02767 5722 656480 024278 197"
"163.432558"
"$GPRMC,102250,A,2429.9526,N,08115.0835,W,2.1,256.6,120615,5.9,"
"##MN-00 00 47 0086 02769 5722 403752 024286 197"
"163.432604"
"$GPRMC,102254,A,2429.9519,N,08115.0861,W,2.1,256.2,120615,5.9,"
"##MN-00 00 44 0087 02771 5722 657304 024283 197"
"163.43265"
"$GPRMC,102258,A,2429.9514,N,08115.0887,W,2.2,256.3,120615,5.9,"
"##MN-00 00 44 0088 02776 5723 657312 024280 197"
"163.432697"
"$GPRMC,102302,A,2429.9507,N,08115.0912,W,2.2,255.9,120615,5.9,"
"##MN-00 00 44 0088 02779 5723 520496 024275 197"
"163.432743"
"$GPRMC,102306,A,2429.9500,N,08115.0939,W,2.2,256.3,120615,5.9,"
"##MN-00 00 44 0089 02782 5724 926896 024276 197"
"163.432789"
"$GPRMC,102310,A,2429.9492,N,08115.0966,W,2.1,255.7,120615,5.9,"
"##MN-00 00 48 0090 02785 5724 657288 024266 197"
"163.432836"
"$GPRMC,102314,A,2429.9486,N,08115.0993,W,2.2,256.3,120615,5.9,"
"##MN-00 00 43 0090 02789 5725 659952 024270 197"
"163.432882"
"$GPRMC,102318,A,2429.9482,N,08115.1019,W,2.2,258.4,120615,5.9,"
"##MN-00 00 46 0091 02795 5726 660824 024265 197"
"163.432928"
"$GPRMC,102322,A,2429.9478,N,08115.1046,W,2.2,258.8,120615,5.9,"
"##MN-00 00 44 0092 02799 5726 666616 024268 196"
"163.432975"
"$GPRMC,102326,A,2429.9471,N,08115.1073,W,2.2,258.1,120615,5.9,"
"##MN-00 00 45 0093 02803 5726 933056 024262 197"
"163.433021"
"$GPRMC,102330,A,2429.9465,N,08115.1098,W,2.1,257.4,120615,5.9,"
"##MN-00 00 49 0093 02808 5727 666152 024272 196"
"163.433067"
"$GPRMC,102334,A,2429.9465,N,08115.1124,W,2.2,257.7,120615,5.9,"
"##MN-00 00 45 0094 02814 5727 159840 024274 196"
"163.433113"
"$GPRMC,102338,A,2429.9457,N,08115.1150,W,2.2,256.5,120615,5.9,"
"##MN-00 00 45 0095 02820 5728 666976 024270 197"
"163.43316"
"$GPRMC,102342,A,2429.9451,N,08115.1176,W,2.2,257.1,120615,5.9,"
"##MN-00 00 44 0096 02825 5729 666496 024263 196"
"163.433206"
"$GPRMC,102346,A,2429.9451,N,08115.1203,W,2.2,256.8,120615,5.9,"
"##MN-00 00 44 0096 02831 5729 666976 024262 197"
"163.433252"
"$GPRMC,102350,A,2429.9449,N,08115.1228,W,2.2,257.3,120615,5.9,"
"##MN-00 00 45 0097 02838 5730 668728 024266 196"
"163.433299"
"$GPRMC,102354,A,2429.9445,N,08115.1254,W,2.2,256.8,120615,5.9,"
"##MN-00 00 44 0098 02844 5730 666048 024263 197"
"163.433345"
"$GPRMC,102358,A,2429.9440,N,08115.1279,W,2.2,256.6,120615,5.9,"
"##MN-00 00 45 0098 02850 5731 670480 024264 197"
"163.433391"
"$GPRMC,102402,A,2429.9435,N,08115.1304,W,2.1,256.2,120615,5.9,"
"##MN-00 00 48 0099 02858 5731 669632 024264 197"
"163.433438"
"$GPRMC,102406,A,2429.9427,N,08115.1330,W,2.1,256.0,120615,5.9,"
"##MN-00 00 48 0100 02865 5732 670888 024268 197"
"163.433484"
"$GPRMC,102410,A,2429.9420,N,08115.1356,W,2.1,256.2,120615,5.9,"
"##MN-00 00 44 0101 02872 5732 672248 024275 197"
"163.43353"
"$GPRMC,102414,A,2429.9417,N,08115.1376,W,2.2,256.4,120615,5.9,"
"##MN-00 00 44 0101 02879 5733 672288 024257 197"
"163.433576"
"$GPRMC,102418,A,2429.9408,N,08115.1407,W,2.2,256.2,120615,5.9,"
"##MN-00 00 45 0102 02885 5733 675392 024260 197"
"163.433623"
"$GPRMC,102422,A,2429.9402,N,08115.1432,W,2.1,255.6,120615,5.9,"
"##MN-00 00 44 0103 02893 5734 675856 024273 197"
"163.433669"
"$GPRMC,102426,A,2429.9396,N,08115.1450,W,2.2,256.2,120615,5.9,"
"##MN-00 00 45 0103 02903 5734 676248 024263 197"
"163.433715"
"$GPRMC,102430,A,2429.9386,N,08115.1482,W,2.2,256.3,120615,5.9,"
"##MN-00 00 40 0104 02908 5735 678496 024262 197"
"163.433762"
"$GPRMC,102434,A,2429.9381,N,08115.1510,W,2.1,256.7,120615,5.9,"
"##MN-00 00 43 0105 02916 5735 677552 024270 197"
"163.433808"
"$GPRMC,102438,A,2429.9377,N,08115.1536,W,2.2,257.0,120615,5.9,"
"##MN-00 00 41 0105 02925 5736 680688 024259 197"
"163.433854"
"$GPRMC,102442,A,2429.9371,N,08115.1558,W,2.2,257.2,120615,5.9,"
"##MN-00 00 44 0106 02933 5736 407552 024264 197"
"163.4339"
"$GPRMC,102446,A,2429.9366,N,08115.1582,W,2.2,257.2,120615,5.9,"
"##MN-00 00 40 0107 02941 5737 683344 024255 197"
"163.433958"
"$GPRMC,102450,A,2429.9359,N,08115.1607,W,2.2,257.4,120615,5.9,"
"##MN-00 00 42 0107 02947 5737 685552 024246 197"
"163.434005"
"$GPRMC,102454,A,2429.9352,N,08115.1633,W,2.3,257.3,120615,5.9,"
"##MN-00 00 42 0108 02954 5738 684656 024262 197"
"163.434051"
"$GPRMC,102458,A,2429.9345,N,08115.1659,W,2.2,257.4,120615,5.9,"
"##MN-00 00 43 0109 02963 5739 686456 024252 197"
"163.434097"
"$GPRMC,102502,A,2429.9342,N,08115.1685,W,2.2,258.1,120615,5.9,"
"##MN-00 00 43 0109 02971 5739 021280 024255 197"
"163.434144"
"$GPRMC,102506,A,2429.9342,N,08115.1713,W,2.2,260.2,120615,5.9,"
"##MN-00 00 42 0110 02976 5739 758728 024263 196"
"163.43419"
"$GPRMC,102510,A,2429.9342,N,08115.1739,W,2.3,261.1,120615,5.9,"
"##MN-00 00 45 0111 02984 5740 422704 024262 197"
"163.434236"
"$GPRMC,102514,A,2429.9334,N,08115.1767,W,2.3,260.9,120615,5.9,"
"##MN-00 00 43 0111 02991 5740 431072 024256 197"
"163.434282"
"$GPRMC,102518,A,2429.9327,N,08115.1793,W,2.2,260.2,120615,5.9,"
"##MN-00 00 40 0112 02997 5741 686464 024275 197"
"163.434329"
"$GPRMC,102522,A,2429.9321,N,08115.1819,W,2.2,258.7,120615,5.9,"
"##MN-00 00 43 0113 03005 5741 686456 024272 197"
"163.434375"
"$GPRMC,102526,A,2429.9309,N,08115.1843,W,2.2,257.9,120615,5.9,"
"##MN-00 00 46 0113 03011 5742 684760 024269 197"
"163.434421"
"$GPRMC,102530,A,2429.9305,N,08115.1868,W,2.2,258.2,120615,5.9,"
"##MN-00 00 40 0114 03016 5742 584816 024272 197"
"163.434468"
"$GPRMC,102534,A,2429.9301,N,08115.1893,W,2.2,258.2,120615,5.9,"
"##MN-00 00 42 0115 03023 5743 736144 024268 197"
"163.434514"
"$GPRMC,102538,A,2429.9296,N,08115.1920,W,2.2,258.0,120615,5.9,"
"##MN-00 00 37 0115 03031 5743 684832 024281 197"
"163.43456"
"$GPRMC,102542,A,2429.9291,N,08115.1947,W,2.2,257.4,120615,5.9,"
"##MN-00 00 43 0116 03039 5744 548928 024280 197"
"163.434606"
"$GPRMC,102547,A,2429.9283,N,08115.1983,W,2.3,257.2,120615,5.9,"
"##MN-00 00 40 0117 03040 5745 432640 024277 197"
"163.434653"
"$GPRMC,102551,A,2429.9278,N,08115.2013,W,2.3,256.7,120615,5.9,"
"##MN-00 00 40 0117 03048 5745 684912 024279 197"
"163.434699"
"$GPRMC,102554,A,2429.9272,N,08115.2035,W,2.2,257.0,120615,5.9,"
"##MN-00 00 49 0118 03051 5745 685808 024277 197"
"163.434745"
"$GPRMC,102559,A,2429.9264,N,08115.2070,W,2.3,257.2,120615,5.9,"
"##MN-00 00 42 0119 03055 5746 686752 024264 197"
"163.434792"
"$GPRMC,102603,A,2429.9256,N,08115.2097,W,2.3,257.4,120615,5.9,"
"##MN-00 00 40 0119 03064 5746 685888 024267 197"
"163.434838"
"$GPRMC,102606,A,2429.9253,N,08115.2117,W,2.3,256.7,120615,5.9,"
"##MN-00 00 45 0120 03066 5747 685872 024274 197"
"163.434884"
"$GPRMC,102611,A,2429.9245,N,08115.2151,W,2.3,256.8,120615,5.9,"
"##MN-00 00 37 0121 03075 5747 685912 024262 197"
"163.434931"
"$GPRMC,102615,A,2429.9241,N,08115.2178,W,2.3,256.4,120615,5.9,"
"##MN-00 00 43 0121 03076 5748 685920 024284 197"
"163.434977"
"$GPRMC,102619,A,2429.9238,N,08115.2204,W,2.4,256.7,120615,5.9,"
"##MN-00 00 40 0122 03080 5748 685056 024271 197"
"163.435023"
"$GPRMC,102623,A,2429.9237,N,08115.2233,W,2.3,257.9,120615,5.9,"
"##MN-00 00 42 0123 03084 5749 686408 024265 197"
"163.435069"
"$GPRMC,102627,A,2429.9236,N,08115.2258,W,2.3,258.1,120615,5.9,"
"##MN-00 00 45 0123 03087 5749 685136 024279 197"
"163.435116"
"$GPRMC,102631,A,2429.9229,N,08115.2287,W,2.3,257.9,120615,5.9,"
"##MN-00 00 40 0124 03089 5750 686464 024264 197"
"163.435162"
"$GPRMC,102635,A,2429.9226,N,08115.2310,W,2.3,258.3,120615,5.9,"
"##MN-00 00 41 0125 03096 5750 686080 024266 197"
"163.435208"
"$GPRMC,102639,A,2429.9222,N,08115.2337,W,2.3,258.1,120615,5.9,"
"##MN-00 00 41 0125 03098 5750 685264 024282 197"
"163.435255"
"$GPRMC,102643,A,2429.9220,N,08115.2359,W,2.2,257.7,120615,5.9,"
"##MN-00 00 40 0126 03103 5751 686584 024270 197"
"163.435301"
"$GPRMC,102647,A,2429.9213,N,08115.2384,W,2.2,257.1,120615,5.9,"
"##MN-00 00 42 0127 03107 5751 686144 024266 197"
"163.435347"
"$GPRMC,102651,A,2429.9207,N,08115.2410,W,2.2,257.8,120615,5.9,"
"##MN-00 00 40 0127 03111 5752 685744 024273 196"
"163.435394"
"$GPRMC,102655,A,2429.9200,N,08115.2438,W,2.2,258.2,120615,5.9,"
"##MN-00 00 42 0128 03116 5752 413520 024269 197"
"163.43544"
"$GPRMC,102659,A,2429.9193,N,08115.2464,W,2.2,258.2,120615,5.9,"
"##MN-00 00 39 0129 03118 5753 685840 024267 197"
"163.435486"
"$GPRMC,102703,A,2429.9187,N,08115.2489,W,2.3,257.9,120615,5.9,"
"##MN-00 00 42 0129 03122 5753 686896 024259 197"
"163.435532"
"$GPRMC,102707,A,2429.9180,N,08115.2518,W,2.2,257.9,120615,5.9,"
"##MN-00 00 41 0130 03124 5754 687440 024241 197"
"163.435579"
"$GPRMC,102711,A,2429.9173,N,08115.2543,W,2.2,257.2,120615,5.9,"
"##MN-00 00 46 0131 03130 5754 686248 024249 197"
"163.435625"
"$GPRMC,102715,A,2429.9166,N,08115.2572,W,2.3,256.9,120615,5.9,"
"##MN-00 00 42 0131 03131 5755 685952 024250 197"
"163.435671"
"$GPRMC,102719,A,2429.9160,N,08115.2598,W,2.2,256.4,120615,5.9,"
"##MN-00 00 41 0132 03136 5755 682056 024250 197"
"163.435718"
"$GPRMC,102723,A,2429.9156,N,08115.2623,W,2.2,256.8,120615,5.9,"
"##MN-00 00 49 0133 03135 5755 679040 024258 197"
"163.435764"
"$GPRMC,102727,A,2429.9151,N,08115.2650,W,2.3,256.9,120615,5.9,"
"##MN-00 00 38 0134 03141 5756 678736 024260 197"
"163.43581"
"$GPRMC,102731,A,2429.9147,N,08115.2677,W,2.3,258.5,120615,5.9,"
"##MN-00 00 44 0134 03144 5756 674880 024253 197"
"163.435857"
"$GPRMC,102735,A,2429.9139,N,08115.2702,W,2.2,259.5,120615,5.9,"
"##MN-00 00 46 0135 03145 5756 165104 024264 197"
"163.435903"
"$GPRMC,102739,A,2429.9131,N,08115.2729,W,2.3,259.1,120615,5.9,"
"##MN-00 00 40 0136 03148 5757 671176 024255 197"
"163.435949"
"$GPRMC,102743,A,2429.9126,N,08115.2756,W,2.2,258.1,120615,5.9,"
"##MN-00 00 49 0136 03152 5757 394608 024269 197"
"163.435995"
"$GPRMC,102747,A,2429.9118,N,08115.2783,W,2.2,256.9,120615,5.9,"
"##MN-00 00 45 0137 03154 5757 669232 024265 197"
"163.436042"
"$GPRMC,102751,A,2429.9111,N,08115.2809,W,2.3,256.0,120615,5.9,"
"##MN-00 00 40 0138 03159 5758 665464 024262 196"
"163.436088"
"$GPRMC,102755,A,2429.9107,N,08115.2834,W,2.2,256.8,120615,5.9,"
"##MN-00 00 45 0139 03158 5758 659856 024260 197"
"163.436134"
"$GPRMC,102759,A,2429.9101,N,08115.2863,W,2.2,256.7,120615,5.9,"
"##MN-00 00 44 0139 03159 5758 660040 024267 197"
"163.436181"
"$GPRMC,102803,A,2429.9099,N,08115.2887,W,2.2,256.8,120615,5.9,"
"##MN-00 00 43 0140 03164 5759 152976 024262 197"
"163.436227"
"$GPRMC,102807,A,2429.9091,N,08115.2915,W,2.2,257.5,120615,5.9,"
"##MN-00 00 44 0141 03167 5759 657248 024266 197"
"163.436273"
"$GPRMC,102811,A,2429.9084,N,08115.2941,W,2.2,257.7,120615,5.9,"
"##MN-00 00 43 0142 03170 5759 651568 024265 196"
"163.436319"
"$GPRMC,102815,A,2429.9077,N,08115.2971,W,2.2,257.7,120615,5.9,"
"##MN-00 00 42 0142 03173 5759 649504 024263 197"
"163.436366"
"$GPRMC,102819,A,2429.9068,N,08115.2999,W,2.2,258.4,120615,5.9,"
"##MN-00 00 44 0143 03173 5760 639424 024295 197"
"163.436412"
"$GPRMC,102823,A,2429.9063,N,08115.3027,W,2.3,259.2,120615,5.9,"
"##MN-00 00 40 0144 03178 5760 630656 024318 197"
"163.436458"
"$GPRMC,102827,A,2429.9057,N,08115.3054,W,2.2,259.1,120615,5.9,"
"##MN-00 00 45 0145 03180 5760 634384 024291 197"
"163.436505"
"$GPRMC,102831,A,2429.9052,N,08115.3082,W,2.3,258.9,120615,5.9,"
"##MN-00 00 44 0145 03181 5760 631824 024287 197"
"163.436551"
"$GPRMC,102835,A,2429.9045,N,08115.3108,W,2.3,258.4,120615,5.9,"
"##MN-00 00 43 0146 03186 5761 633296 024291 197"
"163.436597"
"$GPRMC,102839,A,2429.9041,N,08115.3134,W,2.2,259.1,120615,5.9,"
"##MN-00 00 50 0147 03188 5761 633016 024296 196"
"163.436644"
"$GPRMC,102843,A,2429.9036,N,08115.3161,W,2.3,258.5,120615,5.9,"
"##MN-00 00 43 0148 03191 5761 633168 024291 197"
"163.43669"
"$GPRMC,102847,A,2429.9030,N,08115.3188,W,2.2,258.5,120615,5.9,"
"##MN-00 00 43 0148 03195 5761 632792 024250 196"
"163.436736"
"$GPRMC,102851,A,2429.9026,N,08115.3215,W,2.2,259.6,120615,5.9,"
"##MN-00 00 44 0149 03194 5761 360640 024238 197"
"163.436782"
"$GPRMC,102855,A,2429.9022,N,08115.3241,W,2.2,259.5,120615,5.9,"
"##MN-00 00 43 0150 03200 5761 626744 024243 197"
"163.436829"
"$GPRMC,102859,A,2429.9019,N,08115.3266,W,2.1,260.0,120615,5.9,"
"##MN-00 00 49 0151 03202 5761 624592 024248 197"
"163.436875"
"$GPRMC,102903,A,2429.9016,N,08115.3292,W,2.2,259.4,120615,5.9,"
"##MN-00 00 44 0151 03206 5761 620680 024257 197"
"163.436921"
"$GPRMC,102907,A,2429.9012,N,08115.3317,W,2.1,259.2,120615,5.9,"
"##MN-00 00 45 0152 03207 5761 361424 024246 197"
"163.436968"
"$GPRMC,102911,A,2429.9009,N,08115.3342,W,2.2,259.9,120615,5.9,"
"##MN-00 00 44 0153 03210 5761 883776 024239 197"
"163.437014"
"$GPRMC,102915,A,2429.9005,N,08115.3368,W,2.1,259.8,120615,5.9,"
"##MN-00 00 44 0154 03214 5761 610408 024249 197"
"163.43706"
"$GPRMC,102919,A,2429.9001,N,08115.3392,W,2.1,259.7,120615,5.9,"
"##MN-00 00 48 0154 03220 5761 606480 024249 196"
"163.437106"
"$GPRMC,102923,A,2429.8998,N,08115.3418,W,2.2,259.4,120615,5.9,"
"##MN-00 00 44 0155 03225 5761 605328 024252 197"
"163.437164"
"$GPRMC,102927,A,2429.8997,N,08115.3441,W,2.2,259.2,120615,5.9,"
"##MN-00 00 43 0156 03227 5761 464680 024253 197"
"163.437211"
"$GPRMC,102931,A,2429.8996,N,08115.3466,W,2.2,259.0,120615,5.9,"
"##MN-00 00 47 0157 03232 5761 596304 024264 197"
"163.437257"
"$GPRMC,102935,A,2429.8990,N,08115.3491,W,2.2,258.8,120615,5.9,"
"##MN-00 00 47 0157 03238 5761 588504 024281 197"
"163.437303"
"$GPRMC,102939,A,2429.8984,N,08115.3517,W,2.2,258.3,120615,5.9,"
"##MN-00 00 43 0158 03241 5761 578896 024283 197"
"163.43735"
"$GPRMC,102943,A,2429.8976,N,08115.3541,W,2.2,258.3,120615,5.9,"
"##MN-00 00 42 0159 03246 5761 578240 024271 197"
"163.437396"
"$GPRMC,102947,A,2429.8969,N,08115.3566,W,2.2,258.0,120615,5.9,"
"##MN-00 00 42 0159 03250 5761 578496 024276 197"
"163.437442"
"$GPRMC,102951,A,2429.8960,N,08115.3595,W,2.1,257.6,120615,5.9,"
"##MN-00 00 42 0160 03256 5761 326400 024265 197"
"163.437488"
"$GPRMC,102955,A,2429.8954,N,08115.3620,W,2.2,258.0,120615,5.9,"
"##MN-00 00 42 0161 03260 5761 578112 024224 197"
"163.437535"
"$GPRMC,102959,A,2429.8950,N,08115.3647,W,2.2,257.9,120615,5.9,"
"##MN-00 00 42 0162 03266 5760 570272 024258 197"
"163.437581"
"$GPRMC,103003,A,2429.8944,N,08115.3675,W,2.1,257.5,120615,5.9,"
"##MN-00 00 45 0162 03269 5760 562504 024262 197"
"163.437627"
"$GPRMC,103007,A,2429.8943,N,08115.3699,W,2.2,256.8,120615,5.9,"
"##MN-00 00 45 0163 03274 5760 559200 024254 197"
"163.437674"
"$GPRMC,103011,A,2429.8937,N,08115.3721,W,2.1,257.1,120615,5.9,"
"##MN-00 00 45 0164 03277 5760 553656 024275 196"
"163.43772"
"$GPRMC,103015,A,2429.8932,N,08115.3746,W,2.1,257.3,120615,5.9,"
"##MN-00 00 42 0164 03282 5759 547296 024267 197"
"163.437766"
"$GPRMC,103020,A,2429.8926,N,08115.3777,W,2.2,258.3,120615,5.9,"
"##MN-00 00 41 0165 03291 5759 541248 024269 197"
"163.437812"
"$GPRMC,103023,A,2429.8922,N,08115.3797,W,2.1,257.7,120615,5.9,"
"##MN-00 00 45 0166 03296 5759 526704 024278 196"
"163.437859"
"$GPRMC,103028,A,2429.8913,N,08115.3831,W,2.2,258.0,120615,5.9,"
"##MN-00 00 44 0166 03301 5759 519616 024298 196"
"163.437905"
"$GPRMC,103031,A,2429.8909,N,08115.3851,W,2.2,258.0,120615,5.9,"
"##MN-00 00 44 0167 03306 5758 523992 024325 197"
"163.437951"
"$GPRMC,103035,A,2429.8904,N,08115.3876,W,2.2,259.0,120615,5.9,"
"##MN-00 00 40 0168 03309 5758 525168 024306 196"
"163.437998"
"$GPRMC,103040,A,2429.8895,N,08115.3912,W,2.3,258.6,120615,5.9,"
"##MN-00 00 40 0168 03316 5757 524496 024264 196"
"163.438044"
"$GPRMC,103043,A,2429.8891,N,08115.3932,W,2.2,258.7,120615,5.9,"
"##MN-00 00 45 0169 03319 5757 515800 024278 197"
"163.43809"
"$GPRMC,103047,A,2429.8885,N,08115.3960,W,2.3,258.6,120615,5.9,"
"##MN-00 00 37 0170 03325 5756 508832 024284 196"
"163.438137"
"$GPRMC,103051,A,2429.8879,N,08115.3983,W,2.2,258.5,120615,5.9,"
"##MN-00 00 45 0170 03331 5756 501952 024281 197"
"163.438183"
"$GPRMC,103056,A,2429.8877,N,08115.4017,W,2.2,258.8,120615,5.9,"
"##MN-00 00 44 0171 03336 5755 496816 024277 197"
"163.438229"
"$GPRMC,103100,A,2429.8873,N,08115.4043,W,2.3,259.4,120615,5.9,"
"##MN-00 00 40 0172 03339 5755 764088 024303 197"
"163.438275"
"$GPRMC,103104,A,2429.8871,N,08115.4069,W,2.2,259.3,120615,5.9,"
"##MN-00 00 42 0172 03344 5754 476312 024301 197"
"163.438322"
"$GPRMC,103108,A,2429.8867,N,08115.4094,W,2.2,259.8,120615,5.9,"
"##MN-00 00 40 0173 03346 5753 468944 024286 196"
"163.438368"
"$GPRMC,103112,A,2429.8861,N,08115.4122,W,2.2,259.5,120615,5.9,"
"##MN-00 00 42 0174 03354 5753 331880 024297 197"
"163.438414"
"$GPRMC,103116,A,2429.8854,N,08115.4151,W,2.2,260.2,120615,5.9,"
"##MN-00 00 41 0174 03357 5752 469376 024285 197"
"163.438461"
"$GPRMC,103120,A,2429.8850,N,08115.4176,W,2.2,259.8,120615,5.9,"
"##MN-00 00 40 0175 03361 5751 467400 024292 196"
"163.438507"
"$GPRMC,103124,A,2429.8846,N,08115.4201,W,2.2,258.5,120615,5.9,"
"##MN-00 00 44 0176 03368 5750 456536 024288 196"
"163.438553"
"$GPRMC,103128,A,2429.8842,N,08115.4224,W,2.2,258.5,120615,5.9,"
"##MN-00 00 39 0176 03370 5750 219744 024281 196"
"163.4386"
"$GPRMC,103132,A,2429.8837,N,08115.4250,W,2.2,258.1,120615,5.9,"
"##MN-00 00 43 0177 03372 5749 581368 024281 197"
"163.438646"
"$GPRMC,103136,A,2429.8835,N,08115.4274,W,2.1,258.3,120615,5.9,"
"##MN-00 00 43 0178 03378 5748 164768 024285 196"
"163.438692"
"$GPRMC,103140,A,2429.8830,N,08115.4299,W,2.2,257.6,120615,5.9,"
"##MN-00 00 39 0178 03381 5748 707008 024266 197"
"163.438738"
"$GPRMC,103144,A,2429.8822,N,08115.4328,W,2.2,258.2,120615,5.9,"
"##MN-00 00 40 0179 03385 5746 278000 024272 197"
"163.438785"
"$GPRMC,103148,A,2429.8817,N,08115.4354,W,2.2,258.5,120615,5.9,"
"##MN-00 00 40 0180 03389 5746 414112 024260 196"
"163.438831"
"$GPRMC,103152,A,2429.8814,N,08115.4378,W,2.2,258.9,120615,5.9,"
"##MN-00 00 39 0180 03393 5745 414352 024270 197"
"163.438877"
"$GPRMC,103156,A,2429.8804,N,08115.4407,W,2.2,258.5,120615,5.9,"
"##MN-00 00 42 0181 03399 5744 963808 024261 196"
"163.438924"
"$GPRMC,103200,A,2429.8797,N,08115.4433,W,2.2,258.7,120615,5.9,"
"##MN-00 00 39 0182 03403 5743 815240 024260 197"
"163.43897"
"$GPRMC,103204,A,2429.8792,N,08115.4458,W,2.1,258.5,120615,5.9,"
"##MN-00 00 43 0182 03407 5742 532768 024259 197"
"163.439016"
"$GPRMC,103208,A,2429.8788,N,08115.4485,W,2.2,258.7,120615,5.9,"
"##MN-00 00 38 0183 03412 5741 113072 024255 196"
"163.439063"
"$GPRMC,103212,A,2429.8782,N,08115.4509,W,2.2,257.4,120615,5.9,"
"##MN-00 00 42 0183 03418 5740 384688 024249 196"
"163.439109"
"$GPRMC,103216,A,2429.8777,N,08115.4532,W,2.2,257.2,120615,5.9,"
"##MN-00 00 46 0184 03422 5739 377296 024272 196"
"163.439155"
"$GPRMC,103220,A,2429.8770,N,08115.4557,W,2.2,256.1,120615,5.9,"
"##MN-00 00 42 0185 03428 5738 634840 024279 196"
"163.439201"
"$GPRMC,103224,A,2429.8763,N,08115.4581,W,2.1,255.8,120615,5.9,"
"##MN-00 00 41 0185 03432 5736 495536 024291 197"
"163.439248"
"$GPRMC,103228,A,2429.8760,N,08115.4603,W,2.2,256.2,120615,5.9,"
"##MN-00 00 34 0186 03437 5735 358400 024238 196"
"163.439294"
"$GPRMC,103232,A,2429.8758,N,08115.4629,W,2.1,255.7,120615,5.9,"
"##MN-00 00 41 0187 03443 5734 631848 024251 196"
"163.43934"
"$GPRMC,103236,A,2429.8752,N,08115.4654,W,2.1,256.5,120615,5.9,"
"##MN-00 00 42 0187 03446 5733 347184 024279 197"
"163.439387"
"$GPRMC,103240,A,2429.8745,N,08115.4682,W,2.2,255.9,120615,5.9,"
"##MN-00 00 36 0188 03451 5731 613592 024269 197"
"163.439433"
"$GPRMC,103244,A,2429.8738,N,08115.4707,W,2.1,256.2,120615,5.9,"
"##MN-00 00 42 0189 03457 5731 603616 024282 196"
"163.439479"
"$GPRMC,103248,A,2429.8732,N,08115.4733,W,2.2,256.2,120615,5.9,"
"##MN-00 00 43 0189 03462 5729 596656 024280 196"
"163.439525"
"$GPRMC,103252,A,2429.8723,N,08115.4756,W,2.2,255.2,120615,5.9,"
"##MN+00 00 36 0190 03464 5728 446584 024302 196"
"163.439572"
"$GPRMC,103256,A,2429.8716,N,08115.4780,W,2.2,255.5,120615,5.9,"
"##MN+00 00 38 0191 03465 5726 303632 024314 196"
"163.439618"
"$GPRMC,103300,A,2429.8710,N,08115.4805,W,2.2,255.7,120615,5.9,"
"##MN+00 00 42 0191 03465 5725 439000 024280 197"
"163.439664"
"$GPRMC,103304,A,2429.8705,N,08115.4830,W,2.2,256.4,120615,5.9,"
"##MN-00 00 38 0192 03465 5723 440536 024213 197"
"163.439711"
"#increment_net"
"$GPRMC,103308,A,2429.8698,N,08115.4857,W,2.2,257.9,120615,5.9,"
"##MN-00 00 37 0193 03468 5722 842864 024271 197"
"163.439757"
"$GPRMC,103312,A,2429.8692,N,08115.4884,W,2.2,258.0,120615,5.9,"
"##MN-00 00 37 0194 03468 5721 423024 024271 197"
"163.439803"
"$GPRMC,103316,A,2429.8687,N,08115.4910,W,2.2,257.9,120615,5.9,"
"##MN-00 00 38 0194 03468 5719 277072 024290 197"
"163.43985"
"$GPRMC,103320,A,2429.8683,N,08115.4935,W,2.2,258.6,120615,5.9,"
"##MN-00 00 38 0195 03466 5718 934784 024278 197"
"163.439896"
"$GPRMC,103324,A,2429.8676,N,08115.4960,W,2.2,258.1,120615,5.9,"
"##MN-00 00 40 0196 03468 5716 397704 024300 197"
"163.439942"
"$GPRMC,103328,A,2429.8670,N,08115.4986,W,2.2,258.1,120615,5.9,"
"##MN-00 00 38 0197 03470 5714 799072 024306 196"
"163.439988"
"$GPRMC,103332,A,2429.8671,N,08115.5011,W,2.2,257.8,120615,5.9,"
"##MN-00 00 36 0197 03468 5713 909808 024300 196"
"163.440035"
"$GPRMC,103336,A,2429.8669,N,08115.5036,W,2.2,257.5,120615,5.9,"
"##MN-00 00 39 0198 03469 5711 522976 024218 196"
"163.440081"
"$GPRMC,103340,A,2429.8665,N,08115.5061,W,2.2,256.7,120615,5.9,"
"##MN-00 00 37 0199 03469 5709 243632 024276 197"
"163.440127"
"$GPRMC,103344,A,2429.8660,N,08115.5087,W,2.2,255.7,120615,5.9,"
"##MN-00 00 39 0200 03466 5708 233128 024281 196"
"163.440174"
"$GPRMC,103348,A,2429.8657,N,08115.5113,W,2.1,256.0,120615,5.9,"
"##MN-00 00 38 0200 03468 5706 502144 024294 197"
"163.44022"
"$GPRMC,103352,A,2429.8651,N,08115.5141,W,2.2,257.2,120615,5.9,"
"##MN-00 00 37 0201 03469 5704 496912 024307 196"
"163.440266"
"$GPRMC,103356,A,2429.8644,N,08115.5167,W,2.2,258.1,120615,5.9,"
"##MN-00 00 37 0202 03466 5702 489432 024296 197"
"163.440313"
"$GPRMC,103400,A,2429.8637,N,08115.5195,W,2.2,258.9,120615,5.9,"
"##MN-00 00 37 0203 03462 5700 972464 024315 196"
"163.440359"
"$GPRMC,103404,A,2429.8633,N,08115.5220,W,2.2,258.3,120615,5.9,"
"##MN-00 00 38 0204 03461 5699 468696 024325 196"
"163.440417"
"$GPRMC,103408,A,2429.8626,N,08115.5245,W,2.1,257.8,120615,5.9,"
"##MN-00 00 37 0204 03457 5697 191536 024308 196"
"163.440463"
"$GPRMC,103412,A,2429.8619,N,08115.5271,W,2.1,257.3,120615,5.9,"
"##MN-00 00 39 0205 03452 5695 578648 024267 196"
"163.440509"
"$GPRMC,103416,A,2429.8612,N,08115.5297,W,2.1,257.5,120615,5.9,"
"##MN-00 00 38 0206 03448 5693 189552 024291 196"
"163.440556"
"$GPRMC,103420,A,2429.8607,N,08115.5323,W,2.1,258.1,120615,5.9,"
"##MN-00 00 39 0207 03445 5691 733056 024278 196"
"163.440602"
"$GPRMC,103424,A,2429.8601,N,08115.5350,W,2.1,259.1,120615,5.9,"
"##MN-00 00 39 0208 03441 5689 559776 024295 196"
"163.440648"
"$GPRMC,103428,A,2429.8597,N,08115.5376,W,2.1,260.3,120615,5.9,"
"##MN-00 00 38 0209 03436 5687 442656 024295 196"
"163.440694"
"$GPRMC,103432,A,2429.8593,N,08115.5402,W,2.2,260.6,120615,5.9,"
"##MN-00 00 39 0209 03436 5685 438672 024297 196"
"163.440741"
"$GPRMC,103436,A,2429.8587,N,08115.5428,W,2.1,259.6,120615,5.9,"
"##MN-00 00 39 0210 03430 5683 540920 024296 197"
"163.440787"
"$GPRMC,103440,A,2429.8586,N,08115.5452,W,2.2,258.8,120615,5.9,"
"##MN-00 00 38 0211 03427 5681 145920 024308 196"
"163.440833"
"$GPRMC,103444,A,2429.8579,N,08115.5477,W,2.1,259.1,120615,5.9,"
"##MN-00 00 38 0212 03423 5679 938680 024315 196"
"163.44088"
"$GPRMC,103448,A,2429.8575,N,08115.5499,W,2.1,259.3,120615,5.9,"
"##MN-00 00 40 0213 03421 5677 690880 024317 196"
"163.440926"
"$GPRMC,103452,A,2429.8570,N,08115.5522,W,2.1,259.1,120615,5.9,"
"##MN-00 00 39 0214 03417 5675 521592 024282 196"
"163.440972"
"$GPRMC,103456,A,2429.8565,N,08115.5546,W,2.1,259.7,120615,5.9,"
"##MN-00 00 39 0214 03413 5673 411992 024293 196"
"163.441019"
"$GPRMC,103500,A,2429.8559,N,08115.5567,W,2.1,258.8,120615,5.9,"
"##MN-00 00 40 0215 03412 5671 126784 024298 196"
"163.441065"
"$GPRMC,103504,A,2429.8553,N,08115.5590,W,2.0,258.2,120615,5.9,"
"##MN-00 00 39 0216 03410 5669 782616 024286 196"
"163.441111"
"$GPRMC,103508,A,2429.8548,N,08115.5614,W,1.9,258.1,120615,5.9,"
"##MN-00 00 39 0217 03409 5667 887472 024301 196"
"163.441157"
"$GPRMC,103512,A,2429.8544,N,08115.5637,W,1.9,257.6,120615,5.9,"
"##MN-00 00 40 0218 03406 5665 526304 024297 196"
"163.441204"
"$GPRMC,103517,A,2429.8538,N,08115.5670,W,2.1,258.1,120615,5.9,"
"##MN-00 00 41 0219 03401 5663 491648 024297 196"
"163.44125"
"$GPRMC,103520,A,2429.8532,N,08115.5686,W,2.0,257.9,120615,5.9,"
"##MN-00 00 38 0219 03400 5661 099344 024297 196"
"163.441296"
"$GPRMC,103525,A,2429.8525,N,08115.5716,W,2.1,258.0,120615,5.9,"
"##MN-00 00 41 0220 03394 5659 096736 024300 196"
"163.441343"
"$GPRMC,103528,A,2429.8521,N,08115.5737,W,2.1,258.3,120615,5.9,"
"##MN-00 00 38 0221 03394 5656 086048 024303 196"
"163.441389"
"$GPRMC,103533,A,2429.8513,N,08115.5766,W,2.1,258.5,120615,5.9,"
"##MN-00 00 40 0222 03389 5654 357992 024310 196"
"163.441435"
"$GPRMC,103536,A,2429.8511,N,08115.5787,W,2.1,258.8,120615,5.9,"
"##MN-00 00 39 0223 03385 5652 743272 024312 196"
"163.441481"
"$GPRMC,103541,A,2429.8503,N,08115.5816,W,2.1,258.0,120615,5.9,"
"##MN-00 00 37 0224 03383 5650 079904 024281 196"
"163.441528"
"$GPRMC,103545,A,2429.8499,N,08115.5839,W,2.0,258.0,120615,5.9,"
"##MN-00 00 38 0224 03379 5648 079928 024265 196"
"163.441574"
"$GPRMC,103549,A,2429.8494,N,08115.5865,W,2.1,258.3,120615,5.9,"
"##MN-00 00 38 0225 03375 5645 079904 024285 196"
"163.44162"
"$GPRMC,103553,A,2429.8489,N,08115.5889,W,2.1,258.0,120615,5.9,"
"##MN-00 00 41 0226 03373 5643 072400 024283 196"
"163.441667"
"$GPRMC,103556,A,2429.8485,N,08115.5908,W,2.1,258.3,120615,5.9,"
"##MN-00 00 39 0227 03371 5641 066104 024292 196"
"163.441713"
"$GPRMC,103601,A,2429.8479,N,08115.5940,W,2.1,258.8,120615,5.9,"
"##MN-00 00 39 0228 03369 5639 061200 024287 196"
"163.441759"
"$GPRMC,103605,A,2429.8472,N,08115.5962,W,2.1,258.8,120615,5.9,"
"##MN-00 00 39 0228 03363 5636 057672 024289 196"
"163.441806"
"$GPRMC,103609,A,2429.8465,N,08115.5988,W,2.2,258.0,120615,5.9,"
"##MN-00 00 36 0229 03362 5634 052320 024297 196"
"163.441852"
"$GPRMC,103613,A,2429.8457,N,08115.6012,W,2.1,257.2,120615,5.9,"
"##MN-00 00 38 0230 03357 5632 436640 024281 196"
"163.441898"
"$GPRMC,103617,A,2429.8452,N,08115.6038,W,2.2,257.0,120615,5.9,"
"##MN-00 00 39 0231 03354 5630 045192 024286 196"
"163.441944"
"$GPRMC,103621,A,2429.8448,N,08115.6063,W,2.1,256.1,120615,5.9,"
"##MN-00 00 37 0232 03352 5627 041600 024292 196"
"163.441991"
"$GPRMC,103625,A,2429.8443,N,08115.6088,W,2.1,256.2,120615,5.9,"
"##MN-00 00 41 0233 03349 5625 177096 024284 196"
"163.442037"
"$GPRMC,103629,A,2429.8436,N,08115.6114,W,2.2,257.0,120615,5.9,"
"##MN-00 00 38 0233 03345 5623 029072 024294 196"
"163.442083"
"$GPRMC,103633,A,2429.8430,N,08115.6141,W,2.1,257.6,120615,5.9,"
"##MN-00 00 37 0234 03341 5621 024608 024293 196"
"163.44213"
"$GPRMC,103637,A,2429.8425,N,08115.6165,W,2.2,257.2,120615,5.9,"
"##MN-00 00 38 0235 03339 5619 023264 024290 196"
"163.442176"
"$GPRMC,103641,A,2429.8421,N,08115.6190,W,2.1,257.0,120615,5.9,"
"##MN-00 00 40 0236 03332 5616 515072 024292 196"
"163.442222"
"$GPRMC,103645,A,2429.8416,N,08115.6217,W,2.1,256.6,120615,5.9,"
"##MN-00 00 40 0237 03330 5614 022376 024302 196"
"163.442269"
"$GPRMC,103649,A,2429.8411,N,08115.6243,W,2.1,257.2,120615,5.9,"
"##MN-00 00 40 0238 03328 5612 023776 024260 196"
"163.442315"
"$GPRMC,103653,A,2429.8407,N,08115.6266,W,2.1,257.6,120615,5.9,"
"##MN-00 00 41 0239 03323 5610 022392 024264 196"
"163.442361"
"$GPRMC,103657,A,2429.8401,N,08115.6294,W,2.2,258.4,120615,5.9,"
"##MN-00 00 36 0239 03318 5607 301008 024263 196"
"163.442407"
"$GPRMC,103701,A,2429.8396,N,08115.6319,W,2.2,259.4,120615,5.9,"
"##MN-00 00 39 0240 03316 5605 792368 024269 196"
"163.442454"
"$GPRMC,103705,A,2429.8391,N,08115.6345,W,2.2,259.3,120615,5.9,"
"##MN-00 00 40 0241 03311 5603 016192 024278 196"
"163.4425"
"$GPRMC,103709,A,2429.8387,N,08115.6371,W,2.2,257.9,120615,5.9,"
"##MN-00 00 37 0242 03310 5601 011248 024278 196"
"163.442546"
"$GPRMC,103713,A,2429.8381,N,08115.6398,W,2.2,258.3,120615,5.9,"
"##MN-00 00 39 0243 03304 5599 010288 024281 196"
"163.442593"
"$GPRMC,103717,A,2429.8376,N,08115.6423,W,2.2,258.7,120615,5.9,"
"##MN-00 00 39 0244 03301 5596 005792 024284 196"
"163.442639"
"$GPRMC,103721,A,2429.8371,N,08115.6449,W,2.2,259.1,120615,5.9,"
"##MN-00 00 40 0245 03296 5594 003984 024282 196"
"163.442685"
"$GPRMC,103725,A,2429.8367,N,08115.6477,W,2.2,259.3,120615,5.9,"
"##MN-00 00 39 0246 03292 5592 001280 024288 196"
"163.442731"
"$GPRMC,103729,A,2429.8362,N,08115.6501,W,2.2,259.5,120615,5.9,"
"##MN-00 00 42 0246 03289 5590 047152 024279 196"
"163.442778"
"$GPRMC,103733,A,2429.8358,N,08115.6528,W,2.2,258.8,120615,5.9,"
"##MN-00 00 37 0247 03282 5587 043592 024281 196"
"163.442824"
"$GPRMC,103737,A,2429.8354,N,08115.6555,W,2.2,259.6,120615,5.9,"
"##MN+00 00 42 0248 03280 5585 042656 024288 196"
"163.44287"
"$GPRMC,103741,A,2429.8349,N,08115.6582,W,2.2,259.9,120615,5.9,"
"##MN+00 00 41 0249 03275 5583 039952 024293 196"
"163.442917"
"$GPRMC,103745,A,2429.8344,N,08115.6608,W,2.2,259.5,120615,5.9,"
"##MN+00 00 45 0250 03274 5581 036848 024288 196"
"163.442963"
"#increment_net"
"$GPRMC,103749,A,2429.8338,N,08115.6631,W,2.2,260.4,120615,5.9,"
"##MN-00 00 41 0251 03267 5579 033680 024292 196"
"163.443009"
"$GPRMC,103753,A,2429.8333,N,08115.6658,W,2.2,259.7,120615,5.9,"
"##MN-00 00 40 0252 03264 5577 033632 024300 197"
"163.443056"
"$GPRMC,103757,A,2429.8326,N,08115.6684,W,2.2,259.2,120615,5.9,"
"##MN-00 00 43 0253 03259 5575 030888 024299 196"
"163.443102"
"$GPRMC,103801,A,2429.8322,N,08115.6712,W,2.2,258.6,120615,5.9,"
"##MN-00 00 41 0254 03255 5572 027248 024303 196"
"163.443148"
"$GPRMC,103805,A,2429.8316,N,08115.6736,W,2.2,257.8,120615,5.9,"
"##MN-00 00 41 0254 03252 5570 021872 024303 196"
"163.443194"
"$GPRMC,103809,A,2429.8311,N,08115.6763,W,2.2,257.7,120615,5.9,"
"##MN-00 00 40 0255 03248 5568 632120 024300 196"
"163.443241"
"$GPRMC,103813,A,2429.8305,N,08115.6792,W,2.3,256.8,120615,5.9,"
"##MN-00 00 45 0256 03243 5566 013648 024318 196"
"163.443287"
"$GPRMC,103817,A,2429.8299,N,08115.6819,W,2.3,256.6,120615,5.9,"
"##MN-00 00 42 0257 03238 5564 013568 024308 196"
"163.443333"
"$GPRMC,103821,A,2429.8296,N,08115.6846,W,2.3,256.7,120615,5.9,"
"##MN-00 00 43 0258 03233 5562 013488 024318 196"
"163.44338"
"$GPRMC,103825,A,2429.8289,N,08115.6875,W,2.3,256.7,120615,5.9,"
"##MN-00 00 43 0259 03229 5560 012968 024320 196"
"163.443426"
"$GPRMC,103829,A,2429.8286,N,08115.6900,W,2.2,258.7,120615,5.9,"
"##MN-00 00 43 0260 03222 5558 013720 024319 196"
"163.443472"
"$GPRMC,103833,A,2429.8281,N,08115.6927,W,2.3,259.4,120615,5.9,"
"##MN-00 00 42 0261 03220 5556 013104 024318 196"
"163.443519"
"$GPRMC,103837,A,2429.8277,N,08115.6954,W,2.2,259.6,120615,5.9,"
"##MN-00 00 42 0262 03212 5554 012936 024326 196"
"163.443565"
"$GPRMC,103841,A,2429.8275,N,08115.6980,W,2.2,260.5,120615,5.9,"
"##MN-00 00 42 0263 03211 5552 012816 024320 196"
"163.443611"
"$GPRMC,103845,A,2429.8275,N,08115.7008,W,2.2,259.7,120615,5.9,"
"##MN-00 00 42 0264 03207 5550 012624 024325 196"
"163.443669"
"$GPRMC,103849,A,2429.8270,N,08115.7032,W,2.2,259.6,120615,5.9,"
"##MN-00 00 42 0265 03201 5548 011928 024321 196"
"163.443715"
"$GPRMC,103853,A,2429.8266,N,08115.7061,W,2.3,259.9,120615,5.9,"
"##MN-00 00 44 0266 03197 5546 013104 024319 196"
"163.443762"
"$GPRMC,103857,A,2429.8263,N,08115.7088,W,2.2,259.7,120615,5.9,"
"##MN-00 00 44 0267 03194 5544 012472 024315 196"
"163.443808"
"$GPRMC,103901,A,2429.8260,N,08115.7115,W,2.3,259.0,120615,5.9,"
"##MN-00 00 45 0268 03188 5542 012720 024317 196"
"163.443854"
"$GPRMC,103905,A,2429.8253,N,08115.7142,W,2.3,257.2,120615,5.9,"
"##MN-00 00 42 0269 03186 5540 013880 024315 196"
"163.4439"
"$GPRMC,103909,A,2429.8248,N,08115.7169,W,2.3,257.3,120615,5.9,"
"##MN-00 00 43 0270 03179 5538 015440 024318 196"
"163.443947"
"$GPRMC,103913,A,2429.8241,N,08115.7197,W,2.2,256.4,120615,5.9,"
"##MN-00 00 44 0270 03175 5537 020080 024309 196"
"163.443993"
"$GPRMC,103917,A,2429.8235,N,08115.7223,W,2.3,257.2,120615,5.9,"
"##MN-00 00 47 0271 03171 5535 026168 024312 196"
"163.444039"
"$GPRMC,103921,A,2429.8230,N,08115.7251,W,2.2,257.5,120615,5.9,"
"##MN-00 00 45 0272 03166 5533 028624 024304 196"
"163.444086"
"$GPRMC,103925,A,2429.8224,N,08115.7279,W,2.3,257.2,120615,5.9,"
"##MN-00 00 44 0273 03164 5531 029304 024304 196"
"163.444132"
"$GPRMC,103929,A,2429.8217,N,08115.7305,W,2.3,256.8,120615,5.9,"
"##MN-00 00 45 0274 03159 5529 031256 024310 196"
"163.444178"
"$GPRMC,103933,A,2429.8211,N,08115.7331,W,2.3,257.4,120615,5.9,"
"##MN-00 00 44 0275 03158 5528 476000 024311 196"
"163.444225"
"$GPRMC,103937,A,2429.8204,N,08115.7357,W,2.2,256.8,120615,5.9,"
"##MN-00 00 46 0276 03155 5526 036664 024310 196"
"163.444271"
"$GPRMC,103941,A,2429.8199,N,08115.7382,W,2.2,257.5,120615,5.9,"
"##MN-00 00 45 0277 03153 5524 038224 024301 196"
"163.444317"
"$GPRMC,103945,A,2429.8192,N,08115.7408,W,2.2,257.1,120615,5.9,"
"##MN-00 00 46 0278 03150 5523 038480 024299 196"
"163.444363"
"$GPRMC,103949,A,2429.8183,N,08115.7435,W,2.2,256.8,120615,5.9,"
"##MN-00 00 45 0279 03148 5521 044888 024302 196"
"163.44441"
"$GPRMC,103953,A,2429.8177,N,08115.7461,W,2.2,256.6,120615,5.9,"
"##MN-00 00 44 0280 03146 5519 046512 024301 196"
"163.444456"
"$GPRMC,103957,A,2429.8174,N,08115.7487,W,2.3,256.9,120615,5.9,"
"##MN-00 00 45 0280 03142 5518 802456 024296 196"
"163.444502"
"$GPRMC,104002,A,2429.8164,N,08115.7522,W,2.3,257.2,120615,5.9,"
"##MN-00 00 42 0281 03142 5516 957728 024296 196"
"163.444549"
"$GPRMC,104005,A,2429.8161,N,08115.7540,W,2.3,257.2,120615,5.9,"
"##MN-00 00 46 0282 03141 5515 054056 024309 196"
"163.444595"
"$GPRMC,104010,A,2429.8154,N,08115.7574,W,2.2,258.3,120615,5.9,"
"##MN-00 00 42 0283 03140 5513 013600 024290 196"
"163.444641"
"$GPRMC,104014,A,2429.8150,N,08115.7599,W,2.2,258.6,120615,5.9,"
"##MN-00 00 43 0284 03138 5512 016544 024290 196"
"163.444687"
"$GPRMC,104018,A,2429.8147,N,08115.7624,W,2.2,259.0,120615,5.9,"
"##MN-00 00 42 0285 03137 5510 016296 024302 196"
"163.444734"
"$GPRMC,104022,A,2429.8141,N,08115.7652,W,2.2,258.6,120615,5.9,"
"##MN-00 00 43 0286 03136 5509 016080 024317 196"
"163.44478"
"$GPRMC,104026,A,2429.8135,N,08115.7680,W,2.2,259.0,120615,5.9,"
"##MN-00 00 44 0287 03134 5508 015904 024327 196"
"163.444826"
"$GPRMC,104030,A,2429.8131,N,08115.7706,W,2.2,259.0,120615,5.9,"
"##MN-00 00 43 0287 03134 5506 015664 024325 196"
"163.444873"
"$GPRMC,104034,A,2429.8124,N,08115.7732,W,2.2,257.7,120615,5.9,"
"##MN-00 00 44 0288 03130 5505 015440 024326 196"
"163.444919"
"$GPRMC,104038,A,2429.8116,N,08115.7757,W,2.2,257.9,120615,5.9,"
"##MN-00 00 43 0289 03130 5504 023344 024323 196"
"163.444965"
"$GPRMC,104042,A,2429.8111,N,08115.7785,W,2.2,257.9,120615,5.9,"
"##MN-00 00 45 0290 03133 5502 032128 024319 196"
"163.445012"
"$GPRMC,104046,A,2429.8103,N,08115.7809,W,2.2,258.4,120615,5.9,"
"##MN-00 00 45 0291 03130 5501 035456 024321 196"
"163.445058"
"$GPRMC,104050,A,2429.8098,N,08115.7837,W,2.3,258.3,120615,5.9,"
"##MN-00 00 42 0292 03125 5500 037032 024324 196"
"163.445104"
"$GPRMC,104054,A,2429.8092,N,08115.7863,W,2.2,257.9,120615,5.9,"
"##MN-00 00 43 0293 03124 5499 048480 024318 196"
"163.44515"
"$GPRMC,104058,A,2429.8087,N,08115.7890,W,2.2,258.6,120615,5.9,"
"##MN-00 00 44 0294 03125 5498 045672 024324 196"
"163.445197"
"$GPRMC,104102,A,2429.8083,N,08115.7916,W,2.2,258.8,120615,5.9,"
"##MN-00 00 44 0294 03123 5497 050800 024313 196"
"163.445243"
"$GPRMC,104106,A,2429.8080,N,08115.7944,W,2.2,260.3,120615,5.9,"
"##MN-00 00 46 0295 03121 5496 053352 024319 196"
"163.445289"
"$GPRMC,104110,A,2429.8081,N,08115.7970,W,2.2,260.1,120615,5.9,"
"##MN-00 00 44 0296 03118 5495 059880 024323 196"
"163.445336"
"$GPRMC,104114,A,2429.8082,N,08115.7998,W,2.3,260.3,120615,5.9,"
"##MN-00 00 41 0297 03116 5494 066400 024317 196"
"163.445382"
"$GPRMC,104118,A,2429.8078,N,08115.8022,W,2.2,260.4,120615,5.9,"
"##MN-00 00 46 0298 03115 5493 070672 024302 196"
"163.445428"
"$GPRMC,104122,A,2429.8075,N,08115.8050,W,2.3,260.2,120615,5.9,"
"##MN-00 00 41 0299 03110 5492 841872 024325 196"
"163.445475"
"$GPRMC,104126,A,2429.8073,N,08115.8078,W,2.3,260.1,120615,5.9,"
"##MN-00 00 44 0300 03110 5491 070384 024347 196"
"163.445521"
"$GPRMC,104130,A,2429.8067,N,08115.8103,W,2.3,259.7,120615,5.9,"
"##MN-00 00 44 0301 03107 5491 070200 024354 196"
"163.445567"
"$GPRMC,104134,A,2429.8062,N,08115.8130,W,2.3,258.2,120615,5.9,"
"##MN-00 00 44 0302 03102 5490 070128 024353 196"
"163.445613"
"$GPRMC,104138,A,2429.8055,N,08115.8157,W,2.2,257.5,120615,5.9,"
"##MN-00 00 44 0303 03101 5489 349528 024336 196"
"163.44566"
"$GPRMC,104142,A,2429.8048,N,08115.8183,W,2.2,256.5,120615,5.9,"
"##MN-00 00 44 0304 03097 5488 077248 024339 196"
"163.445706"
"$GPRMC,104146,A,2429.8041,N,08115.8209,W,2.2,256.2,120615,5.9,"
"##MN-00 00 43 0305 03094 5487 473160 024343 196"
"163.445752"
"$GPRMC,104150,A,2429.8034,N,08115.8235,W,2.2,257.0,120615,5.9,"
"##MN-00 00 44 0305 03091 5487 365784 024345 196"
"163.445799"
"$GPRMC,104154,A,2429.8028,N,08115.8262,W,2.2,257.7,120615,5.9,"
"##MN-00 00 44 0306 03089 5486 092864 024335 196"
"163.445845"
"$GPRMC,104158,A,2429.8023,N,08115.8289,W,2.2,258.1,120615,5.9,"
"##MN-00 00 44 0307 03089 5486 095904 024333 196"
"163.445891"
"$GPRMC,104202,A,2429.8017,N,08115.8316,W,2.3,258.0,120615,5.9,"
"##MN-00 00 45 0308 03085 5485 869424 024336 196"
"163.445938"
"$GPRMC,104206,A,2429.8011,N,08115.8345,W,2.3,257.2,120615,5.9,"
"##MN-00 00 42 0309 03081 5484 100224 024339 196"
"163.445984"
"$GPRMC,104210,A,2429.8004,N,08115.8371,W,2.3,256.1,120615,5.9,"
"##MN-00 00 43 0310 03077 5484 383712 024329 196"
"163.44603"
"$GPRMC,104214,A,2429.7998,N,08115.8400,W,2.3,256.1,120615,5.9,"
"##MN-00 00 43 0311 03077 5484 107648 024317 196"
"163.446076"
"$GPRMC,104218,A,2429.7990,N,08115.8425,W,2.3,255.6,120615,5.9,"
"##MN-00 00 43 0312 03075 5483 497240 024333 196"
"163.446123"
"$GPRMC,104222,A,2429.7979,N,08115.8450,W,2.3,255.8,120615,5.9,"
"##MN+00 00 43 0313 03073 5482 670096 024322 196"
"163.446169"
"$GPRMC,104226,A,2429.7970,N,08115.8477,W,2.3,255.8,120615,5.9,"
"##MN+00 00 46 0313 03069 5482 121600 024319 196"
"163.446215"
"$GPRMC,104230,A,2429.7962,N,08115.8504,W,2.2,255.5,120615,5.9,"
"##MN+00 00 48 0314 03067 5482 559152 024318 196"
"163.446262"
"#increment_net"
"$GPRMC,104234,A,2429.7955,N,08115.8530,W,2.3,255.2,120615,5.9,"
"##MN-00 00 47 0315 03064 5481 030720 024320 196"
"163.446308"
"$GPRMC,104238,A,2429.7950,N,08115.8559,W,2.3,254.8,120615,5.9,"
"##MN-00 00 44 0316 03063 5481 125704 024332 196"
"163.446354"
"$GPRMC,104242,A,2429.7943,N,08115.8585,W,2.3,255.1,120615,5.9,"
"##MN-00 00 45 0317 03060 5481 128304 024375 196"
"163.4464"
"$GPRMC,104246,A,2429.7937,N,08115.8613,W,2.3,255.2,120615,5.9,"
"##MN-00 00 45 0318 03060 5480 124152 024354 196"
"163.446447"
"$GPRMC,104250,A,2429.7930,N,08115.8638,W,2.3,255.4,120615,5.9,"
"##MN-00 00 45 0319 03056 5480 125384 024361 196"
"163.446493"
"$GPRMC,104254,A,2429.7923,N,08115.8665,W,2.3,254.9,120615,5.9,"
"##MN-00 00 45 0320 03056 5480 680816 024364 196"
"163.446539"
"$GPRMC,104258,A,2429.7916,N,08115.8693,W,2.3,256.0,120615,5.9,"
"##MN-00 00 44 0321 03050 5480 133200 024339 196"
"163.446586"
"$GPRMC,104302,A,2429.7910,N,08115.8719,W,2.3,255.5,120615,5.9,"
"##MN-00 00 46 0321 03049 5479 047344 024350 196"
"163.446632"
"$GPRMC,104306,A,2429.7904,N,08115.8747,W,2.3,256.4,120615,5.9,"
"##MN-00 00 45 0322 03046 5479 713608 024338 196"
"163.446678"
"$GPRMC,104310,A,2429.7898,N,08115.8775,W,2.3,256.2,120615,5.9,"
"##MN-00 00 45 0323 03045 5479 423584 024350 196"
"163.446725"
"$GPRMC,104314,A,2429.7893,N,08115.8802,W,2.4,256.4,120615,5.9,"
"##MN-00 00 44 0324 03043 5479 052448 024333 196"
"163.446771"
"$GPRMC,104318,A,2429.7887,N,08115.8829,W,2.3,255.3,120615,5.9,"
"##MN-00 00 44 0325 03039 5479 202768 024346 196"
"163.446817"
"$GPRMC,104322,A,2429.7879,N,08115.8858,W,2.3,254.9,120615,5.9,"
"##MN-00 00 44 0326 03037 5478 925376 024336 196"
"163.446863"
"$GPRMC,104326,A,2429.7874,N,08115.8885,W,2.3,255.5,120615,5.9,"
"##MN-00 00 42 0327 03033 5478 433080 024338 196"
"163.446921"
"$GPRMC,104330,A,2429.7870,N,08115.8914,W,2.3,257.0,120615,5.9,"
"##MN-00 00 43 0328 03031 5478 546688 024345 196"
"163.446968"
"$GPRMC,104334,A,2429.7863,N,08115.8943,W,2.4,257.6,120615,5.9,"
"##MN-00 00 44 0329 03027 5478 162672 024336 196"
"163.447014"
"$GPRMC,104338,A,2429.7857,N,08115.8972,W,2.5,257.3,120615,5.9,"
"##MN-00 00 46 0330 03025 5478 829224 024345 196"
"163.44706"
"$GPRMC,104342,A,2429.7851,N,08115.9003,W,2.5,257.4,120615,5.9,"
"##MN-00 00 44 0330 03022 5478 723488 024336 196"
"163.447106"
"$GPRMC,104346,A,2429.7845,N,08115.9032,W,2.5,257.3,120615,5.9,"
"##MN-00 00 44 0331 03020 5478 175368 024336 196"
"163.447153"
"$GPRMC,104350,A,2429.7838,N,08115.9061,W,2.4,256.6,120615,5.9,"
"##MN-00 00 44 0332 03014 5478 566720 024328 196"
"163.447199"
"$GPRMC,104354,A,2429.7833,N,08115.9090,W,2.4,257.5,120615,5.9,"
"##MN-00 00 44 0333 03012 5478 456640 024322 196"
"163.447245"
"$GPRMC,104358,A,2429.7829,N,08115.9118,W,2.3,256.7,120615,5.9,"
"##MN-00 00 50 0334 03008 5478 180824 024345 196"
"163.447292"
"$GPRMC,104402,A,2429.7822,N,08115.9144,W,2.3,256.6,120615,5.9,"
"##MN-00 00 46 0335 03006 5479 180720 024376 196"
"163.447338"
"$GPRMC,104406,A,2429.7816,N,08115.9173,W,2.4,255.5,120615,5.9,"
"##MN-00 00 45 0336 03002 5479 318448 024367 196"
"163.447384"
"$GPRMC,104410,A,2429.7811,N,08115.9199,W,2.3,255.7,120615,5.9,"
"##MN-00 00 46 0337 02999 5479 456944 024376 196"
"163.447431"
"$GPRMC,104414,A,2429.7805,N,08115.9227,W,2.3,255.9,120615,5.9,"
"##MN-00 00 44 0338 02996 5479 954448 024365 196"
"163.447477"
"$GPRMC,104418,A,2429.7799,N,08115.9253,W,2.3,256.4,120615,5.9,"
"##MN-00 00 44 0339 02994 5479 463440 024358 196"
"163.447523"
"$GPRMC,104422,A,2429.7791,N,08115.9281,W,2.3,256.7,120615,5.9,"
"##MN-00 00 45 0340 02989 5479 196272 024350 196"
"163.447569"
"$GPRMC,104426,A,2429.7786,N,08115.9307,W,2.3,257.1,120615,5.9,"
"##MN-00 00 45 0341 02986 5480 584992 024357 196"
"163.447616"
"$GPRMC,104431,A,2429.7778,N,08115.9340,W,2.3,256.9,120615,5.9,"
"##MN-00 00 46 0342 02984 5480 200984 024353 196"
"163.447662"
"$GPRMC,104435,A,2429.7773,N,08115.9368,W,2.3,256.8,120615,5.9,"
"##MN-00 00 47 0343 02980 5480 756000 024349 196"
"163.447708"
"$GPRMC,104438,A,2429.7767,N,08115.9386,W,2.2,255.5,120615,5.9,"
"##MN-00 00 45 0343 02978 5480 207920 024350 196"
"163.447755"
"$GPRMC,104443,A,2429.7760,N,08115.9422,W,2.3,255.4,120615,5.9,"
"##MN-00 00 45 0344 02974 5480 979664 024354 196"
"163.447801"
"$GPRMC,104446,A,2429.7755,N,08115.9441,W,2.3,255.0,120615,5.9,"
"##MN-00 00 45 0345 02971 5480 876120 024353 196"
"163.447847"
"$GPRMC,104451,A,2429.7747,N,08115.9476,W,2.3,255.1,120615,5.9,"
"##MN-00 00 45 0346 02967 5481 355728 024337 196"
"163.447894"
"$GPRMC,104455,A,2429.7741,N,08115.9502,W,2.3,256.0,120615,5.9,"
"##MN-00 00 45 0347 02966 5481 494416 024351 196"
"163.44794"
"$GPRMC,104459,A,2429.7735,N,08115.9530,W,2.3,256.7,120615,5.9,"
"##MN-00 00 47 0348 02962 5481 499976 024343 196"
"163.447986"
"$GPRMC,104503,A,2429.7729,N,08115.9557,W,2.3,257.1,120615,5.9,"
"##MN-00 00 46 0349 02959 5482 503184 024346 196"
"163.448032"
"$GPRMC,104507,A,2429.7724,N,08115.9584,W,2.3,258.2,120615,5.9,"
"##MN-00 00 47 0350 02957 5482 620272 024321 196"
"163.448079"
"$GPRMC,104511,A,2429.7719,N,08115.9613,W,2.3,258.7,120615,5.9,"
"##MN-00 00 45 0351 02952 5483 236216 024336 196"
"163.448125"
"$GPRMC,104515,A,2429.7715,N,08115.9639,W,2.2,259.3,120615,5.9,"
"##MN-00 00 46 0352 02951 5483 235264 024354 196"
"163.448171"
"$GPRMC,104519,A,2429.7710,N,08115.9667,W,2.3,258.8,120615,5.9,"
"##MN-00 00 45 0353 02947 5483 898256 024368 196"
"163.448218"
"$GPRMC,104523,A,2429.7706,N,08115.9694,W,2.3,258.8,120615,5.9,"
"##MN-00 00 45 0354 02945 5484 419664 024373 196"
"163.448264"
"$GPRMC,104527,A,2429.7701,N,08115.9722,W,2.3,258.8,120615,5.9,"
"##MN-00 00 47 0355 02941 5484 695552 024369 196"
"163.44831"
"$GPRMC,104531,A,2429.7694,N,08115.9751,W,2.3,258.7,120615,5.9,"
"##MN-00 00 46 0356 02937 5485 621576 024366 196"
"163.448356"
"$GPRMC,104535,A,2429.7690,N,08115.9779,W,2.3,259.3,120615,5.9,"
"##MN-00 00 47 0357 02935 5485 786384 024375 196"
"163.448403"
"$GPRMC,104539,A,2429.7681,N,08115.9805,W,2.4,257.9,120615,5.9,"
"##MN-00 00 45 0358 02933 5486 357032 024350 196"
"163.448449"
"$GPRMC,104543,A,2429.7672,N,08115.9831,W,2.3,257.9,120615,5.9,"
"##MN-00 00 49 0359 02930 5486 165848 024358 196"
"163.448495"
"$GPRMC,104547,A,2429.7662,N,08115.9857,W,2.3,256.6,120615,5.9,"
"##MN-00 00 47 0360 02926 5486 027472 024357 196"
"163.448542"
"$GPRMC,104551,A,2429.7655,N,08115.9885,W,2.4,255.1,120615,5.9,"
"##MN-00 00 47 0361 02922 5487 258296 024358 196"
"163.448588"
"$GPRMC,104555,A,2429.7648,N,08115.9911,W,2.3,254.5,120615,5.9,"
"##MN-00 00 47 0362 02920 5488 263136 024344 196"
"163.448634"
"$GPRMC,104559,A,2429.7643,N,08115.9939,W,2.3,253.8,120615,5.9,"
"##MN-00 00 48 0363 02918 5488 925216 024347 196"
"163.448681"
"$GPRMC,104603,A,2429.7635,N,08115.9964,W,2.2,253.7,120615,5.9,"
"##MN-00 00 47 0364 02915 5488 677296 024356 196"
"163.448727"
"$GPRMC,104607,A,2429.7628,N,08115.9989,W,2.2,253.3,120615,5.9,"
"##MN-00 00 49 0365 02914 5489 040512 024346 196"
"163.448773"
"$GPRMC,104611,A,2429.7621,N,08116.0015,W,2.2,253.5,120615,5.9,"
"##MN-00 00 49 0366 02910 5490 409576 024346 196"
"163.448819"
"$GPRMC,104615,A,2429.7614,N,08116.0040,W,2.1,254.0,120615,5.9,"
"##MN-00 00 46 0366 02907 5490 824608 024335 196"
"163.448866"
"$GPRMC,104619,A,2429.7608,N,08116.0065,W,2.2,254.9,120615,5.9,"
"##MN-00 00 49 0367 02907 5491 414416 024344 196"
"163.448912"
"$GPRMC,104623,A,2429.7603,N,08116.0091,W,2.2,255.9,120615,5.9,"
"##MN-00 00 46 0368 02902 5492 280248 024345 196"
"163.448958"
"$GPRMC,104627,A,2429.7597,N,08116.0119,W,2.2,256.3,120615,5.9,"
"##MN-00 00 49 0369 02901 5492 835184 024343 196"
"163.449005"
"$GPRMC,104631,A,2429.7592,N,08116.0145,W,2.2,256.6,120615,5.9,"
"##MN-00 00 46 0370 02897 5492 426776 024306 196"
"163.449051"
"$GPRMC,104635,A,2429.7587,N,08116.0173,W,2.3,257.9,120615,5.9,"
"##MN-00 00 46 0371 02896 5493 292000 024305 196"
"163.449097"
"$GPRMC,104639,A,2429.7585,N,08116.0199,W,2.2,259.8,120615,5.9,"
"##MN+00 00 47 0372 02895 5494 428920 024334 196"
"163.449144"
"$GPRMC,104643,A,2429.7583,N,08116.0228,W,2.3,260.1,120615,5.9,"
"##MN+00 00 47 0373 02890 5494 429232 024358 196"
"163.44919"
"$GPRMC,104647,A,2429.7581,N,08116.0256,W,2.3,260.1,120615,5.9,"
"##MN+00 00 50 0374 02890 5495 290880 024363 196"
"163.449236"
"#increment_net"
"$GPRMC,104651,A,2429.7578,N,08116.0282,W,2.3,260.5,120615,5.9,"
"##MN-00 00 47 0375 02887 5496 290576 024368 196"
"163.449282"
"$GPRMC,104655,A,2429.7578,N,08116.0311,W,2.3,260.9,120615,5.9,"
"##MN-00 00 47 0376 02886 5496 841920 024360 196"
"163.449329"
"$GPRMC,104659,A,2429.7574,N,08116.0340,W,2.3,261.0,120615,5.9,"
"##MN-00 00 47 0377 02884 5497 429088 024364 196"
"163.449375"
"$GPRMC,104703,A,2429.7570,N,08116.0366,W,2.3,260.6,120615,5.9,"
"##MN-00 00 49 0378 02881 5498 291320 024369 196"
"163.449421"
"$GPRMC,104707,A,2429.7564,N,08116.0392,W,2.2,258.9,120615,5.9,"
"##MN-00 00 45 0379 02879 5498 839104 024364 196"
"163.449468"
"$GPRMC,104711,A,2429.7558,N,08116.0420,W,2.3,257.7,120615,5.9,"
"##MN-00 00 46 0380 02877 5499 296568 024361 196"
"163.449514"
"$GPRMC,104715,A,2429.7552,N,08116.0445,W,2.2,256.7,120615,5.9,"
"##MN-00 00 47 0381 02876 5500 298544 024353 196"
"163.44956"
"$GPRMC,104719,A,2429.7546,N,08116.0473,W,2.2,256.3,120615,5.9,"
"##MN-00 00 46 0382 02873 5500 307864 024344 196"
"163.449606"
"$GPRMC,104723,A,2429.7539,N,08116.0491,W,2.2,254.7,120615,5.9,"
"##MN-00 00 46 0383 02872 5501 586056 024333 196"
"163.449653"
"$GPRMC,104727,A,2429.7533,N,08116.0517,W,2.2,255.4,120615,5.9,"
"##MN-00 00 48 0384 02870 5502 313552 024344 196"
"163.449699"
"$GPRMC,104731,A,2429.7527,N,08116.0542,W,2.2,255.5,120615,5.9,"
"##MN-00 00 46 0385 02866 5503 179384 024334 196"
"163.449745"
"$GPRMC,104735,A,2429.7522,N,08116.0569,W,2.2,256.2,120615,5.9,"
"##MN-00 00 49 0386 02865 5503 319744 024333 196"
"163.449792"
"$GPRMC,104739,A,2429.7516,N,08116.0596,W,2.2,256.6,120615,5.9,"
"##MN-00 00 44 0387 02863 5504 594368 024338 196"
"163.449838"
"$GPRMC,104743,A,2429.7511,N,08116.0621,W,2.2,256.6,120615,5.9,"
"##MN-00 00 47 0388 02862 5505 461512 024333 196"
"163.449884"
"$GPRMC,104747,A,2429.7504,N,08116.0647,W,2.2,256.1,120615,5.9,"
"##MN-00 00 45 0389 02858 5506 052176 024327 196"
"163.449931"
"$GPRMC,104751,A,2429.7495,N,08116.0680,W,2.3,255.8,120615,5.9,"
"##MN-00 00 46 0390 02857 5506 740584 024329 196"
"163.449977"
"$GPRMC,104755,A,2429.7487,N,08116.0706,W,2.2,256.0,120615,5.9,"
"##MN-00 00 47 0391 02856 5507 329344 024331 196"
"163.450023"
"$GPRMC,104759,A,2429.7480,N,08116.0731,W,2.2,257.7,120615,5.9,"
"##MN-00 00 48 0392 02853 5508 331552 024330 196"
"163.450069"
"$GPRMC,104803,A,2429.7474,N,08116.0758,W,2.3,257.5,120615,5.9,"
"##MN-00 00 46 0393 02851 5509 472904 024322 196"
"163.450127"
"$GPRMC,104807,A,2429.7469,N,08116.0782,W,2.2,257.9,120615,5.9,"
"##MN-00 00 47 0394 02848 5510 068960 024317 196"
"163.450174"
"$GPRMC,104811,A,2429.7466,N,08116.0810,W,2.3,258.4,120615,5.9,"
"##MN-00 00 46 0395 02845 5510 622120 024297 196"
"163.45022"
"$GPRMC,104815,A,2429.7460,N,08116.0836,W,2.2,259.6,120615,5.9,"
"##MN-00 00 48 0396 02843 5511 347840 024294 196"
"163.450266"
