" Tow: 5-of-n-in   RVWS/WS15161"
" Date: 12/06/2015"
" Temperature Probe #  4762    Conductivity Probe #  710"
" Pressure Probe #  159"
" Flow Meter Calibration  4.71 (m/count)  "
"164.125185"
"$GPRMC,030011,A,2419.8795,N,08110.9342,W,3.6,319.4,130615,6.0,"
"##MN-00 00 45 0000 01540 5626 450004 827712 193"
"164.125231"
"$GPRMC,030015,A,2419.8823,N,08110.9369,W,3.4,319.0,130615,6.0,"
"##MN-00 00 73 0000 01539 5626 445566 827925 193"
"164.125278"
"$GPRMC,030019,A,2419.8850,N,08110.9398,W,3.5,318.2,130615,6.0,"
"##MN-00 00 43 0000 01539 5628 445339 827925 193"
"164.125324"
"$GPRMC,030023,A,2419.8878,N,08110.9426,W,3.3,318.0,130615,6.0,"
"##MN-00 00 54 0000 01538 5629 445249 827926 193"
"164.12537"
"$GPRMC,030027,A,2419.8907,N,08110.9455,W,3.4,318.2,130615,6.0,"
"##MN-00 00 51 0000 01538 5630 444954 827926 193"
"164.125417"
"$GPRMC,030031,A,2419.8936,N,08110.9476,W,3.1,318.9,130615,6.0,"
"##MN-00 00 61 0000 01540 5631 444761 827857 193"
"164.125463"
"$GPRMC,030035,A,2419.8960,N,08110.9498,W,3.2,318.5,130615,6.0,"
"##MN-00 00 56 0000 01538 5632 444783 827925 193"
"164.125509"
"$GPRMC,030039,A,2419.8983,N,08110.9516,W,3.1,320.4,130615,6.0,"
"##MN-00 00 58 0001 01540 5633 446100 827925 193"
"164.125556"
"$GPRMC,030043,A,2419.9005,N,08110.9534,W,3.1,320.4,130615,6.0,"
"##MN-00 00 58 0001 01540 5633 445861 827925 193"
"164.125602"
"$GPRMC,030047,A,2419.9030,N,08110.9556,W,3.0,321.9,130615,6.0,"
"##MN-00 00 54 0001 01537 5635 446449 312541 193"
"164.125648"
"$GPRMC,030051,A,2419.9054,N,08110.9575,W,2.9,322.4,130615,6.0,"
"##MN-00 00 52 0001 01539 5635 449712 429208 193"
"164.125694"
"$GPRMC,030055,A,2419.9080,N,08110.9599,W,3.0,322.7,130615,6.0,"
"##MN-00 00 52 0001 01541 5636 447859 327688 193"
"164.125741"
"$GPRMC,030100,A,2419.9113,N,08110.9622,W,2.9,322.3,130615,6.0,"
"##MN-00 00 59 0002 01540 5637 446988 225100 193"
"164.125787"
"$GPRMC,030104,A,2419.9138,N,08110.9644,W,2.9,321.6,130615,6.0,"
"##MN-00 00 52 0003 01541 5638 446806 214858 193"
"164.125833"
"$GPRMC,030107,A,2419.9157,N,08110.9662,W,2.9,324.4,130615,6.0,"
"##MN-00 00 51 0003 01539 5638 446780 205747 193"
"164.12588"
"$GPRMC,030111,A,2419.9185,N,08110.9682,W,2.8,324.6,130615,6.0,"
"##MN-00 00 55 0004 01542 5639 446775 205881 193"
"164.125926"
"$GPRMC,030116,A,2419.9218,N,08110.9707,W,2.8,325.2,130615,6.0,"
"##MN-00 00 49 0005 01539 5640 446757 205770 193"
"164.125972"
"$GPRMC,030119,A,2419.9234,N,08110.9725,W,2.8,325.8,130615,6.0,"
"##MN-00 00 56 0006 01542 5641 446761 206076 193"
"164.126019"
"$GPRMC,030124,A,2419.9268,N,08110.9751,W,2.8,324.8,130615,6.0,"
"##MN-00 00 54 0006 01544 5641 446757 205928 193"
"164.126065"
"$GPRMC,030128,A,2419.9290,N,08110.9767,W,2.6,325.2,130615,6.0,"
"##MN-00 00 50 0007 01544 5642 446759 205505 193"
"164.126111"
"$GPRMC,030132,A,2419.9315,N,08110.9787,W,2.7,324.5,130615,6.0,"
"##MN-00 00 54 0008 01551 5643 446751 205509 193"
"164.126157"
"$GPRMC,030136,A,2419.9337,N,08110.9805,W,2.6,325.3,130615,6.0,"
"##MN-00 00 51 0009 01553 5644 446723 205500 193"
"164.126204"
"$GPRMC,030140,A,2419.9362,N,08110.9826,W,2.6,325.1,130615,6.0,"
"##MN-00 00 54 0010 01555 5645 446702 205494 193"
"164.12625"
"$GPRMC,030144,A,2419.9387,N,08110.9844,W,2.6,325.6,130615,6.0,"
"##MN-00 00 53 0011 01556 5645 446695 205485 193"
"164.126296"
"$GPRMC,030148,A,2419.9412,N,08110.9863,W,2.6,325.5,130615,6.0,"
"##MN-00 00 54 0012 01559 5646 446696 205488 193"
"164.126343"
"$GPRMC,030152,A,2419.9437,N,08110.9882,W,2.6,325.3,130615,6.0,"
"##MN-00 00 54 0013 01561 5647 446690 205502 193"
"164.126389"
"$GPRMC,030156,A,2419.9464,N,08110.9902,W,2.6,325.8,130615,6.0,"
"##MN-00 00 54 0014 01566 5648 446671 205482 193"
"164.126435"
"$GPRMC,030200,A,2419.9489,N,08110.9924,W,2.6,325.1,130615,6.0,"
"##MN-00 00 55 0015 01569 5649 446670 205478 193"
"164.126481"
"$GPRMC,030204,A,2419.9514,N,08110.9943,W,2.6,324.2,130615,6.0,"
"##MN-00 00 48 0015 01569 5650 446672 205507 193"
"164.126528"
"$GPRMC,030208,A,2419.9536,N,08110.9962,W,2.6,323.8,130615,6.0,"
"##MN-00 00 53 0016 01565 5650 446672 205467 193"
"164.126574"
"$GPRMC,030212,A,2419.9560,N,08110.9985,W,2.6,322.2,130615,6.0,"
"##MN-00 00 56 0017 01577 5651 446672 205453 193"
"164.12662"
"$GPRMC,030216,A,2419.9582,N,08111.0004,W,2.5,320.9,130615,6.0,"
"##MN-00 00 52 0018 01574 5652 446673 205449 193"
"164.126667"
"$GPRMC,030220,A,2419.9603,N,08111.0022,W,2.6,320.2,130615,6.0,"
"##MN-00 00 54 0019 01577 5653 446685 205449 193"
"164.126713"
"$GPRMC,030224,A,2419.9622,N,08111.0036,W,2.5,321.5,130615,6.0,"
"##MN-00 00 53 0020 01584 5654 446699 205447 193"
"164.126759"
"$GPRMC,030228,A,2419.9647,N,08111.0063,W,2.5,321.6,130615,6.0,"
"##MN-00 00 54 0021 01586 5655 446705 205449 193"
"164.126806"
"$GPRMC,030232,A,2419.9669,N,08111.0083,W,2.6,322.2,130615,6.0,"
"##MN-00 00 51 0022 01584 5655 446703 205445 193"
"164.126852"
"$GPRMC,030236,A,2419.9694,N,08111.0101,W,2.6,323.5,130615,6.0,"
"##MN-00 00 55 0023 01593 5656 446690 205440 193"
"164.126898"
"$GPRMC,030240,A,2419.9719,N,08111.0121,W,2.6,322.7,130615,6.0,"
"##MN-00 00 53 0024 01590 5657 446656 205431 193"
"164.126944"
"$GPRMC,030244,A,2419.9744,N,08111.0141,W,2.7,322.8,130615,6.0,"
"##MN-00 00 54 0025 01597 5658 446651 205429 193"
"164.126991"
"$GPRMC,030248,A,2419.9766,N,08111.0157,W,2.6,321.5,130615,6.0,"
"##MN-00 00 52 0025 01593 5659 446643 205426 193"
"164.127037"
"$GPRMC,030252,A,2419.9789,N,08111.0181,W,2.7,320.8,130615,6.0,"
"##MN-00 00 54 0026 01596 5660 446631 205423 193"
"164.127083"
"$GPRMC,030256,A,2419.9809,N,08111.0197,W,2.5,320.8,130615,6.0,"
"##MN-00 00 54 0027 01604 5660 446629 205421 193"
"164.12713"
"$GPRMC,030300,A,2419.9829,N,08111.0218,W,2.6,319.3,130615,6.0,"
"##MN-00 00 56 0028 01596 5661 446623 205419 193"
"164.127176"
"$GPRMC,030304,A,2419.9853,N,08111.0238,W,2.5,321.2,130615,6.0,"
"##MN-00 00 55 0029 01607 5662 446636 205419 193"
"164.127222"
"$GPRMC,030308,A,2419.9875,N,08111.0257,W,2.6,319.7,130615,6.0,"
"##MN-00 00 53 0029 01599 5663 446612 205415 193"
"164.127269"
"$GPRMC,030312,A,2419.9897,N,08111.0278,W,2.6,321.2,130615,6.0,"
"##MN-00 00 57 0030 01612 5664 446602 205411 193"
"164.127315"
"$GPRMC,030316,A,2419.9918,N,08111.0296,W,2.5,319.8,130615,6.0,"
"##MN-00 00 52 0031 01605 5665 446617 205413 193"
"164.127361"
"$GPRMC,030320,A,2419.9940,N,08111.0319,W,2.6,318.3,130615,6.0,"
"##MN-00 00 58 0032 01615 5666 446638 205416 193"
"164.127407"
"$GPRMC,030324,A,2419.9958,N,08111.0332,W,2.5,318.7,130615,6.0,"
"##MN-00 00 51 0033 01616 5667 446646 205416 193"
"164.127454"
"$GPRMC,030328,A,2419.9976,N,08111.0352,W,2.6,317.2,130615,6.0,"
"##MN-00 00 54 0033 01617 5667 446638 205413 193"
"164.1275"
"$GPRMC,030332,A,2419.9994,N,08111.0368,W,2.5,317.7,130615,6.0,"
"##MN-00 00 53 0034 01625 5668 446627 205410 193"
"164.127546"
"$GPRMC,030336,A,2420.0015,N,08111.0390,W,2.6,316.1,130615,6.0,"
"##MN-00 00 52 0035 01618 5669 446605 205404 193"
"164.127593"
"$GPRMC,030340,A,2420.0034,N,08111.0409,W,2.5,317.7,130615,6.0,"
"##MN-00 00 56 0036 01629 5670 446601 205404 193"
"164.127639"
"$GPRMC,030344,A,2420.0059,N,08111.0430,W,2.6,316.9,130615,6.0,"
"##MN-00 00 52 0037 01625 5671 446605 205404 193"
"164.127685"
"$GPRMC,030348,A,2420.0080,N,08111.0451,W,2.6,319.3,130615,6.0,"
"##MN-00 00 57 0038 01633 5672 446615 205405 193"
"164.127731"
"$GPRMC,030352,A,2420.0102,N,08111.0470,W,2.6,320.4,130615,6.0,"
"##MN-00 00 53 0039 01631 5672 446610 205403 193"
"164.127778"
"$GPRMC,030356,A,2420.0124,N,08111.0491,W,2.6,320.7,130615,6.0,"
"##MN-00 00 56 0040 01637 5673 446600 205401 193"
"164.127824"
"$GPRMC,030400,A,2420.0145,N,08111.0507,W,2.6,320.9,130615,6.0,"
"##MN-00 00 54 0041 01642 5674 446597 205399 193"
"164.12787"
"$GPRMC,030404,A,2420.0167,N,08111.0527,W,2.5,319.6,130615,6.0,"
"##MN-00 00 56 0042 01647 5675 446608 205400 193"
"164.127917"
"$GPRMC,030408,A,2420.0189,N,08111.0547,W,2.5,320.4,130615,6.0,"
"##MN-00 00 53 0043 01647 5676 446609 205399 193"
"164.127963"
"$GPRMC,030412,A,2420.0210,N,08111.0568,W,2.5,320.4,130615,6.0,"
"##MN-00 00 56 0044 01654 5677 446604 205397 193"
"164.128009"
"$GPRMC,030416,A,2420.0229,N,08111.0592,W,2.5,319.4,130615,6.0,"
"##MN-00 00 54 0045 01658 5677 446613 205397 193"
"164.128056"
"$GPRMC,030420,A,2420.0250,N,08111.0614,W,2.5,318.6,130615,6.0,"
"##MN-00 00 54 0046 01662 5678 446609 205397 193"
"164.128102"
"$GPRMC,030424,A,2420.0271,N,08111.0636,W,2.5,317.8,130615,6.0,"
"##MN-00 00 54 0047 01665 5679 446584 205393 193"
"164.128148"
"$GPRMC,030428,A,2420.0290,N,08111.0657,W,2.5,316.1,130615,6.0,"
"##MN-00 00 55 0048 01670 5680 446573 205390 193"
"164.128194"
"$GPRMC,030432,A,2420.0309,N,08111.0676,W,2.5,316.8,130615,6.0,"
"##MN-00 00 53 0048 01669 5681 446581 205390 193"
"164.128252"
"$GPRMC,030436,A,2420.0331,N,08111.0699,W,2.5,316.3,130615,6.0,"
"##MN-00 00 53 0049 01673 5682 446581 205389 193"
"164.128299"
"$GPRMC,030440,A,2420.0351,N,08111.0720,W,2.4,316.4,130615,6.0,"
"##MN-00 00 54 0050 01678 5683 446580 205388 193"
"164.128345"
"$GPRMC,030444,A,2420.0370,N,08111.0744,W,2.4,316.7,130615,6.0,"
"##MN-00 00 54 0051 01685 5684 446577 205388 193"
"164.128391"
"$GPRMC,030448,A,2420.0388,N,08111.0762,W,2.4,316.1,130615,6.0,"
"##MN-00 00 52 0052 01686 5684 446592 205390 193"
"164.128437"
"$GPRMC,030452,A,2420.0409,N,08111.0784,W,2.4,315.9,130615,6.0,"
"##MN-00 00 54 0053 01691 5685 446599 205390 193"
"164.128484"
"$GPRMC,030456,A,2420.0428,N,08111.0805,W,2.5,315.8,130615,6.0,"
"##MN-00 00 52 0054 01693 5686 446594 205389 193"
"164.12853"
"$GPRMC,030500,A,2420.0448,N,08111.0824,W,2.5,316.0,130615,6.0,"
"##MN-00 00 53 0055 01696 5687 446583 205387 193"
"164.128576"
"$GPRMC,030504,A,2420.0468,N,08111.0847,W,2.5,315.5,130615,6.0,"
"##MN-00 00 54 0056 01699 5688 446594 205386 193"
"164.128623"
"$GPRMC,030508,A,2420.0489,N,08111.0870,W,2.5,315.4,130615,6.0,"
"##MN-00 00 52 0057 01695 5689 446586 205382 193"
"164.128669"
"$GPRMC,030512,A,2420.0511,N,08111.0890,W,2.6,316.7,130615,6.0,"
"##MN-00 00 55 0058 01701 5690 446575 205381 193"
"164.128715"
"$GPRMC,030516,A,2420.0532,N,08111.0912,W,2.5,316.5,130615,6.0,"
"##MN-00 00 54 0059 01700 5690 446565 205379 193"
"164.128762"
"$GPRMC,030520,A,2420.0554,N,08111.0936,W,2.6,316.8,130615,6.0,"
"##MN-00 00 56 0060 01705 5691 446558 205377 193"
"164.128808"
"$GPRMC,030524,A,2420.0576,N,08111.0955,W,2.5,317.7,130615,6.0,"
"##MN-00 00 53 0061 01708 5692 446562 205379 193"
"164.128854"
"$GPRMC,030528,A,2420.0596,N,08111.0979,W,2.5,317.1,130615,6.0,"
"##MN-00 00 53 0062 01710 5693 446571 205379 193"
"164.1289"
"$GPRMC,030532,A,2420.0618,N,08111.0998,W,2.5,318.1,130615,6.0,"
"##MN-00 00 55 0063 01716 5694 446558 205376 193"
"164.128947"
"$GPRMC,030536,A,2420.0640,N,08111.1017,W,2.5,319.0,130615,6.0,"
"##MN-00 00 52 0064 01716 5694 446547 205374 193"
"164.128993"
"$GPRMC,030540,A,2420.0661,N,08111.1040,W,2.6,318.4,130615,6.0,"
"##MN-00 00 55 0065 01718 5695 446571 205375 193"
"164.129039"
"$GPRMC,030544,A,2420.0677,N,08111.1059,W,2.4,317.9,130615,6.0,"
"##MN-00 00 52 0066 01722 5696 446568 205375 193"
"164.129086"
"$GPRMC,030548,A,2420.0699,N,08111.1082,W,2.5,317.3,130615,6.0,"
"##MN-00 00 54 0067 01727 5697 446558 205375 193"
"164.129132"
"$GPRMC,030552,A,2420.0720,N,08111.1100,W,2.4,318.5,130615,6.0,"
"##MN-00 00 54 0068 01727 5698 446581 205377 193"
"164.129178"
"$GPRMC,030556,A,2420.0739,N,08111.1121,W,2.5,317.8,130615,6.0,"
"##MN-00 00 52 0069 01736 5699 446629 205383 193"
"164.129225"
"$GPRMC,030600,A,2420.0759,N,08111.1141,W,2.5,317.2,130615,6.0,"
"##MN-00 00 51 0070 01732 5699 446770 205421 193"
"164.129271"
"$GPRMC,030605,A,2420.0785,N,08111.1167,W,2.5,316.3,130615,6.0,"
"##MN-00 00 54 0071 01737 5700 446923 205432 193"
"164.129317"
"$GPRMC,030608,A,2420.0797,N,08111.1182,W,2.5,315.2,130615,6.0,"
"##MN-00 00 54 0072 01738 5701 446854 205420 193"
"164.129363"
"$GPRMC,030613,A,2420.0822,N,08111.1208,W,2.5,315.8,130615,6.0,"
"##MN-00 00 53 0073 01740 5702 446831 205419 193"
"164.12941"
"$GPRMC,030616,A,2420.0837,N,08111.1225,W,2.5,315.4,130615,6.0,"
"##MN-00 00 55 0074 01739 5703 446851 205417 193"
"164.129456"
"$GPRMC,030621,A,2420.0862,N,08111.1251,W,2.5,315.8,130615,6.0,"
"##MN-00 00 53 0075 01745 5703 446837 205414 193"
"164.129502"
"$GPRMC,030625,A,2420.0880,N,08111.1272,W,2.5,316.5,130615,6.0,"
"##MN-00 00 53 0076 01743 5704 446821 205417 193"
"164.129549"
"$GPRMC,030629,A,2420.0902,N,08111.1297,W,2.6,315.8,130615,6.0,"
"##MN-00 00 53 0077 01747 5705 446898 205433 193"
"164.129595"
"$GPRMC,030633,A,2420.0925,N,08111.1318,W,2.5,318.2,130615,6.0,"
"##MN-00 00 53 0078 01751 5706 447281 205503 193"
"164.129641"
"$GPRMC,030637,A,2420.0945,N,08111.1341,W,2.6,316.2,130615,6.0,"
"##MN-00 00 54 0079 01748 5706 448010 205605 193"
"164.129687"
"$GPRMC,030641,A,2420.0965,N,08111.1362,W,2.5,317.6,130615,6.0,"
"##MN-00 00 53 0080 01755 5707 448220 205641 193"
"164.129734"
"$GPRMC,030645,A,2420.0984,N,08111.1378,W,2.5,316.6,130615,6.0,"
"##MN-00 00 52 0081 01751 5708 448289 205670 193"
"164.12978"
"$GPRMC,030649,A,2420.1006,N,08111.1403,W,2.6,316.6,130615,6.0,"
"##MN-00 00 52 0082 01754 5709 448049 205627 193"
"164.129826"
"$GPRMC,030653,A,2420.1026,N,08111.1420,W,2.4,316.7,130615,6.0,"
"##MN-00 00 55 0083 01757 5710 447720 205578 193"
"164.129873"
"$GPRMC,030657,A,2420.1049,N,08111.1445,W,2.6,316.6,130615,6.0,"
"##MN-00 00 54 0084 01759 5711 447638 205567 193"
"164.129919"
"$GPRMC,030701,A,2420.1068,N,08111.1463,W,2.4,318.0,130615,6.0,"
"##MN-00 00 55 0085 01759 5711 448275 205666 193"
"164.129965"
"$GPRMC,030705,A,2420.1091,N,08111.1485,W,2.6,317.2,130615,6.0,"
"##MN-00 00 55 0086 01761 5712 449127 205749 193"
"164.130012"
"$GPRMC,030709,A,2420.1109,N,08111.1503,W,2.4,318.2,130615,6.0,"
"##MN-00 00 53 0087 01763 5713 449977 205943 193"
"164.130058"
"$GPRMC,030713,A,2420.1129,N,08111.1525,W,2.5,316.3,130615,6.0,"
"##MN-00 00 56 0088 01768 5714 450713 206022 193"
"164.130104"
"$GPRMC,030717,A,2420.1147,N,08111.1546,W,2.3,316.5,130615,6.0,"
"##MN-00 00 54 0089 01768 5714 451050 206124 193"
"164.13015"
"$GPRMC,030721,A,2420.1169,N,08111.1565,W,2.4,316.0,130615,6.0,"
"##MN-00 00 56 0090 01774 5715 451371 206149 193"
"164.130197"
"$GPRMC,030725,A,2420.1187,N,08111.1586,W,2.4,316.1,130615,6.0,"
"##MN-00 00 52 0091 01776 5716 451532 206179 193"
"164.130243"
"$GPRMC,030729,A,2420.1207,N,08111.1604,W,2.4,317.0,130615,6.0,"
"##MN-00 00 51 0092 01775 5716 451599 206196 193"
"164.130289"
"$GPRMC,030733,A,2420.1227,N,08111.1624,W,2.4,317.0,130615,6.0,"
"##MN-00 00 57 0093 01778 5717 451622 206189 193"
"164.130336"
"$GPRMC,030737,A,2420.1245,N,08111.1644,W,2.4,316.7,130615,6.0,"
"##MN-00 00 55 0094 01779 5718 451631 206199 193"
"164.130382"
"$GPRMC,030741,A,2420.1268,N,08111.1665,W,2.5,316.1,130615,6.0,"
"##MN-00 00 55 0095 01785 5719 451641 206203 193"
"164.130428"
"$GPRMC,030745,A,2420.1288,N,08111.1684,W,2.4,316.8,130615,6.0,"
"##MN-00 00 55 0096 01790 5719 451650 206194 193"
"164.130475"
"$GPRMC,030749,A,2420.1308,N,08111.1703,W,2.4,317.5,130615,6.0,"
"##MN-00 00 54 0097 01793 5720 451648 206178 193"
"164.130521"
"$GPRMC,030753,A,2420.1328,N,08111.1724,W,2.4,317.4,130615,6.0,"
"##MN-00 00 54 0098 01793 5720 451646 206164 193"
"164.130567"
"$GPRMC,030757,A,2420.1349,N,08111.1745,W,2.4,318.0,130615,6.0,"
"##MN-00 00 56 0099 01799 5721 451650 206151 193"
"164.130613"
"$GPRMC,030801,A,2420.1367,N,08111.1767,W,2.4,316.9,130615,6.0,"
"##MN-00 00 54 0100 01802 5722 451652 206144 193"
"164.13066"
"$GPRMC,030805,A,2420.1389,N,08111.1788,W,2.5,317.4,130615,6.0,"
"##MN-00 00 53 0101 01805 5722 451651 206142 193"
"164.130706"
"$GPRMC,030809,A,2420.1409,N,08111.1807,W,2.4,317.0,130615,6.0,"
"##MN-00 00 56 0102 01810 5723 451652 206139 193"
"164.130752"
"$GPRMC,030813,A,2420.1429,N,08111.1829,W,2.5,316.5,130615,6.0,"
"##MN-00 00 55 0103 01812 5724 451651 206134 193"
"164.130799"
"$GPRMC,030817,A,2420.1447,N,08111.1850,W,2.4,317.3,130615,6.0,"
"##MN-00 00 53 0104 01816 5724 451651 206128 193"
"164.130845"
"$GPRMC,030821,A,2420.1468,N,08111.1871,W,2.5,317.4,130615,6.0,"
"##MN-00 00 55 0105 01820 5725 451649 206125 193"
"164.130891"
"$GPRMC,030825,A,2420.1487,N,08111.1890,W,2.4,318.5,130615,6.0,"
"##MN-00 00 53 0106 01824 5725 451649 206122 193"
"164.130937"
"$GPRMC,030829,A,2420.1508,N,08111.1911,W,2.5,318.4,130615,6.0,"
"##MN-00 00 54 0107 01825 5726 451645 206121 193"
"164.130984"
"$GPRMC,030833,A,2420.1530,N,08111.1931,W,2.5,318.8,130615,6.0,"
"##MN-00 00 54 0108 01828 5726 451642 206120 193"
"164.13103"
"$GPRMC,030837,A,2420.1548,N,08111.1952,W,2.5,316.6,130615,6.0,"
"##MN-00 00 52 0109 01826 5727 451640 206117 193"
"164.131076"
"$GPRMC,030841,A,2420.1570,N,08111.1977,W,2.5,315.8,130615,6.0,"
"##MN-00 00 57 0110 01832 5727 451639 206114 193"
"164.131123"
"$GPRMC,030845,A,2420.1588,N,08111.1994,W,2.3,314.8,130615,6.0,"
"##MN-00 00 51 0111 01836 5728 451639 206109 193"
"164.131169"
"$GPRMC,030849,A,2420.1610,N,08111.2016,W,2.6,315.2,130615,6.0,"
"##MN-00 00 54 0112 01837 5729 451637 206105 193"
"164.131215"
"$GPRMC,030853,A,2420.1628,N,08111.2035,W,2.4,316.5,130615,6.0,"
"##MN-00 00 55 0113 01842 5729 451637 206101 193"
"164.131262"
"$GPRMC,030857,A,2420.1649,N,08111.2056,W,2.5,317.2,130615,6.0,"
"##MN-00 00 55 0114 01844 5730 451639 206090 193"
"164.131308"
"$GPRMC,030901,A,2420.1670,N,08111.2077,W,2.5,318.2,130615,6.0,"
"##MN-00 00 55 0115 01847 5730 451653 206085 193"
"164.131354"
"$GPRMC,030905,A,2420.1689,N,08111.2097,W,2.5,317.5,130615,6.0,"
"##MN-00 00 55 0116 01851 5730 451785 206094 193"
"164.1314"
"$GPRMC,030909,A,2420.1711,N,08111.2118,W,2.5,317.2,130615,6.0,"
"##MN-00 00 55 0117 01855 5731 452072 206139 193"
"164.131447"
"$GPRMC,030913,A,2420.1729,N,08111.2139,W,2.5,316.3,130615,6.0,"
"##MN-00 00 54 0118 01857 5732 452576 206188 193"
"164.131505"
"$GPRMC,030917,A,2420.1750,N,08111.2161,W,2.5,316.6,130615,6.0,"
"##MN-00 00 55 0119 01857 5732 452789 206233 193"
"164.131551"
"$GPRMC,030921,A,2420.1771,N,08111.2182,W,2.5,316.3,130615,6.0,"
"##MN-00 00 54 0120 01861 5732 452860 206251 193"
"164.131597"
"$GPRMC,030925,A,2420.1792,N,08111.2207,W,2.6,315.4,130615,6.0,"
"##MN-00 00 54 0121 01860 5733 452913 206270 193"
"164.131644"
"$GPRMC,030929,A,2420.1812,N,08111.2225,W,2.5,315.8,130615,6.0,"
"##MN-00 00 56 0122 01865 5734 452992 206274 193"
"164.13169"
"$GPRMC,030933,A,2420.1830,N,08111.2244,W,2.5,316.0,130615,6.0,"
"##MN-00 00 54 0123 01866 5734 453166 206301 193"
"164.131736"
"$GPRMC,030937,A,2420.1852,N,08111.2265,W,2.6,316.6,130615,6.0,"
"##MN-00 00 56 0124 01869 5735 453482 206365 193"
"164.131782"
"$GPRMC,030941,A,2420.1873,N,08111.2285,W,2.5,317.4,130615,6.0,"
"##MN-00 00 55 0125 01869 5735 453897 206435 193"
"164.131829"
"$GPRMC,030945,A,2420.1895,N,08111.2309,W,2.6,316.6,130615,6.0,"
"##MN-00 00 58 0126 01869 5735 454066 206558 193"
"164.131875"
"$GPRMC,030949,A,2420.1915,N,08111.2330,W,2.6,316.4,130615,6.0,"
"##MN-00 00 54 0127 01871 5736 454981 206696 193"
"164.131921"
"$GPRMC,030953,A,2420.1938,N,08111.2355,W,2.6,317.0,130615,6.0,"
"##MN-00 00 54 0128 01869 5736 455472 206803 193"
"164.131968"
"$GPRMC,030957,A,2420.1962,N,08111.2374,W,2.7,319.1,130615,6.0,"
"##MN-00 00 55 0129 01873 5737 455878 206829 193"
"164.132014"
"$GPRMC,031001,A,2420.1985,N,08111.2395,W,2.6,320.7,130615,6.0,"
"##MN-00 00 55 0130 01873 5737 456507 206996 193"
"164.13206"
"$GPRMC,031005,A,2420.2009,N,08111.2417,W,2.6,321.0,130615,6.0,"
"##MN-00 00 56 0131 01879 5737 457576 207157 193"
"164.132106"
"$GPRMC,031009,A,2420.2032,N,08111.2435,W,2.5,321.2,130615,6.0,"
"##MN-00 00 54 0132 01880 5737 458242 207337 193"
"164.132153"
"$GPRMC,031013,A,2420.2053,N,08111.2457,W,2.6,319.8,130615,6.0,"
"##MN-00 00 57 0133 01882 5738 458646 207405 193"
"164.132199"
"$GPRMC,031017,A,2420.2074,N,08111.2478,W,2.5,320.4,130615,6.0,"
"##MN-00 00 54 0134 01885 5738 458985 207477 193"
"164.132245"
"$GPRMC,031021,A,2420.2094,N,08111.2500,W,2.5,317.6,130615,6.0,"
"##MN-00 00 52 0135 01883 5739 459738 207706 193"
"164.132292"
"$GPRMC,031025,A,2420.2114,N,08111.2525,W,2.6,314.6,130615,6.0,"
"##MN-00 00 56 0136 01885 5739 460077 207674 193"
"164.132338"
"$GPRMC,031029,A,2420.2133,N,08111.2547,W,2.5,313.5,130615,6.0,"
"##MN-00 00 54 0137 01887 5739 460324 207684 193"
"164.132384"
"$GPRMC,031033,A,2420.2155,N,08111.2570,W,2.7,314.0,130615,6.0,"
"##MN-00 00 55 0138 01888 5740 460327 207712 193"
"164.132431"
"$GPRMC,031038,A,2420.2180,N,08111.2594,W,2.5,315.5,130615,6.0,"
"##MN-00 00 54 0139 01890 5740 460843 207851 193"
"164.132477"
"$GPRMC,031042,A,2420.2199,N,08111.2616,W,2.5,315.6,130615,6.0,"
"##MN-00 00 56 0140 01887 5740 461244 207932 193"
"164.132523"
"$GPRMC,031046,A,2420.2220,N,08111.2637,W,2.5,316.0,130615,6.0,"
"##MN-00 00 57 0141 01893 5740 461593 208003 193"
"164.132569"
"$GPRMC,031050,A,2420.2240,N,08111.2656,W,2.5,314.8,130615,6.0,"
"##MN-00 00 56 0142 01892 5740 461755 208030 193"
"164.132616"
"$GPRMC,031054,A,2420.2260,N,08111.2677,W,2.5,314.7,130615,6.0,"
"##MN-00 00 55 0143 01899 5741 461807 208008 193"
"164.132662"
"$GPRMC,031058,A,2420.2278,N,08111.2693,W,2.3,314.5,130615,6.0,"
"##MN-00 00 55 0144 01899 5741 462060 208125 193"
"164.132708"
"$GPRMC,031102,A,2420.2298,N,08111.2717,W,2.4,314.8,130615,6.0,"
"##MN-00 00 56 0145 01901 5741 462224 208171 193"
"164.132755"
"$GPRMC,031106,A,2420.2318,N,08111.2733,W,2.3,315.6,130615,6.0,"
"##MN-00 00 56 0146 01904 5741 462405 208192 193"
"164.132801"
"$GPRMC,031110,A,2420.2339,N,08111.2757,W,2.5,316.2,130615,6.0,"
"##MN-00 00 58 0147 01908 5741 462553 208223 193"
"164.132847"
"$GPRMC,031114,A,2420.2357,N,08111.2775,W,2.3,318.1,130615,6.0,"
"##MN-00 00 55 0149 01908 5742 463595 208427 193"
"164.132894"
"$GPRMC,031118,A,2420.2379,N,08111.2796,W,2.5,317.3,130615,6.0,"
"##MN-00 00 57 0150 01911 5741 464136 208496 193"
"164.13294"
"$GPRMC,031122,A,2420.2401,N,08111.2815,W,2.4,318.9,130615,6.0,"
"##MN-00 00 54 0151 01912 5742 464521 208586 193"
"164.132986"
"$GPRMC,031126,A,2420.2422,N,08111.2840,W,2.6,317.7,130615,6.0,"
"##MN-00 00 56 0152 01912 5742 464656 208593 193"
"164.133032"
"$GPRMC,031130,A,2420.2443,N,08111.2861,W,2.5,318.4,130615,6.0,"
"##MN-00 00 57 0153 01914 5742 464723 208633 193"
"164.133079"
"$GPRMC,031134,A,2420.2462,N,08111.2883,W,2.5,317.1,130615,6.0,"
"##MN-00 00 57 0154 01916 5742 464778 208654 193"
"164.133125"
"$GPRMC,031138,A,2420.2482,N,08111.2905,W,2.5,317.1,130615,6.0,"
"##MN-00 00 56 0155 01920 5742 464868 208662 193"
"164.133171"
"$GPRMC,031142,A,2420.2502,N,08111.2924,W,2.5,316.6,130615,6.0,"
"##MN-00 00 58 0156 01922 5742 464944 208661 193"
"164.133218"
"$GPRMC,031146,A,2420.2520,N,08111.2945,W,2.4,316.3,130615,6.0,"
"##MN-00 00 54 0157 01925 5742 465151 208777 193"
"164.133264"
"$GPRMC,031150,A,2420.2540,N,08111.2969,W,2.5,314.0,130615,6.0,"
"##MN-00 00 56 0158 01924 5742 465609 208872 193"
"164.13331"
"$GPRMC,031154,A,2420.2559,N,08111.2991,W,2.4,312.7,130615,6.0,"
"##MN-00 00 57 0159 01922 5741 466027 208934 193"
"164.133356"
"$GPRMC,031158,A,2420.2578,N,08111.3013,W,2.5,311.8,130615,6.0,"
"##MN-00 00 56 0160 01930 5741 466088 208959 193"
"164.133403"
"$GPRMC,031202,A,2420.2596,N,08111.3033,W,2.4,313.9,130615,6.0,"
"##MN-00 00 56 0161 01928 5741 466523 209066 193"
"164.133449"
"$GPRMC,031206,A,2420.2617,N,08111.3056,W,2.5,314.5,130615,6.0,"
"##MN-00 00 58 0162 01929 5741 466873 209115 193"
"164.133495"
"$GPRMC,031210,A,2420.2636,N,08111.3076,W,2.4,315.8,130615,6.0,"
"##MN-00 00 58 0163 01933 5741 467279 209209 193"
"164.133542"
"$GPRMC,031214,A,2420.2657,N,08111.3100,W,2.5,314.5,130615,6.0,"
"##MN-00 00 57 0164 01936 5741 467422 209243 193"
"164.133588"
"$GPRMC,031218,A,2420.2677,N,08111.3118,W,2.4,316.4,130615,6.0,"
"##MN-00 00 58 0165 01939 5741 467691 209287 193"
"164.133634"
"$GPRMC,031222,A,2420.2697,N,08111.3136,W,2.4,317.4,130615,6.0,"
"##MN-00 00 55 0166 01941 5740 467882 209358 193"
"164.133681"
"$GPRMC,031226,A,2420.2717,N,08111.3157,W,2.4,319.0,130615,6.0,"
"##MN-00 00 58 0168 01942 5741 468014 209383 193"
"164.133727"
"$GPRMC,031230,A,2420.2737,N,08111.3176,W,2.4,319.0,130615,6.0,"
"##MN-00 00 57 0169 01949 5740 468095 209406 193"
"164.133773"
"$GPRMC,031234,A,2420.2758,N,08111.3197,W,2.4,319.2,130615,6.0,"
"##MN-00 00 56 0170 01952 5740 468155 209414 193"
"164.133819"
"$GPRMC,031238,A,2420.2779,N,08111.3215,W,2.4,320.5,130615,6.0,"
"##MN-00 00 55 0171 01955 5740 468208 209424 193"
"164.133866"
"$GPRMC,031242,A,2420.2801,N,08111.3237,W,2.4,320.3,130615,6.0,"
"##MN-00 00 58 0172 01955 5739 468283 209440 193"
"164.133912"
"$GPRMC,031246,A,2420.2820,N,08111.3256,W,2.4,318.8,130615,6.0,"
"##MN-00 00 56 0173 01961 5739 468345 209455 193"
"164.133958"
"$GPRMC,031250,A,2420.2841,N,08111.3277,W,2.4,319.3,130615,6.0,"
"##MN-00 00 56 0174 01963 5739 468387 209461 193"
"164.134005"
"$GPRMC,031254,A,2420.2863,N,08111.3295,W,2.4,319.6,130615,6.0,"
"##MN-00 00 58 0175 01965 5739 468450 209465 193"
"164.134051"
"$GPRMC,031258,A,2420.2884,N,08111.3313,W,2.4,318.4,130615,6.0,"
"##MN-00 00 58 0176 01967 5738 468533 209484 193"
"164.134097"
"$GPRMC,031302,A,2420.2903,N,08111.3335,W,2.4,319.2,130615,6.0,"
"##MN-00 00 58 0177 01973 5738 468666 209509 193"
"164.134144"
"$GPRMC,031306,A,2420.2921,N,08111.3353,W,2.3,318.8,130615,6.0,"
"##MN-00 00 55 0178 01974 5738 468826 209550 193"
"164.13419"
"$GPRMC,031310,A,2420.2939,N,08111.3374,W,2.4,318.5,130615,6.0,"
"##MN-00 00 56 0179 01977 5737 468944 209580 193"
"164.134236"
"$GPRMC,031314,A,2420.2957,N,08111.3390,W,2.3,316.7,130615,6.0,"
"##MN-00 00 57 0180 01981 5737 469226 209619 193"
"164.134282"
"$GPRMC,031318,A,2420.2975,N,08111.3411,W,2.3,315.7,130615,6.0,"
"##MN-00 00 58 0181 01982 5737 469564 209662 193"
"164.134329"
"$GPRMC,031322,A,2420.2993,N,08111.3430,W,2.3,315.4,130615,6.0,"
"##MN-00 00 57 0182 01986 5737 469967 209751 193"
"164.134375"
"$GPRMC,031326,A,2420.3014,N,08111.3450,W,2.4,316.0,130615,6.0,"
"##MN-00 00 59 0183 01987 5736 470831 209926 193"
"164.134421"
"$GPRMC,031330,A,2420.3033,N,08111.3470,W,2.4,315.7,130615,6.0,"
"##MN-00 00 57 0184 01989 5736 471600 210090 193"
"164.134468"
"$GPRMC,031334,A,2420.3051,N,08111.3490,W,2.4,315.1,130615,6.0,"
"##MN-00 00 57 0185 01987 5735 472165 210178 193"
"164.134514"
"$GPRMC,031338,A,2420.3072,N,08111.3509,W,2.4,316.1,130615,6.0,"
"##MN-00 00 56 0186 01988 5735 472556 210188 193"
"164.13456"
"$GPRMC,031342,A,2420.3091,N,08111.3529,W,2.4,317.2,130615,6.0,"
"##MN-00 00 56 0188 01991 5734 472848 210304 193"
"164.134606"
"$GPRMC,031346,A,2420.3113,N,08111.3548,W,2.5,318.4,130615,6.0,"
"##MN-00 00 58 0189 01992 5734 473217 210428 193"
"164.134653"
"$GPRMC,031350,A,2420.3127,N,08111.3562,W,2.4,318.3,130615,6.0,"
"##MN-00 00 55 0190 01996 5734 474153 210598 193"
"164.134699"
"$GPRMC,031354,A,2420.3154,N,08111.3591,W,2.4,316.8,130615,6.0,"
"##MN-00 00 57 0191 01993 5733 474740 210737 193"
"164.134757"
"$GPRMC,031358,A,2420.3167,N,08111.3605,W,2.4,316.8,130615,6.0,"
"##MN-00 00 57 0192 01999 5732 474953 210732 193"
"164.134803"
"$GPRMC,031402,A,2420.3192,N,08111.3632,W,2.4,314.6,130615,6.0,"
"##MN-00 00 58 0193 01999 5732 475047 210796 193"
"164.13485"
"$GPRMC,031406,A,2420.3206,N,08111.3645,W,2.3,315.9,130615,6.0,"
"##MN-00 00 56 0194 02001 5732 475319 210835 193"
"164.134896"
"$GPRMC,031410,A,2420.3225,N,08111.3663,W,2.3,315.7,130615,6.0,"
"##MN-00 00 57 0195 02003 5731 475722 210911 193"
"164.134942"
"$GPRMC,031414,A,2420.3250,N,08111.3686,W,2.4,316.6,130615,6.0,"
"##MN-00 00 57 0196 02006 5730 476096 210937 193"
"164.134988"
"$GPRMC,031418,A,2420.3266,N,08111.3700,W,2.3,316.6,130615,6.0,"
"##MN-00 00 57 0197 02006 5730 476353 210998 193"
"164.135035"
"$GPRMC,031422,A,2420.3289,N,08111.3723,W,2.3,316.6,130615,6.0,"
"##MN-00 00 57 0198 02009 5729 476787 211075 193"
"164.135081"
"$GPRMC,031426,A,2420.3307,N,08111.3741,W,2.3,316.4,130615,6.0,"
"##MN-00 00 58 0200 02015 5728 477488 211270 193"
"164.135127"
"$GPRMC,031430,A,2420.3329,N,08111.3761,W,2.3,317.0,130615,6.0,"
"##MN-00 00 57 0201 02018 5728 478160 211396 193"
"164.135174"
"$GPRMC,031434,A,2420.3347,N,08111.3779,W,2.3,319.0,130615,6.0,"
"##MN-00 00 57 0202 02018 5727 478657 211469 193"
"164.13522"
"$GPRMC,031438,A,2420.3368,N,08111.3798,W,2.4,319.3,130615,6.0,"
"##MN-00 00 58 0203 02020 5726 478902 211545 193"
"164.135266"
"$GPRMC,031442,A,2420.3387,N,08111.3818,W,2.3,319.8,130615,6.0,"
"##MN-00 00 58 0204 02022 5725 479097 211621 193"
"164.135312"
"$GPRMC,031446,A,2420.3409,N,08111.3837,W,2.4,319.2,130615,6.0,"
"##MN-00 00 57 0205 02023 5725 479378 211703 193"
"164.135359"
"$GPRMC,031450,A,2420.3427,N,08111.3858,W,2.3,318.7,130615,6.0,"
"##MN-00 00 57 0206 02029 5724 480041 211795 193"
"164.135405"
"$GPRMC,031454,A,2420.3445,N,08111.3877,W,2.3,318.1,130615,6.0,"
"##MN-00 00 59 0207 02031 5723 480795 211955 193"
"164.135451"
"$GPRMC,031458,A,2420.3463,N,08111.3898,W,2.3,318.2,130615,6.0,"
"##MN-00 00 57 0208 02033 5723 481481 212077 193"
"164.135498"
"$GPRMC,031502,A,2420.3481,N,08111.3918,W,2.3,318.4,130615,6.0,"
"##MN-00 00 58 0209 02036 5721 481849 212145 193"
"164.135544"
"$GPRMC,031507,A,2420.3505,N,08111.3941,W,2.3,317.1,130615,6.0,"
"##MN-00 00 57 0210 02037 5721 482282 212231 193"
"164.13559"
"$GPRMC,031510,A,2420.3520,N,08111.3956,W,2.3,317.2,130615,6.0,"
"##MN-00 00 58 0211 02040 5720 482623 212208 193"
"164.135637"
"$GPRMC,031514,A,2420.3537,N,08111.3974,W,2.2,317.2,130615,6.0,"
"##MN-00 00 55 0212 02040 5719 482984 212386 193"
"164.135683"
"$GPRMC,031518,A,2420.3557,N,08111.3996,W,2.4,316.2,130615,6.0,"
"##MN-00 00 56 0213 02040 5718 483122 212417 193"
"164.135729"
"$GPRMC,031523,A,2420.3582,N,08111.4019,W,2.3,317.6,130615,6.0,"
"##MN-00 00 56 0215 02044 5717 483277 212414 193"
"164.135775"
"$GPRMC,031527,A,2420.3600,N,08111.4039,W,2.4,316.1,130615,6.0,"
"##MN-00 00 56 0216 02043 5717 483347 212446 193"
"164.135822"
"$GPRMC,031531,A,2420.3620,N,08111.4061,W,2.4,315.8,130615,6.0,"
"##MN-00 00 57 0217 02046 5716 483539 212484 193"
"164.135868"
"$GPRMC,031535,A,2420.3638,N,08111.4079,W,2.3,314.5,130615,6.0,"
"##MN-00 00 61 0218 02048 5715 483646 212517 193"
"164.135914"
"$GPRMC,031539,A,2420.3657,N,08111.4098,W,2.3,314.6,130615,6.0,"
"##MN-00 00 57 0219 02054 5714 484091 212588 193"
"164.135961"
"$GPRMC,031543,A,2420.3675,N,08111.4116,W,2.3,315.0,130615,6.0,"
"##MN-00 00 56 0220 02049 5713 484431 212710 193"
"164.136007"
"$GPRMC,031547,A,2420.3697,N,08111.4140,W,2.4,314.5,130615,6.0,"
"##MN-00 00 58 0221 02051 5711 484588 212683 193"
"164.136053"
"$GPRMC,031551,A,2420.3716,N,08111.4158,W,2.3,314.6,130615,6.0,"
"##MN-00 00 58 0222 02055 5711 484640 212705 193"
"164.1361"
"$GPRMC,031555,A,2420.3734,N,08111.4178,W,2.4,316.3,130615,6.0,"
"##MN-00 00 58 0223 02056 5709 484807 212743 193"
"164.136146"
"$GPRMC,031559,A,2420.3754,N,08111.4195,W,2.3,318.1,130615,6.0,"
"##MN-00 00 58 0224 02059 5708 485001 212773 193"
"164.136192"
"$GPRMC,031603,A,2420.3773,N,08111.4214,W,2.4,318.6,130615,6.0,"
"##MN-00 00 58 0225 02063 5707 485243 212773 193"
"164.136238"
"$GPRMC,031607,A,2420.3792,N,08111.4231,W,2.3,319.7,130615,6.0,"
"##MN-00 00 55 0227 02065 5706 485413 212844 193"
"164.136285"
"$GPRMC,031611,A,2420.3813,N,08111.4250,W,2.4,319.8,130615,6.0,"
"##MN-00 00 59 0228 02066 5705 485517 212872 193"
"164.136331"
"$GPRMC,031615,A,2420.3833,N,08111.4270,W,2.3,320.2,130615,6.0,"
"##MN-00 00 56 0229 02069 5704 485626 212875 193"
"164.136377"
"$GPRMC,031619,A,2420.3852,N,08111.4288,W,2.3,320.1,130615,6.0,"
"##MN-00 00 58 0230 02070 5703 485706 212920 193"
"164.136424"
"$GPRMC,031623,A,2420.3871,N,08111.4307,W,2.4,320.1,130615,6.0,"
"##MN-00 00 59 0231 02072 5702 485826 212928 193"
"164.13647"
"$GPRMC,031627,A,2420.3889,N,08111.4326,W,2.3,320.2,130615,6.0,"
"##MN-00 00 58 0232 02075 5700 485927 212937 193"
"164.136516"
"$GPRMC,031631,A,2420.3909,N,08111.4344,W,2.3,318.8,130615,6.0,"
"##MN-00 00 57 0233 02077 5699 486084 212983 193"
"164.136562"
"$GPRMC,031635,A,2420.3928,N,08111.4364,W,2.3,318.8,130615,6.0,"
"##MN-00 00 58 0234 02079 5698 486211 213019 193"
"164.136609"
"$GPRMC,031639,A,2420.3945,N,08111.4382,W,2.3,319.2,130615,6.0,"
"##MN-00 00 57 0235 02079 5697 486390 213030 193"
"164.136655"
"$GPRMC,031643,A,2420.3964,N,08111.4401,W,2.3,318.8,130615,6.0,"
"##MN-00 00 57 0237 02082 5695 486569 213070 193"
"164.136701"
"$GPRMC,031647,A,2420.3983,N,08111.4419,W,2.2,318.3,130615,6.0,"
"##MN-00 00 58 0238 02083 5694 486839 213151 193"
"164.136748"
"$GPRMC,031651,A,2420.4001,N,08111.4438,W,2.3,319.1,130615,6.0,"
"##MN-00 00 57 0239 02085 5693 487292 213215 193"
"164.136794"
"$GPRMC,031655,A,2420.4019,N,08111.4458,W,2.3,318.5,130615,6.0,"
"##MN-00 00 57 0240 02083 5691 487824 213367 193"
"164.13684"
"$GPRMC,031659,A,2420.4041,N,08111.4478,W,2.3,319.4,130615,6.0,"
"##MN-00 00 58 0241 02087 5690 488518 213412 193"
"164.136887"
"$GPRMC,031703,A,2420.4059,N,08111.4495,W,2.3,318.8,130615,6.0,"
"##MN-00 00 58 0242 02088 5689 488910 213494 193"
"164.136933"
"$GPRMC,031707,A,2420.4083,N,08111.4516,W,2.4,318.7,130615,6.0,"
"##MN-00 00 58 0243 02093 5688 489334 213583 193"
"164.136979"
"$GPRMC,031711,A,2420.4101,N,08111.4534,W,2.3,319.3,130615,6.0,"
"##MN-00 00 58 0245 02091 5687 489625 213637 193"
"164.137025"
"$GPRMC,031715,A,2420.4120,N,08111.4556,W,2.4,318.6,130615,6.0,"
"##MN-00 00 58 0246 02097 5686 490102 213696 193"
"164.137072"
"$GPRMC,031719,A,2420.4138,N,08111.4572,W,2.3,318.1,130615,6.0,"
"##MN-00 00 57 0247 02096 5684 490694 213805 193"
"164.137118"
"$GPRMC,031723,A,2420.4160,N,08111.4592,W,2.4,316.9,130615,6.0,"
"##MN-00 00 58 0248 02097 5682 491172 213893 193"
"164.137164"
"$GPRMC,031727,A,2420.4178,N,08111.4613,W,2.3,317.8,130615,6.0,"
"##MN-00 00 58 0249 02102 5681 491700 213948 193"
"164.137211"
"$GPRMC,031731,A,2420.4196,N,08111.4632,W,2.3,317.0,130615,6.0,"
"##MN-00 00 58 0250 02105 5680 492001 214062 193"
"164.137257"
"$GPRMC,031735,A,2420.4217,N,08111.4651,W,2.3,317.2,130615,6.0,"
"##MN-00 00 58 0251 02107 5678 492633 214148 193"
"164.137303"
"$GPRMC,031739,A,2420.4234,N,08111.4669,W,2.2,317.6,130615,6.0,"
"##MN-00 00 58 0252 02111 5677 493606 214412 193"
"164.13735"
"$GPRMC,031743,A,2420.4253,N,08111.4689,W,2.3,317.0,130615,6.0,"
"##MN-00 00 58 0254 02111 5675 494650 214558 193"
"164.137396"
"$GPRMC,031747,A,2420.4272,N,08111.4707,W,2.3,317.6,130615,6.0,"
"##MN-00 00 57 0255 02114 5674 495378 214820 193"
"164.137442"
"$GPRMC,031751,A,2420.4290,N,08111.4727,W,2.3,315.9,130615,6.0,"
"##MN-00 00 58 0256 02114 5672 495838 214891 193"
"164.137488"
"$GPRMC,031755,A,2420.4307,N,08111.4747,W,2.2,315.0,130615,6.0,"
"##MN-00 00 58 0257 02119 5671 496181 214935 193"
"164.137535"
"$GPRMC,031759,A,2420.4323,N,08111.4765,W,2.3,314.6,130615,6.0,"
"##MN-00 00 57 0258 02117 5670 496462 215065 193"
"164.137581"
"$GPRMC,031803,A,2420.4341,N,08111.4783,W,2.3,314.5,130615,6.0,"
"##MN-00 00 57 0259 02121 5668 496748 215099 193"
"164.137627"
"$GPRMC,031807,A,2420.4357,N,08111.4801,W,2.2,314.2,130615,6.0,"
"##MN-00 00 58 0260 02120 5666 496945 215159 193"
"164.137674"
"$GPRMC,031811,A,2420.4375,N,08111.4819,W,2.3,314.4,130615,6.0,"
"##MN-00 00 57 0261 02124 5665 497258 215251 193"
"164.13772"
"$GPRMC,031815,A,2420.4394,N,08111.4837,W,2.2,316.0,130615,6.0,"
"##MN-00 00 59 0262 02126 5663 497483 215299 193"
"164.137766"
"$GPRMC,031819,A,2420.4411,N,08111.4857,W,2.3,315.3,130615,6.0,"
"##MN-00 00 58 0263 02128 5662 497594 215312 193"
"164.137812"
"$GPRMC,031823,A,2420.4427,N,08111.4874,W,2.2,315.8,130615,6.0,"
"##MN-00 00 58 0265 02128 5660 497636 215307 193"
"164.137859"
"$GPRMC,031827,A,2420.4448,N,08111.4895,W,2.3,314.5,130615,6.0,"
"##MN-00 00 58 0266 02130 5658 497650 215304 193"
"164.137905"
"$GPRMC,031831,A,2420.4466,N,08111.4911,W,2.3,316.6,130615,6.0,"
"##MN-00 00 58 0267 02134 5657 497754 215310 193"
"164.137951"
"$GPRMC,031835,A,2420.4485,N,08111.4931,W,2.3,315.7,130615,6.0,"
"##MN-00 00 56 0268 02133 5655 498254 215523 193"
"164.138009"
"$GPRMC,031839,A,2420.4503,N,08111.4950,W,2.3,317.1,130615,6.0,"
"##MN-00 00 58 0269 02134 5653 499192 215657 193"
"164.138056"
"$GPRMC,031843,A,2420.4521,N,08111.4968,W,2.3,317.5,130615,6.0,"
"##MN-00 00 57 0270 02137 5652 499703 215757 193"
"164.138102"
"$GPRMC,031847,A,2420.4542,N,08111.4989,W,2.3,318.6,130615,6.0,"
"##MN-00 00 56 0271 02139 5650 500106 215825 193"
"164.138148"
"$GPRMC,031851,A,2420.4561,N,08111.5005,W,2.4,318.9,130615,6.0,"
"##MN-00 00 56 0273 02138 5648 500346 215840 193"
"164.138194"
"$GPRMC,031855,A,2420.4582,N,08111.5025,W,2.4,319.3,130615,6.0,"
"##MN-00 00 58 0274 02141 5646 500444 215872 193"
"164.138241"
"$GPRMC,031859,A,2420.4601,N,08111.5043,W,2.4,320.5,130615,6.0,"
"##MN-00 00 58 0275 02139 5645 500569 215924 193"
"164.138287"
"$GPRMC,031903,A,2420.4622,N,08111.5062,W,2.3,321.3,130615,6.0,"
"##MN-00 00 61 0276 02142 5642 500871 215993 193"
"164.138333"
"$GPRMC,031907,A,2420.4641,N,08111.5081,W,2.3,321.0,130615,6.0,"
"##MN-00 00 58 0277 02144 5641 501103 216031 193"
"164.13838"
"$GPRMC,031911,A,2420.4659,N,08111.5099,W,2.2,320.8,130615,6.0,"
"##MN-00 00 56 0278 02149 5639 501299 216067 193"
"164.138426"
"$GPRMC,031915,A,2420.4679,N,08111.5119,W,2.3,319.7,130615,6.0,"
"##MN-00 00 59 0279 02146 5637 501347 216106 193"
"164.138472"
"$GPRMC,031919,A,2420.4697,N,08111.5137,W,2.2,319.1,130615,6.0,"
"##MN-00 00 57 0280 02153 5635 501507 216096 193"
"164.138519"
"$GPRMC,031923,A,2420.4715,N,08111.5156,W,2.3,317.6,130615,6.0,"
"##MN-00 00 58 0281 02151 5633 501590 216150 193"
"164.138565"
"$GPRMC,031927,A,2420.4734,N,08111.5174,W,2.2,318.8,130615,6.0,"
"##MN-00 00 58 0283 02155 5631 501673 216158 193"
"164.138611"
"$GPRMC,031931,A,2420.4753,N,08111.5189,W,2.2,318.3,130615,6.0,"
"##MN-00 00 58 0284 02157 5630 501719 216175 193"
"164.138657"
"$GPRMC,031935,A,2420.4773,N,08111.5210,W,2.3,319.7,130615,6.0,"
"##MN-00 00 60 0285 02158 5627 501818 216247 193"
"164.138704"
"$GPRMC,031939,A,2420.4791,N,08111.5227,W,2.2,319.7,130615,6.0,"
"##MN-00 00 59 0286 02162 5625 502546 216374 193"
"164.13875"
"$GPRMC,031943,A,2420.4810,N,08111.5246,W,2.2,319.0,130615,6.0,"
"##MN-00 00 58 0287 02166 5624 502996 216415 193"
"164.138796"
"$GPRMC,031947,A,2420.4828,N,08111.5262,W,2.2,319.4,130615,6.0,"
"##MN-00 00 58 0288 02170 5622 503352 216478 193"
"164.138843"
"$GPRMC,031951,A,2420.4846,N,08111.5280,W,2.2,318.6,130615,6.0,"
"##MN-00 00 57 0289 02172 5620 503723 216558 193"
"164.138889"
"$GPRMC,031955,A,2420.4865,N,08111.5298,W,2.2,318.8,130615,6.0,"
"##MN-00 00 59 0290 02175 5618 504350 216664 193"
"164.138935"
"$GPRMC,032000,A,2420.4889,N,08111.5322,W,2.2,318.3,130615,6.0,"
"##MN-00 00 57 0291 02182 5616 504578 216712 193"
"164.138981"
"$GPRMC,032004,A,2420.4906,N,08111.5340,W,2.2,317.5,130615,6.0,"
"##MN-00 00 58 0293 02179 5614 504725 216764 193"
"164.139028"
"$GPRMC,032008,A,2420.4924,N,08111.5359,W,2.2,317.6,130615,6.0,"
"##MN-00 00 58 0294 02187 5612 504840 216776 193"
"164.139074"
"$GPRMC,032012,A,2420.4941,N,08111.5376,W,2.1,316.5,130615,6.0,"
"##MN-00 00 56 0295 02184 5610 504958 216819 193"
"164.13912"
"$GPRMC,032016,A,2420.4961,N,08111.5399,W,2.4,316.0,130615,6.0,"
"##MN-00 00 58 0296 02186 5608 504974 216816 193"
"164.139167"
"$GPRMC,032020,A,2420.4982,N,08111.5417,W,2.3,316.8,130615,6.0,"
"##MN-00 00 58 0297 02192 5606 505025 216823 193"
"164.139213"
"$GPRMC,032024,A,2420.4998,N,08111.5438,W,2.4,316.0,130615,6.0,"
"##MN-00 00 60 0298 02190 5604 505032 216839 193"
"164.139259"
"$GPRMC,032028,A,2420.5020,N,08111.5457,W,2.4,318.8,130615,6.0,"
"##MN-00 00 58 0299 02197 5602 505132 216860 193"
"164.139306"
"$GPRMC,032032,A,2420.5037,N,08111.5473,W,2.3,317.0,130615,6.0,"
"##MN-00 00 58 0300 02195 5599 505401 216930 193"
"164.139352"
"$GPRMC,032036,A,2420.5058,N,08111.5495,W,2.5,317.1,130615,6.0,"
"##MN-00 00 58 0301 02204 5598 505469 216912 193"
"164.139398"
"$GPRMC,032040,A,2420.5077,N,08111.5513,W,2.3,318.5,130615,6.0,"
"##MN-00 00 58 0302 02200 5595 505666 216992 193"
"164.139444"
"$GPRMC,032044,A,2420.5096,N,08111.5532,W,2.4,318.0,130615,6.0,"
"##MN-00 00 59 0304 02204 5593 505894 216998 193"
"164.139491"
"$GPRMC,032048,A,2420.5117,N,08111.5550,W,2.3,319.2,130615,6.0,"
"##MN-00 00 57 0305 02208 5591 506181 217040 193"
"164.139537"
"$GPRMC,032052,A,2420.5135,N,08111.5568,W,2.3,319.4,130615,6.0,"
"##MN-00 00 58 0306 02210 5589 506460 217118 193"
"164.139583"
"$GPRMC,032056,A,2420.5157,N,08111.5587,W,2.4,320.3,130615,6.0,"
"##MN-00 00 58 0307 02215 5587 506722 217162 193"
"164.13963"
"$GPRMC,032100,A,2420.5175,N,08111.5605,W,2.2,319.9,130615,6.0,"
"##MN-00 00 57 0308 02213 5584 506983 217244 193"
"164.139676"
"$GPRMC,032104,A,2420.5197,N,08111.5625,W,2.3,320.0,130615,6.0,"
"##MN-00 00 58 0309 02217 5582 507360 217281 193"
"164.139722"
"$GPRMC,032108,A,2420.5215,N,08111.5641,W,2.2,318.8,130615,6.0,"
"##MN-00 00 58 0310 02221 5580 507620 217348 193"
"164.139769"
"$GPRMC,032112,A,2420.5236,N,08111.5659,W,2.3,319.9,130615,6.0,"
"##MN-00 00 58 0311 02225 5577 507774 217378 193"
"164.139815"
"$GPRMC,032116,A,2420.5251,N,08111.5676,W,2.2,319.6,130615,6.0,"
"##MN-00 00 56 0312 02226 5576 507981 217414 193"
"164.139861"
"$GPRMC,032120,A,2420.5271,N,08111.5697,W,2.3,318.8,130615,6.0,"
"##MN-00 00 59 0313 02229 5573 508142 217469 193"
"164.139907"
"$GPRMC,032124,A,2420.5289,N,08111.5715,W,2.2,318.9,130615,6.0,"
"##MN-00 00 58 0315 02228 5571 508452 217539 193"
"164.139954"
"$GPRMC,032128,A,2420.5305,N,08111.5737,W,2.3,315.8,130615,6.0,"
"##MN-00 00 58 0316 02234 5569 508644 217561 193"
"164.14"
"$GPRMC,032132,A,2420.5323,N,08111.5752,W,2.2,317.0,130615,6.0,"
"##MN-00 00 58 0317 02235 5566 509262 217745 193"
"164.140046"
"$GPRMC,032136,A,2420.5344,N,08111.5770,W,2.3,318.0,130615,6.0,"
"##MN-00 00 59 0318 02240 5564 510122 217850 193"
"164.140093"
"$GPRMC,032140,A,2420.5359,N,08111.5788,W,2.2,318.1,130615,6.0,"
"##MN-00 00 58 0319 02238 5562 510758 218018 193"
"164.140139"
"$GPRMC,032144,A,2420.5374,N,08111.5803,W,2.3,317.8,130615,6.0,"
"##MN-00 00 59 0320 02243 5559 511141 218060 193"
"164.140185"
"$GPRMC,032148,A,2420.5396,N,08111.5824,W,2.2,318.4,130615,6.0,"
"##MN-00 00 57 0321 02244 5557 511763 218195 193"
"164.140231"
"$GPRMC,032152,A,2420.5414,N,08111.5845,W,2.2,316.8,130615,6.0,"
"##MN-00 00 57 0322 02248 5555 512052 218181 193"
"164.140278"
"$GPRMC,032156,A,2420.5432,N,08111.5861,W,2.1,316.9,130615,6.0,"
"##MN-00 00 58 0323 02250 5552 512352 218275 193"
"164.140324"
"$GPRMC,032200,A,2420.5450,N,08111.5881,W,2.2,315.8,130615,6.0,"
"##MN-00 00 59 0324 02252 5550 512705 218402 193"
"164.14037"
"$GPRMC,032204,A,2420.5467,N,08111.5897,W,2.1,316.2,130615,6.0,"
"##MN-00 00 58 0326 02255 5548 513328 218425 193"
"164.140417"
"$GPRMC,032208,A,2420.5485,N,08111.5915,W,2.2,317.0,130615,6.0,"
"##MN-00 00 58 0327 02257 5545 513936 218594 193"
"164.140463"
"$GPRMC,032212,A,2420.5503,N,08111.5932,W,2.1,317.5,130615,6.0,"
"##MN-00 00 58 0328 02261 5543 514284 218670 193"
"164.140509"
"$GPRMC,032216,A,2420.5521,N,08111.5950,W,2.2,317.2,130615,6.0,"
"##MN-00 00 59 0329 02260 5541 514683 218723 193"
"164.140556"
"$GPRMC,032220,A,2420.5537,N,08111.5968,W,2.2,317.5,130615,6.0,"
"##MN-00 00 57 0330 02264 5538 514855 218793 193"
"164.140602"
"$GPRMC,032224,A,2420.5557,N,08111.5986,W,2.2,316.6,130615,6.0,"
"##MN-00 00 59 0331 02265 5536 514961 218853 193"
"164.140648"
"$GPRMC,032228,A,2420.5573,N,08111.6005,W,2.2,317.2,130615,6.0,"
"##MN-00 00 58 0332 02267 5533 515034 218891 193"
"164.140694"
"$GPRMC,032232,A,2420.5591,N,08111.6023,W,2.2,316.7,130615,6.0,"
"##MN-00 00 58 0333 02269 5531 515224 218926 193"
"164.140741"
"$GPRMC,032236,A,2420.5609,N,08111.6042,W,2.2,316.6,130615,6.0,"
"##MN-00 00 58 0335 02271 5529 515496 218962 193"
"164.140787"
"$GPRMC,032240,A,2420.5627,N,08111.6059,W,2.2,317.0,130615,6.0,"
"##MN-00 00 58 0336 02274 5526 516101 219094 193"
"164.140833"
"$GPRMC,032244,A,2420.5645,N,08111.6077,W,2.2,317.1,130615,6.0,"
"##MN-00 00 58 0337 02274 5524 516815 219201 193"
"164.14088"
"$GPRMC,032248,A,2420.5662,N,08111.6095,W,2.1,317.7,130615,6.0,"
"##MN-00 00 59 0338 02277 5521 517336 219313 193"
"164.140926"
"$GPRMC,032252,A,2420.5677,N,08111.6114,W,2.2,317.8,130615,6.0,"
"##MN-00 00 58 0339 02280 5518 517661 219420 193"
"164.140972"
"$GPRMC,032256,A,2420.5695,N,08111.6131,W,2.1,317.7,130615,6.0,"
"##MN+00 00 59 0340 02280 5516 517882 219458 193"
"164.141019"
"$GPRMC,032300,A,2420.5713,N,08111.6149,W,2.2,316.5,130615,6.0,"
"##MN+00 00 58 0341 02280 5513 518036 219493 193"
"164.141065"
"$GPRMC,032304,A,2420.5728,N,08111.6167,W,2.1,316.4,130615,6.0,"
"##MN+00 00 60 0343 02279 5511 518116 219536 193"
"164.141111"
"$GPRMC,032308,A,2420.5746,N,08111.6186,W,2.2,315.0,130615,6.0,"
"##MN-00 00 59 0344 02280 5508 518162 219540 193"
"164.141157"
"$GPRMC,032312,A,2420.5763,N,08111.6201,W,2.0,315.7,130615,6.0,"
"##MN+00 00 58 0345 02279 5506 518209 219557 193"
"164.141215"
"$GPRMC,032316,A,2420.5779,N,08111.6221,W,2.1,315.5,130615,6.0,"
"##MN+00 00 58 0346 02278 5503 518166 219543 193"
"164.141262"
"$GPRMC,032320,A,2420.5795,N,08111.6236,W,2.0,316.7,130615,6.0,"
"##MN+00 00 70 0347 02285 5501 518140 219549 193"
"164.141308"
"#increment_net"
"$GPRMC,032324,A,2420.5813,N,08111.6254,W,2.1,316.4,130615,6.0,"
"##MN-00 00 63 0348 02283 5498 518164 219561 193"
"164.141354"
"$GPRMC,032328,A,2420.5831,N,08111.6270,W,2.1,316.0,130615,6.0,"
"##MN-00 00 60 0349 02285 5495 518236 219571 193"
"164.1414"
"$GPRMC,032332,A,2420.5847,N,08111.6288,W,2.2,316.9,130615,6.0,"
"##MN-00 00 59 0350 02285 5492 518226 219567 193"
"164.141447"
"$GPRMC,032336,A,2420.5864,N,08111.6304,W,2.1,317.2,130615,6.0,"
"##MN-00 00 62 0351 02281 5490 518197 219563 193"
"164.141493"
"$GPRMC,032340,A,2420.5880,N,08111.6324,W,2.2,316.9,130615,6.0,"
"##MN-00 00 64 0352 02279 5487 518145 219554 193"
"164.141539"
"$GPRMC,032344,A,2420.5896,N,08111.6342,W,2.1,316.0,130615,6.0,"
"##MN-00 00 59 0353 02280 5485 518078 219536 193"
"164.141586"
"$GPRMC,032348,A,2420.5912,N,08111.6362,W,2.2,316.1,130615,6.0,"
"##MN-00 00 62 0354 02275 5482 517906 219511 193"
"164.141632"
"$GPRMC,032352,A,2420.5930,N,08111.6377,W,2.1,317.1,130615,6.0,"
"##MN-00 00 64 0355 02276 5479 517765 219477 193"
"164.141678"
"$GPRMC,032356,A,2420.5948,N,08111.6395,W,2.1,316.9,130615,6.0,"
"##MN-00 00 64 0356 02276 5477 517618 219446 193"
"164.141725"
"$GPRMC,032400,A,2420.5963,N,08111.6416,W,2.1,317.2,130615,6.0,"
"##MN-00 00 58 0357 02277 5474 517415 219415 193"
"164.141771"
"$GPRMC,032404,A,2420.5980,N,08111.6432,W,2.1,316.6,130615,6.0,"
"##MN-00 00 61 0358 02271 5471 517136 219363 193"
"164.141817"
"$GPRMC,032408,A,2420.5998,N,08111.6452,W,2.2,317.0,130615,6.0,"
"##MN-00 00 61 0359 02274 5469 516585 219234 193"
"164.141863"
"$GPRMC,032412,A,2420.6013,N,08111.6467,W,2.1,316.9,130615,6.0,"
"##MN-00 00 60 0360 02271 5466 516511 219222 193"
"164.14191"
"$GPRMC,032416,A,2420.6031,N,08111.6488,W,2.2,317.0,130615,6.0,"
"##MN-00 00 63 0361 02271 5463 516014 219143 193"
"164.141956"
"$GPRMC,032420,A,2420.6049,N,08111.6503,W,2.0,317.8,130615,6.0,"
"##MN-00 00 58 0362 02271 5461 515854 219098 193"
"164.142002"
"$GPRMC,032424,A,2420.6067,N,08111.6521,W,2.2,316.9,130615,6.0,"
"##MN-00 00 63 0363 02268 5458 515688 219082 193"
"164.142049"
"$GPRMC,032428,A,2420.6082,N,08111.6537,W,2.1,317.0,130615,6.0,"
"##MN-00 00 61 0364 02267 5455 515585 219050 193"
"164.142095"
"$GPRMC,032432,A,2420.6100,N,08111.6553,W,2.1,317.0,130615,6.0,"
"##MN-00 00 60 0365 02267 5453 515489 219017 193"
"164.142141"
"$GPRMC,032436,A,2420.6118,N,08111.6572,W,2.1,317.3,130615,6.0,"
"##MN-00 00 61 0367 02266 5450 515427 219009 193"
"164.142187"
"$GPRMC,032440,A,2420.6135,N,08111.6587,W,2.0,317.6,130615,6.0,"
"##MN-00 00 63 0368 02268 5447 515410 219007 193"
"164.142234"
"$GPRMC,032444,A,2420.6153,N,08111.6604,W,2.0,318.0,130615,6.0,"
"##MN-00 00 61 0369 02267 5445 515439 219011 193"
"164.14228"
"$GPRMC,032448,A,2420.6169,N,08111.6620,W,2.0,318.6,130615,6.0,"
"##MN-00 00 60 0370 02265 5442 515458 219015 193"
"164.142326"
"$GPRMC,032452,A,2420.6186,N,08111.6637,W,2.0,318.9,130615,6.0,"
"##MN-00 00 59 0371 02265 5439 515448 219011 193"
"164.142373"
"$GPRMC,032457,A,2420.6207,N,08111.6658,W,2.0,318.9,130615,6.0,"
"##MN-00 00 58 0372 02265 5436 515417 218999 193"
"164.142419"
"$GPRMC,032501,A,2420.6223,N,08111.6671,W,2.0,319.2,130615,6.0,"
"##MN-00 00 60 0373 02263 5434 515368 218992 193"
"164.142465"
"$GPRMC,032505,A,2420.6241,N,08111.6688,W,2.0,319.1,130615,6.0,"
"##MN-00 00 59 0374 02263 5431 515348 218985 193"
"164.142512"
"$GPRMC,032509,A,2420.6259,N,08111.6703,W,2.0,318.7,130615,6.0,"
"##MN-00 00 62 0375 02262 5429 515292 218975 193"
"164.142558"
"$GPRMC,032513,A,2420.6276,N,08111.6721,W,2.1,318.1,130615,6.0,"
"##MN-00 00 61 0376 02259 5426 515238 218960 193"
"164.142604"
"$GPRMC,032517,A,2420.6291,N,08111.6738,W,1.9,317.3,130615,6.0,"
"##MN-00 00 59 0377 02259 5423 515175 218953 193"
"164.14265"
"$GPRMC,032521,A,2420.6309,N,08111.6756,W,2.1,316.2,130615,6.0,"
"##MN-00 00 60 0379 02258 5421 515126 218944 193"
"164.142697"
"$GPRMC,032525,A,2420.6323,N,08111.6772,W,2.0,317.9,130615,6.0,"
"##MN-00 00 60 0380 02258 5418 515099 218934 193"
"164.142743"
"$GPRMC,032529,A,2420.6339,N,08111.6788,W,2.0,317.1,130615,6.0,"
"##MN-00 00 62 0381 02258 5416 515046 218927 193"
"164.142789"
"$GPRMC,032533,A,2420.6357,N,08111.6806,W,2.1,318.1,130615,6.0,"
"##MN-00 00 60 0382 02255 5413 515000 218914 193"
"164.142836"
"$GPRMC,032537,A,2420.6375,N,08111.6821,W,2.1,318.2,130615,6.0,"
"##MN-00 00 60 0383 02252 5411 514942 218904 193"
"164.142882"
"$GPRMC,032541,A,2420.6393,N,08111.6839,W,2.1,319.0,130615,6.0,"
"##MN-00 00 59 0384 02253 5408 514874 218893 193"
"164.142928"
"$GPRMC,032545,A,2420.6411,N,08111.6853,W,2.0,320.1,130615,6.0,"
"##MN-00 00 60 0385 02252 5405 514833 218886 193"
"164.142975"
"$GPRMC,032549,A,2420.6428,N,08111.6869,W,2.0,320.4,130615,6.0,"
"##MN-00 00 61 0386 02251 5402 514798 218879 193"
"164.143021"
"$GPRMC,032553,A,2420.6446,N,08111.6883,W,1.9,320.9,130615,6.0,"
"##MN-00 00 61 0387 02249 5400 514776 218876 193"
"164.143067"
"$GPRMC,032557,A,2420.6462,N,08111.6900,W,2.0,320.8,130615,6.0,"
"##MN-00 00 60 0388 02250 5397 514755 218869 193"
"164.143113"
"$GPRMC,032601,A,2420.6480,N,08111.6912,W,2.0,322.0,130615,6.0,"
"##MN-00 00 61 0389 02248 5395 514756 218871 193"
"164.14316"
"$GPRMC,032605,A,2420.6500,N,08111.6929,W,2.1,320.8,130615,6.0,"
"##MN-00 00 62 0390 02250 5392 514741 218865 193"
"164.143206"
"$GPRMC,032609,A,2420.6519,N,08111.6944,W,2.1,320.4,130615,6.0,"
"##MN-00 00 63 0391 02246 5390 514729 218863 193"
"164.143252"
"$GPRMC,032613,A,2420.6539,N,08111.6962,W,2.2,320.2,130615,6.0,"
"##MN-00 00 58 0392 02244 5387 514683 218852 193"
"164.143299"
"$GPRMC,032617,A,2420.6557,N,08111.6976,W,2.1,320.4,130615,6.0,"
"##MN-00 00 63 0393 02240 5385 514597 218839 193"
"164.143345"
"$GPRMC,032621,A,2420.6577,N,08111.6995,W,2.2,321.0,130615,6.0,"
"##MN-00 00 58 0394 02242 5382 514372 218770 193"
"164.143391"
"$GPRMC,032625,A,2420.6592,N,08111.7012,W,2.1,320.9,130615,6.0,"
"##MN-00 00 60 0396 02240 5379 513937 218685 193"
"164.143438"
"$GPRMC,032629,A,2420.6609,N,08111.7032,W,2.2,320.0,130615,6.0,"
"##MN-00 00 61 0396 02237 5377 513565 218628 193"
"164.143484"
"$GPRMC,032633,A,2420.6626,N,08111.7048,W,2.1,319.8,130615,6.0,"
"##MN-00 00 60 0397 02237 5374 513321 218564 193"
"164.14353"
"$GPRMC,032637,A,2420.6642,N,08111.7066,W,2.1,319.4,130615,6.0,"
"##MN-00 00 58 0398 02235 5372 513112 218524 193"
"164.143576"
"$GPRMC,032641,A,2420.6660,N,08111.7082,W,2.1,319.5,130615,6.0,"
"##MN-00 00 59 0399 02234 5370 512964 218500 193"
"164.143623"
"$GPRMC,032645,A,2420.6678,N,08111.7099,W,2.1,319.2,130615,6.0,"
"##MN-00 00 61 0400 02231 5368 512821 218485 193"
"164.143669"
"$GPRMC,032649,A,2420.6698,N,08111.7117,W,2.2,319.1,130615,6.0,"
"##MN-00 00 62 0401 02226 5365 512487 218408 193"
"164.143715"
"$GPRMC,032653,A,2420.6717,N,08111.7133,W,2.2,319.9,130615,6.0,"
"##MN-00 00 60 0402 02225 5362 512141 218316 193"
"164.143762"
"$GPRMC,032657,A,2420.6734,N,08111.7151,W,2.2,319.8,130615,6.0,"
"##MN-00 00 58 0403 02224 5360 511721 218237 193"
"164.143808"
"$GPRMC,032701,A,2420.6750,N,08111.7168,W,2.1,319.1,130615,6.0,"
"##MN-00 00 62 0404 02220 5357 511281 218154 193"
"164.143854"
"$GPRMC,032705,A,2420.6771,N,08111.7186,W,2.2,318.2,130615,6.0,"
"##MN-00 00 58 0405 02221 5355 510742 218039 193"
"164.1439"
"$GPRMC,032709,A,2420.6786,N,08111.7200,W,2.0,318.1,130615,6.0,"
"##MN-00 00 59 0406 02214 5352 510093 217893 193"
"164.143947"
"$GPRMC,032713,A,2420.6805,N,08111.7223,W,2.3,317.1,130615,6.0,"
"##MN-00 00 60 0407 02212 5350 509266 217658 193"
"164.143993"
"$GPRMC,032717,A,2420.6823,N,08111.7237,W,2.1,318.0,130615,6.0,"
"##MN-00 00 59 0408 02211 5348 508505 217541 193"
"164.144039"
"$GPRMC,032721,A,2420.6843,N,08111.7259,W,2.3,317.3,130615,6.0,"
"##MN-00 00 63 0409 02207 5345 507719 217398 193"
"164.144086"
"$GPRMC,032725,A,2420.6861,N,08111.7274,W,2.1,318.2,130615,6.0,"
"##MN-00 00 57 0410 02205 5343 507078 217269 193"
"164.144132"
"$GPRMC,032729,A,2420.6880,N,08111.7296,W,2.3,315.6,130615,6.0,"
"##MN-00 00 61 0411 02200 5341 506363 217154 193"
"164.144178"
"$GPRMC,032733,A,2420.6898,N,08111.7316,W,2.2,316.3,130615,6.0,"
"##MN-00 00 58 0412 02200 5338 506019 217086 193"
"164.144225"
"$GPRMC,032737,A,2420.6913,N,08111.7332,W,2.2,314.8,130615,6.0,"
"##MN-00 00 60 0413 02198 5336 505872 217063 193"
"164.144271"
"$GPRMC,032741,A,2420.6931,N,08111.7350,W,2.1,316.4,130615,6.0,"
"##MN-00 00 61 0414 02197 5334 505794 217046 193"
"164.144317"
"$GPRMC,032745,A,2420.6945,N,08111.7366,W,2.0,315.5,130615,6.0,"
"##MN-00 00 59 0415 02199 5331 505773 217034 193"
"164.144375"
"$GPRMC,032749,A,2420.6963,N,08111.7384,W,2.1,315.9,130615,6.0,"
"##MN-00 00 60 0416 02198 5329 505768 217031 193"
"164.144421"
"$GPRMC,032753,A,2420.6980,N,08111.7397,W,1.9,316.4,130615,6.0,"
"##MN-00 00 57 0417 02198 5327 505784 217037 193"
"164.144468"
"$GPRMC,032757,A,2420.6996,N,08111.7414,W,2.0,316.9,130615,6.0,"
"##MN-00 00 59 0419 02197 5325 505804 217030 193"
"164.144514"
"$GPRMC,032801,A,2420.7014,N,08111.7431,W,2.0,317.8,130615,6.0,"
"##MN-00 00 59 0420 02197 5322 505814 217032 193"
"164.14456"
"$GPRMC,032805,A,2420.7031,N,08111.7447,W,2.1,317.9,130615,6.0,"
"##MN-00 00 59 0421 02193 5320 505810 217027 193"
"164.144606"
"$GPRMC,032809,A,2420.7047,N,08111.7464,W,2.1,318.5,130615,6.0,"
"##MN-00 00 58 0422 02193 5318 505807 217025 193"
"164.144653"
"$GPRMC,032813,A,2420.7065,N,08111.7482,W,2.1,317.7,130615,6.0,"
"##MN-00 00 61 0423 02192 5316 505780 217017 193"
"164.144699"
"$GPRMC,032817,A,2420.7083,N,08111.7500,W,2.1,318.3,130615,6.0,"
"##MN-00 00 60 0424 02189 5314 505716 216999 193"
"164.144745"
"$GPRMC,032821,A,2420.7101,N,08111.7516,W,2.2,318.5,130615,6.0,"
"##MN-00 00 59 0425 02188 5311 505493 216943 193"
"164.144792"
"$GPRMC,032825,A,2420.7117,N,08111.7536,W,2.1,318.4,130615,6.0,"
"##MN-00 00 58 0426 02187 5309 505099 216846 193"
"164.144838"
"$GPRMC,032829,A,2420.7133,N,08111.7552,W,2.1,317.1,130615,6.0,"
"##MN-00 00 60 0427 02183 5307 504647 216781 193"
"164.144884"
"$GPRMC,032833,A,2420.7151,N,08111.7572,W,2.2,315.9,130615,6.0,"
"##MN-00 00 61 0428 02182 5305 504313 216723 193"
"164.144931"
"$GPRMC,032837,A,2420.7166,N,08111.7590,W,2.1,315.3,130615,6.0,"
"##MN-00 00 57 0429 02182 5304 504052 216664 193"
"164.144977"
"$GPRMC,032841,A,2420.7184,N,08111.7608,W,2.2,313.5,130615,6.0,"
"##MN-00 00 58 0430 02180 5301 503755 216616 193"
"164.145023"
"$GPRMC,032845,A,2420.7199,N,08111.7627,W,2.2,313.2,130615,6.0,"
"##MN-00 00 59 0431 02175 5299 503534 216560 193"
"164.145069"
"$GPRMC,032849,A,2420.7216,N,08111.7646,W,2.1,312.7,130615,6.0,"
"##MN-00 00 62 0433 02173 5297 503313 216523 193"
"164.145116"
"$GPRMC,032853,A,2420.7231,N,08111.7666,W,2.1,313.5,130615,6.0,"
"##MN-00 00 58 0434 02173 5295 503191 216501 193"
"164.145162"
"$GPRMC,032857,A,2420.7247,N,08111.7682,W,2.1,314.4,130615,6.0,"
"##MN-00 00 58 0435 02171 5293 503130 216476 193"
"164.145208"
"$GPRMC,032901,A,2420.7264,N,08111.7700,W,2.1,314.8,130615,6.0,"
"##MN-00 00 58 0436 02167 5291 503064 216468 193"
"164.145255"
"$GPRMC,032905,A,2420.7281,N,08111.7717,W,2.1,316.5,130615,6.0,"
"##MN-00 00 58 0437 02167 5289 502991 216460 193"
"164.145301"
"$GPRMC,032909,A,2420.7299,N,08111.7732,W,2.1,316.6,130615,6.0,"
"##MN-00 00 57 0438 02165 5288 502909 216424 193"
"164.145347"
"$GPRMC,032913,A,2420.7318,N,08111.7750,W,2.1,317.4,130615,6.0,"
"##MN-00 00 61 0439 02161 5286 502746 216394 193"
"164.145394"
"$GPRMC,032917,A,2420.7335,N,08111.7767,W,2.1,318.7,130615,6.0,"
"##MN-00 00 58 0440 02160 5284 502513 216344 193"
"164.14544"
"$GPRMC,032922,A,2420.7357,N,08111.7786,W,2.1,318.7,130615,6.0,"
"##MN-00 00 61 0441 02155 5282 502262 216291 193"
"164.145486"
"$GPRMC,032926,A,2420.7375,N,08111.7804,W,2.1,318.1,130615,6.0,"
"##MN-00 00 58 0442 02155 5280 501986 216280 193"
"164.145532"
"$GPRMC,032930,A,2420.7392,N,08111.7821,W,2.0,318.1,130615,6.0,"
"##MN-00 00 56 0443 02153 5278 501643 216199 193"
"164.145579"
"$GPRMC,032934,A,2420.7411,N,08111.7840,W,2.1,317.3,130615,6.0,"
"##MN-00 00 58 0444 02149 5276 501088 216075 193"
"164.145625"
"$GPRMC,032938,A,2420.7428,N,08111.7855,W,2.1,318.3,130615,6.0,"
"##MN-00 00 61 0445 02146 5274 500647 216035 193"
"164.145671"
"$GPRMC,032942,A,2420.7446,N,08111.7874,W,2.2,318.2,130615,6.0,"
"##MN-00 00 57 0446 02143 5273 500207 215889 193"
"164.145718"
"$GPRMC,032946,A,2420.7462,N,08111.7892,W,2.1,318.8,130615,6.0,"
"##MN-00 00 59 0447 02141 5271 499695 215823 193"
"164.145764"
"$GPRMC,032950,A,2420.7482,N,08111.7910,W,2.2,319.6,130615,6.0,"
"##MN-00 00 58 0448 02140 5269 499326 215738 193"
"164.14581"
"$GPRMC,032954,A,2420.7498,N,08111.7927,W,2.2,319.9,130615,6.0,"
"##MN-00 00 59 0449 02134 5267 498940 215674 193"
"164.145856"
"$GPRMC,032958,A,2420.7516,N,08111.7945,W,2.2,318.4,130615,6.0,"
"##MN-00 00 57 0450 02133 5266 498457 215563 193"
"164.145903"
"$GPRMC,033002,A,2420.7533,N,08111.7962,W,2.1,317.7,130615,6.0,"
"##MN-00 00 61 0451 02128 5263 498042 215519 193"
"164.145949"
"$GPRMC,033006,A,2420.7549,N,08111.7980,W,2.1,316.7,130615,6.0,"
"##MN-00 00 59 0452 02128 5262 497732 215456 193"
"164.145995"
"$GPRMC,033010,A,2420.7562,N,08111.7993,W,2.1,315.8,130615,6.0,"
"##MN-00 00 59 0453 02125 5260 497355 215353 193"
"164.146042"
"$GPRMC,033014,A,2420.7578,N,08111.8011,W,2.2,315.6,130615,6.0,"
"##MN-00 00 60 0455 02122 5258 496813 215246 193"
"164.146088"
"$GPRMC,033018,A,2420.7594,N,08111.8027,W,2.1,316.3,130615,6.0,"
"##MN-00 00 58 0456 02120 5257 496411 215158 193"
"164.146134"
"$GPRMC,033022,A,2420.7614,N,08111.8051,W,2.1,315.3,130615,6.0,"
"##MN-00 00 58 0457 02116 5255 495931 215040 193"
"164.146181"
"$GPRMC,033026,A,2420.7630,N,08111.8068,W,2.0,316.2,130615,6.0,"
"##MN-00 00 58 0458 02117 5254 495686 215004 193"
"164.146227"
"$GPRMC,033030,A,2420.7645,N,08111.8085,W,2.0,314.5,130615,6.0,"
"##MN-00 00 58 0459 02117 5252 495534 214988 193"
"164.146273"
"$GPRMC,033034,A,2420.7660,N,08111.8101,W,1.9,315.2,130615,6.0,"
"##MN-00 00 58 0460 02114 5251 495373 214949 193"
"164.146319"
"$GPRMC,033038,A,2420.7675,N,08111.8118,W,2.0,315.8,130615,6.0,"
"##MN-00 00 58 0461 02112 5249 495080 214903 193"
"164.146366"
"$GPRMC,033042,A,2420.7692,N,08111.8134,W,1.9,315.6,130615,6.0,"
"##MN-00 00 58 0462 02109 5247 494854 214878 193"
"164.146412"
"$GPRMC,033046,A,2420.7708,N,08111.8152,W,2.1,313.3,130615,6.0,"
"##MN-00 00 63 0463 02103 5246 494516 214798 193"
"164.146458"
"$GPRMC,033050,A,2420.7722,N,08111.8172,W,2.0,312.7,130615,6.0,"
"##MN+00 00 57 0464 02103 5245 493440 214595 193"
"164.146505"
"$GPRMC,033054,A,2420.7737,N,08111.8190,W,2.1,310.9,130615,6.0,"
"##MN+00 00 61 0465 02097 5243 491942 214322 193"
"164.146551"
"$GPRMC,033058,A,2420.7753,N,08111.8212,W,2.1,310.3,130615,6.0,"
"##MN+00 00 61 0466 02096 5241 490956 214097 193"
"164.146597"
"$GPRMC,033102,A,2420.7768,N,08111.8227,W,2.1,309.8,130615,6.0,"
"##MN+00 00 58 0467 02093 5240 490063 213885 193"
"164.146644"
"$GPRMC,033106,A,2420.7783,N,08111.8251,W,2.2,309.5,130615,6.0,"
"##MN+00 00 65 0468 02089 5239 488860 213625 193"
"164.14669"
"$GPRMC,033110,A,2420.7798,N,08111.8267,W,2.1,310.0,130615,6.0,"
"##MN+00 00 58 0469 02089 5237 487797 213402 193"
"164.146736"
"#increment_net"
"$GPRMC,033114,A,2420.7813,N,08111.8288,W,2.1,309.9,130615,6.0,"
"##MN-00 00 57 0470 02086 5236 487018 213238 193"
"164.146782"
"$GPRMC,033118,A,2420.7829,N,08111.8306,W,2.0,312.0,130615,6.0,"
"##MN-00 00 56 0471 02080 5235 486386 213180 193"
"164.146829"
"$GPRMC,033122,A,2420.7842,N,08111.8324,W,2.1,312.3,130615,6.0,"
"##MN-00 00 58 0472 02079 5233 485893 212999 193"
"164.146875"
