" Tow: 5-of-n-out   RVWS/WS15161"
" Date: 12/06/2015"
" Temperature Probe #  4762    Conductivity Probe #  710"
" Pressure Probe #  159"
" Flow Meter Calibration  4.71 (m/count)  "
"163.9925"
"$GPRMC,234908,A,2412.6331,N,08103.0466,W,3.1,339.9,120615,6.0,"
"##MN-00 00 35 0837 02809 5406 544840 024345 196"
"163.993252"
"$GPRMC,235016,A,2412.6786,N,08103.0583,W,2.2,349.6,120615,6.0,"
"##MN-00 00 52 0011 01544 6037 444108 205075 196"
"163.993299"
"$GPRMC,235017,A,2412.6790,N,08103.0586,W,2.3,351.0,120615,6.0,"
"##MN-00 00 46 0012 01543 6037 444093 204771 196"
"163.993345"
"$GPRMC,235020,A,2412.6810,N,08103.0589,W,2.2,348.9,120615,6.0,"
"##MN-00 00 53 0013 01540 6037 444097 204709 196"
"163.993391"
"$GPRMC,235025,A,2412.6840,N,08103.0600,W,2.2,347.8,120615,6.0,"
"##MN-00 00 53 0014 01545 6037 444103 204712 196"
"163.993438"
"$GPRMC,235029,A,2412.6863,N,08103.0601,W,2.2,346.8,120615,6.0,"
"##MN-00 00 49 0015 01543 6037 444095 204683 196"
"163.993484"
"$GPRMC,235033,A,2412.6888,N,08103.0604,W,2.2,345.7,120615,6.0,"
"##MN-00 00 49 0016 01547 6037 444101 204670 196"
"163.99353"
"$GPRMC,235037,A,2412.6909,N,08103.0611,W,2.2,345.4,120615,6.0,"
"##MN-00 00 45 0016 01547 6037 444116 204675 196"
"163.993576"
"$GPRMC,235041,A,2412.6935,N,08103.0615,W,2.2,344.5,120615,6.0,"
"##MN-00 00 48 0017 01543 6037 444107 204660 196"
"163.993623"
"$GPRMC,235045,A,2412.6960,N,08103.0618,W,2.3,347.0,120615,6.0,"
"##MN-00 00 49 0018 01547 6037 444079 204649 196"
"163.993669"
"$GPRMC,235049,A,2412.6984,N,08103.0622,W,2.3,346.6,120615,6.0,"
"##MN-00 00 49 0019 01548 6037 444082 204658 196"
"163.993715"
"$GPRMC,235053,A,2412.7006,N,08103.0630,W,2.2,346.1,120615,6.0,"
"##MN-00 00 45 0019 01542 6037 444078 204650 196"
"163.993762"
"$GPRMC,235057,A,2412.7032,N,08103.0637,W,2.3,345.5,120615,6.0,"
"##MN-00 00 52 0020 01545 6037 444064 204674 196"
"163.993808"
"$GPRMC,235101,A,2412.7057,N,08103.0645,W,2.3,344.5,120615,6.0,"
"##MN-00 00 50 0021 01553 6037 444069 204655 196"
"163.993854"
"$GPRMC,235105,A,2412.7083,N,08103.0654,W,2.3,343.4,120615,6.0,"
"##MN-00 00 51 0021 01545 6038 444072 204639 196"
"163.9939"
"$GPRMC,235109,A,2412.7112,N,08103.0665,W,2.3,343.6,120615,6.0,"
"##MN-00 00 54 0022 01558 6037 444074 204630 196"
"163.993947"
"$GPRMC,235113,A,2412.7135,N,08103.0669,W,2.3,343.2,120615,6.0,"
"##MN-00 00 48 0022 01553 6037 444067 204707 196"
"163.993993"
"$GPRMC,235117,A,2412.7159,N,08103.0677,W,2.3,343.3,120615,6.0,"
"##MN-00 00 54 0023 01548 6037 444068 204624 196"
"163.994039"
"$GPRMC,235121,A,2412.7183,N,08103.0690,W,2.3,342.3,120615,6.0,"
"##MN-00 00 54 0024 01556 6037 444062 204621 196"
"163.994086"
"$GPRMC,235125,A,2412.7206,N,08103.0706,W,2.3,341.3,120615,6.0,"
"##MN-00 00 54 0025 01562 6038 444065 204615 196"
"163.994132"
"$GPRMC,235129,A,2412.7231,N,08103.0712,W,2.3,343.6,120615,6.0,"
"##MN-00 00 50 0026 01564 6038 444062 204611 196"
"163.994178"
"$GPRMC,235133,A,2412.7256,N,08103.0717,W,2.3,343.6,120615,6.0,"
"##MN-00 00 48 0026 01563 6037 444051 204602 196"
"163.994225"
"$GPRMC,235137,A,2412.7280,N,08103.0723,W,2.2,342.7,120615,6.0,"
"##MN-00 00 54 0027 01571 6037 444043 204596 196"
"163.994271"
"$GPRMC,235141,A,2412.7300,N,08103.0724,W,2.2,342.0,120615,6.0,"
"##MN-00 00 51 0028 01576 6037 444046 204591 196"
"163.994317"
"$GPRMC,235145,A,2412.7324,N,08103.0737,W,2.2,342.9,120615,6.0,"
"##MN-00 00 52 0029 01581 6037 444040 204584 196"
"163.994363"
"$GPRMC,235149,A,2412.7349,N,08103.0740,W,2.2,344.1,120615,6.0,"
"##MN-00 00 52 0029 01582 6037 444066 204584 196"
"163.99441"
"$GPRMC,235153,A,2412.7375,N,08103.0748,W,2.2,344.9,120615,6.0,"
"##MN-00 00 50 0030 01588 6037 444075 204579 196"
"163.994456"
"$GPRMC,235157,A,2412.7397,N,08103.0755,W,2.2,344.4,120615,6.0,"
"##MN-00 00 53 0031 01588 6038 444057 204573 196"
"163.994502"
"$GPRMC,235201,A,2412.7418,N,08103.0764,W,2.2,344.8,120615,6.0,"
"##MN-00 00 50 0032 01593 6037 444068 204572 196"
"163.994549"
"$GPRMC,235205,A,2412.7440,N,08103.0777,W,2.2,345.6,120615,6.0,"
"##MN-00 00 52 0032 01599 6038 444066 204567 196"
"163.994595"
"$GPRMC,235209,A,2412.7464,N,08103.0781,W,2.2,344.4,120615,6.0,"
"##MN-00 00 48 0033 01599 6037 444076 204567 196"
"163.994641"
"$GPRMC,235213,A,2412.7487,N,08103.0789,W,2.3,344.7,120615,6.0,"
"##MN-00 00 51 0034 01603 6037 444082 204565 196"
"163.994687"
"$GPRMC,235217,A,2412.7509,N,08103.0799,W,2.2,344.1,120615,6.0,"
"##MN-00 00 52 0035 01610 6037 444082 204562 196"
"163.994734"
"$GPRMC,235221,A,2412.7534,N,08103.0809,W,2.3,344.6,120615,6.0,"
"##MN-00 00 50 0035 01615 6038 444090 204561 196"
"163.99478"
"$GPRMC,235225,A,2412.7558,N,08103.0820,W,2.3,344.2,120615,6.0,"
"##MN-00 00 50 0036 01615 6038 444087 204557 196"
"163.994826"
"$GPRMC,235229,A,2412.7581,N,08103.0831,W,2.2,343.3,120615,6.0,"
"##MN-00 00 51 0037 01622 6037 444085 204555 196"
"163.994873"
"$GPRMC,235233,A,2412.7603,N,08103.0842,W,2.2,342.3,120615,6.0,"
"##MN-00 00 50 0038 01623 6038 444072 204551 196"
"163.994919"
"$GPRMC,235237,A,2412.7628,N,08103.0847,W,2.2,340.9,120615,6.0,"
"##MN-00 00 51 0039 01628 6037 444064 204548 196"
"163.994965"
"$GPRMC,235241,A,2412.7652,N,08103.0856,W,2.2,339.4,120615,6.0,"
"##MN-00 00 52 0039 01630 6038 444067 204546 196"
"163.995012"
"$GPRMC,235245,A,2412.7674,N,08103.0867,W,2.2,338.0,120615,6.0,"
"##MN-00 00 49 0040 01631 6038 444068 204545 196"
"163.995058"
"$GPRMC,235249,A,2412.7697,N,08103.0878,W,2.2,336.7,120615,6.0,"
"##MN-00 00 51 0041 01635 6038 444070 204543 196"
"163.995104"
"$GPRMC,235253,A,2412.7717,N,08103.0889,W,2.1,335.2,120615,6.0,"
"##MN-00 00 51 0042 01638 6037 444061 204541 196"
"163.99515"
"$GPRMC,235257,A,2412.7739,N,08103.0903,W,2.1,333.2,120615,6.0,"
"##MN-00 00 50 0043 01644 6037 444047 204538 196"
"163.995197"
"$GPRMC,235301,A,2412.7758,N,08103.0907,W,2.1,331.6,120615,6.0,"
"##MN-00 00 48 0044 01642 6038 444037 204535 196"
"163.995243"
"$GPRMC,235305,A,2412.7777,N,08103.0921,W,2.1,330.6,120615,6.0,"
"##MN-00 00 50 0044 01643 6038 444035 204534 196"
"163.995289"
"$GPRMC,235309,A,2412.7797,N,08103.0939,W,2.1,327.5,120615,6.0,"
"##MN-00 00 50 0045 01649 6038 444030 204531 196"
"163.995336"
"$GPRMC,235313,A,2412.7816,N,08103.0952,W,2.1,328.1,120615,6.0,"
"##MN-00 00 52 0046 01652 6037 444040 204533 196"
"163.995382"
"$GPRMC,235317,A,2412.7834,N,08103.0966,W,2.0,326.5,120615,6.0,"
"##MN-00 00 51 0047 01656 6037 444072 204533 196"
"163.995428"
"$GPRMC,235321,A,2412.7852,N,08103.0980,W,1.9,326.8,120615,6.0,"
"##MN-00 00 50 0048 01659 6037 444085 204534 196"
"163.995474"
"$GPRMC,235325,A,2412.7869,N,08103.0991,W,1.9,325.8,120615,6.0,"
"##MN-00 00 52 0049 01661 6038 444074 204534 196"
"163.995521"
"$GPRMC,235329,A,2412.7885,N,08103.1002,W,1.8,325.6,120615,6.0,"
"##MN-00 00 50 0050 01666 6037 444071 204533 196"
"163.995567"
"$GPRMC,235333,A,2412.7903,N,08103.1012,W,1.8,324.5,120615,6.0,"
"##MN-00 00 49 0050 01666 6037 444064 204531 196"
"163.995613"
"$GPRMC,235337,A,2412.7928,N,08103.1030,W,1.8,323.0,120615,6.0,"
"##MN-00 00 51 0051 01670 6038 444094 204534 196"
"163.99566"
"$GPRMC,235341,A,2412.7942,N,08103.1042,W,1.8,321.1,120615,6.0,"
"##MN-00 00 52 0052 01674 6037 444144 204540 196"
"163.995706"
"$GPRMC,235345,A,2412.7960,N,08103.1059,W,1.8,320.7,120615,6.0,"
"##MN-00 00 51 0053 01677 6037 444136 204539 196"
"163.995752"
"$GPRMC,235349,A,2412.7975,N,08103.1070,W,1.7,320.2,120615,6.0,"
"##MN-00 00 52 0054 01681 6038 444110 204535 196"
"163.995799"
"$GPRMC,235353,A,2412.7986,N,08103.1081,W,1.7,321.0,120615,6.0,"
"##MN-00 00 50 0055 01687 6037 444126 204536 196"
"163.995845"
"$GPRMC,235357,A,2412.8000,N,08103.1092,W,1.7,321.0,120615,6.0,"
"##MN-00 00 49 0056 01689 6038 444118 204534 196"
"163.995891"
"$GPRMC,235401,A,2412.8015,N,08103.1103,W,1.7,320.7,120615,6.0,"
"##MN-00 00 51 0056 01692 6038 444141 204535 196"
"163.995938"
"$GPRMC,235405,A,2412.8031,N,08103.1120,W,1.7,320.2,120615,6.0,"
"##MN-00 00 50 0057 01692 6037 444136 204535 196"
"163.995984"
"$GPRMC,235409,A,2412.8047,N,08103.1132,W,1.7,319.7,120615,6.0,"
"##MN-00 00 50 0058 01700 6038 444136 204533 196"
"163.99603"
"$GPRMC,235413,A,2412.8061,N,08103.1150,W,1.8,317.6,120615,6.0,"
"##MN-00 00 48 0059 01694 6037 444126 204535 196"
"163.996076"
"$GPRMC,235417,A,2412.8076,N,08103.1167,W,1.8,317.0,120615,6.0,"
"##MN-00 00 51 0060 01698 6038 444191 204544 196"
"163.996134"
"$GPRMC,235421,A,2412.8090,N,08103.1185,W,1.9,315.9,120615,6.0,"
"##MN-00 00 50 0061 01697 6037 444214 204547 196"
"163.996181"
"$GPRMC,235425,A,2412.8104,N,08103.1199,W,1.9,317.3,120615,6.0,"
"##MN-00 00 51 0062 01698 6037 444228 204546 196"
"163.996227"
"$GPRMC,235430,A,2412.8125,N,08103.1221,W,1.8,316.4,120615,6.0,"
"##MN-00 00 51 0063 01700 6037 444272 204554 196"
"163.996273"
"$GPRMC,235433,A,2412.8137,N,08103.1236,W,1.9,317.4,120615,6.0,"
"##MN-00 00 51 0064 01704 6038 444312 204554 196"
"163.996319"
"$GPRMC,235437,A,2412.8152,N,08103.1250,W,1.8,318.1,120615,6.0,"
"##MN-00 00 52 0065 01705 6037 444322 204572 196"
"163.996366"
"$GPRMC,235442,A,2412.8173,N,08103.1275,W,1.8,317.5,120615,6.0,"
"##MN-00 00 51 0066 01708 6037 444378 204573 196"
"163.996412"
"$GPRMC,235446,A,2412.8187,N,08103.1290,W,1.9,316.4,120615,6.0,"
"##MN-00 00 52 0067 01708 6037 444443 204581 196"
"163.996458"
"$GPRMC,235450,A,2412.8203,N,08103.1308,W,1.9,316.5,120615,6.0,"
"##MN-00 00 52 0068 01711 6037 444393 204575 196"
"163.996505"
"$GPRMC,235454,A,2412.8217,N,08103.1326,W,1.8,315.3,120615,6.0,"
"##MN-00 00 51 0069 01711 6037 444294 204559 196"
"163.996551"
"$GPRMC,235458,A,2412.8232,N,08103.1347,W,1.9,313.8,120615,6.0,"
"##MN-00 00 50 0070 01709 6037 444341 204579 196"
"163.996597"
"$GPRMC,235502,A,2412.8243,N,08103.1359,W,1.8,310.7,120615,6.0,"
"##MN-00 00 53 0071 01714 6037 444432 204585 196"
"163.996644"
"$GPRMC,235506,A,2412.8255,N,08103.1373,W,1.8,310.2,120615,6.0,"
"##MN-00 00 50 0072 01713 6037 444353 204568 196"
"163.99669"
"$GPRMC,235510,A,2412.8268,N,08103.1395,W,1.9,309.9,120615,6.0,"
"##MN-00 00 50 0073 01709 6037 444366 204581 196"
"163.996736"
"$GPRMC,235514,A,2412.8282,N,08103.1413,W,1.9,308.8,120615,6.0,"
"##MN-00 00 52 0074 01714 6037 444524 204596 196"
"163.996782"
"$GPRMC,235518,A,2412.8295,N,08103.1432,W,1.9,309.1,120615,6.0,"
"##MN-00 00 54 0075 01718 6037 444431 204588 196"
"163.996829"
"$GPRMC,235522,A,2412.8310,N,08103.1450,W,1.8,310.6,120615,6.0,"
"##MN-00 00 53 0076 01721 6037 444393 204580 196"
"163.996875"
"$GPRMC,235526,A,2412.8322,N,08103.1463,W,1.8,311.2,120615,6.0,"
"##MN-00 00 54 0076 01724 6037 444475 204581 196"
"163.996921"
"$GPRMC,235530,A,2412.8336,N,08103.1477,W,1.8,312.2,120615,6.0,"
"##MN-00 00 53 0077 01727 6037 444559 204592 196"
"163.996968"
"$GPRMC,235534,A,2412.8350,N,08103.1493,W,1.8,312.4,120615,6.0,"
"##MN-00 00 54 0078 01732 6037 444661 204613 196"
"163.997014"
"$GPRMC,235538,A,2412.8365,N,08103.1517,W,1.8,313.0,120615,6.0,"
"##MN-00 00 53 0079 01733 6037 444677 204618 196"
"163.99706"
"$GPRMC,235542,A,2412.8379,N,08103.1530,W,1.8,314.1,120615,6.0,"
"##MN-00 00 52 0080 01736 6037 444673 204623 196"
"163.997106"
"$GPRMC,235546,A,2412.8394,N,08103.1548,W,1.8,314.0,120615,6.0,"
"##MN-00 00 52 0081 01734 6037 444749 204640 196"
"163.997153"
"$GPRMC,235550,A,2412.8408,N,08103.1569,W,1.8,313.2,120615,6.0,"
"##MN-00 00 55 0082 01739 6037 444828 204642 196"
"163.997199"
"$GPRMC,235554,A,2412.8420,N,08103.1586,W,1.8,313.2,120615,6.0,"
"##MN-00 00 51 0083 01740 6037 445001 204689 196"
"163.997245"
"$GPRMC,235558,A,2412.8437,N,08103.1604,W,2.0,313.1,120615,6.0,"
"##MN-00 00 53 0084 01736 6037 445083 204699 196"
"163.997292"
"$GPRMC,235602,A,2412.8452,N,08103.1618,W,1.9,313.8,120615,6.0,"
"##MN-00 00 53 0085 01743 6038 445164 204703 196"
"163.997338"
"$GPRMC,235606,A,2412.8467,N,08103.1634,W,2.0,314.2,120615,6.0,"
"##MN-00 00 52 0086 01743 6037 445243 204735 196"
"163.997384"
"$GPRMC,235610,A,2412.8484,N,08103.1656,W,1.9,315.8,120615,6.0,"
"##MN-00 00 54 0087 01748 6037 445480 204767 196"
"163.997431"
"$GPRMC,235614,A,2412.8499,N,08103.1669,W,1.9,315.7,120615,6.0,"
"##MN-00 00 54 0088 01750 6037 445723 204802 196"
"163.997477"
"$GPRMC,235618,A,2412.8516,N,08103.1687,W,1.9,318.1,120615,6.0,"
"##MN-00 00 55 0089 01753 6037 445874 204845 196"
"163.997523"
"$GPRMC,235622,A,2412.8531,N,08103.1696,W,1.9,320.1,120615,6.0,"
"##MN-00 00 54 0090 01755 6037 446014 204862 196"
"163.997569"
"$GPRMC,235626,A,2412.8546,N,08103.1712,W,1.8,320.1,120615,6.0,"
"##MN-00 00 53 0090 01761 6037 446200 204894 196"
"163.997616"
"$GPRMC,235630,A,2412.8563,N,08103.1725,W,1.9,320.0,120615,6.0,"
"##MN-00 00 51 0091 01759 6037 446916 205045 196"
"163.997662"
"$GPRMC,235634,A,2412.8579,N,08103.1742,W,1.9,319.7,120615,6.0,"
"##MN-00 00 52 0093 01761 6037 447302 205098 196"
"163.997708"
"$GPRMC,235638,A,2412.8596,N,08103.1754,W,1.9,318.5,120615,6.0,"
"##MN-00 00 53 0094 01765 6037 447285 205082 196"
"163.997755"
"$GPRMC,235642,A,2412.8611,N,08103.1770,W,1.9,317.7,120615,6.0,"
"##MN-00 00 54 0094 01769 6037 447628 205095 196"
"163.997801"
"$GPRMC,235646,A,2412.8625,N,08103.1786,W,1.8,318.6,120615,6.0,"
"##MN-00 00 51 0096 01768 6037 447862 205165 196"
"163.997847"
"$GPRMC,235650,A,2412.8642,N,08103.1800,W,1.9,316.0,120615,6.0,"
"##MN-00 00 52 0097 01769 6037 448113 205232 196"
"163.997893"
"$GPRMC,235654,A,2412.8658,N,08103.1824,W,2.0,316.8,120615,6.0,"
"##MN-00 00 52 0098 01773 6037 448670 205276 196"
"163.99794"
"$GPRMC,235658,A,2412.8674,N,08103.1840,W,1.9,317.6,120615,6.0,"
"##MN-00 00 51 0099 01773 6037 449357 205460 196"
"163.997986"
"$GPRMC,235702,A,2412.8690,N,08103.1858,W,2.1,317.1,120615,6.0,"
"##MN-00 00 52 0100 01780 6037 450519 205644 196"
"163.998032"
"$GPRMC,235706,A,2412.8707,N,08103.1868,W,1.9,319.0,120615,6.0,"
"##MN-00 00 51 0101 01778 6037 451288 205772 196"
"163.998079"
"$GPRMC,235710,A,2412.8725,N,08103.1886,W,2.2,317.4,120615,6.0,"
"##MN-00 00 51 0102 01779 6036 451401 205835 196"
"163.998125"
"$GPRMC,235714,A,2412.8740,N,08103.1900,W,2.0,317.6,120615,6.0,"
"##MN-00 00 52 0103 01782 6037 451646 205874 196"
"163.998171"
"$GPRMC,235718,A,2412.8756,N,08103.1916,W,2.1,317.2,120615,6.0,"
"##MN-00 00 53 0104 01783 6036 451875 205930 196"
"163.998218"
"$GPRMC,235722,A,2412.8772,N,08103.1933,W,2.0,317.2,120615,6.0,"
"##MN-00 00 54 0105 01787 6036 452309 206021 196"
"163.998264"
"$GPRMC,235726,A,2412.8787,N,08103.1949,W,2.0,317.2,120615,6.0,"
"##MN-00 00 52 0106 01790 6036 452957 206212 196"
"163.99831"
"$GPRMC,235730,A,2412.8802,N,08103.1969,W,2.0,316.5,120615,6.0,"
"##MN-00 00 53 0107 01792 6036 453239 206199 196"
"163.998357"
"$GPRMC,235734,A,2412.8819,N,08103.1983,W,1.9,317.5,120615,6.0,"
"##MN-00 00 52 0108 01796 6035 454446 206602 196"
"163.998403"
"$GPRMC,235738,A,2412.8837,N,08103.2001,W,2.0,316.4,120615,6.0,"
"##MN-00 00 51 0109 01793 6035 455493 206856 196"
"163.998449"
"$GPRMC,235742,A,2412.8853,N,08103.2016,W,2.1,316.3,120615,6.0,"
"##MN-00 00 53 0110 01800 6035 455464 206803 196"
"163.998495"
"$GPRMC,235746,A,2412.8871,N,08103.2032,W,2.1,315.7,120615,6.0,"
"##MN-00 00 52 0111 01803 6035 455693 206886 196"
"163.998542"
"$GPRMC,235750,A,2412.8888,N,08103.2052,W,2.1,316.9,120615,6.0,"
"##MN-00 00 54 0112 01810 6035 456294 206877 196"
"163.998588"
"$GPRMC,235754,A,2412.8904,N,08103.2067,W,1.9,318.7,120615,6.0,"
"##MN-00 00 52 0113 01813 6034 457449 207137 196"
"163.998634"
"$GPRMC,235758,A,2412.8921,N,08103.2085,W,2.0,317.9,120615,6.0,"
"##MN-00 00 53 0114 01816 6034 458382 207235 196"
"163.998681"
"$GPRMC,235802,A,2412.8935,N,08103.2099,W,1.8,318.4,120615,6.0,"
"##MN-00 00 53 0115 01824 6034 458733 207333 196"
"163.998727"
"$GPRMC,235806,A,2412.8951,N,08103.2115,W,2.0,317.2,120615,6.0,"
"##MN-00 00 52 0116 01823 6034 459096 207545 196"
"163.998773"
"$GPRMC,235810,A,2412.8967,N,08103.2135,W,1.9,317.8,120615,6.0,"
"##MN-00 00 54 0116 01827 6033 459900 207776 196"
"163.998819"
"$GPRMC,235814,A,2412.8983,N,08103.2150,W,2.0,317.4,120615,6.0,"
"##MN-00 00 53 0117 01830 6033 460587 207921 196"
"163.998866"
"$GPRMC,235818,A,2412.8997,N,08103.2160,W,2.0,317.0,120615,6.0,"
"##MN-00 00 51 0118 01833 6032 460906 207973 196"
"163.998912"
"$GPRMC,235822,A,2412.9008,N,08103.2176,W,1.9,318.0,120615,6.0,"
"##MN-00 00 53 0119 01836 6032 461243 208142 196"
"163.998958"
"$GPRMC,235826,A,2412.9023,N,08103.2191,W,2.0,318.0,120615,6.0,"
"##MN-00 00 52 0120 01842 6031 461503 208187 196"
"163.999005"
"$GPRMC,235830,A,2412.9037,N,08103.2208,W,2.0,320.7,120615,6.0,"
"##MN-00 00 53 0121 01844 6031 461736 208215 196"
"163.999051"
"$GPRMC,235834,A,2412.9055,N,08103.2223,W,2.1,320.3,120615,6.0,"
"##MN-00 00 52 0122 01849 6030 461926 208248 196"
"163.999097"
"$GPRMC,235838,A,2412.9072,N,08103.2240,W,1.9,320.4,120615,6.0,"
"##MN-00 00 52 0123 01852 6030 462103 208316 196"
"163.999144"
"$GPRMC,235842,A,2412.9088,N,08103.2254,W,1.9,319.7,120615,6.0,"
"##MN-00 00 51 0124 01857 6029 462738 208457 196"
"163.99919"
"$GPRMC,235846,A,2412.9102,N,08103.2270,W,1.9,319.6,120615,6.0,"
"##MN-00 00 52 0125 01859 6029 463463 208584 196"
"163.999236"
"$GPRMC,235850,A,2412.9120,N,08103.2288,W,1.9,317.1,120615,6.0,"
"##MN-00 00 51 0126 01861 6028 463739 208606 196"
"163.999282"
"$GPRMC,235854,A,2412.9135,N,08103.2306,W,1.8,315.1,120615,6.0,"
"##MN-00 00 52 0127 01867 6027 463907 208660 196"
"163.999329"
"$GPRMC,235858,A,2412.9149,N,08103.2320,W,1.8,313.9,120615,6.0,"
"##MN-00 00 51 0128 01872 6027 463987 208691 196"
"163.999387"
"$GPRMC,235902,A,2412.9164,N,08103.2334,W,1.9,314.0,120615,6.0,"
"##MN-00 00 52 0129 01874 6026 464066 208680 196"
"163.999433"
"$GPRMC,235906,A,2412.9181,N,08103.2353,W,1.8,315.0,120615,6.0,"
"##MN-00 00 52 0130 01879 6025 464071 208675 196"
"163.999479"
"$GPRMC,235910,A,2412.9196,N,08103.2363,W,1.9,314.9,120615,6.0,"
"##MN-00 00 51 0130 01883 6025 463933 208636 196"
"163.999525"
"$GPRMC,235915,A,2412.9214,N,08103.2381,W,1.8,314.6,120615,6.0,"
"##MN-00 00 52 0131 01884 6024 463812 208525 196"
"163.999572"
"$GPRMC,235918,A,2412.9225,N,08103.2396,W,1.8,316.1,120615,6.0,"
"##MN-00 00 52 0132 01888 6023 463808 208494 196"
"163.999618"
"$GPRMC,235922,A,2412.9240,N,08103.2413,W,1.9,313.7,120615,6.0,"
"##MN-00 00 52 0133 01892 6022 464089 208531 196"
"163.999664"
"$GPRMC,235926,A,2412.9257,N,08103.2435,W,1.9,314.1,120615,6.0,"
"##MN-00 00 51 0134 01895 6022 464539 208578 196"
"163.999711"
"$GPRMC,235930,A,2412.9271,N,08103.2447,W,1.9,312.7,120615,6.0,"
"##MN-00 00 51 0135 01901 6021 464875 208649 196"
"163.999757"
"$GPRMC,235935,A,2412.9289,N,08103.2465,W,1.9,312.2,120615,6.0,"
"##MN-00 00 51 0136 01901 6020 465217 208774 196"
"163.999803"
"$GPRMC,235938,A,2412.9299,N,08103.2475,W,1.9,312.1,120615,6.0,"
"##MN-00 00 50 0137 01906 6019 466018 208899 196"
"163.99985"
"$GPRMC,235943,A,2412.9319,N,08103.2500,W,1.9,312.0,120615,6.0,"
"##MN-00 00 52 0138 01907 6018 466919 209120 196"
"163.999896"
"$GPRMC,235947,A,2412.9333,N,08103.2519,W,1.9,313.0,120615,6.0,"
"##MN-00 00 51 0139 01913 6017 467298 209199 196"
"163.999942"
"$GPRMC,235950,A,2412.9344,N,08103.2532,W,1.9,312.4,120615,6.0,"
"##MN-00 00 51 0139 01915 6016 467540 209282 196"
"163.999988"
"$GPRMC,235955,A,2412.9361,N,08103.2551,W,1.9,312.7,120615,6.0,"
"##MN-00 00 51 0140 01920 6015 467843 209346 196"
"164.000058"
"$GPRMC,000001,A,2412.9383,N,08103.2579,W,1.9,313.1,130615,6.0,"
"##MN-00 00 51 0142 01925 6014 468225 209385 196"
"164.000104"
"$GPRMC,000005,A,2412.9398,N,08103.2595,W,2.0,314.5,130615,6.0,"
"##MN-00 00 50 0143 01928 6013 468837 209560 196"
"164.00015"
"$GPRMC,000009,A,2412.9415,N,08103.2610,W,1.9,314.7,130615,6.0,"
"##MN-00 00 51 0144 01929 6012 469467 209680 196"
"164.000197"
"$GPRMC,000013,A,2412.9428,N,08103.2630,W,1.9,314.3,130615,6.0,"
"##MN-00 00 51 0145 01934 6010 470050 209732 196"
"164.000243"
"$GPRMC,000017,A,2412.9444,N,08103.2645,W,1.9,314.5,130615,6.0,"
"##MN-00 00 50 0145 01938 6010 470439 209855 196"
"164.000289"
"$GPRMC,000021,A,2412.9460,N,08103.2663,W,1.9,315.4,130615,6.0,"
"##MN-00 00 51 0146 01941 6009 470723 209855 196"
"164.000336"
"$GPRMC,000025,A,2412.9474,N,08103.2681,W,1.9,315.4,130615,6.0,"
"##MN-00 00 50 0147 01948 6008 471141 209940 196"
"164.000382"
"$GPRMC,000029,A,2412.9491,N,08103.2699,W,1.9,315.0,130615,6.0,"
"##MN-00 00 49 0148 01945 6007 471905 210251 196"
"164.000428"
"$GPRMC,000033,A,2412.9507,N,08103.2717,W,1.9,315.6,130615,6.0,"
"##MN-00 00 51 0149 01950 6006 472800 210404 196"
"164.000475"
"$GPRMC,000037,A,2412.9520,N,08103.2729,W,1.8,314.0,130615,6.0,"
"##MN-00 00 51 0150 01953 6004 473221 210443 196"
"164.000521"
"$GPRMC,000041,A,2412.9535,N,08103.2742,W,1.9,314.9,130615,6.0,"
"##MN-00 00 50 0151 01958 6003 473540 210499 196"
"164.000567"
"$GPRMC,000045,A,2412.9549,N,08103.2757,W,1.8,315.2,130615,6.0,"
"##MN-00 00 52 0151 01962 6002 474050 210592 196"
"164.000613"
"$GPRMC,000049,A,2412.9563,N,08103.2772,W,1.8,314.7,130615,6.0,"
"##MN-00 00 50 0152 01966 6001 475039 210757 196"
"164.00066"
"$GPRMC,000053,A,2412.9578,N,08103.2789,W,1.8,313.9,130615,6.0,"
"##MN-00 00 51 0153 01968 6000 475355 210852 196"
"164.000706"
"$GPRMC,000057,A,2412.9590,N,08103.2803,W,1.8,312.9,130615,6.0,"
"##MN-00 00 50 0154 01973 5999 476131 211034 196"
"164.000752"
"$GPRMC,000101,A,2412.9604,N,08103.2821,W,1.8,312.4,130615,6.0,"
"##MN-00 00 49 0155 01974 5997 476491 211185 196"
"164.000799"
"$GPRMC,000105,A,2412.9618,N,08103.2840,W,1.8,311.9,130615,6.0,"
"##MN-00 00 49 0156 01977 5996 477019 211264 196"
"164.000845"
"$GPRMC,000109,A,2412.9633,N,08103.2857,W,1.8,312.9,130615,6.0,"
"##MN-00 00 50 0157 01976 5995 477415 211304 196"
"164.000903"
"$GPRMC,000113,A,2412.9647,N,08103.2876,W,1.9,313.7,130615,6.0,"
"##MN-00 00 51 0157 01982 5993 477939 211419 196"
"164.000949"
"$GPRMC,000117,A,2412.9659,N,08103.2888,W,1.8,314.4,130615,6.0,"
"##MN-00 00 47 0158 01983 5992 478834 211585 196"
"164.000995"
"$GPRMC,000122,A,2412.9680,N,08103.2908,W,1.9,314.8,130615,6.0,"
"##MN-00 00 51 0159 01984 5991 479028 211668 196"
"164.001042"
"$GPRMC,000126,A,2412.9690,N,08103.2923,W,1.8,314.4,130615,6.0,"
"##MN-00 00 49 0160 01988 5989 479490 211754 196"
"164.001088"
"$GPRMC,000130,A,2412.9706,N,08103.2941,W,1.9,315.1,130615,6.0,"
"##MN-00 00 49 0161 01986 5988 479832 211818 196"
"164.001134"
"$GPRMC,000133,A,2412.9719,N,08103.2957,W,1.9,314.9,130615,6.0,"
"##MN-00 00 49 0162 01991 5986 480347 211917 196"
"164.001181"
"$GPRMC,000138,A,2412.9733,N,08103.2973,W,1.8,314.1,130615,6.0,"
"##MN-00 00 49 0163 01992 5985 480663 211979 196"
"164.001227"
"$GPRMC,000142,A,2412.9751,N,08103.2992,W,1.9,314.0,130615,6.0,"
"##MN-00 00 49 0163 01992 5983 480858 212038 196"
"164.001273"
"$GPRMC,000145,A,2412.9762,N,08103.3002,W,1.8,314.8,130615,6.0,"
"##MN-00 00 51 0164 01998 5982 481092 212074 196"
"164.001319"
"$GPRMC,000150,A,2412.9781,N,08103.3021,W,1.9,315.9,130615,6.0,"
"##MN-00 00 50 0165 01999 5980 481275 212072 196"
"164.001366"
"$GPRMC,000154,A,2412.9796,N,08103.3038,W,1.8,317.0,130615,6.0,"
"##MN-00 00 51 0166 02002 5979 481649 212193 196"
"164.001412"
"$GPRMC,000158,A,2412.9810,N,08103.3050,W,1.8,316.4,130615,6.0,"
"##MN-00 00 49 0167 02004 5977 482069 212235 196"
"164.001458"
"$GPRMC,000202,A,2412.9825,N,08103.3067,W,1.8,315.1,130615,6.0,"
"##MN-00 00 51 0168 02007 5976 482877 212424 196"
"164.001505"
"$GPRMC,000206,A,2412.9841,N,08103.3082,W,1.8,317.1,130615,6.0,"
"##MN-00 00 51 0169 02011 5974 483459 212481 196"
"164.001551"
"$GPRMC,000210,A,2412.9854,N,08103.3092,W,1.8,315.8,130615,6.0,"
"##MN-00 00 51 0170 02014 5973 484163 212604 196"
"164.001597"
"$GPRMC,000214,A,2412.9868,N,08103.3112,W,1.8,316.1,130615,6.0,"
"##MN-00 00 49 0171 02014 5971 485455 212969 196"
"164.001644"
"$GPRMC,000218,A,2412.9883,N,08103.3125,W,1.7,315.2,130615,6.0,"
"##MN-00 00 51 0171 02020 5969 486185 213118 196"
"164.00169"
"$GPRMC,000222,A,2412.9897,N,08103.3139,W,1.8,315.3,130615,6.0,"
"##MN-00 00 51 0172 02020 5967 486581 213157 196"
"164.001736"
"$GPRMC,000226,A,2412.9911,N,08103.3154,W,1.8,316.0,130615,6.0,"
"##MN-00 00 52 0173 02025 5966 486826 213204 196"
"164.001782"
"$GPRMC,000230,A,2412.9925,N,08103.3172,W,1.8,315.2,130615,6.0,"
"##MN-00 00 50 0174 02024 5964 486938 213256 196"
"164.001829"
"$GPRMC,000234,A,2412.9940,N,08103.3187,W,1.8,317.7,130615,6.0,"
"##MN-00 00 50 0175 02029 5962 486999 213252 196"
"164.001875"
"$GPRMC,000238,A,2412.9955,N,08103.3201,W,1.8,317.3,130615,6.0,"
"##MN-00 00 50 0176 02028 5960 487048 213300 196"
"164.001921"
"$GPRMC,000242,A,2412.9973,N,08103.3216,W,1.9,317.7,130615,6.0,"
"##MN-00 00 51 0177 02033 5958 487072 213274 196"
"164.001968"
"$GPRMC,000246,A,2412.9990,N,08103.3228,W,1.8,317.7,130615,6.0,"
"##MN-00 00 49 0178 02033 5956 487114 213304 196"
"164.002014"
"$GPRMC,000250,A,2413.0004,N,08103.3251,W,2.1,316.6,130615,6.0,"
"##MN-00 00 52 0179 02031 5955 487110 213319 196"
"164.00206"
"$GPRMC,000254,A,2413.0018,N,08103.3267,W,1.9,317.4,130615,6.0,"
"##MN-00 00 49 0180 02037 5953 487164 213325 196"
"164.002106"
"$GPRMC,000258,A,2413.0031,N,08103.3284,W,2.0,314.9,130615,6.0,"
"##MN-00 00 49 0181 02033 5951 487153 213339 196"
"164.002153"
"$GPRMC,000302,A,2413.0048,N,08103.3303,W,1.9,313.6,130615,6.0,"
"##MN-00 00 50 0182 02038 5949 487176 213336 196"
"164.002199"
"$GPRMC,000306,A,2413.0060,N,08103.3320,W,1.8,310.7,130615,6.0,"
"##MN-00 00 49 0183 02033 5947 487250 213349 196"
"164.002245"
"$GPRMC,000310,A,2413.0074,N,08103.3336,W,2.0,310.6,130615,6.0,"
"##MN-00 00 50 0183 02038 5945 487214 213351 196"
"164.002292"
"$GPRMC,000314,A,2413.0085,N,08103.3349,W,1.8,310.9,130615,6.0,"
"##MN-00 00 48 0184 02038 5943 487270 213353 196"
"164.002338"
"$GPRMC,000318,A,2413.0102,N,08103.3368,W,2.0,310.5,130615,6.0,"
"##MN-00 00 52 0185 02036 5941 487327 213362 196"
"164.002384"
"$GPRMC,000322,A,2413.0114,N,08103.3382,W,1.8,311.5,130615,6.0,"
"##MN-00 00 50 0186 02040 5939 487421 213371 196"
"164.002431"
"$GPRMC,000326,A,2413.0128,N,08103.3400,W,1.9,312.0,130615,6.0,"
"##MN-00 00 53 0187 02042 5937 487547 213370 196"
"164.002477"
"$GPRMC,000330,A,2413.0143,N,08103.3415,W,1.8,314.8,130615,6.0,"
"##MN-00 00 51 0188 02045 5935 487847 213441 196"
"164.002523"
"$GPRMC,000334,A,2413.0157,N,08103.3432,W,1.9,315.2,130615,6.0,"
"##MN-00 00 51 0189 02052 5933 488242 213512 196"
"164.002569"
"$GPRMC,000338,A,2413.0175,N,08103.3447,W,1.8,315.4,130615,6.0,"
"##MN-00 00 52 0190 02054 5930 488498 213560 196"
"164.002616"
"$GPRMC,000342,A,2413.0190,N,08103.3464,W,1.8,315.5,130615,6.0,"
"##MN-00 00 51 0191 02059 5929 488736 213557 196"
"164.002662"
"$GPRMC,000346,A,2413.0204,N,08103.3479,W,1.8,316.5,130615,6.0,"
"##MN-00 00 51 0192 02061 5927 489382 213744 196"
"164.002708"
"$GPRMC,000350,A,2413.0221,N,08103.3495,W,1.8,317.3,130615,6.0,"
"##MN-00 00 51 0193 02060 5924 489745 213806 196"
"164.002755"
"$GPRMC,000354,A,2413.0235,N,08103.3509,W,1.8,317.4,130615,6.0,"
"##MN-00 00 50 0194 02063 5922 490138 213933 196"
"164.002801"
"$GPRMC,000358,A,2413.0250,N,08103.3526,W,1.9,316.7,130615,6.0,"
"##MN-00 00 50 0195 02066 5920 490407 213975 196"
"164.002847"
"$GPRMC,000402,A,2413.0265,N,08103.3541,W,1.9,317.5,130615,6.0,"
"##MN-00 00 50 0196 02069 5918 490630 214003 196"
"164.002894"
"$GPRMC,000406,A,2413.0280,N,08103.3556,W,1.8,317.0,130615,6.0,"
"##MN-00 00 51 0196 02072 5916 490765 214010 196"
"164.00294"
"$GPRMC,000410,A,2413.0297,N,08103.3569,W,1.8,317.6,130615,6.0,"
"##MN-00 00 50 0197 02074 5914 490957 214027 196"
"164.002986"
"$GPRMC,000414,A,2413.0313,N,08103.3585,W,1.9,318.0,130615,6.0,"
"##MN-00 00 51 0198 02077 5912 490836 213961 196"
"164.003032"
"$GPRMC,000418,A,2413.0327,N,08103.3599,W,1.7,318.5,130615,6.0,"
"##MN-00 00 50 0199 02081 5909 490533 213797 196"
"164.003079"
"$GPRMC,000422,A,2413.0341,N,08103.3614,W,1.8,316.0,130615,6.0,"
"##MN-00 00 49 0200 02083 5907 490089 213635 196"
"164.003125"
"$GPRMC,000426,A,2413.0355,N,08103.3631,W,1.8,314.2,130615,6.0,"
"##MN-00 00 52 0201 02083 5905 489741 213533 196"
"164.003171"
"$GPRMC,000430,A,2413.0369,N,08103.3645,W,1.8,313.0,130615,6.0,"
"##MN-00 00 50 0202 02088 5903 489672 213506 196"
"164.003218"
"$GPRMC,000434,A,2413.0381,N,08103.3661,W,1.8,312.2,130615,6.0,"
"##MN-00 00 53 0203 02090 5900 489706 213501 196"
"164.003264"
"$GPRMC,000438,A,2413.0394,N,08103.3678,W,1.7,313.2,130615,6.0,"
"##MN-00 00 51 0204 02093 5898 489759 213507 196"
"164.00331"
"$GPRMC,000442,A,2413.0407,N,08103.3694,W,1.8,313.9,130615,6.0,"
"##MN-00 00 52 0205 02095 5896 489953 213547 196"
"164.003356"
"$GPRMC,000446,A,2413.0421,N,08103.3711,W,1.8,313.6,130615,6.0,"
"##MN-00 00 51 0206 02100 5894 490355 213602 196"
"164.003403"
"$GPRMC,000450,A,2413.0436,N,08103.3726,W,1.8,315.1,130615,6.0,"
"##MN-00 00 52 0207 02100 5892 490709 213634 196"
"164.003449"
"$GPRMC,000454,A,2413.0450,N,08103.3743,W,1.8,314.4,130615,6.0,"
"##MN-00 00 51 0207 02104 5889 490962 213686 196"
"164.003495"
"$GPRMC,000458,A,2413.0463,N,08103.3757,W,1.7,314.8,130615,6.0,"
"##MN-00 00 53 0208 02106 5887 491148 213694 196"
"164.003542"
"$GPRMC,000502,A,2413.0477,N,08103.3772,W,1.8,314.3,130615,6.0,"
"##MN-00 00 52 0209 02112 5885 491340 213727 196"
"164.003588"
"$GPRMC,000506,A,2413.0492,N,08103.3787,W,1.8,315.4,130615,6.0,"
"##MN-00 00 52 0210 02109 5882 491936 213825 196"
"164.003634"
"$GPRMC,000510,A,2413.0507,N,08103.3805,W,1.8,315.6,130615,6.0,"
"##MN-00 00 54 0211 02116 5880 492514 213949 196"
"164.003681"
"$GPRMC,000514,A,2413.0522,N,08103.3819,W,1.8,317.3,130615,6.0,"
"##MN-00 00 51 0212 02118 5878 493162 214034 196"
"164.003727"
"$GPRMC,000518,A,2413.0537,N,08103.3834,W,1.8,317.9,130615,6.0,"
"##MN-00 00 50 0213 02117 5876 493430 214054 196"
"164.003773"
"$GPRMC,000522,A,2413.0554,N,08103.3847,W,1.8,319.7,130615,6.0,"
"##MN-00 00 52 0214 02120 5873 493633 214094 196"
"164.003819"
"$GPRMC,000526,A,2413.0569,N,08103.3862,W,1.8,320.6,130615,6.0,"
"##MN-00 00 51 0215 02125 5871 493857 214125 196"
"164.003866"
"$GPRMC,000530,A,2413.0582,N,08103.3876,W,1.8,320.9,130615,6.0,"
"##MN-00 00 50 0216 02128 5869 494048 214151 196"
"164.003912"
"$GPRMC,000534,A,2413.0597,N,08103.3891,W,1.8,319.9,130615,6.0,"
"##MN-00 00 51 0216 02128 5866 494207 214170 196"
"164.003958"
"$GPRMC,000538,A,2413.0609,N,08103.3905,W,1.7,319.4,130615,6.0,"
"##MN-00 00 51 0217 02134 5864 494340 214190 196"
"164.004005"
"$GPRMC,000542,A,2413.0625,N,08103.3916,W,1.7,319.7,130615,6.0,"
"##MN-00 00 52 0218 02139 5862 494428 214189 196"
"164.004051"
"$GPRMC,000546,A,2413.0638,N,08103.3928,W,1.6,320.4,130615,6.0,"
"##MN-00 00 51 0219 02143 5859 494526 214217 196"
"164.004097"
"$GPRMC,000550,A,2413.0654,N,08103.3941,W,1.6,320.9,130615,6.0,"
"##MN-00 00 50 0220 02144 5857 494838 214234 196"
"164.004144"
"$GPRMC,000554,A,2413.0670,N,08103.3956,W,1.7,320.8,130615,6.0,"
"##MN-00 00 52 0221 02146 5854 495097 214297 196"
"164.00419"
"$GPRMC,000558,A,2413.0685,N,08103.3967,W,1.7,322.3,130615,6.0,"
"##MN-00 00 50 0222 02148 5852 495436 214336 196"
"164.004236"
"$GPRMC,000602,A,2413.0703,N,08103.3982,W,1.8,321.5,130615,6.0,"
"##MN-00 00 52 0223 02153 5850 495633 214374 196"
"164.004282"
"$GPRMC,000606,A,2413.0716,N,08103.3996,W,1.7,322.3,130615,6.0,"
"##MN-00 00 50 0224 02155 5847 495975 214482 196"
"164.004329"
"$GPRMC,000610,A,2413.0732,N,08103.4012,W,1.8,320.2,130615,6.0,"
"##MN-00 00 53 0225 02158 5845 496334 214559 196"
"164.004375"
"$GPRMC,000614,A,2413.0746,N,08103.4032,W,1.7,319.4,130615,6.0,"
"##MN-00 00 50 0226 02167 5843 496904 214730 196"
"164.004433"
"$GPRMC,000618,A,2413.0757,N,08103.4040,W,1.7,317.8,130615,6.0,"
"##MN-00 00 50 0227 02163 5840 498328 215125 196"
"164.004479"
"$GPRMC,000622,A,2413.0773,N,08103.4054,W,1.7,316.4,130615,6.0,"
"##MN-00 00 52 0227 02169 5837 498710 215153 196"
"164.004525"
"$GPRMC,000626,A,2413.0785,N,08103.4068,W,1.7,316.0,130615,6.0,"
"##MN-00 00 50 0228 02173 5835 499310 215242 196"
"164.004572"
"$GPRMC,000630,A,2413.0800,N,08103.4080,W,1.8,316.7,130615,6.0,"
"##MN-00 00 49 0229 02176 5833 500282 215495 196"
"164.004618"
"$GPRMC,000635,A,2413.0818,N,08103.4098,W,1.7,316.2,130615,6.0,"
"##MN-00 00 51 0230 02175 5830 500709 215750 196"
"164.004664"
"$GPRMC,000638,A,2413.0828,N,08103.4109,W,1.8,318.8,130615,6.0,"
"##MN-00 00 51 0231 02179 5828 501652 215921 196"
"164.004711"
"$GPRMC,000643,A,2413.0849,N,08103.4129,W,1.7,317.3,130615,6.0,"
"##MN-00 00 51 0232 02183 5825 502485 216098 196"
"164.004757"
"$GPRMC,000647,A,2413.0864,N,08103.4144,W,1.8,318.2,130615,6.0,"
"##MN-00 00 50 0233 02186 5823 502849 216111 196"
"164.004803"
"$GPRMC,000651,A,2413.0880,N,08103.4156,W,1.8,318.9,130615,6.0,"
"##MN-00 00 52 0234 02185 5820 503300 216319 196"
"164.00485"
"$GPRMC,000654,A,2413.0890,N,08103.4169,W,1.8,318.5,130615,6.0,"
"##MN-00 00 51 0235 02189 5818 503487 216402 196"
"164.004896"
"$GPRMC,000658,A,2413.0904,N,08103.4184,W,1.8,318.2,130615,6.0,"
"##MN-00 00 51 0236 02189 5815 503668 216399 196"
"164.004942"
"$GPRMC,000703,A,2413.0926,N,08103.4205,W,1.9,316.5,130615,6.0,"
"##MN-00 00 52 0237 02191 5813 503767 216417 196"
"164.004988"
"$GPRMC,000707,A,2413.0941,N,08103.4216,W,1.8,318.5,130615,6.0,"
"##MN-00 00 50 0238 02195 5810 503954 216509 196"
"164.005035"
"$GPRMC,000710,A,2413.0951,N,08103.4227,W,1.9,318.2,130615,6.0,"
"##MN-00 00 51 0239 02195 5807 504160 216568 196"
"164.005081"
"$GPRMC,000715,A,2413.0970,N,08103.4246,W,1.8,318.1,130615,6.0,"
"##MN-00 00 50 0239 02201 5805 504370 216612 196"
"164.005127"
"$GPRMC,000719,A,2413.0985,N,08103.4260,W,1.8,318.4,130615,6.0,"
"##MN-00 00 50 0240 02201 5802 504549 216705 196"
"164.005174"
"$GPRMC,000723,A,2413.1001,N,08103.4278,W,1.9,317.9,130615,6.0,"
"##MN-00 00 51 0241 02200 5799 504722 216743 196"
"164.00522"
"$GPRMC,000727,A,2413.1016,N,08103.4293,W,1.8,318.3,130615,6.0,"
"##MN-00 00 51 0242 02205 5797 504906 216731 195"
"164.005266"
"$GPRMC,000731,A,2413.1031,N,08103.4306,W,1.8,316.9,130615,6.0,"
"##MN-00 00 51 0243 02207 5794 505005 216763 196"
"164.005312"
"$GPRMC,000735,A,2413.1046,N,08103.4321,W,1.8,318.5,130615,6.0,"
"##MN-00 00 51 0244 02212 5792 505239 216833 196"
"164.005359"
"$GPRMC,000739,A,2413.1061,N,08103.4333,W,1.8,319.1,130615,6.0,"
"##MN-00 00 50 0245 02213 5789 505496 216913 196"
"164.005405"
"$GPRMC,000743,A,2413.1077,N,08103.4350,W,1.8,320.1,130615,6.0,"
"##MN-00 00 51 0246 02213 5786 505655 216921 195"
"164.005451"
"$GPRMC,000747,A,2413.1092,N,08103.4364,W,1.7,321.0,130615,6.0,"
"##MN-00 00 50 0247 02216 5783 505974 217043 195"
"164.005498"
"$GPRMC,000751,A,2413.1109,N,08103.4379,W,1.8,320.7,130615,6.0,"
"##MN-00 00 51 0248 02216 5781 506351 217118 195"
"164.005544"
"$GPRMC,000755,A,2413.1124,N,08103.4393,W,1.8,320.8,130615,6.0,"
"##MN-00 00 50 0249 02222 5778 507006 217188 195"
"164.00559"
"$GPRMC,000759,A,2413.1143,N,08103.4404,W,1.8,320.8,130615,6.0,"
"##MN-00 00 51 0250 02220 5775 507236 217269 195"
"164.005637"
"$GPRMC,000803,A,2413.1158,N,08103.4419,W,1.8,320.6,130615,6.0,"
"##MN-00 00 51 0251 02226 5772 507922 217374 195"
"164.005683"
"$GPRMC,000807,A,2413.1172,N,08103.4433,W,1.8,319.9,130615,6.0,"
"##MN-00 00 51 0252 02228 5769 508363 217483 196"
"164.005729"
"$GPRMC,000811,A,2413.1187,N,08103.4447,W,1.8,319.8,130615,6.0,"
"##MN-00 00 51 0253 02230 5767 508705 217594 196"
"164.005775"
"$GPRMC,000815,A,2413.1203,N,08103.4460,W,1.7,319.2,130615,6.0,"
"##MN-00 00 51 0254 02229 5764 509031 217672 196"
"164.005822"
"$GPRMC,000819,A,2413.1218,N,08103.4474,W,1.7,318.8,130615,6.0,"
"##MN-00 00 51 0255 02236 5761 509166 217722 195"
"164.005868"
"$GPRMC,000823,A,2413.1233,N,08103.4491,W,1.8,318.2,130615,6.0,"
"##MN-00 00 50 0256 02233 5758 509556 217849 195"
"164.005914"
"$GPRMC,000827,A,2413.1248,N,08103.4509,W,1.9,317.4,130615,6.0,"
"##MN-00 00 51 0257 02237 5755 509796 217822 195"
"164.005961"
"$GPRMC,000831,A,2413.1263,N,08103.4523,W,1.8,317.3,130615,6.0,"
"##MN-00 00 50 0258 02239 5752 510073 217913 196"
"164.006007"
"$GPRMC,000835,A,2413.1280,N,08103.4539,W,2.0,317.4,130615,6.0,"
"##MN-00 00 50 0259 02240 5749 510342 217941 195"
"164.006053"
"$GPRMC,000839,A,2413.1295,N,08103.4555,W,1.9,316.6,130615,6.0,"
"##MN-00 00 52 0260 02240 5746 510386 217940 195"
"164.0061"
"$GPRMC,000843,A,2413.1310,N,08103.4572,W,1.9,315.9,130615,6.0,"
"##MN-00 00 52 0261 02243 5744 510378 217932 195"
"164.006146"
"$GPRMC,000847,A,2413.1324,N,08103.4588,W,1.9,315.8,130615,6.0,"
"##MN-00 00 51 0262 02245 5741 510357 217926 195"
"164.006192"
"$GPRMC,000851,A,2413.1341,N,08103.4604,W,1.9,315.2,130615,6.0,"
"##MN-00 00 51 0263 02245 5738 510354 217921 195"
"164.006238"
"$GPRMC,000855,A,2413.1353,N,08103.4618,W,1.9,315.3,130615,6.0,"
"##MN-00 00 51 0264 02249 5735 510342 217911 195"
"164.006285"
"$GPRMC,000859,A,2413.1366,N,08103.4635,W,1.8,313.5,130615,6.0,"
"##MN-00 00 50 0264 02250 5732 510346 217910 195"
"164.006331"
"$GPRMC,000903,A,2413.1378,N,08103.4654,W,1.8,311.0,130615,6.0,"
"##MN-00 00 52 0265 02251 5729 510429 217908 195"
"164.006377"
"$GPRMC,000907,A,2413.1389,N,08103.4664,W,1.8,310.9,130615,6.0,"
"##MN-00 00 51 0266 02255 5726 510613 217917 195"
"164.006424"
"$GPRMC,000911,A,2413.1406,N,08103.4686,W,1.8,310.7,130615,6.0,"
"##MN-00 00 51 0267 02261 5723 510931 217946 195"
"164.00647"
"$GPRMC,000915,A,2413.1418,N,08103.4700,W,1.7,312.4,130615,6.0,"
"##MN-00 00 51 0268 02260 5720 511323 218064 195"
"164.006516"
"$GPRMC,000919,A,2413.1428,N,08103.4714,W,1.7,311.6,130615,6.0,"
"##MN-00 00 51 0269 02265 5717 511738 218159 195"
"164.006562"
"$GPRMC,000923,A,2413.1446,N,08103.4730,W,1.7,313.9,130615,6.0,"
"##MN-00 00 52 0270 02269 5714 512199 218174 195"
"164.006609"
"$GPRMC,000927,A,2413.1456,N,08103.4743,W,1.8,313.0,130615,6.0,"
"##MN-00 00 51 0271 02270 5711 512505 218260 195"
"164.006655"
"$GPRMC,000931,A,2413.1472,N,08103.4762,W,1.7,314.2,130615,6.0,"
"##MN-00 00 50 0272 02272 5708 512781 218375 195"
"164.006701"
"$GPRMC,000935,A,2413.1487,N,08103.4776,W,1.8,312.5,130615,6.0,"
"##MN+00 00 48 0273 02268 5705 512938 218434 195"
"164.006748"
"$GPRMC,000939,A,2413.1501,N,08103.4794,W,1.8,313.5,130615,6.0,"
"##MN+00 00 52 0274 02270 5702 512982 218434 195"
"164.006794"
"$GPRMC,000943,A,2413.1516,N,08103.4808,W,1.8,314.7,130615,6.0,"
"##MN+00 00 50 0275 02272 5699 513009 218444 195"
"164.00684"
"$GPRMC,000947,A,2413.1533,N,08103.4826,W,1.9,315.0,130615,6.0,"
"##MN-00 00 49 0276 02267 5696 512998 218447 196"
"164.006887"
"$GPRMC,000951,A,2413.1548,N,08103.4837,W,1.8,316.2,130615,6.0,"
"##MN+00 00 52 0277 02266 5693 512913 218428 195"
"164.006933"
"$GPRMC,000955,A,2413.1563,N,08103.4852,W,1.8,315.3,130615,6.0,"
"##MN+00 00 51 0278 02266 5689 512857 218416 195"
"164.006979"
"$GPRMC,000959,A,2413.1580,N,08103.4866,W,1.8,318.1,130615,6.0,"
"##MN+00 00 61 0279 02273 5687 512910 218424 195"
"164.007025"
"#increment_net"
"$GPRMC,001003,A,2413.1595,N,08103.4879,W,1.8,318.3,130615,6.0,"
"##MN-00 00 56 0280 02272 5684 513027 218465 195"
"164.007072"
"$GPRMC,001007,A,2413.1609,N,08103.4895,W,1.8,317.5,130615,6.0,"
"##MN-00 00 55 0281 02275 5681 513121 218480 195"
"164.007118"
"$GPRMC,001011,A,2413.1624,N,08103.4910,W,1.8,316.2,130615,6.0,"
"##MN-00 00 54 0282 02273 5677 513142 218484 195"
"164.007164"
"$GPRMC,001015,A,2413.1637,N,08103.4926,W,1.7,314.6,130615,6.0,"
"##MN-00 00 51 0283 02275 5674 513150 218486 195"
"164.007211"
"$GPRMC,001019,A,2413.1649,N,08103.4943,W,1.8,315.4,130615,6.0,"
"##MN-00 00 54 0284 02270 5671 513084 218480 195"
"164.007257"
"$GPRMC,001023,A,2413.1662,N,08103.4956,W,1.7,314.7,130615,6.0,"
"##MN-00 00 52 0285 02273 5668 513046 218472 195"
"164.007303"
"$GPRMC,001027,A,2413.1674,N,08103.4971,W,1.7,313.3,130615,6.0,"
"##MN-00 00 53 0286 02269 5665 513017 218463 195"
"164.00735"
"$GPRMC,001031,A,2413.1688,N,08103.4982,W,1.7,314.1,130615,6.0,"
"##MN-00 00 52 0287 02271 5662 512986 218456 195"
"164.007396"
"$GPRMC,001035,A,2413.1700,N,08103.4998,W,1.7,314.2,130615,6.0,"
"##MN-00 00 52 0288 02270 5659 512910 218441 195"
"164.007442"
"$GPRMC,001039,A,2413.1714,N,08103.5016,W,1.8,315.4,130615,6.0,"
"##MN-00 00 53 0289 02271 5656 512729 218416 195"
"164.007488"
"$GPRMC,001043,A,2413.1731,N,08103.5029,W,1.7,316.4,130615,6.0,"
"##MN-00 00 54 0290 02270 5653 512577 218370 195"
"164.007535"
"$GPRMC,001047,A,2413.1747,N,08103.5044,W,1.7,318.5,130615,6.0,"
"##MN-00 00 52 0291 02270 5649 512453 218324 195"
"164.007581"
"$GPRMC,001051,A,2413.1761,N,08103.5058,W,1.7,318.7,130615,6.0,"
"##MN-00 00 52 0292 02268 5646 512191 218291 195"
"164.007627"
"$GPRMC,001055,A,2413.1775,N,08103.5072,W,1.7,319.1,130615,6.0,"
"##MN-00 00 52 0293 02268 5643 511727 218175 195"
"164.007685"
"$GPRMC,001059,A,2413.1789,N,08103.5087,W,1.8,318.7,130615,6.0,"
"##MN-00 00 51 0294 02266 5640 511393 218068 195"
"164.007731"
"$GPRMC,001103,A,2413.1801,N,08103.5103,W,1.8,318.9,130615,6.0,"
"##MN-00 00 52 0295 02266 5637 511179 218058 195"
"164.007778"
"$GPRMC,001107,A,2413.1815,N,08103.5116,W,1.8,318.3,130615,6.0,"
"##MN-00 00 52 0296 02264 5634 511073 218040 195"
"164.007824"
"$GPRMC,001111,A,2413.1829,N,08103.5131,W,1.8,318.4,130615,6.0,"
"##MN-00 00 54 0297 02264 5631 510963 218020 195"
"164.00787"
"$GPRMC,001116,A,2413.1847,N,08103.5148,W,1.8,319.7,130615,6.0,"
"##MN-00 00 52 0298 02263 5628 510821 218001 195"
"164.007917"
"$GPRMC,001120,A,2413.1862,N,08103.5162,W,1.8,319.5,130615,6.0,"
"##MN-00 00 53 0299 02260 5625 510602 217986 195"
"164.007963"
"$GPRMC,001124,A,2413.1877,N,08103.5177,W,1.8,319.7,130615,6.0,"
"##MN-00 00 54 0300 02260 5622 510424 217953 195"
"164.008009"
"$GPRMC,001128,A,2413.1894,N,08103.5191,W,1.7,320.9,130615,6.0,"
"##MN-00 00 51 0302 02261 5619 510342 217926 195"
"164.008056"
"$GPRMC,001132,A,2413.1909,N,08103.5204,W,1.8,318.7,130615,6.0,"
"##MN-00 00 54 0303 02256 5616 510406 217953 195"
"164.008102"
"$GPRMC,001136,A,2413.1927,N,08103.5220,W,1.9,320.0,130615,6.0,"
"##MN-00 00 53 0304 02253 5612 510492 217997 195"
"164.008148"
"$GPRMC,001140,A,2413.1944,N,08103.5232,W,1.8,319.5,130615,6.0,"
"##MN-00 00 52 0305 02250 5609 510436 217995 195"
"164.008194"
"$GPRMC,001144,A,2413.1960,N,08103.5247,W,2.0,318.1,130615,6.0,"
"##MN-00 00 52 0306 02247 5606 509800 217923 195"
"164.008241"
"$GPRMC,001148,A,2413.1974,N,08103.5260,W,1.8,319.3,130615,6.0,"
"##MN-00 00 52 0307 02247 5603 509390 217882 195"
"164.008287"
"$GPRMC,001152,A,2413.1988,N,08103.5274,W,1.8,318.4,130615,6.0,"
"##MN-00 00 52 0308 02249 5600 508934 217761 195"
"164.008333"
"$GPRMC,001156,A,2413.2003,N,08103.5289,W,1.7,318.4,130615,6.0,"
"##MN-00 00 55 0309 02245 5597 508594 217699 195"
"164.00838"
"$GPRMC,001200,A,2413.2016,N,08103.5301,W,1.7,318.0,130615,6.0,"
"##MN-00 00 52 0310 02246 5594 508246 217595 195"
"164.008426"
"$GPRMC,001204,A,2413.2029,N,08103.5316,W,1.7,317.2,130615,6.0,"
"##MN-00 00 51 0311 02245 5591 508039 217566 195"
"164.008472"
"$GPRMC,001208,A,2413.2043,N,08103.5332,W,1.7,317.7,130615,6.0,"
"##MN-00 00 54 0312 02244 5588 507792 217466 195"
"164.008519"
"$GPRMC,001212,A,2413.2057,N,08103.5344,W,1.7,317.2,130615,6.0,"
"##MN-00 00 52 0313 02244 5585 507493 217439 195"
"164.008565"
"$GPRMC,001216,A,2413.2071,N,08103.5359,W,1.7,317.2,130615,6.0,"
"##MN-00 00 53 0314 02240 5582 507152 217391 195"
"164.008611"
"$GPRMC,001220,A,2413.2085,N,08103.5373,W,1.6,315.9,130615,6.0,"
"##MN-00 00 52 0315 02242 5579 506778 217297 195"
"164.008657"
"$GPRMC,001224,A,2413.2097,N,08103.5390,W,1.7,314.0,130615,6.0,"
"##MN-00 00 51 0316 02240 5576 506463 217207 195"
"164.008704"
"$GPRMC,001228,A,2413.2111,N,08103.5405,W,1.7,315.0,130615,6.0,"
"##MN-00 00 52 0317 02238 5574 506092 217210 195"
"164.00875"
"$GPRMC,001232,A,2413.2123,N,08103.5419,W,1.7,313.3,130615,6.0,"
"##MN-00 00 52 0318 02238 5570 505881 217143 195"
"164.008796"
"$GPRMC,001236,A,2413.2136,N,08103.5434,W,1.7,314.5,130615,6.0,"
"##MN-00 00 52 0319 02238 5567 505611 216998 195"
"164.008843"
"$GPRMC,001240,A,2413.2148,N,08103.5446,W,1.7,314.9,130615,6.0,"
"##MN-00 00 51 0320 02235 5565 505373 216976 195"
"164.008889"
"$GPRMC,001244,A,2413.2161,N,08103.5462,W,1.6,314.4,130615,6.0,"
"##MN-00 00 54 0321 02233 5561 505208 216940 195"
"164.008935"
"$GPRMC,001248,A,2413.2173,N,08103.5477,W,1.6,314.2,130615,6.0,"
"##MN-00 00 52 0322 02234 5559 505121 216909 195"
"164.008981"
"$GPRMC,001252,A,2413.2184,N,08103.5492,W,1.6,313.3,130615,6.0,"
"##MN-00 00 52 0323 02232 5556 505070 216877 195"
"164.009028"
"$GPRMC,001256,A,2413.2198,N,08103.5509,W,1.7,314.4,130615,6.0,"
"##MN-00 00 51 0324 02233 5553 505028 216869 195"
"164.009074"
"$GPRMC,001300,A,2413.2213,N,08103.5520,W,1.6,316.4,130615,6.0,"
"##MN-00 00 50 0325 02232 5551 504973 216842 195"
"164.00912"
"$GPRMC,001304,A,2413.2229,N,08103.5535,W,1.7,317.1,130615,6.0,"
"##MN-00 00 52 0326 02225 5548 504922 216824 195"
"164.009167"
"$GPRMC,001308,A,2413.2245,N,08103.5549,W,1.8,318.2,130615,6.0,"
"##MN-00 00 51 0327 02227 5545 504864 216828 195"
"164.009213"
"$GPRMC,001312,A,2413.2258,N,08103.5560,W,1.7,318.0,130615,6.0,"
"##MN-00 00 52 0329 02221 5542 504804 216806 195"
"164.009259"
"$GPRMC,001316,A,2413.2273,N,08103.5578,W,1.8,317.3,130615,6.0,"
"##MN-00 00 55 0329 02219 5540 504706 216785 195"
"164.009306"
"$GPRMC,001320,A,2413.2287,N,08103.5589,W,1.7,318.3,130615,6.0,"
"##MN-00 00 51 0330 02219 5537 504568 216758 195"
"164.009352"
"$GPRMC,001324,A,2413.2300,N,08103.5601,W,1.7,317.6,130615,6.0,"
"##MN-00 00 51 0332 02217 5534 504394 216713 195"
"164.009398"
"$GPRMC,001328,A,2413.2314,N,08103.5614,W,1.7,318.6,130615,6.0,"
"##MN-00 00 52 0333 02216 5531 504274 216671 195"
"164.009444"
"$GPRMC,001332,A,2413.2328,N,08103.5626,W,1.6,319.0,130615,6.0,"
"##MN-00 00 51 0334 02215 5529 504101 216649 195"
"164.009491"
"$GPRMC,001336,A,2413.2342,N,08103.5640,W,1.7,319.2,130615,6.0,"
"##MN-00 00 53 0335 02212 5526 504002 216617 195"
"164.009537"
"$GPRMC,001340,A,2413.2357,N,08103.5651,W,1.6,319.7,130615,6.0,"
"##MN-00 00 51 0336 02211 5524 504003 216616 195"
"164.009583"
"$GPRMC,001344,A,2413.2371,N,08103.5666,W,1.7,319.0,130615,6.0,"
"##MN-00 00 52 0337 02208 5521 503938 216608 195"
"164.00963"
"$GPRMC,001348,A,2413.2385,N,08103.5679,W,1.6,319.9,130615,6.0,"
"##MN-00 00 52 0338 02207 5518 503859 216579 195"
"164.009676"
"$GPRMC,001352,A,2413.2397,N,08103.5694,W,1.7,319.5,130615,6.0,"
"##MN-00 00 51 0339 02205 5515 503698 216556 195"
"164.009722"
"$GPRMC,001356,A,2413.2411,N,08103.5706,W,1.7,320.7,130615,6.0,"
"##MN-00 00 51 0340 02204 5513 503512 216510 195"
"164.009769"
"$GPRMC,001400,A,2413.2426,N,08103.5719,W,1.7,320.3,130615,6.0,"
"##MN-00 00 50 0341 02204 5511 503305 216451 195"
"164.009815"
"$GPRMC,001404,A,2413.2440,N,08103.5733,W,1.7,320.5,130615,6.0,"
"##MN-00 00 51 0342 02199 5508 503074 216402 195"
"164.009861"
"$GPRMC,001408,A,2413.2455,N,08103.5746,W,1.7,319.5,130615,6.0,"
"##MN-00 00 53 0343 02196 5505 502877 216335 195"
"164.009907"
"$GPRMC,001412,A,2413.2469,N,08103.5760,W,1.7,319.4,130615,6.0,"
"##MN-00 00 51 0344 02195 5503 502634 216310 195"
"164.009954"
"$GPRMC,001416,A,2413.2482,N,08103.5773,W,1.6,318.0,130615,6.0,"
"##MN-00 00 52 0345 02192 5500 502313 216185 195"
"164.01"
"$GPRMC,001420,A,2413.2495,N,08103.5788,W,1.6,318.0,130615,6.0,"
"##MN-00 00 51 0346 02195 5497 501854 216073 195"
"164.010046"
"$GPRMC,001424,A,2413.2508,N,08103.5800,W,1.6,318.7,130615,6.0,"
"##MN-00 00 50 0347 02190 5495 501374 215955 195"
"164.010093"
"$GPRMC,001428,A,2413.2523,N,08103.5814,W,1.7,319.7,130615,6.0,"
"##MN-00 00 52 0348 02186 5493 500780 215812 195"
"164.010139"
"$GPRMC,001432,A,2413.2536,N,08103.5827,W,1.6,318.5,130615,6.0,"
"##MN-00 00 52 0349 02184 5491 500420 215729 195"
"164.010185"
"$GPRMC,001436,A,2413.2551,N,08103.5840,W,1.7,318.8,130615,6.0,"
"##MN-00 00 52 0350 02184 5488 499773 215549 195"
"164.010231"
"$GPRMC,001440,A,2413.2563,N,08103.5853,W,1.7,319.9,130615,6.0,"
"##MN-00 00 52 0351 02182 5486 498907 215368 195"
"164.010278"
"$GPRMC,001444,A,2413.2578,N,08103.5867,W,1.7,319.9,130615,6.0,"
"##MN-00 00 50 0352 02182 5483 498381 215220 195"
"164.010324"
"$GPRMC,001448,A,2413.2591,N,08103.5879,W,1.7,319.0,130615,6.0,"
"##MN-00 00 51 0353 02180 5481 498000 215121 195"
"164.01037"
"$GPRMC,001452,A,2413.2606,N,08103.5893,W,1.7,320.6,130615,6.0,"
"##MN-00 00 52 0354 02175 5478 497655 215033 195"
"164.010417"
"$GPRMC,001456,A,2413.2620,N,08103.5907,W,1.7,319.9,130615,6.0,"
"##MN-00 00 50 0355 02173 5476 497357 214991 195"
"164.010463"
"$GPRMC,001500,A,2413.2635,N,08103.5922,W,1.7,319.4,130615,6.0,"
"##MN-00 00 51 0356 02168 5474 497031 214890 195"
"164.010509"
"$GPRMC,001504,A,2413.2650,N,08103.5934,W,1.7,319.8,130615,6.0,"
"##MN-00 00 52 0357 02167 5471 496532 214790 195"
"164.010556"
"$GPRMC,001508,A,2413.2664,N,08103.5950,W,1.7,318.9,130615,6.0,"
"##MN-00 00 50 0358 02165 5469 495937 214675 195"
"164.010602"
"$GPRMC,001512,A,2413.2679,N,08103.5964,W,1.7,318.7,130615,6.0,"
"##MN-00 00 52 0359 02161 5467 495429 214523 195"
"164.010648"
"$GPRMC,001516,A,2413.2693,N,08103.5979,W,1.8,317.2,130615,6.0,"
"##MN-00 00 55 0360 02155 5465 495112 214481 195"
"164.010694"
"$GPRMC,001520,A,2413.2704,N,08103.5995,W,1.7,316.2,130615,6.0,"
"##MN-00 00 52 0361 02155 5463 494988 214476 195"
"164.010741"
"$GPRMC,001524,A,2413.2719,N,08103.6008,W,1.7,314.3,130615,6.0,"
"##MN-00 00 52 0363 02152 5460 494982 214495 195"
"164.010787"
"$GPRMC,001528,A,2413.2730,N,08103.6022,W,1.7,313.9,130615,6.0,"
"##MN-00 00 53 0364 02149 5458 495000 214496 195"
"164.010845"
"$GPRMC,001532,A,2413.2744,N,08103.6037,W,1.7,314.2,130615,6.0,"
"##MN-00 00 53 0365 02146 5456 495025 214495 195"
"164.010891"
"$GPRMC,001536,A,2413.2758,N,08103.6051,W,1.7,314.8,130615,6.0,"
"##MN-00 00 54 0366 02140 5454 495068 214504 195"
"164.010937"
"$GPRMC,001540,A,2413.2771,N,08103.6066,W,1.7,314.4,130615,6.0,"
"##MN-00 00 52 0367 02140 5452 495089 214516 195"
"164.010984"
"$GPRMC,001544,A,2413.2784,N,08103.6080,W,1.7,314.5,130615,6.0,"
"##MN-00 00 51 0368 02137 5450 495070 214518 195"
"164.01103"
"$GPRMC,001548,A,2413.2798,N,08103.6095,W,1.7,313.5,130615,6.0,"
"##MN-00 00 53 0369 02133 5447 494914 214504 195"
"164.011076"
"$GPRMC,001552,A,2413.2812,N,08103.6109,W,1.6,314.3,130615,6.0,"
"##MN-00 00 50 0370 02134 5446 494742 214430 195"
"164.011123"
"$GPRMC,001557,A,2413.2830,N,08103.6127,W,1.7,315.1,130615,6.0,"
"##MN-00 00 52 0371 02126 5444 493821 214281 195"
"164.011169"
"$GPRMC,001600,A,2413.2841,N,08103.6141,W,1.8,315.1,130615,6.0,"
"##MN-00 00 56 0372 02122 5441 492841 214104 195"
"164.011215"
"$GPRMC,001604,A,2413.2854,N,08103.6154,W,1.8,314.8,130615,6.0,"
"##MN-00 00 50 0373 02123 5440 492378 214074 195"
"164.011262"
"$GPRMC,001608,A,2413.2869,N,08103.6172,W,1.9,315.1,130615,6.0,"
"##MN-00 00 52 0373 02115 5437 492111 213997 195"
"164.011308"
"$GPRMC,001612,A,2413.2883,N,08103.6188,W,1.8,314.9,130615,6.0,"
"##MN-00 00 54 0374 02117 5435 492068 213991 195"
"164.011354"
"$GPRMC,001616,A,2413.2894,N,08103.6203,W,1.7,312.8,130615,6.0,"
"##MN-00 00 52 0375 02112 5434 492041 213998 195"
"164.0114"
"$GPRMC,001621,A,2413.2912,N,08103.6218,W,1.8,314.2,130615,6.0,"
"##MN-00 00 53 0376 02111 5432 492041 214021 195"
"164.011447"
"$GPRMC,001624,A,2413.2923,N,08103.6226,W,1.7,316.2,130615,6.0,"
"##MN-00 00 51 0377 02111 5430 492036 214021 195"
"164.011493"
"$GPRMC,001629,A,2413.2939,N,08103.6243,W,1.6,318.0,130615,6.0,"
"##MN-00 00 51 0378 02110 5428 492015 214018 195"
"164.011539"
"$GPRMC,001633,A,2413.2956,N,08103.6257,W,1.7,319.1,130615,6.0,"
"##MN-00 00 52 0379 02108 5426 492018 214021 195"
"164.011586"
"$GPRMC,001637,A,2413.2970,N,08103.6268,W,1.6,319.4,130615,6.0,"
"##MN-00 00 51 0380 02107 5424 492050 214025 195"
"164.011632"
"$GPRMC,001641,A,2413.2982,N,08103.6282,W,1.7,319.0,130615,6.0,"
"##MN-00 00 52 0381 02107 5423 492084 214024 195"
"164.011678"
"$GPRMC,001645,A,2413.2997,N,08103.6293,W,1.6,320.8,130615,6.0,"
"##MN-00 00 52 0382 02107 5421 492108 214024 195"
"164.011725"
"$GPRMC,001649,A,2413.3010,N,08103.6306,W,1.6,320.9,130615,6.0,"
"##MN-00 00 51 0383 02105 5419 492126 214028 195"
"164.011771"
"$GPRMC,001653,A,2413.3025,N,08103.6319,W,1.6,321.3,130615,6.0,"
"##MN-00 00 52 0384 02103 5417 492139 214028 195"
"164.011817"
"$GPRMC,001657,A,2413.3037,N,08103.6333,W,1.6,319.8,130615,6.0,"
"##MN-00 00 52 0385 02101 5416 492155 214031 195"
"164.011863"
"$GPRMC,001701,A,2413.3051,N,08103.6344,W,1.6,319.7,130615,6.0,"
"##MN-00 00 51 0386 02103 5414 492047 214007 195"
"164.01191"
"$GPRMC,001705,A,2413.3065,N,08103.6358,W,1.7,318.6,130615,6.0,"
"##MN-00 00 52 0387 02101 5412 491335 213954 195"
"164.011956"
"$GPRMC,001709,A,2413.3079,N,08103.6370,W,1.7,318.2,130615,6.0,"
"##MN-00 00 51 0389 02099 5410 490820 213859 195"
"164.012002"
"$GPRMC,001713,A,2413.3093,N,08103.6384,W,1.7,318.0,130615,6.0,"
"##MN+00 00 52 0390 02095 5409 490275 213780 195"
"164.012049"
"$GPRMC,001717,A,2413.3105,N,08103.6398,W,1.7,316.8,130615,6.0,"
"##MN+00 00 52 0391 02094 5407 490047 213739 195"
"164.012095"
"$GPRMC,001721,A,2413.3116,N,08103.6413,W,1.6,316.0,130615,6.0,"
"##MN+00 00 52 0392 02093 5405 489883 213714 195"
"164.012141"
"$GPRMC,001725,A,2413.3130,N,08103.6424,W,1.6,316.4,130615,6.0,"
"##MN-00 00 52 0393 02092 5404 489791 213702 195"
"164.012187"
"$GPRMC,001729,A,2413.3138,N,08103.6435,W,1.6,315.8,130615,6.0,"
"##MN+00 00 53 0394 02089 5402 489720 213679 195"
"164.012234"
"$GPRMC,001733,A,2413.3152,N,08103.6454,W,1.5,313.9,130615,6.0,"
"##MN+00 00 58 0395 02093 5401 489651 213633 195"
"164.01228"
"$GPRMC,001737,A,2413.3163,N,08103.6467,W,1.6,312.5,130615,6.0,"
"##MN+00 00 52 0395 02092 5399 489686 213644 195"
"164.012326"
"#increment_net"
"$GPRMC,001741,A,2413.3177,N,08103.6478,W,1.6,313.2,130615,6.0,"
"##MN-00 00 53 0396 02090 5398 489675 213644 195"
"164.012373"
"$GPRMC,001745,A,2413.3187,N,08103.6489,W,1.5,313.8,130615,6.0,"
"##MN-00 00 50 0397 02088 5396 489710 213647 195"
"164.012419"
"$GPRMC,001749,A,2413.3199,N,08103.6501,W,1.5,315.1,130615,6.0,"
"##MN-00 00 51 0399 02087 5395 489704 213640 195"
"164.012465"
"$GPRMC,001753,A,2413.3210,N,08103.6514,W,1.5,315.7,130615,6.0,"
"##MN-00 00 50 0400 02085 5393 489652 213625 195"
"164.012512"
"$GPRMC,001757,A,2413.3221,N,08103.6526,W,1.6,316.0,130615,6.0,"
"##MN-00 00 51 0401 02081 5391 489518 213590 195"
"164.012558"
"$GPRMC,001801,A,2413.3234,N,08103.6542,W,1.6,316.2,130615,6.0,"
"##MN-00 00 51 0402 02080 5390 489259 213532 195"
"164.012604"
"$GPRMC,001805,A,2413.3246,N,08103.6554,W,1.6,315.9,130615,6.0,"
"##MN-00 00 50 0403 02077 5388 488964 213480 195"
"164.01265"
"$GPRMC,001809,A,2413.3260,N,08103.6568,W,1.6,316.0,130615,6.0,"
"##MN-00 00 51 0404 02075 5387 488794 213445 195"
"164.012697"
"$GPRMC,001813,A,2413.3273,N,08103.6582,W,1.6,315.7,130615,6.0,"
"##MN-00 00 49 0404 02073 5385 488621 213400 195"
"164.012743"
"$GPRMC,001817,A,2413.3286,N,08103.6595,W,1.6,315.3,130615,6.0,"
"##MN-00 00 48 0406 02070 5384 488278 213298 195"
"164.012789"
"$GPRMC,001821,A,2413.3300,N,08103.6612,W,1.7,314.8,130615,6.0,"
"##MN-00 00 51 0407 02068 5383 487899 213250 195"
"164.012836"
"$GPRMC,001825,A,2413.3315,N,08103.6623,W,1.7,316.8,130615,6.0,"
"##MN-00 00 50 0408 02067 5382 487689 213204 195"
"164.012882"
"$GPRMC,001829,A,2413.3329,N,08103.6638,W,1.7,318.4,130615,6.0,"
"##MN-00 00 50 0409 02062 5380 487561 213204 195"
"164.012928"
"$GPRMC,001833,A,2413.3344,N,08103.6651,W,1.7,320.0,130615,6.0,"
"##MN-00 00 48 0410 02058 5379 487414 213137 195"
"164.012975"
"$GPRMC,001837,A,2413.3358,N,08103.6665,W,1.7,319.4,130615,6.0,"
"##MN-00 00 49 0411 02055 5377 487232 213093 195"
"164.013021"
"$GPRMC,001841,A,2413.3373,N,08103.6673,W,1.7,319.9,130615,6.0,"
"##MN-00 00 49 0412 02054 5376 486761 213011 195"
"164.013067"
"$GPRMC,001845,A,2413.3387,N,08103.6692,W,1.7,317.5,130615,6.0,"
"##MN-00 00 51 0413 02051 5375 486560 212984 195"
"164.013113"
"$GPRMC,001849,A,2413.3401,N,08103.6709,W,1.7,321.3,130615,6.0,"
"##MN-00 00 51 0414 02049 5373 486485 212983 195"
"164.01316"
"$GPRMC,001853,A,2413.3416,N,08103.6723,W,1.7,320.9,130615,6.0,"
"##MN-00 00 51 0415 02046 5372 486447 212959 195"
"164.013206"
"$GPRMC,001857,A,2413.3430,N,08103.6738,W,1.6,322.7,130615,6.0,"
"##MN-00 00 51 0416 02047 5371 486416 212955 195"
"164.013252"
"$GPRMC,001901,A,2413.3445,N,08103.6749,W,1.6,322.9,130615,6.0,"
"##MN-00 00 50 0417 02044 5369 486409 212943 195"
"164.013299"
"$GPRMC,001905,A,2413.3462,N,08103.6761,W,1.7,323.7,130615,6.0,"
"##MN-00 00 52 0418 02043 5369 486299 212929 195"
"164.013345"
"$GPRMC,001909,A,2413.3477,N,08103.6772,W,1.6,323.5,130615,6.0,"
"##MN-00 00 50 0419 02039 5367 486202 212890 195"
"164.013391"
"$GPRMC,001913,A,2413.3492,N,08103.6785,W,1.7,323.3,130615,6.0,"
"##MN-00 00 51 0420 02040 5366 485909 212849 195"
"164.013437"
"$GPRMC,001917,A,2413.3505,N,08103.6796,W,1.6,322.8,130615,6.0,"
"##MN-00 00 50 0421 02038 5365 485780 212815 195"
"164.013484"
"$GPRMC,001921,A,2413.3521,N,08103.6808,W,1.6,322.5,130615,6.0,"
"##MN-00 00 49 0421 02038 5364 485698 212811 195"
"164.01353"
"$GPRMC,001925,A,2413.3534,N,08103.6821,W,1.6,321.0,130615,6.0,"
"##MN-00 00 48 0422 02035 5363 485578 212775 195"
"164.013576"
"$GPRMC,001929,A,2413.3548,N,08103.6835,W,1.6,320.6,130615,6.0,"
"##MN-00 00 50 0423 02031 5361 485330 212746 195"
"164.013623"
"$GPRMC,001933,A,2413.3560,N,08103.6846,W,1.6,316.6,130615,6.0,"
"##MN-00 00 48 0424 02031 5360 485224 212723 195"
"164.013669"
"$GPRMC,001937,A,2413.3575,N,08103.6860,W,1.7,319.2,130615,6.0,"
"##MN-00 00 51 0425 02027 5359 485148 212709 195"
"164.013715"
"$GPRMC,001941,A,2413.3589,N,08103.6871,W,1.6,320.3,130615,6.0,"
"##MN-00 00 50 0426 02026 5358 485044 212701 195"
"164.013762"
"$GPRMC,001945,A,2413.3606,N,08103.6884,W,1.7,321.4,130615,6.0,"
"##MN-00 00 50 0427 02028 5357 484926 212691 195"
"164.013808"
"$GPRMC,001949,A,2413.3622,N,08103.6894,W,1.7,323.9,130615,6.0,"
"##MN-00 00 51 0428 02021 5355 484698 212664 195"
"164.013854"
"$GPRMC,001953,A,2413.3636,N,08103.6908,W,1.7,325.0,130615,6.0,"
"##MN-00 00 51 0429 02022 5355 484446 212650 195"
"164.0139"
"$GPRMC,001957,A,2413.3650,N,08103.6922,W,1.6,324.6,130615,6.0,"
"##MN-00 00 48 0430 02019 5354 484262 212659 195"
"164.013947"
"$GPRMC,002001,A,2413.3667,N,08103.6936,W,1.8,324.3,130615,6.0,"
"##MN-00 00 48 0431 02014 5353 484276 212719 195"
"164.013993"
"$GPRMC,002005,A,2413.3683,N,08103.6951,W,1.7,323.5,130615,6.0,"
"##MN-00 00 52 0432 02010 5352 484268 212727 195"
"164.014039"
"$GPRMC,002009,A,2413.3697,N,08103.6965,W,1.8,322.6,130615,6.0,"
"##MN-00 00 49 0433 02010 5351 484218 212721 195"
"164.014086"
"$GPRMC,002013,A,2413.3712,N,08103.6978,W,1.8,321.6,130615,6.0,"
"##MN-00 00 49 0434 02011 5350 484156 212726 195"
"164.014132"
"$GPRMC,002017,A,2413.3727,N,08103.6987,W,1.6,321.5,130615,6.0,"
"##MN-00 00 51 0435 02008 5349 484233 212772 195"
"164.014178"
"$GPRMC,002021,A,2413.3741,N,08103.6999,W,1.6,322.5,130615,6.0,"
"##MN-00 00 48 0436 02009 5348 484303 212805 195"
"164.014225"
"$GPRMC,002025,A,2413.3755,N,08103.7012,W,1.6,323.0,130615,6.0,"
"##MN-00 00 46 0437 02006 5347 484338 212814 195"
"164.014271"
"$GPRMC,002029,A,2413.3772,N,08103.7023,W,1.7,323.1,130615,6.0,"
"##MN-00 00 49 0438 02000 5346 484384 212869 195"
"164.014317"
"$GPRMC,002033,A,2413.3788,N,08103.7035,W,1.7,323.0,130615,6.0,"
"##MN-00 00 51 0439 02000 5345 484134 212848 195"
"164.014363"
"$GPRMC,002037,A,2413.3798,N,08103.7049,W,1.7,320.2,130615,6.0,"
"##MN-00 00 49 0440 01998 5344 483865 212791 195"
"164.01441"
"$GPRMC,002041,A,2413.3810,N,08103.7063,W,1.6,320.6,130615,6.0,"
"##MN-00 00 51 0440 01995 5343 483589 212735 195"
"164.014468"
"$GPRMC,002045,A,2413.3824,N,08103.7074,W,1.5,318.7,130615,6.0,"
"##MN-00 00 47 0441 01995 5342 483413 212669 195"
"164.014514"
"$GPRMC,002049,A,2413.3839,N,08103.7088,W,1.6,317.9,130615,6.0,"
"##MN-00 00 47 0442 01988 5341 482999 212600 195"
"164.01456"
"$GPRMC,002053,A,2413.3855,N,08103.7100,W,1.8,317.7,130615,6.0,"
"##MN-00 00 50 0443 01981 5340 482430 212488 195"
"164.014606"
"$GPRMC,002058,A,2413.3873,N,08103.7114,W,1.7,316.5,130615,6.0,"
"##MN-00 00 51 0444 01979 5339 481871 212392 195"
"164.014653"
"$GPRMC,002101,A,2413.3882,N,08103.7125,W,1.8,316.0,130615,6.0,"
"##MN-00 00 51 0445 01977 5339 481357 212262 195"
"164.014699"
"$GPRMC,002106,A,2413.3900,N,08103.7140,W,1.7,317.0,130615,6.0,"
"##MN-00 00 49 0446 01975 5338 480799 212149 195"
"164.014745"
"$GPRMC,002110,A,2413.3914,N,08103.7154,W,1.7,316.8,130615,6.0,"
"##MN-00 00 50 0447 01969 5337 480299 212021 195"
"164.014792"
"$GPRMC,002114,A,2413.3927,N,08103.7169,W,1.7,316.1,130615,6.0,"
"##MN-00 00 50 0448 01967 5336 479868 211972 195"
"164.014838"
"$GPRMC,002118,A,2413.3940,N,08103.7182,W,1.6,316.5,130615,6.0,"
"##MN-00 00 49 0449 01965 5335 479667 211927 195"
"164.014884"
"$GPRMC,002121,A,2413.3950,N,08103.7194,W,1.7,315.9,130615,6.0,"
"##MN-00 00 49 0450 01962 5335 479479 211867 195"
"164.014931"
