" Tow: 5-of-n-ed   RVWS/WS15161"
" Date: 12/06/2015"
" Temperature Probe #  4762    Conductivity Probe #  710"
" Pressure Probe #  159"
" Flow Meter Calibration  4.71 (m/count)  "
"164.06287"
"$GPRMC,013027,A,2416.6160,N,08107.0090,W,3.1,347.9,130615,6.0,"
"##MN-00 00 27 0000 01539 5817 449484 827817 194"
"164.062917"
"$GPRMC,013032,A,2416.6203,N,08107.0099,W,3.1,346.8,130615,6.0,"
"##MN-00 00 21 0000 01539 5817 445811 827713 194"
"164.062963"
"$GPRMC,013036,A,2416.6236,N,08107.0108,W,3.1,346.7,130615,6.0,"
"##MN-00 00 40 0000 01539 5818 446126 827852 193"
"164.063009"
"$GPRMC,013040,A,2416.6270,N,08107.0113,W,3.0,347.3,130615,6.0,"
"##MN-00 00 53 0000 01538 5818 445659 827918 193"
"164.063391"
"$GPRMC,013113,A,2416.6527,N,08107.0170,W,2.7,349.1,130615,6.0,"
"##MN-00 00 48 0004 01562 5821 446525 220249 194"
"164.063438"
"$GPRMC,013117,A,2416.6555,N,08107.0173,W,2.6,349.0,130615,6.0,"
"##MN-00 00 50 0005 01558 5822 446221 205142 194"
"164.063484"
"$GPRMC,013121,A,2416.6583,N,08107.0181,W,2.6,349.7,130615,6.0,"
"##MN-00 00 51 0006 01573 5822 446218 205153 193"
"164.06353"
"$GPRMC,013125,A,2416.6610,N,08107.0186,W,2.6,349.6,130615,6.0,"
"##MN-00 00 48 0006 01569 5823 446213 205129 193"
"164.063576"
"$GPRMC,013129,A,2416.6642,N,08107.0193,W,2.6,349.5,130615,6.0,"
"##MN-00 00 50 0007 01576 5823 446214 205118 193"
"164.063623"
"$GPRMC,013133,A,2416.6669,N,08107.0199,W,2.6,348.0,130615,6.0,"
"##MN-00 00 45 0007 01576 5823 446221 205117 193"
"164.063669"
"$GPRMC,013137,A,2416.6698,N,08107.0211,W,2.7,345.5,130615,6.0,"
"##MN-00 00 47 0008 01578 5824 446228 205117 194"
"164.063715"
"$GPRMC,013141,A,2416.6724,N,08107.0218,W,2.5,343.5,130615,6.0,"
"##MN-00 00 51 0009 01586 5824 446229 205115 194"
"164.063762"
"$GPRMC,013145,A,2416.6750,N,08107.0228,W,2.6,342.9,130615,6.0,"
"##MN-00 00 47 0010 01585 5824 446222 205112 193"
"164.063808"
"$GPRMC,013149,A,2416.6779,N,08107.0236,W,2.5,344.8,130615,6.0,"
"##MN-00 00 51 0010 01595 5825 446229 205107 194"
"164.063854"
"$GPRMC,013153,A,2416.6807,N,08107.0246,W,2.5,343.6,130615,6.0,"
"##MN-00 00 47 0011 01593 5825 446272 205113 194"
"164.0639"
"$GPRMC,013157,A,2416.6836,N,08107.0257,W,2.6,343.8,130615,6.0,"
"##MN-00 00 49 0012 01595 5825 446285 205120 194"
"164.063958"
"$GPRMC,013201,A,2416.6861,N,08107.0267,W,2.5,342.7,130615,6.0,"
"##MN-00 00 49 0013 01599 5826 446280 205118 193"
"164.064005"
"$GPRMC,013205,A,2416.6888,N,08107.0278,W,2.5,342.6,130615,6.0,"
"##MN-00 00 49 0014 01604 5826 446285 205118 193"
"164.064051"
"$GPRMC,013209,A,2416.6913,N,08107.0286,W,2.4,342.6,130615,6.0,"
"##MN-00 00 49 0014 01604 5827 446272 205108 193"
"164.064097"
"$GPRMC,013213,A,2416.6940,N,08107.0296,W,2.4,343.3,130615,6.0,"
"##MN-00 00 50 0015 01612 5827 446307 205123 193"
"164.064144"
"$GPRMC,013217,A,2416.6969,N,08107.0307,W,2.4,342.5,130615,6.0,"
"##MN-00 00 43 0016 01608 5828 446302 205117 193"
"164.06419"
"$GPRMC,013221,A,2416.6995,N,08107.0318,W,2.4,341.6,130615,6.0,"
"##MN-00 00 48 0016 01613 5828 446276 205108 193"
"164.064236"
"$GPRMC,013225,A,2416.7018,N,08107.0327,W,2.4,340.7,130615,6.0,"
"##MN-00 00 51 0017 01616 5828 446291 205110 194"
"164.064282"
"$GPRMC,013229,A,2416.7045,N,08107.0337,W,2.3,340.0,130615,6.0,"
"##MN-00 00 48 0018 01624 5829 446298 205110 194"
"164.064329"
"$GPRMC,013233,A,2416.7071,N,08107.0348,W,2.3,340.1,130615,6.0,"
"##MN-00 00 46 0019 01623 5829 446305 205112 194"
"164.064375"
"$GPRMC,013237,A,2416.7099,N,08107.0358,W,2.4,340.9,130615,6.0,"
"##MN-00 00 48 0019 01631 5830 446304 205111 193"
"164.064421"
"$GPRMC,013241,A,2416.7121,N,08107.0368,W,2.4,339.9,130615,6.0,"
"##MN-00 00 47 0020 01633 5830 446297 205110 193"
"164.064468"
"$GPRMC,013245,A,2416.7147,N,08107.0379,W,2.4,340.8,130615,6.0,"
"##MN-00 00 48 0021 01637 5831 446294 205109 193"
"164.064514"
"$GPRMC,013250,A,2416.7176,N,08107.0390,W,2.3,340.7,130615,6.0,"
"##MN-00 00 48 0022 01641 5831 446289 205107 193"
"164.06456"
"$GPRMC,013254,A,2416.7202,N,08107.0401,W,2.4,340.1,130615,6.0,"
"##MN-00 00 48 0023 01646 5831 446281 205104 193"
"164.064606"
"$GPRMC,013258,A,2416.7227,N,08107.0410,W,2.3,340.6,130615,6.0,"
"##MN-00 00 46 0023 01650 5832 446279 205104 193"
"164.064653"
"$GPRMC,013302,A,2416.7253,N,08107.0421,W,2.4,339.9,130615,6.0,"
"##MN-00 00 45 0024 01645 5832 446284 205105 194"
"164.064699"
"$GPRMC,013306,A,2416.7280,N,08107.0433,W,2.4,340.1,130615,6.0,"
"##MN-00 00 46 0025 01654 5832 446288 205106 193"
"164.064745"
"$GPRMC,013310,A,2416.7300,N,08107.0443,W,2.3,337.6,130615,6.0,"
"##MN-00 00 45 0025 01654 5833 446283 205105 193"
"164.064792"
"$GPRMC,013314,A,2416.7321,N,08107.0457,W,2.4,334.7,130615,6.0,"
"##MN-00 00 48 0026 01653 5833 446273 205101 193"
"164.064838"
"$GPRMC,013318,A,2416.7343,N,08107.0470,W,2.4,332.9,130615,6.0,"
"##MN-00 00 49 0027 01657 5833 446271 205099 193"
"164.064884"
"$GPRMC,013322,A,2416.7365,N,08107.0484,W,2.4,332.4,130615,6.0,"
"##MN-00 00 47 0028 01661 5834 446280 205100 193"
"164.064931"
"$GPRMC,013326,A,2416.7390,N,08107.0495,W,2.4,334.0,130615,6.0,"
"##MN-00 00 50 0028 01661 5834 446294 205104 193"
"164.064977"
"$GPRMC,013330,A,2416.7415,N,08107.0510,W,2.4,333.6,130615,6.0,"
"##MN-00 00 49 0029 01669 5835 446304 205106 194"
"164.065023"
"$GPRMC,013334,A,2416.7437,N,08107.0524,W,2.4,333.8,130615,6.0,"
"##MN-00 00 47 0030 01669 5835 446315 205111 193"
"164.065069"
"$GPRMC,013338,A,2416.7461,N,08107.0538,W,2.4,332.1,130615,6.0,"
"##MN-00 00 47 0031 01665 5836 446359 205122 193"
"164.065116"
"$GPRMC,013342,A,2416.7482,N,08107.0551,W,2.3,332.1,130615,6.0,"
"##MN-00 00 50 0031 01672 5836 446388 205133 193"
"164.065162"
"$GPRMC,013346,A,2416.7505,N,08107.0564,W,2.4,331.0,130615,6.0,"
"##MN-00 00 47 0032 01673 5837 446376 205131 193"
"164.065208"
"$GPRMC,013350,A,2416.7527,N,08107.0579,W,2.3,331.3,130615,6.0,"
"##MN-00 00 50 0033 01675 5837 446376 205128 193"
"164.065255"
"$GPRMC,013354,A,2416.7548,N,08107.0592,W,2.3,332.1,130615,6.0,"
"##MN-00 00 48 0034 01678 5838 446365 205127 193"
"164.065301"
"$GPRMC,013358,A,2416.7569,N,08107.0605,W,2.4,331.1,130615,6.0,"
"##MN-00 00 51 0035 01679 5838 446379 205130 193"
"164.065347"
"$GPRMC,013402,A,2416.7589,N,08107.0618,W,2.3,332.1,130615,6.0,"
"##MN-00 00 50 0036 01684 5838 446397 205129 193"
"164.065394"
"$GPRMC,013406,A,2416.7612,N,08107.0632,W,2.3,329.9,130615,6.0,"
"##MN-00 00 49 0036 01684 5839 446375 205124 194"
"164.06544"
"$GPRMC,013410,A,2416.7635,N,08107.0647,W,2.3,329.4,130615,6.0,"
"##MN-00 00 53 0037 01687 5839 446350 205117 193"
"164.065486"
"$GPRMC,013414,A,2416.7657,N,08107.0661,W,2.3,329.6,130615,6.0,"
"##MN-00 00 49 0038 01691 5840 446341 205117 193"
"164.065532"
"$GPRMC,013418,A,2416.7679,N,08107.0679,W,2.4,329.0,130615,6.0,"
"##MN-00 00 49 0039 01688 5840 446400 205129 193"
"164.065579"
"$GPRMC,013422,A,2416.7700,N,08107.0694,W,2.3,328.2,130615,6.0,"
"##MN-00 00 49 0040 01692 5840 446431 205140 193"
"164.065625"
"$GPRMC,013426,A,2416.7722,N,08107.0708,W,2.3,325.5,130615,6.0,"
"##MN-00 00 50 0040 01694 5841 446465 205150 193"
"164.065671"
"$GPRMC,013430,A,2416.7746,N,08107.0726,W,2.3,325.5,130615,6.0,"
"##MN-00 00 50 0041 01699 5841 446501 205156 194"
"164.065718"
"$GPRMC,013434,A,2416.7765,N,08107.0738,W,2.3,327.3,130615,6.0,"
"##MN-00 00 48 0042 01703 5841 446488 205148 193"
"164.065764"
"$GPRMC,013438,A,2416.7784,N,08107.0755,W,2.3,327.8,130615,6.0,"
"##MN-00 00 48 0043 01704 5842 446439 205140 194"
"164.06581"
"$GPRMC,013442,A,2416.7802,N,08107.0769,W,2.2,327.3,130615,6.0,"
"##MN-00 00 51 0044 01711 5842 446423 205133 193"
"164.065856"
"$GPRMC,013446,A,2416.7822,N,08107.0785,W,2.2,326.2,130615,6.0,"
"##MN-00 00 50 0044 01711 5843 446352 205117 193"
"164.065903"
"$GPRMC,013450,A,2416.7841,N,08107.0798,W,2.0,326.1,130615,6.0,"
"##MN-00 00 50 0045 01720 5843 446310 205108 194"
"164.065949"
"$GPRMC,013454,A,2416.7862,N,08107.0813,W,2.1,325.1,130615,6.0,"
"##MN-00 00 50 0046 01721 5844 446363 205118 193"
"164.065995"
"$GPRMC,013458,A,2416.7878,N,08107.0828,W,2.2,327.3,130615,6.0,"
"##MN-00 00 49 0047 01726 5844 446356 205121 193"
"164.066042"
"$GPRMC,013502,A,2416.7894,N,08107.0842,W,2.3,325.9,130615,6.0,"
"##MN-00 00 51 0047 01729 5844 446439 205138 193"
"164.066088"
"$GPRMC,013506,A,2416.7910,N,08107.0856,W,2.2,327.5,130615,6.0,"
"##MN-00 00 51 0048 01734 5845 447422 205483 193"
"164.066134"
"$GPRMC,013510,A,2416.7930,N,08107.0871,W,2.2,327.6,130615,6.0,"
"##MN-00 00 49 0049 01739 5845 451730 206415 193"
"164.066181"
"$GPRMC,013514,A,2416.7949,N,08107.0883,W,2.2,328.2,130615,6.0,"
"##MN-00 00 45 0049 01739 5846 452948 206569 193"
"164.066227"
"$GPRMC,013518,A,2416.7971,N,08107.0899,W,2.2,327.9,130615,6.0,"
"##MN-00 00 51 0050 01737 5846 452852 206824 193"
"164.066273"
"$GPRMC,013522,A,2416.7993,N,08107.0910,W,2.1,327.6,130615,6.0,"
"##MN-00 00 48 0051 01744 5847 453031 206694 193"
"164.066319"
"$GPRMC,013526,A,2416.8014,N,08107.0925,W,2.3,327.9,130615,6.0,"
"##MN-00 00 50 0052 01742 5847 454376 206994 193"
"164.066366"
"$GPRMC,013530,A,2416.8036,N,08107.0936,W,2.2,329.8,130615,6.0,"
"##MN-00 00 49 0052 01749 5847 455317 207193 193"
"164.066412"
"$GPRMC,013534,A,2416.8057,N,08107.0948,W,2.2,331.1,130615,6.0,"
"##MN-00 00 49 0053 01754 5848 455868 207239 193"
"164.066458"
"$GPRMC,013538,A,2416.8080,N,08107.0961,W,2.2,332.2,130615,6.0,"
"##MN-00 00 51 0054 01760 5848 456302 207347 193"
"164.066505"
"$GPRMC,013542,A,2416.8100,N,08107.0973,W,2.1,332.7,130615,6.0,"
"##MN-00 00 51 0054 01764 5848 457137 207486 193"
"164.066551"
"$GPRMC,013546,A,2416.8120,N,08107.0986,W,2.1,332.8,130615,6.0,"
"##MN-00 00 48 0055 01770 5848 457382 207515 194"
"164.066597"
"$GPRMC,013550,A,2416.8143,N,08107.0997,W,2.1,331.4,130615,6.0,"
"##MN-00 00 49 0056 01772 5849 457466 207529 193"
"164.066644"
"$GPRMC,013554,A,2416.8163,N,08107.1009,W,2.2,330.7,130615,6.0,"
"##MN-00 00 51 0057 01778 5849 457491 207535 193"
"164.06669"
"$GPRMC,013558,A,2416.8184,N,08107.1022,W,2.2,329.9,130615,6.0,"
"##MN-00 00 49 0057 01780 5849 458049 207664 193"
"164.066736"
"$GPRMC,013602,A,2416.8205,N,08107.1037,W,2.2,329.6,130615,6.0,"
"##MN-00 00 49 0058 01779 5849 458625 207804 193"
"164.066782"
"$GPRMC,013606,A,2416.8225,N,08107.1052,W,2.2,328.7,130615,6.0,"
"##MN-00 00 50 0059 01788 5849 459247 207803 193"
"164.066829"
"$GPRMC,013610,A,2416.8246,N,08107.1067,W,2.2,327.1,130615,6.0,"
"##MN-00 00 47 0060 01787 5849 459901 208036 193"
"164.066875"
"$GPRMC,013614,A,2416.8268,N,08107.1081,W,2.2,327.8,130615,6.0,"
"##MN-00 00 49 0060 01791 5850 461048 208273 194"
"164.066921"
"$GPRMC,013618,A,2416.8289,N,08107.1095,W,2.1,328.0,130615,6.0,"
"##MN-00 00 46 0061 01793 5850 461959 208372 193"
"164.066968"
"$GPRMC,013622,A,2416.8310,N,08107.1113,W,2.2,327.6,130615,6.0,"
"##MN-00 00 49 0062 01793 5850 462627 208584 193"
"164.067014"
"$GPRMC,013626,A,2416.8328,N,08107.1127,W,2.1,327.3,130615,6.0,"
"##MN-00 00 47 0063 01798 5850 463578 208619 193"
"164.06706"
"$GPRMC,013630,A,2416.8350,N,08107.1145,W,2.3,324.4,130615,6.0,"
"##MN-00 00 49 0064 01792 5850 464532 208923 193"
"164.067106"
"$GPRMC,013634,A,2416.8371,N,08107.1158,W,2.2,325.6,130615,6.0,"
"##MN-00 00 48 0064 01800 5850 464590 208900 193"
"164.067153"
"$GPRMC,013638,A,2416.8390,N,08107.1176,W,2.2,322.9,130615,6.0,"
"##MN-00 00 46 0065 01796 5850 464603 208896 193"
"164.067211"
"$GPRMC,013642,A,2416.8411,N,08107.1193,W,2.3,322.7,130615,6.0,"
"##MN-00 00 49 0066 01798 5850 464339 208843 193"
"164.067257"
"$GPRMC,013646,A,2416.8430,N,08107.1207,W,2.2,323.3,130615,6.0,"
"##MN-00 00 49 0067 01799 5850 464591 208895 193"
"164.067303"
"$GPRMC,013650,A,2416.8449,N,08107.1225,W,2.3,322.7,130615,6.0,"
"##MN-00 00 49 0068 01806 5850 464758 208870 193"
"164.06735"
"$GPRMC,013654,A,2416.8469,N,08107.1239,W,2.2,325.1,130615,6.0,"
"##MN-00 00 50 0068 01809 5849 465132 208988 193"
"164.067396"
"$GPRMC,013658,A,2416.8488,N,08107.1254,W,2.3,324.1,130615,6.0,"
"##MN-00 00 48 0069 01805 5849 465631 209115 193"
"164.067442"
"$GPRMC,013702,A,2416.8505,N,08107.1272,W,2.2,322.8,130615,6.0,"
"##MN-00 00 52 0070 01809 5849 466394 209282 193"
"164.067488"
"$GPRMC,013706,A,2416.8524,N,08107.1286,W,2.2,323.3,130615,6.0,"
"##MN-00 00 50 0071 01812 5849 466958 209330 193"
"164.067535"
"$GPRMC,013710,A,2416.8545,N,08107.1302,W,2.2,324.0,130615,6.0,"
"##MN-00 00 51 0072 01811 5849 467192 209320 193"
"164.067581"
"$GPRMC,013714,A,2416.8567,N,08107.1316,W,2.2,326.3,130615,6.0,"
"##MN-00 00 50 0072 01818 5848 467386 209348 193"
"164.067627"
"$GPRMC,013718,A,2416.8586,N,08107.1333,W,2.3,325.5,130615,6.0,"
"##MN-00 00 49 0073 01816 5848 467580 209366 193"
"164.067674"
"$GPRMC,013722,A,2416.8607,N,08107.1348,W,2.3,326.1,130615,6.0,"
"##MN-00 00 51 0074 01823 5847 467662 209390 193"
"164.06772"
"$GPRMC,013727,A,2416.8632,N,08107.1366,W,2.2,326.6,130615,6.0,"
"##MN-00 00 49 0075 01825 5847 467840 209419 193"
"164.067766"
"$GPRMC,013731,A,2416.8654,N,08107.1381,W,2.3,325.9,130615,6.0,"
"##MN-00 00 52 0076 01825 5847 467892 209414 193"
"164.067813"
"$GPRMC,013735,A,2416.8672,N,08107.1396,W,2.2,325.7,130615,6.0,"
"##MN-00 00 51 0077 01829 5846 468004 209465 193"
"164.067859"
"$GPRMC,013739,A,2416.8694,N,08107.1410,W,2.3,325.2,130615,6.0,"
"##MN-00 00 52 0077 01832 5846 468127 209487 193"
"164.067905"
"$GPRMC,013743,A,2416.8714,N,08107.1423,W,2.1,325.4,130615,6.0,"
"##MN-00 00 52 0078 01839 5846 468279 209519 193"
"164.067951"
"$GPRMC,013747,A,2416.8733,N,08107.1438,W,2.2,326.9,130615,6.0,"
"##MN-00 00 51 0079 01842 5845 468915 209641 193"
"164.067998"
"$GPRMC,013751,A,2416.8751,N,08107.1452,W,2.2,327.7,130615,6.0,"
"##MN-00 00 51 0080 01848 5845 469402 209749 193"
"164.068044"
"$GPRMC,013755,A,2416.8770,N,08107.1465,W,2.2,328.2,130615,6.0,"
"##MN-00 00 50 0080 01852 5844 469859 209839 193"
"164.06809"
"$GPRMC,013759,A,2416.8791,N,08107.1474,W,2.1,330.5,130615,6.0,"
"##MN-00 00 51 0081 01854 5844 470240 209926 193"
"164.068137"
"$GPRMC,013803,A,2416.8812,N,08107.1486,W,2.1,331.1,130615,6.0,"
"##MN-00 00 51 0082 01858 5843 470571 210019 193"
"164.068183"
"$GPRMC,013807,A,2416.8834,N,08107.1497,W,2.0,332.6,130615,6.0,"
"##MN-00 00 50 0083 01864 5842 470695 210013 193"
"164.068229"
"$GPRMC,013811,A,2416.8853,N,08107.1505,W,2.1,332.7,130615,6.0,"
"##MN-00 00 50 0083 01865 5842 470839 210048 193"
"164.068275"
"$GPRMC,013815,A,2416.8874,N,08107.1515,W,2.2,335.3,130615,6.0,"
"##MN-00 00 52 0084 01866 5841 471043 210087 193"
"164.068322"
"$GPRMC,013819,A,2416.8896,N,08107.1530,W,2.2,335.3,130615,6.0,"
"##MN-00 00 51 0085 01872 5841 471269 210163 193"
"164.068368"
"$GPRMC,013823,A,2416.8917,N,08107.1543,W,2.2,336.5,130615,6.0,"
"##MN-00 00 50 0086 01874 5840 471421 210180 193"
"164.068414"
"$GPRMC,013827,A,2416.8940,N,08107.1557,W,2.3,335.0,130615,6.0,"
"##MN-00 00 51 0087 01872 5839 471525 210203 193"
"164.068461"
"$GPRMC,013831,A,2416.8961,N,08107.1566,W,2.2,334.6,130615,6.0,"
"##MN-00 00 50 0087 01877 5839 471601 210209 193"
"164.068507"
"$GPRMC,013835,A,2416.8983,N,08107.1576,W,2.3,333.0,130615,6.0,"
"##MN-00 00 49 0088 01878 5838 471669 210225 193"
"164.068553"
"$GPRMC,013839,A,2416.9005,N,08107.1589,W,2.3,335.0,130615,6.0,"
"##MN-00 00 50 0089 01880 5837 471736 210238 193"
"164.0686"
"$GPRMC,013843,A,2416.9026,N,08107.1598,W,2.2,334.1,130615,6.0,"
"##MN-00 00 49 0090 01881 5836 471848 210249 193"
"164.068646"
"$GPRMC,013847,A,2416.9050,N,08107.1611,W,2.3,334.1,130615,6.0,"
"##MN-00 00 49 0091 01885 5835 471844 210244 193"
"164.068692"
"$GPRMC,013851,A,2416.9072,N,08107.1626,W,2.3,332.6,130615,6.0,"
"##MN-00 00 49 0092 01879 5835 471950 210266 193"
"164.068738"
"$GPRMC,013855,A,2416.9095,N,08107.1644,W,2.4,330.5,130615,6.0,"
"##MN-00 00 51 0093 01876 5834 471934 210266 193"
"164.068785"
"$GPRMC,013859,A,2416.9120,N,08107.1658,W,2.4,328.4,130615,6.0,"
"##MN-00 00 50 0094 01876 5833 471832 210258 193"
"164.068831"
"$GPRMC,013903,A,2416.9142,N,08107.1677,W,2.5,326.2,130615,6.0,"
"##MN-00 00 52 0095 01872 5832 471703 210237 193"
"164.068877"
"$GPRMC,013907,A,2416.9162,N,08107.1691,W,2.4,325.1,130615,6.0,"
"##MN-00 00 49 0095 01877 5832 471601 210229 193"
"164.068924"
"$GPRMC,013911,A,2416.9182,N,08107.1710,W,2.5,323.7,130615,6.0,"
"##MN-00 00 50 0096 01872 5831 471557 210229 193"
"164.06897"
"$GPRMC,013915,A,2416.9203,N,08107.1730,W,2.4,323.1,130615,6.0,"
"##MN-00 00 50 0097 01875 5830 471410 210210 193"
"164.069016"
"$GPRMC,013919,A,2416.9222,N,08107.1748,W,2.4,321.7,130615,6.0,"
"##MN-00 00 50 0098 01871 5830 471277 210182 193"
"164.069063"
"$GPRMC,013923,A,2416.9246,N,08107.1770,W,2.5,321.0,130615,6.0,"
"##MN-00 00 51 0099 01871 5828 471096 210137 193"
"164.069109"
"$GPRMC,013927,A,2416.9268,N,08107.1788,W,2.4,319.6,130615,6.0,"
"##MN-00 00 52 0100 01872 5827 470940 210117 193"
"164.069155"
"$GPRMC,013931,A,2416.9290,N,08107.1810,W,2.5,318.4,130615,6.0,"
"##MN-00 00 51 0101 01870 5827 470850 210093 193"
"164.069201"
"$GPRMC,013935,A,2416.9311,N,08107.1831,W,2.4,318.1,130615,6.0,"
"##MN-00 00 52 0102 01876 5826 470746 210075 193"
"164.069248"
"$GPRMC,013939,A,2416.9332,N,08107.1851,W,2.5,316.1,130615,6.0,"
"##MN-00 00 51 0103 01875 5825 470671 210053 193"
"164.069294"
"$GPRMC,013943,A,2416.9357,N,08107.1872,W,2.5,315.7,130615,6.0,"
"##MN-00 00 52 0104 01876 5824 470607 210059 193"
"164.06934"
"$GPRMC,013947,A,2416.9377,N,08107.1891,W,2.5,315.1,130615,6.0,"
"##MN-00 00 51 0105 01873 5823 470445 210019 193"
"164.069387"
"$GPRMC,013951,A,2416.9402,N,08107.1916,W,2.6,315.7,130615,6.0,"
"##MN-00 00 53 0106 01874 5822 470204 209958 193"
"164.069433"
"$GPRMC,013955,A,2416.9423,N,08107.1936,W,2.6,314.9,130615,6.0,"
"##MN-00 00 52 0107 01875 5821 469974 209921 193"
"164.069479"
"$GPRMC,013959,A,2416.9444,N,08107.1960,W,2.6,314.8,130615,6.0,"
"##MN-00 00 55 0108 01876 5820 469769 209873 193"
"164.069525"
"$GPRMC,014003,A,2416.9464,N,08107.1980,W,2.4,316.7,130615,6.0,"
"##MN-00 00 52 0109 01881 5819 469642 209849 193"
"164.069572"
"$GPRMC,014007,A,2416.9482,N,08107.1999,W,2.5,315.8,130615,6.0,"
"##MN-00 00 52 0110 01884 5819 469555 209833 193"
"164.069618"
"$GPRMC,014011,A,2416.9502,N,08107.2019,W,2.3,316.6,130615,6.0,"
"##MN-00 00 54 0111 01885 5817 469553 209823 193"
"164.069664"
"$GPRMC,014015,A,2416.9520,N,08107.2038,W,2.3,317.6,130615,6.0,"
"##MN-00 00 55 0111 01888 5817 469683 209844 193"
"164.069711"
"$GPRMC,014019,A,2416.9539,N,08107.2055,W,2.2,319.4,130615,6.0,"
"##MN-00 00 53 0112 01894 5816 469933 209867 193"
"164.069757"
"$GPRMC,014023,A,2416.9557,N,08107.2071,W,2.3,320.1,130615,6.0,"
"##MN-00 00 54 0113 01894 5815 470113 209908 193"
"164.069803"
"$GPRMC,014027,A,2416.9578,N,08107.2088,W,2.2,320.8,130615,6.0,"
"##MN-00 00 54 0114 01900 5814 470328 209955 193"
"164.06985"
"$GPRMC,014031,A,2416.9597,N,08107.2103,W,2.3,320.7,130615,6.0,"
"##MN-00 00 55 0115 01902 5813 470472 209988 193"
"164.069896"
"$GPRMC,014035,A,2416.9617,N,08107.2121,W,2.2,322.6,130615,6.0,"
"##MN-00 00 53 0116 01907 5812 470616 210016 193"
"164.069942"
"$GPRMC,014039,A,2416.9636,N,08107.2136,W,2.3,322.5,130615,6.0,"
"##MN-00 00 54 0117 01908 5811 470800 210058 193"
"164.069988"
"$GPRMC,014043,A,2416.9655,N,08107.2154,W,2.3,322.1,130615,6.0,"
"##MN-00 00 53 0118 01913 5811 471041 210130 193"
"164.070035"
"$GPRMC,014047,A,2416.9673,N,08107.2169,W,2.2,322.6,130615,6.0,"
"##MN-00 00 53 0119 01915 5810 471493 210211 193"
"164.070081"
"$GPRMC,014051,A,2416.9695,N,08107.2189,W,2.3,320.8,130615,6.0,"
"##MN-00 00 54 0120 01918 5809 471865 210243 193"
"164.070127"
"$GPRMC,014055,A,2416.9713,N,08107.2204,W,2.2,322.0,130615,6.0,"
"##MN-00 00 53 0121 01917 5808 472069 210294 193"
"164.070174"
"$GPRMC,014059,A,2416.9734,N,08107.2222,W,2.3,321.5,130615,6.0,"
"##MN-00 00 54 0121 01920 5807 472197 210328 193"
"164.07022"
"$GPRMC,014103,A,2416.9753,N,08107.2240,W,2.3,321.5,130615,6.0,"
"##MN-00 00 53 0122 01926 5806 472255 210339 193"
"164.070266"
"$GPRMC,014107,A,2416.9777,N,08107.2255,W,2.4,323.1,130615,6.0,"
"##MN-00 00 53 0123 01928 5805 472293 210330 193"
"164.070313"
"$GPRMC,014111,A,2416.9799,N,08107.2272,W,2.4,324.6,130615,6.0,"
"##MN-00 00 53 0124 01934 5804 472357 210342 193"
"164.070359"
"$GPRMC,014115,A,2416.9821,N,08107.2287,W,2.2,325.5,130615,6.0,"
"##MN-00 00 52 0125 01935 5803 472411 210367 193"
"164.070405"
"$GPRMC,014119,A,2416.9842,N,08107.2305,W,2.3,324.2,130615,6.0,"
"##MN-00 00 54 0126 01940 5802 472482 210371 193"
"164.070463"
"$GPRMC,014123,A,2416.9861,N,08107.2319,W,2.2,324.6,130615,6.0,"
"##MN-00 00 53 0127 01945 5801 472481 210357 193"
"164.070509"
"$GPRMC,014127,A,2416.9881,N,08107.2334,W,2.2,324.8,130615,6.0,"
"##MN-00 00 52 0128 01950 5800 472456 210334 193"
"164.070556"
"$GPRMC,014131,A,2416.9900,N,08107.2349,W,2.2,324.2,130615,6.0,"
"##MN-00 00 55 0129 01950 5800 472458 210336 193"
"164.070602"
"$GPRMC,014135,A,2416.9915,N,08107.2366,W,2.1,322.4,130615,6.0,"
"##MN-00 00 52 0130 01960 5799 472589 210343 193"
"164.070648"
"$GPRMC,014139,A,2416.9930,N,08107.2382,W,2.1,319.9,130615,6.0,"
"##MN-00 00 50 0130 01956 5798 473147 210420 193"
"164.070694"
"$GPRMC,014143,A,2416.9947,N,08107.2403,W,2.2,317.8,130615,6.0,"
"##MN-00 00 54 0131 01959 5797 472909 210379 193"
"164.070741"
"$GPRMC,014147,A,2416.9962,N,08107.2421,W,2.1,314.8,130615,6.0,"
"##MN-00 00 51 0132 01962 5796 473165 210461 193"
"164.070787"
"$GPRMC,014151,A,2416.9979,N,08107.2442,W,2.3,313.1,130615,6.0,"
"##MN-00 00 51 0133 01963 5795 473007 210454 193"
"164.070833"
"$GPRMC,014155,A,2416.9994,N,08107.2460,W,2.0,310.9,130615,6.0,"
"##MN-00 00 54 0134 01967 5794 473152 210445 193"
"164.07088"
"$GPRMC,014159,A,2417.0009,N,08107.2479,W,2.1,310.0,130615,6.0,"
"##MN-00 00 53 0135 01975 5793 473840 210659 193"
"164.070926"
"$GPRMC,014203,A,2417.0023,N,08107.2494,W,1.9,310.2,130615,6.0,"
"##MN-00 00 53 0136 01978 5792 475112 210923 193"
"164.070972"
"$GPRMC,014208,A,2417.0038,N,08107.2518,W,1.9,309.5,130615,6.0,"
"##MN-00 00 54 0136 01982 5791 475831 211000 193"
"164.071019"
"$GPRMC,014212,A,2417.0052,N,08107.2534,W,1.8,309.5,130615,6.0,"
"##MN-00 00 54 0137 01984 5790 476780 211131 193"
"164.071065"
"$GPRMC,014216,A,2417.0065,N,08107.2552,W,1.9,308.3,130615,6.0,"
"##MN-00 00 53 0138 01989 5789 477745 211458 193"
"164.071111"
"$GPRMC,014219,A,2417.0074,N,08107.2565,W,1.8,309.1,130615,6.0,"
"##MN-00 00 54 0139 01994 5788 479022 211564 193"
"164.071157"
"$GPRMC,014224,A,2417.0091,N,08107.2587,W,1.8,307.4,130615,6.0,"
"##MN-00 00 52 0140 01998 5787 479789 211689 193"
"164.071204"
"$GPRMC,014228,A,2417.0103,N,08107.2608,W,1.9,306.3,130615,6.0,"
"##MN-00 00 52 0141 01997 5785 480235 211755 193"
"164.07125"
"$GPRMC,014232,A,2417.0117,N,08107.2624,W,1.8,306.7,130615,6.0,"
"##MN-00 00 54 0142 01999 5785 480821 211797 193"
"164.071296"
"$GPRMC,014236,A,2417.0130,N,08107.2645,W,1.9,306.6,130615,6.0,"
"##MN-00 00 53 0143 02004 5783 481545 211997 193"
"164.071343"
"$GPRMC,014240,A,2417.0145,N,08107.2663,W,1.9,308.0,130615,6.0,"
"##MN-00 00 53 0144 02006 5782 482482 212222 193"
"164.071389"
"$GPRMC,014244,A,2417.0159,N,08107.2682,W,1.9,307.9,130615,6.0,"
"##MN-00 00 53 0145 02008 5781 482991 212216 193"
"164.071435"
"$GPRMC,014248,A,2417.0172,N,08107.2700,W,1.9,307.9,130615,6.0,"
"##MN-00 00 52 0146 02010 5780 483723 212378 193"
"164.071481"
"$GPRMC,014252,A,2417.0188,N,08107.2720,W,2.1,308.6,130615,6.0,"
"##MN-00 00 55 0146 02011 5779 484290 212467 193"
"164.071528"
"$GPRMC,014256,A,2417.0201,N,08107.2739,W,1.9,309.1,130615,6.0,"
"##MN-00 00 52 0147 02012 5778 485114 212775 193"
"164.071574"
"$GPRMC,014300,A,2417.0217,N,08107.2757,W,2.1,311.0,130615,6.0,"
"##MN-00 00 53 0148 02015 5777 485493 212831 193"
"164.07162"
"$GPRMC,014304,A,2417.0233,N,08107.2775,W,2.0,312.1,130615,6.0,"
"##MN-00 00 52 0149 02016 5776 485824 212899 193"
"164.071667"
"$GPRMC,014308,A,2417.0248,N,08107.2793,W,2.1,312.3,130615,6.0,"
"##MN-00 00 55 0150 02014 5774 486270 213048 193"
"164.071713"
"$GPRMC,014312,A,2417.0265,N,08107.2811,W,2.1,312.3,130615,6.0,"
"##MN-00 00 52 0151 02017 5773 486648 213126 193"
"164.071759"
"$GPRMC,014316,A,2417.0277,N,08107.2830,W,2.0,311.6,130615,6.0,"
"##MN-00 00 53 0152 02015 5772 486789 213146 193"
"164.071806"
"$GPRMC,014320,A,2417.0294,N,08107.2851,W,2.1,311.2,130615,6.0,"
"##MN-00 00 55 0153 02016 5770 487137 213230 193"
"164.071852"
"$GPRMC,014324,A,2417.0308,N,08107.2868,W,2.0,311.0,130615,6.0,"
"##MN-00 00 52 0154 02020 5769 487680 213327 193"
"164.071898"
"$GPRMC,014328,A,2417.0324,N,08107.2888,W,2.1,311.7,130615,6.0,"
"##MN-00 00 52 0155 02021 5768 487998 213341 193"
"164.071944"
"$GPRMC,014332,A,2417.0338,N,08107.2906,W,2.0,311.2,130615,6.0,"
"##MN-00 00 54 0156 02021 5766 488567 213373 193"
"164.071991"
"$GPRMC,014336,A,2417.0355,N,08107.2924,W,2.1,312.2,130615,6.0,"
"##MN-00 00 52 0157 02026 5765 489185 213596 193"
"164.072037"
"$GPRMC,014340,A,2417.0369,N,08107.2942,W,2.1,310.7,130615,6.0,"
"##MN-00 00 50 0158 02021 5764 489843 213785 193"
"164.072083"
"$GPRMC,014344,A,2417.0385,N,08107.2964,W,2.2,311.5,130615,6.0,"
"##MN-00 00 55 0159 02020 5762 489933 213816 193"
"164.07213"
"$GPRMC,014348,A,2417.0399,N,08107.2984,W,2.1,309.7,130615,6.0,"
"##MN-00 00 54 0160 02023 5761 489952 213821 193"
"164.072176"
"$GPRMC,014352,A,2417.0414,N,08107.3004,W,2.1,309.5,130615,6.0,"
"##MN-00 00 55 0161 02023 5759 489916 213808 193"
"164.072222"
"$GPRMC,014356,A,2417.0427,N,08107.3022,W,2.1,309.5,130615,6.0,"
"##MN-00 00 54 0162 02026 5758 489991 213829 193"
"164.072269"
"$GPRMC,014400,A,2417.0441,N,08107.3042,W,2.0,308.4,130615,6.0,"
"##MN-00 00 54 0163 02025 5756 490017 213839 193"
"164.072315"
"$GPRMC,014404,A,2417.0457,N,08107.3060,W,2.0,309.0,130615,6.0,"
"##MN-00 00 53 0164 02030 5754 490293 213886 193"
"164.072361"
"$GPRMC,014408,A,2417.0471,N,08107.3079,W,1.9,308.8,130615,6.0,"
"##MN-00 00 51 0165 02027 5753 490598 213962 193"
"164.072407"
"$GPRMC,014412,A,2417.0488,N,08107.3100,W,2.1,309.1,130615,6.0,"
"##MN-00 00 56 0166 02027 5751 490756 213989 193"
"164.072454"
"$GPRMC,014416,A,2417.0503,N,08107.3119,W,2.1,308.5,130615,6.0,"
"##MN-00 00 53 0167 02030 5750 491002 214049 193"
"164.0725"
"$GPRMC,014420,A,2417.0518,N,08107.3140,W,2.2,308.8,130615,6.0,"
"##MN-00 00 53 0168 02030 5748 491192 214080 193"
"164.072546"
"$GPRMC,014424,A,2417.0532,N,08107.3158,W,2.1,310.1,130615,6.0,"
"##MN-00 00 53 0169 02032 5746 491481 214147 193"
"164.072593"
"$GPRMC,014428,A,2417.0546,N,08107.3179,W,2.1,308.4,130615,6.0,"
"##MN-00 00 56 0170 02030 5745 491851 214261 193"
"164.072639"
"$GPRMC,014432,A,2417.0558,N,08107.3197,W,2.1,308.2,130615,6.0,"
"##MN-00 00 55 0171 02036 5743 492493 214374 193"
"164.072685"
"$GPRMC,014436,A,2417.0571,N,08107.3215,W,1.9,307.4,130615,6.0,"
"##MN-00 00 54 0172 02032 5741 492907 214468 193"
"164.072731"
"$GPRMC,014440,A,2417.0586,N,08107.3235,W,2.1,308.2,130615,6.0,"
"##MN-00 00 54 0173 02040 5740 493340 214506 193"
"164.072778"
"$GPRMC,014444,A,2417.0597,N,08107.3251,W,1.8,308.1,130615,6.0,"
"##MN-00 00 54 0174 02040 5738 493803 214626 193"
"164.072824"
"$GPRMC,014448,A,2417.0612,N,08107.3273,W,2.1,308.8,130615,6.0,"
"##MN-00 00 55 0175 02045 5736 494055 214650 193"
"164.07287"
"$GPRMC,014452,A,2417.0625,N,08107.3288,W,1.8,310.3,130615,6.0,"
"##MN-00 00 54 0176 02046 5735 494255 214694 193"
"164.072917"
"$GPRMC,014456,A,2417.0638,N,08107.3306,W,1.9,310.0,130615,6.0,"
"##MN-00 00 54 0177 02049 5733 494408 214741 193"
"164.072963"
"$GPRMC,014500,A,2417.0655,N,08107.3324,W,1.9,311.1,130615,6.0,"
"##MN-00 00 54 0178 02049 5731 494502 214763 193"
"164.073009"
"$GPRMC,014504,A,2417.0669,N,08107.3342,W,1.9,311.9,130615,6.0,"
"##MN-00 00 56 0179 02056 5729 494598 214781 193"
"164.073056"
"$GPRMC,014508,A,2417.0683,N,08107.3360,W,1.9,311.4,130615,6.0,"
"##MN-00 00 55 0179 02061 5727 495078 214820 193"
"164.073102"
"$GPRMC,014512,A,2417.0695,N,08107.3376,W,1.9,311.2,130615,6.0,"
"##MN-00 00 54 0180 02063 5726 495935 214969 193"
"164.073148"
"$GPRMC,014516,A,2417.0709,N,08107.3394,W,1.9,310.8,130615,6.0,"
"##MN-00 00 55 0181 02064 5723 496617 214959 193"
"164.073194"
"$GPRMC,014520,A,2417.0720,N,08107.3407,W,1.8,309.9,130615,6.0,"
"##MN-00 00 55 0182 02068 5722 496892 215103 193"
"164.073241"
"$GPRMC,014524,A,2417.0738,N,08107.3429,W,1.9,310.0,130615,6.0,"
"##MN-00 00 55 0183 02070 5720 497529 215245 193"
"164.073287"
"$GPRMC,014528,A,2417.0750,N,08107.3448,W,1.9,309.7,130615,6.0,"
"##MN-00 00 54 0184 02073 5718 498346 215447 193"
"164.073333"
"$GPRMC,014532,A,2417.0760,N,08107.3462,W,1.9,308.1,130615,6.0,"
"##MN-00 00 56 0185 02072 5717 498676 215606 193"
"164.07338"
"$GPRMC,014536,A,2417.0779,N,08107.3487,W,2.0,308.8,130615,6.0,"
"##MN-00 00 55 0186 02076 5715 498966 215657 193"
"164.073426"
"$GPRMC,014540,A,2417.0790,N,08107.3505,W,1.9,308.1,130615,6.0,"
"##MN-00 00 54 0187 02072 5713 499265 215725 193"
"164.073472"
"$GPRMC,014544,A,2417.0807,N,08107.3530,W,2.2,308.2,130615,6.0,"
"##MN-00 00 56 0188 02073 5711 499165 215720 193"
"164.073519"
"$GPRMC,014548,A,2417.0822,N,08107.3548,W,2.1,309.1,130615,6.0,"
"##MN-00 00 54 0189 02078 5709 499145 215708 193"
"164.073565"
"$GPRMC,014552,A,2417.0837,N,08107.3571,W,2.3,307.7,130615,6.0,"
"##MN-00 00 53 0190 02074 5706 499021 215689 193"
"164.073611"
"$GPRMC,014556,A,2417.0853,N,08107.3591,W,2.1,307.7,130615,6.0,"
"##MN-00 00 55 0191 02078 5705 498992 215680 193"
"164.073657"
"$GPRMC,014600,A,2417.0868,N,08107.3609,W,2.1,306.8,130615,6.0,"
"##MN-00 00 53 0193 02082 5702 499178 215741 193"
"164.073715"
"$GPRMC,014606,A,2417.0891,N,08107.3638,W,2.1,308.1,130615,6.0,"
"##MN-00 00 56 0193 02082 5701 499472 215785 193"
"164.073762"
"$GPRMC,014608,A,2417.0898,N,08107.3646,W,2.0,308.9,130615,6.0,"
"##MN-00 00 55 0194 02085 5699 499876 215876 193"
"164.073808"
"$GPRMC,014612,A,2417.0914,N,08107.3667,W,2.1,310.2,130615,6.0,"
"##MN-00 00 54 0195 02084 5697 500070 215906 193"
"164.073854"
"$GPRMC,014616,A,2417.0929,N,08107.3685,W,2.1,311.0,130615,6.0,"
"##MN-00 00 55 0196 02091 5695 500206 215939 193"
"164.0739"
"$GPRMC,014620,A,2417.0943,N,08107.3703,W,2.1,311.7,130615,6.0,"
"##MN-00 00 54 0198 02094 5692 500448 216003 193"
"164.073947"
"$GPRMC,014624,A,2417.0956,N,08107.3721,W,2.1,311.7,130615,6.0,"
"##MN-00 00 54 0198 02095 5691 500791 216019 193"
"164.073993"
"$GPRMC,014628,A,2417.0970,N,08107.3740,W,2.1,311.6,130615,6.0,"
"##MN-00 00 54 0199 02099 5688 500959 216055 193"
"164.074039"
"$GPRMC,014632,A,2417.0984,N,08107.3757,W,2.0,310.9,130615,6.0,"
"##MN-00 00 52 0201 02102 5686 501078 216068 193"
"164.074086"
"$GPRMC,014636,A,2417.0998,N,08107.3779,W,2.0,309.6,130615,6.0,"
"##MN-00 00 54 0202 02103 5684 501147 216088 193"
"164.074132"
"$GPRMC,014640,A,2417.1010,N,08107.3797,W,1.9,308.8,130615,6.0,"
"##MN-00 00 54 0203 02106 5682 501202 216089 193"
"164.074178"
"$GPRMC,014644,A,2417.1023,N,08107.3816,W,1.9,307.3,130615,6.0,"
"##MN-00 00 55 0204 02108 5680 501301 216108 193"
"164.074225"
"$GPRMC,014648,A,2417.1034,N,08107.3834,W,1.8,305.7,130615,6.0,"
"##MN-00 00 55 0205 02109 5678 501449 216117 193"
"164.074271"
"$GPRMC,014652,A,2417.1046,N,08107.3853,W,1.9,306.2,130615,6.0,"
"##MN-00 00 55 0206 02116 5676 501493 216112 193"
"164.074317"
"$GPRMC,014657,A,2417.1064,N,08107.3876,W,1.9,307.2,130615,6.0,"
"##MN-00 00 53 0207 02116 5674 501570 216145 193"
"164.074363"
"$GPRMC,014701,A,2417.1078,N,08107.3894,W,1.9,308.1,130615,6.0,"
"##MN-00 00 54 0208 02119 5671 501652 216159 193"
"164.07441"
"$GPRMC,014705,A,2417.1091,N,08107.3913,W,1.9,309.6,130615,6.0,"
"##MN-00 00 55 0209 02122 5669 501776 216160 193"
"164.074456"
"$GPRMC,014709,A,2417.1106,N,08107.3930,W,1.9,310.5,130615,6.0,"
"##MN-00 00 55 0210 02126 5667 501877 216165 193"
"164.074502"
"$GPRMC,014713,A,2417.1121,N,08107.3946,W,1.9,311.0,130615,6.0,"
"##MN-00 00 55 0211 02128 5665 502095 216175 193"
"164.074549"
"$GPRMC,014717,A,2417.1135,N,08107.3961,W,1.9,312.2,130615,6.0,"
"##MN-00 00 55 0212 02132 5663 502487 216218 193"
"164.074595"
"$GPRMC,014721,A,2417.1150,N,08107.3979,W,1.9,312.0,130615,6.0,"
"##MN-00 00 55 0213 02134 5660 502794 216281 193"
"164.074641"
"$GPRMC,014725,A,2417.1165,N,08107.3996,W,1.9,312.0,130615,6.0,"
"##MN-00 00 54 0214 02140 5658 503395 216342 193"
"164.074688"
"$GPRMC,014729,A,2417.1182,N,08107.4014,W,2.1,311.5,130615,6.0,"
"##MN-00 00 54 0215 02135 5656 504237 216647 193"
"164.074734"
"$GPRMC,014733,A,2417.1197,N,08107.4035,W,2.2,311.0,130615,6.0,"
"##MN-00 00 55 0215 02137 5654 504974 216763 193"
"164.07478"
"$GPRMC,014737,A,2417.1212,N,08107.4053,W,2.1,310.6,130615,6.0,"
"##MN-00 00 54 0217 02139 5652 505611 216876 193"
"164.074826"
"$GPRMC,014741,A,2417.1227,N,08107.4075,W,2.3,310.6,130615,6.0,"
"##MN-00 00 57 0217 02139 5649 505902 216929 193"
"164.074873"
"$GPRMC,014745,A,2417.1243,N,08107.4093,W,2.1,311.7,130615,6.0,"
"##MN-00 00 55 0218 02141 5647 506247 216988 193"
"164.074919"
"$GPRMC,014749,A,2417.1261,N,08107.4112,W,2.2,311.4,130615,6.0,"
"##MN-00 00 55 0219 02141 5645 506400 217027 193"
"164.074965"
"$GPRMC,014753,A,2417.1280,N,08107.4131,W,2.2,313.2,130615,6.0,"
"##MN-00 00 54 0220 02144 5642 506531 217046 193"
"164.075012"
"$GPRMC,014757,A,2417.1299,N,08107.4144,W,2.1,313.8,130615,6.0,"
"##MN-00 00 54 0222 02147 5640 506656 217101 193"
"164.075058"
"$GPRMC,014801,A,2417.1319,N,08107.4162,W,2.2,313.7,130615,6.0,"
"##MN-00 00 54 0223 02149 5638 506808 217153 193"
"164.075104"
"$GPRMC,014805,A,2417.1333,N,08107.4178,W,2.1,313.2,130615,6.0,"
"##MN-00 00 55 0223 02152 5636 507045 217219 193"
"164.07515"
"$GPRMC,014809,A,2417.1348,N,08107.4196,W,2.1,313.8,130615,6.0,"
"##MN-00 00 57 0224 02158 5633 507305 217273 193"
"164.075197"
"$GPRMC,014813,A,2417.1360,N,08107.4212,W,1.9,314.7,130615,6.0,"
"##MN-00 00 56 0225 02161 5631 507620 217327 193"
"164.075243"
"$GPRMC,014817,A,2417.1375,N,08107.4230,W,2.0,315.6,130615,6.0,"
"##MN-00 00 56 0226 02166 5629 507819 217374 193"
"164.075289"
"$GPRMC,014821,A,2417.1392,N,08107.4246,W,1.9,316.2,130615,6.0,"
"##MN-00 00 56 0227 02172 5626 508059 217410 193"
"164.075336"
"$GPRMC,014825,A,2417.1407,N,08107.4263,W,1.9,316.4,130615,6.0,"
"##MN-00 00 54 0228 02176 5624 508277 217454 193"
"164.075382"
"$GPRMC,014829,A,2417.1422,N,08107.4277,W,1.9,317.8,130615,6.0,"
"##MN-00 00 54 0229 02178 5622 508485 217523 193"
"164.075428"
"$GPRMC,014833,A,2417.1440,N,08107.4295,W,2.0,318.7,130615,6.0,"
"##MN-00 00 55 0230 02180 5619 508680 217553 193"
"164.075475"
"$GPRMC,014837,A,2417.1457,N,08107.4311,W,2.0,318.3,130615,6.0,"
"##MN-00 00 54 0231 02186 5617 508846 217606 193"
"164.075521"
"$GPRMC,014841,A,2417.1472,N,08107.4328,W,2.0,317.8,130615,6.0,"
"##MN-00 00 54 0232 02187 5614 508891 217623 193"
"164.075567"
"$GPRMC,014845,A,2417.1490,N,08107.4347,W,2.1,317.2,130615,6.0,"
"##MN-00 00 54 0233 02193 5612 509041 217641 193"
"164.075613"
"$GPRMC,014849,A,2417.1504,N,08107.4362,W,1.9,315.8,130615,6.0,"
"##MN-00 00 54 0234 02193 5609 509201 217688 193"
"164.07566"
"$GPRMC,014853,A,2417.1519,N,08107.4380,W,2.1,314.7,130615,6.0,"
"##MN-00 00 55 0235 02197 5607 509315 217714 193"
"164.075706"
"$GPRMC,014857,A,2417.1533,N,08107.4397,W,1.9,313.3,130615,6.0,"
"##MN-00 00 54 0236 02201 5605 509427 217759 193"
"164.075752"
"$GPRMC,014901,A,2417.1550,N,08107.4413,W,2.0,314.4,130615,6.0,"
"##MN-00 00 54 0237 02203 5602 509535 217789 193"
"164.075799"
"$GPRMC,014905,A,2417.1566,N,08107.4429,W,2.1,315.6,130615,6.0,"
"##MN-00 00 54 0238 02208 5600 509598 217781 193"
"164.075845"
"$GPRMC,014909,A,2417.1581,N,08107.4447,W,1.9,314.8,130615,6.0,"
"##MN-00 00 54 0239 02210 5597 509623 217797 193"
"164.075891"
"$GPRMC,014913,A,2417.1597,N,08107.4465,W,2.1,314.8,130615,6.0,"
"##MN-00 00 56 0240 02209 5595 509648 217817 193"
"164.075937"
"$GPRMC,014917,A,2417.1612,N,08107.4483,W,2.1,314.3,130615,6.0,"
"##MN-00 00 55 0241 02213 5592 509692 217825 193"
"164.075984"
"$GPRMC,014921,A,2417.1626,N,08107.4502,W,2.1,314.0,130615,6.0,"
"##MN-00 00 53 0242 02215 5590 509825 217861 193"
"164.07603"
"$GPRMC,014925,A,2417.1642,N,08107.4520,W,2.1,314.7,130615,6.0,"
"##MN-00 00 54 0243 02216 5587 510020 217934 193"
"164.076076"
"$GPRMC,014929,A,2417.1660,N,08107.4539,W,2.1,315.0,130615,6.0,"
"##MN-00 00 55 0244 02221 5585 510310 217959 193"
"164.076123"
"$GPRMC,014933,A,2417.1675,N,08107.4556,W,2.0,315.2,130615,6.0,"
"##MN-00 00 54 0245 02223 5582 510654 218044 193"
"164.076169"
"$GPRMC,014937,A,2417.1693,N,08107.4574,W,2.1,316.4,130615,6.0,"
"##MN-00 00 55 0246 02225 5580 510952 218071 193"
"164.076215"
"$GPRMC,014941,A,2417.1711,N,08107.4589,W,2.1,317.8,130615,6.0,"
"##MN-00 00 53 0247 02231 5577 511165 218126 193"
"164.076262"
"$GPRMC,014945,A,2417.1728,N,08107.4607,W,2.1,317.2,130615,6.0,"
"##MN-00 00 55 0248 02227 5575 511351 218189 193"
"164.076308"
"$GPRMC,014949,A,2417.1740,N,08107.4618,W,2.0,317.4,130615,6.0,"
"##MN-00 00 54 0248 02234 5572 511517 218205 193"
"164.076354"
"$GPRMC,014953,A,2417.1760,N,08107.4639,W,2.1,315.0,130615,6.0,"
"##MN-00 00 52 0249 02233 5570 511658 218259 193"
"164.0764"
"$GPRMC,014957,A,2417.1778,N,08107.4658,W,2.2,316.0,130615,6.0,"
"##MN-00 00 55 0250 02234 5567 511802 218310 193"
"164.076447"
"$GPRMC,015001,A,2417.1796,N,08107.4673,W,2.1,314.8,130615,6.0,"
"##MN-00 00 56 0251 02237 5564 512131 218363 193"
"164.076493"
"$GPRMC,015005,A,2417.1812,N,08107.4694,W,2.2,315.8,130615,6.0,"
"##MN-00 00 56 0252 02240 5562 512451 218423 193"
"164.076539"
"$GPRMC,015009,A,2417.1828,N,08107.4709,W,2.0,316.4,130615,6.0,"
"##MN-00 00 53 0253 02242 5560 512871 218514 193"
"164.076586"
"$GPRMC,015013,A,2417.1846,N,08107.4729,W,2.2,315.6,130615,6.0,"
"##MN-00 00 56 0254 02243 5557 513092 218534 193"
"164.076632"
"$GPRMC,015017,A,2417.1866,N,08107.4744,W,2.1,317.1,130615,6.0,"
"##MN-00 00 54 0255 02250 5554 513455 218621 193"
"164.076678"
"$GPRMC,015021,A,2417.1883,N,08107.4762,W,2.1,314.8,130615,6.0,"
"##MN-00 00 54 0256 02253 5552 513723 218688 193"
"164.076725"
"$GPRMC,015025,A,2417.1898,N,08107.4780,W,2.0,313.4,130615,6.0,"
"##MN-00 00 56 0257 02255 5549 513927 218716 193"
"164.076771"
"$GPRMC,015029,A,2417.1913,N,08107.4798,W,1.9,312.1,130615,6.0,"
"##MN-00 00 55 0258 02258 5546 514049 218725 193"
"164.076817"
"$GPRMC,015033,A,2417.1927,N,08107.4814,W,1.9,313.9,130615,6.0,"
"##MN-00 00 55 0259 02266 5544 514208 218749 193"
"164.076863"
"$GPRMC,015037,A,2417.1944,N,08107.4832,W,1.9,314.9,130615,6.0,"
"##MN-00 00 55 0260 02263 5542 514274 218754 193"
"164.07691"
"$GPRMC,015041,A,2417.1960,N,08107.4849,W,1.9,316.5,130615,6.0,"
"##MN-00 00 56 0261 02271 5539 514379 218776 193"
"164.076968"
"$GPRMC,015045,A,2417.1975,N,08107.4866,W,1.9,316.6,130615,6.0,"
"##MN-00 00 55 0262 02272 5536 514432 218772 193"
"164.077014"
"$GPRMC,015049,A,2417.1992,N,08107.4882,W,2.0,317.1,130615,6.0,"
"##MN-00 00 55 0263 02277 5534 514587 218772 193"
"164.07706"
"$GPRMC,015053,A,2417.2010,N,08107.4895,W,1.9,317.8,130615,6.0,"
"##MN-00 00 54 0264 02278 5531 514697 218772 193"
"164.077106"
"$GPRMC,015057,A,2417.2028,N,08107.4914,W,2.0,316.7,130615,6.0,"
"##MN+00 00 55 0265 02279 5528 514726 218763 193"
"164.077153"
"$GPRMC,015101,A,2417.2043,N,08107.4931,W,1.9,316.5,130615,6.0,"
"##MN+00 00 52 0266 02283 5526 514716 218741 193"
"164.077199"
"$GPRMC,015105,A,2417.2060,N,08107.4949,W,2.0,315.4,130615,6.0,"
"##MN+00 00 54 0267 02279 5523 514735 218757 193"
"164.077245"
"$GPRMC,015109,A,2417.2076,N,08107.4964,W,1.9,316.5,130615,6.0,"
"##MN-00 00 54 0268 02283 5520 514765 218781 193"
"164.077292"
"$GPRMC,015113,A,2417.2093,N,08107.4979,W,1.9,315.7,130615,6.0,"
"##MN+00 00 55 0269 02283 5518 514794 218793 193"
"164.077338"
"$GPRMC,015117,A,2417.2108,N,08107.4996,W,1.9,316.8,130615,6.0,"
"##MN+00 00 58 0270 02285 5515 514814 218793 193"
"164.077384"
"$GPRMC,015121,A,2417.2122,N,08107.5009,W,1.8,316.6,130615,6.0,"
"##MN+00 00 63 0271 02293 5512 514827 218799 193"
"164.077431"
"#increment_net"
"$GPRMC,015126,A,2417.2141,N,08107.5030,W,1.8,315.7,130615,6.0,"
"##MN-00 00 58 0271 02293 5510 514816 218782 193"
"164.077477"
"$GPRMC,015130,A,2417.2155,N,08107.5047,W,1.8,316.7,130615,6.0,"
"##MN-00 00 58 0272 02293 5507 514799 218775 193"
"164.077523"
"$GPRMC,015133,A,2417.2166,N,08107.5059,W,1.8,316.4,130615,6.0,"
"##MN-00 00 56 0274 02290 5504 514787 218771 193"
"164.077569"
"$GPRMC,015138,A,2417.2186,N,08107.5079,W,1.8,315.7,130615,6.0,"
"##MN-00 00 53 0274 02294 5501 514767 218769 193"
"164.077616"
"$GPRMC,015142,A,2417.2202,N,08107.5091,W,1.8,315.7,130615,6.0,"
"##MN-00 00 55 0276 02292 5499 514765 218770 193"
"164.077662"
"$GPRMC,015145,A,2417.2213,N,08107.5103,W,1.8,315.2,130615,6.0,"
"##MN-00 00 55 0277 02291 5496 514769 218776 193"
"164.077708"
"$GPRMC,015149,A,2417.2229,N,08107.5119,W,1.8,315.6,130615,6.0,"
"##MN-00 00 56 0278 02288 5493 514791 218788 193"
"164.077755"
"$GPRMC,015153,A,2417.2245,N,08107.5134,W,1.8,317.7,130615,6.0,"
"##MN-00 00 55 0279 02289 5491 514817 218798 193"
"164.077801"
"$GPRMC,015157,A,2417.2260,N,08107.5148,W,1.8,317.6,130615,6.0,"
"##MN-00 00 57 0280 02289 5488 514829 218809 193"
"164.077847"
"$GPRMC,015202,A,2417.2281,N,08107.5168,W,1.9,316.6,130615,6.0,"
"##MN-00 00 55 0281 02289 5485 514827 218822 193"
"164.077894"
"$GPRMC,015206,A,2417.2294,N,08107.5184,W,1.8,316.4,130615,6.0,"
"##MN-00 00 56 0282 02287 5482 514777 218822 193"
"164.07794"
"$GPRMC,015210,A,2417.2307,N,08107.5200,W,1.9,315.2,130615,6.0,"
"##MN-00 00 55 0283 02287 5480 514600 218804 193"
"164.077986"
"$GPRMC,015214,A,2417.2321,N,08107.5215,W,1.8,315.1,130615,6.0,"
"##MN-00 00 56 0284 02285 5477 514394 218771 193"
"164.078032"
"$GPRMC,015218,A,2417.2336,N,08107.5235,W,1.8,313.9,130615,6.0,"
"##MN-00 00 54 0285 02287 5474 514101 218716 193"
"164.078079"
"$GPRMC,015222,A,2417.2350,N,08107.5250,W,1.9,314.2,130615,6.0,"
"##MN-00 00 55 0286 02284 5472 513945 218701 193"
"164.078125"
"$GPRMC,015226,A,2417.2365,N,08107.5268,W,1.9,314.7,130615,6.0,"
"##MN-00 00 55 0287 02282 5469 513847 218713 193"
"164.078171"
"$GPRMC,015230,A,2417.2379,N,08107.5285,W,1.9,314.8,130615,6.0,"
"##MN-00 00 55 0288 02283 5466 513740 218689 193"
"164.078218"
"$GPRMC,015234,A,2417.2394,N,08107.5303,W,2.0,314.1,130615,6.0,"
"##MN-00 00 55 0289 02276 5464 513673 218684 193"
"164.078264"
"$GPRMC,015238,A,2417.2411,N,08107.5321,W,2.1,314.8,130615,6.0,"
"##MN-00 00 56 0290 02276 5461 513610 218680 193"
"164.07831"
"$GPRMC,015242,A,2417.2426,N,08107.5339,W,2.0,314.1,130615,6.0,"
"##MN-00 00 55 0291 02275 5458 513559 218674 193"
"164.078356"
"$GPRMC,015246,A,2417.2441,N,08107.5357,W,2.0,313.9,130615,6.0,"
"##MN-00 00 54 0292 02272 5455 513507 218661 193"
"164.078403"
"$GPRMC,015250,A,2417.2458,N,08107.5372,W,1.9,314.8,130615,6.0,"
"##MN-00 00 54 0293 02274 5453 513472 218652 193"
"164.078449"
"$GPRMC,015254,A,2417.2477,N,08107.5386,W,1.9,315.1,130615,6.0,"
"##MN-00 00 55 0295 02270 5450 513459 218645 193"
"164.078495"
"$GPRMC,015258,A,2417.2494,N,08107.5402,W,2.1,314.4,130615,6.0,"
"##MN-00 00 54 0296 02271 5448 513425 218641 193"
"164.078542"
"$GPRMC,015302,A,2417.2509,N,08107.5415,W,1.9,314.9,130615,6.0,"
"##MN-00 00 54 0297 02268 5445 513399 218639 193"
"164.078588"
"$GPRMC,015306,A,2417.2526,N,08107.5434,W,2.0,314.2,130615,6.0,"
"##MN-00 00 54 0298 02268 5442 513403 218637 193"
"164.078634"
"$GPRMC,015310,A,2417.2540,N,08107.5449,W,1.8,315.5,130615,6.0,"
"##MN-00 00 55 0299 02264 5439 513394 218633 193"
"164.078681"
"$GPRMC,015314,A,2417.2556,N,08107.5466,W,1.9,315.1,130615,6.0,"
"##MN-00 00 54 0300 02268 5436 513354 218627 193"
"164.078727"
"$GPRMC,015318,A,2417.2570,N,08107.5482,W,1.8,316.4,130615,6.0,"
"##MN-00 00 54 0301 02263 5434 513378 218628 193"
"164.078773"
"$GPRMC,015322,A,2417.2581,N,08107.5499,W,2.0,315.6,130615,6.0,"
"##MN-00 00 56 0302 02262 5431 513373 218626 193"
"164.078819"
"$GPRMC,015326,A,2417.2598,N,08107.5513,W,1.8,316.8,130615,6.0,"
"##MN-00 00 53 0303 02264 5429 513391 218627 193"
"164.078866"
"$GPRMC,015330,A,2417.2616,N,08107.5531,W,2.0,316.2,130615,6.0,"
"##MN-00 00 54 0304 02260 5426 513403 218623 193"
"164.078912"
"$GPRMC,015334,A,2417.2635,N,08107.5553,W,1.9,316.5,130615,6.0,"
"##MN-00 00 55 0305 02259 5424 513412 218624 193"
"164.078958"
"$GPRMC,015338,A,2417.2650,N,08107.5568,W,1.9,316.4,130615,6.0,"
"##MN-00 00 55 0306 02259 5421 513412 218623 193"
"164.079005"
"$GPRMC,015342,A,2417.2664,N,08107.5585,W,1.9,316.7,130615,6.0,"
"##MN-00 00 56 0307 02256 5418 513404 218616 193"
"164.079051"
"$GPRMC,015346,A,2417.2682,N,08107.5600,W,1.9,317.4,130615,6.0,"
"##MN-00 00 55 0308 02256 5416 513383 218611 193"
"164.079097"
"$GPRMC,015350,A,2417.2697,N,08107.5615,W,1.8,317.2,130615,6.0,"
"##MN-00 00 54 0309 02256 5413 513372 218610 193"
"164.079144"
"$GPRMC,015354,A,2417.2714,N,08107.5632,W,1.9,318.3,130615,6.0,"
"##MN-00 00 55 0310 02258 5410 513347 218609 193"
"164.07919"
"$GPRMC,015358,A,2417.2726,N,08107.5647,W,1.9,317.3,130615,6.0,"
"##MN-00 00 53 0311 02256 5408 513327 218606 193"
"164.079236"
"$GPRMC,015402,A,2417.2742,N,08107.5665,W,1.9,316.9,130615,6.0,"
"##MN-00 00 56 0312 02254 5405 513275 218598 193"
"164.079282"
"$GPRMC,015406,A,2417.2755,N,08107.5680,W,1.8,315.9,130615,6.0,"
"##MN-00 00 53 0313 02255 5403 513238 218593 193"
"164.079329"
"$GPRMC,015410,A,2417.2769,N,08107.5697,W,1.9,314.9,130615,6.0,"
"##MN-00 00 54 0314 02254 5400 513197 218587 193"
"164.079375"
"$GPRMC,015414,A,2417.2784,N,08107.5715,W,1.8,314.8,130615,6.0,"
"##MN-00 00 55 0315 02251 5398 513171 218589 193"
"164.079421"
"$GPRMC,015418,A,2417.2798,N,08107.5731,W,1.9,314.7,130615,6.0,"
"##MN-00 00 56 0316 02251 5395 513130 218590 193"
"164.079468"
"$GPRMC,015422,A,2417.2813,N,08107.5745,W,1.8,314.5,130615,6.0,"
"##MN-00 00 53 0317 02249 5393 513041 218577 193"
"164.079514"
"$GPRMC,015426,A,2417.2831,N,08107.5759,W,2.0,313.7,130615,6.0,"
"##MN-00 00 55 0318 02244 5390 512937 218552 193"
"164.07956"
"$GPRMC,015430,A,2417.2848,N,08107.5775,W,1.9,313.8,130615,6.0,"
"##MN-00 00 54 0319 02243 5387 512738 218531 193"
"164.079606"
"$GPRMC,015434,A,2417.2862,N,08107.5792,W,1.9,313.2,130615,6.0,"
"##MN-00 00 54 0320 02240 5385 512644 218510 193"
"164.079653"
"$GPRMC,015438,A,2417.2878,N,08107.5814,W,2.1,312.4,130615,6.0,"
"##MN-00 00 57 0321 02236 5383 512436 218480 193"
"164.079699"
"$GPRMC,015442,A,2417.2892,N,08107.5832,W,2.1,312.8,130615,6.0,"
"##MN-00 00 55 0322 02234 5380 512196 218410 193"
"164.079745"
"$GPRMC,015446,A,2417.2906,N,08107.5853,W,2.1,313.9,130615,6.0,"
"##MN-00 00 54 0324 02234 5377 512016 218363 193"
"164.079792"
"$GPRMC,015450,A,2417.2924,N,08107.5870,W,2.1,315.4,130615,6.0,"
"##MN-00 00 55 0325 02228 5375 511855 218329 193"
"164.079838"
"$GPRMC,015454,A,2417.2939,N,08107.5886,W,2.1,317.3,130615,6.0,"
"##MN-00 00 54 0326 02228 5372 511635 218300 193"
"164.079884"
"$GPRMC,015458,A,2417.2954,N,08107.5904,W,2.1,315.6,130615,6.0,"
"##MN-00 00 54 0327 02225 5370 511429 218252 193"
"164.079931"
"$GPRMC,015502,A,2417.2972,N,08107.5921,W,2.1,316.3,130615,6.0,"
"##MN-00 00 55 0328 02221 5368 511296 218210 193"
"164.079977"
"$GPRMC,015506,A,2417.2990,N,08107.5934,W,1.9,316.7,130615,6.0,"
"##MN-00 00 58 0329 02218 5365 511079 218175 193"
"164.080023"
"$GPRMC,015510,A,2417.3008,N,08107.5951,W,1.9,318.2,130615,6.0,"
"##MN-00 00 54 0330 02219 5362 510884 218134 193"
"164.080069"
"$GPRMC,015514,A,2417.3022,N,08107.5965,W,1.8,317.8,130615,6.0,"
"##MN-00 00 53 0331 02216 5360 510805 218105 193"
"164.080127"
"$GPRMC,015518,A,2417.3037,N,08107.5982,W,1.9,316.6,130615,6.0,"
"##MN-00 00 55 0332 02216 5357 510679 218073 193"
"164.080174"
"$GPRMC,015522,A,2417.3053,N,08107.5994,W,1.8,316.3,130615,6.0,"
"##MN-00 00 53 0333 02215 5355 510628 218058 193"
"164.08022"
"$GPRMC,015526,A,2417.3066,N,08107.6009,W,1.9,317.8,130615,6.0,"
"##MN-00 00 53 0334 02215 5353 510663 218068 193"
"164.080266"
"$GPRMC,015530,A,2417.3080,N,08107.6024,W,1.8,317.8,130615,6.0,"
"##MN-00 00 55 0335 02213 5350 510662 218068 193"
"164.080313"
"$GPRMC,015534,A,2417.3096,N,08107.6038,W,1.8,319.0,130615,6.0,"
"##MN-00 00 57 0336 02213 5348 510584 218062 193"
"164.080359"
"$GPRMC,015538,A,2417.3112,N,08107.6052,W,1.7,318.9,130615,6.0,"
"##MN-00 00 53 0337 02212 5345 510527 218035 193"
"164.080405"
"$GPRMC,015542,A,2417.3127,N,08107.6069,W,1.8,318.3,130615,6.0,"
"##MN-00 00 55 0338 02207 5343 510460 218020 193"
"164.080451"
"$GPRMC,015546,A,2417.3143,N,08107.6082,W,1.8,318.4,130615,6.0,"
"##MN-00 00 54 0339 02207 5341 510401 218012 193"
"164.080498"
"$GPRMC,015550,A,2417.3156,N,08107.6098,W,1.8,317.9,130615,6.0,"
"##MN-00 00 51 0340 02205 5338 510350 217989 193"
"164.080544"
"$GPRMC,015554,A,2417.3173,N,08107.6113,W,1.9,319.3,130615,6.0,"
"##MN-00 00 55 0341 02198 5336 510243 217964 193"
"164.08059"
"$GPRMC,015558,A,2417.3191,N,08107.6128,W,1.9,319.9,130615,6.0,"
"##MN-00 00 55 0342 02199 5334 510137 217947 193"
"164.080637"
"$GPRMC,015602,A,2417.3206,N,08107.6145,W,1.9,319.0,130615,6.0,"
"##MN-00 00 56 0343 02197 5332 510053 217931 193"
"164.080683"
"$GPRMC,015606,A,2417.3224,N,08107.6160,W,2.0,320.8,130615,6.0,"
"##MN-00 00 55 0344 02193 5329 509926 217901 193"
"164.080729"
"$GPRMC,015610,A,2417.3241,N,08107.6172,W,1.9,320.9,130615,6.0,"
"##MN-00 00 54 0345 02195 5327 509842 217885 193"
"164.080775"
"$GPRMC,015615,A,2417.3260,N,08107.6190,W,1.9,321.0,130615,6.0,"
"##MN-00 00 55 0346 02192 5325 509810 217880 193"
"164.080822"
"$GPRMC,015619,A,2417.3279,N,08107.6206,W,1.9,320.5,130615,6.0,"
"##MN-00 00 55 0347 02191 5322 509823 217880 193"
"164.080868"
"$GPRMC,015623,A,2417.3295,N,08107.6219,W,1.9,320.3,130615,6.0,"
"##MN-00 00 54 0348 02189 5320 509797 217874 193"
"164.080914"
"$GPRMC,015627,A,2417.3310,N,08107.6236,W,1.9,320.5,130615,6.0,"
"##MN-00 00 53 0349 02188 5318 509747 217868 193"
"164.080961"
"$GPRMC,015631,A,2417.3326,N,08107.6250,W,1.9,320.7,130615,6.0,"
"##MN-00 00 54 0350 02184 5316 509727 217860 193"
"164.081007"
"$GPRMC,015635,A,2417.3340,N,08107.6266,W,1.9,319.6,130615,6.0,"
"##MN-00 00 55 0352 02183 5314 509733 217854 193"
"164.081053"
"$GPRMC,015639,A,2417.3355,N,08107.6280,W,1.8,319.0,130615,6.0,"
"##MN-00 00 55 0353 02182 5311 509710 217848 193"
"164.0811"
"$GPRMC,015643,A,2417.3372,N,08107.6297,W,1.9,317.6,130615,6.0,"
"##MN-00 00 53 0354 02183 5309 509640 217827 193"
"164.081146"
"$GPRMC,015647,A,2417.3385,N,08107.6309,W,1.7,317.7,130615,6.0,"
"##MN-00 00 54 0355 02180 5306 509592 217817 193"
"164.081192"
"$GPRMC,015651,A,2417.3400,N,08107.6327,W,1.8,315.2,130615,6.0,"
"##MN-00 00 59 0355 02175 5304 509540 217807 193"
"164.081238"
"$GPRMC,015655,A,2417.3412,N,08107.6345,W,1.8,312.4,130615,6.0,"
"##MN-00 00 55 0356 02175 5302 509503 217793 193"
"164.081285"
"$GPRMC,015659,A,2417.3423,N,08107.6362,W,1.8,310.4,130615,6.0,"
"##MN-00 00 54 0357 02175 5300 509422 217778 193"
"164.081331"
"$GPRMC,015703,A,2417.3438,N,08107.6380,W,1.8,310.6,130615,6.0,"
"##MN-00 00 54 0358 02173 5298 509372 217772 193"
"164.081377"
"$GPRMC,015707,A,2417.3451,N,08107.6395,W,1.8,311.4,130615,6.0,"
"##MN-00 00 55 0360 02174 5296 509381 217771 193"
"164.081424"
"$GPRMC,015711,A,2417.3462,N,08107.6410,W,1.7,311.5,130615,6.0,"
"##MN-00 00 52 0361 02176 5293 509402 217776 193"
"164.08147"
"$GPRMC,015715,A,2417.3470,N,08107.6427,W,1.6,309.4,130615,6.0,"
"##MN-00 00 52 0362 02173 5291 509370 217765 193"
"164.081516"
"$GPRMC,015719,A,2417.3484,N,08107.6446,W,1.8,308.7,130615,6.0,"
"##MN-00 00 56 0363 02167 5289 509289 217746 193"
"164.081562"
"$GPRMC,015723,A,2417.3497,N,08107.6463,W,1.7,307.9,130615,6.0,"
"##MN-00 00 55 0364 02169 5287 509202 217725 193"
"164.081609"
"$GPRMC,015727,A,2417.3509,N,08107.6479,W,1.8,307.8,130615,6.0,"
"##MN-00 00 57 0365 02166 5285 509089 217707 193"
"164.081655"
"$GPRMC,015731,A,2417.3521,N,08107.6496,W,1.7,308.8,130615,6.0,"
"##MN-00 00 53 0366 02167 5283 509005 217686 193"
"164.081701"
"$GPRMC,015735,A,2417.3531,N,08107.6512,W,1.7,308.2,130615,6.0,"
"##MN-00 00 53 0367 02163 5281 508903 217667 193"
"164.081748"
"$GPRMC,015739,A,2417.3544,N,08107.6532,W,1.8,308.3,130615,6.0,"
"##MN-00 00 54 0368 02161 5278 508661 217611 193"
"164.081794"
"$GPRMC,015743,A,2417.3557,N,08107.6546,W,1.7,309.0,130615,6.0,"
"##MN-00 00 54 0369 02159 5276 508469 217561 193"
"164.08184"
"$GPRMC,015747,A,2417.3568,N,08107.6565,W,1.8,308.5,130615,6.0,"
"##MN-00 00 54 0370 02158 5274 508247 217520 193"
"164.081887"
"$GPRMC,015751,A,2417.3581,N,08107.6579,W,1.7,308.3,130615,6.0,"
"##MN-00 00 52 0371 02160 5272 508082 217504 193"
"164.081933"
"$GPRMC,015755,A,2417.3589,N,08107.6593,W,1.8,307.1,130615,6.0,"
"##MN-00 00 54 0372 02156 5271 507814 217451 193"
"164.081979"
"$GPRMC,015759,A,2417.3606,N,08107.6612,W,1.7,309.2,130615,6.0,"
"##MN-00 00 53 0373 02154 5268 507478 217352 193"
"164.082025"
"$GPRMC,015803,A,2417.3617,N,08107.6627,W,1.7,307.6,130615,6.0,"
"##MN-00 00 52 0374 02152 5266 507170 217254 193"
"164.082072"
"$GPRMC,015807,A,2417.3629,N,08107.6648,W,1.8,306.9,130615,6.0,"
"##MN-00 00 59 0375 02148 5264 506661 217136 193"
"164.082118"
"$GPRMC,015811,A,2417.3640,N,08107.6665,W,1.7,305.5,130615,6.0,"
"##MN-00 00 54 0376 02144 5262 505726 216909 193"
"164.082164"
"$GPRMC,015815,A,2417.3651,N,08107.6685,W,1.9,303.2,130615,6.0,"
"##MN-00 00 54 0377 02147 5260 504914 216810 193"
"164.082211"
"$GPRMC,015819,A,2417.3661,N,08107.6701,W,1.7,304.2,130615,6.0,"
"##MN-00 00 54 0378 02144 5258 504662 216749 193"
"164.082257"
"$GPRMC,015823,A,2417.3672,N,08107.6716,W,1.7,303.4,130615,6.0,"
"##MN-00 00 55 0379 02143 5256 504699 216757 193"
"164.082303"
"$GPRMC,015827,A,2417.3680,N,08107.6732,W,1.6,303.7,130615,6.0,"
"##MN-00 00 55 0380 02145 5254 504899 216770 193"
"164.08235"
"$GPRMC,015831,A,2417.3690,N,08107.6748,W,1.6,302.8,130615,6.0,"
"##MN-00 00 54 0381 02142 5252 504906 216761 193"
"164.082396"
"$GPRMC,015835,A,2417.3697,N,08107.6763,W,1.6,302.3,130615,6.0,"
"##MN-00 00 55 0382 02143 5250 504600 216694 193"
"164.082442"
"$GPRMC,015839,A,2417.3705,N,08107.6779,W,1.5,301.2,130615,6.0,"
"##MN-00 00 55 0383 02143 5248 504196 216594 193"
"164.082488"
"$GPRMC,015843,A,2417.3714,N,08107.6796,W,1.5,301.1,130615,6.0,"
"##MN-00 00 53 0384 02143 5246 503647 216526 193"
"164.082535"
"$GPRMC,015847,A,2417.3721,N,08107.6811,W,1.5,299.4,130615,6.0,"
"##MN-00 00 53 0385 02143 5245 503489 216473 193"
"164.082581"
"$GPRMC,015851,A,2417.3729,N,08107.6831,W,1.6,299.1,130615,6.0,"
"##MN-00 00 57 0386 02140 5242 503410 216444 193"
"164.082627"
"$GPRMC,015855,A,2417.3737,N,08107.6846,W,1.5,297.6,130615,6.0,"
"##MN-00 00 53 0387 02142 5241 503333 216422 193"
"164.082674"
"$GPRMC,015859,A,2417.3744,N,08107.6864,W,1.6,296.1,130615,6.0,"
"##MN-00 00 54 0388 02136 5239 503291 216418 193"
"164.08272"
"$GPRMC,015903,A,2417.3751,N,08107.6882,W,1.5,295.0,130615,6.0,"
"##MN-00 00 57 0389 02137 5237 503202 216395 193"
"164.082766"
"$GPRMC,015907,A,2417.3756,N,08107.6897,W,1.5,293.8,130615,6.0,"
"##MN-00 00 55 0390 02137 5235 503230 216397 193"
"164.082812"
"$GPRMC,015911,A,2417.3765,N,08107.6911,W,1.5,294.4,130615,6.0,"
"##MN-00 00 56 0391 02134 5234 503244 216395 193"
"164.082859"
"$GPRMC,015915,A,2417.3774,N,08107.6925,W,1.5,294.7,130615,6.0,"
"##MN-00 00 54 0392 02136 5232 503206 216391 193"
"164.082905"
"$GPRMC,015919,A,2417.3780,N,08107.6938,W,1.4,294.8,130615,6.0,"
"##MN-00 00 51 0393 02136 5230 503202 216388 193"
"164.082951"
"$GPRMC,015923,A,2417.3788,N,08107.6954,W,1.5,295.8,130615,6.0,"
"##MN-00 00 53 0394 02136 5228 503108 216360 193"
"164.082998"
"$GPRMC,015927,A,2417.3797,N,08107.6965,W,1.3,295.2,130615,6.0,"
"##MN-00 00 52 0395 02133 5226 503170 216383 193"
"164.083044"
"$GPRMC,015931,A,2417.3802,N,08107.6984,W,1.5,296.0,130615,6.0,"
"##MN-00 00 53 0396 02132 5224 503178 216385 193"
"164.08309"
"$GPRMC,015935,A,2417.3810,N,08107.6998,W,1.3,295.1,130615,6.0,"
"##MN-00 00 55 0397 02130 5223 503072 216378 193"
"164.083137"
"$GPRMC,015939,A,2417.3817,N,08107.7014,W,1.4,294.9,130615,6.0,"
"##MN-00 00 53 0398 02131 5221 502902 216332 193"
"164.083183"
"$GPRMC,015943,A,2417.3824,N,08107.7027,W,1.3,296.1,130615,6.0,"
"##MN-00 00 51 0399 02128 5220 502675 216300 193"
"164.083241"
"$GPRMC,015947,A,2417.3829,N,08107.7045,W,1.5,295.2,130615,6.0,"
"##MN-00 00 54 0400 02123 5218 502305 216212 193"
"164.083287"
"$GPRMC,015951,A,2417.3837,N,08107.7059,W,1.3,294.4,130615,6.0,"
"##MN-00 00 53 0401 02126 5217 502059 216193 193"
"164.083333"
"$GPRMC,015955,A,2417.3844,N,08107.7074,W,1.5,292.8,130615,6.0,"
"##MN-00 00 52 0402 02122 5215 501857 216130 193"
"164.08338"
"$GPRMC,015959,A,2417.3850,N,08107.7090,W,1.4,292.2,130615,6.0,"
"##MN-00 00 54 0403 02120 5213 501677 216105 193"
"164.083426"
"$GPRMC,020003,A,2417.3856,N,08107.7107,W,1.5,291.8,130615,6.0,"
"##MN-00 00 52 0404 02119 5211 501483 216070 193"
"164.083472"
"$GPRMC,020007,A,2417.3862,N,08107.7126,W,1.5,291.6,130615,6.0,"
"##MN-00 00 54 0405 02116 5210 501327 216060 193"
"164.083519"
"$GPRMC,020011,A,2417.3867,N,08107.7146,W,1.4,290.3,130615,6.0,"
"##MN-00 00 52 0406 02116 5208 501239 216041 193"
"164.083565"
"$GPRMC,020015,A,2417.3871,N,08107.7165,W,1.4,288.6,130615,6.0,"
"##MN-00 00 51 0407 02114 5207 501178 216038 193"
"164.083611"
"$GPRMC,020019,A,2417.3877,N,08107.7182,W,1.3,287.7,130615,6.0,"
"##MN-00 00 56 0408 02108 5205 500985 216001 193"
"164.083657"
"$GPRMC,020023,A,2417.3881,N,08107.7204,W,1.4,286.4,130615,6.0,"
"##MN-00 00 58 0409 02108 5204 500732 215936 193"
"164.083704"
"$GPRMC,020027,A,2417.3884,N,08107.7220,W,1.4,286.2,130615,6.0,"
"##MN-00 00 52 0409 02104 5202 500326 215890 193"
"164.08375"
"$GPRMC,020031,A,2417.3888,N,08107.7248,W,1.8,281.9,130615,6.0,"
"##MN+00 00 52 0410 02097 5201 499711 215849 193"
"164.083796"
"$GPRMC,020035,A,2417.3893,N,08107.7267,W,1.7,281.3,130615,6.0,"
"##MN+00 00 55 0411 02091 5199 499428 215805 193"
"164.083843"
"$GPRMC,020040,A,2417.3900,N,08107.7294,W,1.7,282.3,130615,6.0,"
"##MN+00 00 53 0412 02092 5197 499237 215789 193"
"164.083889"
"$GPRMC,020044,A,2417.3904,N,08107.7312,W,1.7,283.0,130615,6.0,"
"##MN-00 00 52 0413 02091 5196 499116 215764 193"
"164.083935"
"$GPRMC,020048,A,2417.3910,N,08107.7328,W,1.6,285.1,130615,6.0,"
"##MN+00 00 52 0414 02088 5194 499066 215736 193"
"164.083981"
"$GPRMC,020052,A,2417.3915,N,08107.7345,W,1.6,286.5,130615,6.0,"
"##MN+00 00 63 0415 02086 5193 499036 215726 193"
"164.084028"
"#increment_net"
"$GPRMC,020056,A,2417.3922,N,08107.7364,W,1.7,288.9,130615,6.0,"
"##MN+00 00 58 0416 02088 5192 499037 215728 193"
"164.084074"
"$GPRMC,020100,A,2417.3929,N,08107.7379,W,1.6,292.8,130615,6.0,"
"##MN-00 00 52 0417 02087 5191 499080 215738 193"
"164.08412"
"$GPRMC,020104,A,2417.3939,N,08107.7399,W,1.6,295.1,130615,6.0,"
"##MN-00 00 56 0418 02078 5189 498988 215713 193"
"164.084167"
"$GPRMC,020108,A,2417.3950,N,08107.7417,W,1.7,297.7,130615,6.0,"
"##MN-00 00 52 0419 02079 5188 498609 215649 193"
"164.084213"
"$GPRMC,020112,A,2417.3958,N,08107.7431,W,1.6,298.6,130615,6.0,"
"##MN-00 00 53 0420 02072 5186 498173 215567 193"
"164.084259"
"$GPRMC,020116,A,2417.3969,N,08107.7451,W,1.8,299.0,130615,6.0,"
"##MN-00 00 54 0421 02073 5185 497461 215407 193"
"164.084306"
"$GPRMC,020120,A,2417.3978,N,08107.7465,W,1.6,301.7,130615,6.0,"
"##MN-00 00 50 0422 02072 5184 497089 215331 193"
"164.084352"
"$GPRMC,020124,A,2417.3989,N,08107.7482,W,1.6,302.0,130615,6.0,"
"##MN-00 00 53 0423 02070 5182 496319 215213 193"
"164.084398"
"$GPRMC,020128,A,2417.3997,N,08107.7500,W,1.6,303.6,130615,6.0,"
"##MN-00 00 52 0424 02069 5181 496052 215122 193"
"164.084444"
"$GPRMC,020132,A,2417.4008,N,08107.7515,W,1.6,303.6,130615,6.0,"
"##MN-00 00 52 0425 02067 5179 495720 215049 193"
"164.084491"
"$GPRMC,020136,A,2417.4019,N,08107.7532,W,1.6,305.2,130615,6.0,"
"##MN-00 00 50 0426 02065 5178 495599 215030 193"
"164.084537"
"$GPRMC,020140,A,2417.4030,N,08107.7545,W,1.6,306.4,130615,6.0,"
"##MN-00 00 54 0427 02062 5177 495584 215035 193"
"164.084583"
"$GPRMC,020144,A,2417.4041,N,08107.7562,W,1.6,306.1,130615,6.0,"
"##MN-00 00 51 0428 02064 5176 495568 215044 193"
"164.08463"
"$GPRMC,020148,A,2417.4050,N,08107.7576,W,1.5,304.7,130615,6.0,"
"##MN-00 00 51 0429 02058 5175 494999 214897 193"
"164.084676"
"$GPRMC,020152,A,2417.4061,N,08107.7597,W,1.7,302.3,130615,6.0,"
"##MN-00 00 57 0430 02053 5173 494204 214731 193"
"164.084722"
"$GPRMC,020156,A,2417.4069,N,08107.7613,W,1.6,300.3,130615,6.0,"
"##MN-00 00 52 0431 02052 5172 493602 214611 193"
"164.084769"
"$GPRMC,020200,A,2417.4079,N,08107.7631,W,1.7,300.3,130615,6.0,"
"##MN-00 00 54 0432 02050 5171 492636 214502 193"
"164.084815"
"$GPRMC,020204,A,2417.4088,N,08107.7648,W,1.7,301.7,130615,6.0,"
"##MN-00 00 53 0433 02050 5170 492255 214410 193"
"164.084861"
"$GPRMC,020208,A,2417.4098,N,08107.7664,W,1.6,302.4,130615,6.0,"
"##MN-00 00 51 0434 02050 5169 492050 214342 193"
"164.084907"
