" Tow: 6-of-n-out   RVWS/WS15161"
" Date: 13/06/2015"
" Temperature Probe #  4762    Conductivity Probe #  710"
" Pressure Probe #  159"
" Flow Meter Calibration  4.71 (m/count)  "
"164.437153"
"$GPRMC,102925,A,2415.3097,N,08058.6046,W,1.9,338.3,130615,6.1,"
"##MN-00 00 52 2261 01578 5533 131324 123299 191"
"164.437477"
"$GPRMC,102954,A,2415.3260,N,08058.6138,W,2.4,331.0,130615,6.1,"
"##MN-00 00 56 2269 01566 5537 447153 205520 191"
"164.437523"
"$GPRMC,102958,A,2415.3282,N,08058.6153,W,2.4,330.1,130615,6.1,"
"##MN-00 00 56 2270 01564 5537 447096 205506 191"
"164.437569"
"$GPRMC,103002,A,2415.3304,N,08058.6165,W,2.3,330.3,130615,6.1,"
"##MN-00 00 56 2271 01566 5538 447083 205499 191"
"164.437627"
"$GPRMC,103006,A,2415.3326,N,08058.6181,W,2.3,330.4,130615,6.1,"
"##MN-00 00 54 2272 01557 5539 447097 205518 191"
"164.437674"
"$GPRMC,103010,A,2415.3347,N,08058.6196,W,2.3,330.2,130615,6.1,"
"##MN-00 00 56 2273 01561 5540 447115 205522 191"
"164.43772"
"$GPRMC,103014,A,2415.3365,N,08058.6210,W,2.3,329.7,130615,6.1,"
"##MN-00 00 55 2275 01562 5541 447145 205530 191"
"164.437766"
"$GPRMC,103018,A,2415.3390,N,08058.6225,W,2.3,330.3,130615,6.1,"
"##MN-00 00 56 2276 01566 5541 447152 205535 191"
"164.437812"
"$GPRMC,103022,A,2415.3415,N,08058.6232,W,2.4,332.7,130615,6.1,"
"##MN-00 00 55 2277 01566 5542 447169 205541 191"
"164.437859"
"$GPRMC,103026,A,2415.3441,N,08058.6243,W,2.4,332.9,130615,6.1,"
"##MN-00 00 57 2277 01575 5543 447183 205540 191"
"164.437905"
"$GPRMC,103030,A,2415.3463,N,08058.6257,W,2.4,333.7,130615,6.1,"
"##MN-00 00 52 2278 01575 5543 447144 205544 191"
"164.437951"
"$GPRMC,103034,A,2415.3490,N,08058.6272,W,2.5,333.2,130615,6.1,"
"##MN-00 00 58 2279 01568 5544 447156 205543 191"
"164.437998"
"$GPRMC,103038,A,2415.3519,N,08058.6284,W,2.4,333.7,130615,6.1,"
"##MN-00 00 56 2280 01577 5545 447176 205544 191"
"164.438044"
"$GPRMC,103042,A,2415.3544,N,08058.6301,W,2.5,332.0,130615,6.1,"
"##MN-00 00 57 2281 01571 5546 447180 205541 191"
"164.43809"
"$GPRMC,103046,A,2415.3570,N,08058.6318,W,2.5,332.9,130615,6.1,"
"##MN-00 00 56 2282 01584 5546 447153 205536 191"
"164.438137"
"$GPRMC,103050,A,2415.3595,N,08058.6326,W,2.5,331.7,130615,6.1,"
"##MN-00 00 57 2283 01571 5547 447083 205506 191"
"164.438183"
"$GPRMC,103054,A,2415.3620,N,08058.6341,W,2.5,331.5,130615,6.1,"
"##MN-00 00 57 2283 01585 5548 447060 205497 191"
"164.438229"
"$GPRMC,103058,A,2415.3640,N,08058.6355,W,2.4,328.2,130615,6.1,"
"##MN-00 00 57 2285 01573 5549 447049 205496 191"
"164.438275"
"$GPRMC,103102,A,2415.3667,N,08058.6380,W,2.6,325.5,130615,6.1,"
"##MN-00 00 56 2286 01581 5550 447092 205511 191"
"164.438322"
"$GPRMC,103106,A,2415.3690,N,08058.6394,W,2.4,324.7,130615,6.1,"
"##MN-00 00 55 2287 01581 5551 447103 205508 191"
"164.438368"
"$GPRMC,103110,A,2415.3712,N,08058.6417,W,2.6,322.7,130615,6.1,"
"##MN-00 00 57 2288 01587 5552 447112 205510 191"
"164.438414"
"$GPRMC,103114,A,2415.3732,N,08058.6430,W,2.4,323.9,130615,6.1,"
"##MN-00 00 57 2289 01587 5553 447131 205514 191"
"164.438461"
"$GPRMC,103118,A,2415.3754,N,08058.6447,W,2.4,322.8,130615,6.1,"
"##MN-00 00 57 2290 01594 5554 447099 205503 191"
"164.438507"
"$GPRMC,103122,A,2415.3773,N,08058.6463,W,2.3,326.4,130615,6.1,"
"##MN-00 00 57 2291 01599 5555 447081 205489 191"
"164.438553"
"$GPRMC,103126,A,2415.3792,N,08058.6478,W,2.3,326.2,130615,6.1,"
"##MN-00 00 56 2292 01598 5556 447116 205501 191"
"164.4386"
"$GPRMC,103130,A,2415.3812,N,08058.6492,W,2.3,327.2,130615,6.1,"
"##MN-00 00 56 2293 01603 5557 447117 205502 191"
"164.438646"
"$GPRMC,103134,A,2415.3835,N,08058.6507,W,2.3,327.1,130615,6.1,"
"##MN-00 00 55 2294 01604 5558 447108 205501 191"
"164.438692"
"$GPRMC,103138,A,2415.3857,N,08058.6525,W,2.4,326.7,130615,6.1,"
"##MN-00 00 56 2295 01609 5559 447098 205496 191"
"164.438738"
"$GPRMC,103142,A,2415.3881,N,08058.6539,W,2.4,326.8,130615,6.1,"
"##MN-00 00 57 2296 01613 5560 447082 205492 191"
"164.438785"
"$GPRMC,103146,A,2415.3906,N,08058.6557,W,2.5,327.4,130615,6.1,"
"##MN-00 00 56 2297 01612 5560 447084 205491 191"
"164.438831"
"$GPRMC,103150,A,2415.3929,N,08058.6572,W,2.5,329.2,130615,6.1,"
"##MN-00 00 58 2299 01617 5561 447088 205495 191"
"164.438877"
"$GPRMC,103154,A,2415.3956,N,08058.6590,W,2.5,329.1,130615,6.1,"
"##MN-00 00 55 2300 01620 5562 447117 205500 191"
"164.438924"
"$GPRMC,103158,A,2415.3980,N,08058.6604,W,2.4,328.5,130615,6.1,"
"##MN-00 00 57 2301 01619 5563 447128 205508 191"
"164.43897"
"$GPRMC,103202,A,2415.4005,N,08058.6619,W,2.5,328.8,130615,6.1,"
"##MN-00 00 57 2302 01623 5564 447060 205482 191"
"164.439016"
"$GPRMC,103206,A,2415.4027,N,08058.6633,W,2.5,330.2,130615,6.1,"
"##MN-00 00 57 2303 01626 5565 446997 205459 191"
"164.439063"
"$GPRMC,103210,A,2415.4050,N,08058.6644,W,2.5,330.5,130615,6.1,"
"##MN-00 00 57 2304 01628 5566 446969 205446 191"
"164.439109"
"$GPRMC,103214,A,2415.4072,N,08058.6658,W,2.5,331.7,130615,6.1,"
"##MN-00 00 58 2305 01631 5567 446958 205438 191"
"164.439155"
"$GPRMC,103218,A,2415.4095,N,08058.6670,W,2.5,330.6,130615,6.1,"
"##MN-00 00 55 2306 01633 5568 446962 205435 191"
"164.439201"
"$GPRMC,103222,A,2415.4119,N,08058.6685,W,2.5,330.3,130615,6.1,"
"##MN-00 00 56 2308 01635 5569 446986 205445 191"
"164.439248"
"$GPRMC,103226,A,2415.4146,N,08058.6702,W,2.6,331.5,130615,6.1,"
"##MN-00 00 55 2309 01635 5571 447030 205457 191"
"164.439294"
"$GPRMC,103230,A,2415.4173,N,08058.6720,W,2.5,330.1,130615,6.1,"
"##MN-00 00 57 2310 01638 5571 447004 205448 191"
"164.43934"
"$GPRMC,103234,A,2415.4199,N,08058.6736,W,2.6,331.9,130615,6.1,"
"##MN-00 00 55 2311 01638 5572 446989 205444 191"
"164.439387"
"$GPRMC,103238,A,2415.4224,N,08058.6750,W,2.5,330.0,130615,6.1,"
"##MN-00 00 59 2312 01643 5573 446982 205441 191"
"164.439433"
"$GPRMC,103242,A,2415.4249,N,08058.6770,W,2.6,330.2,130615,6.1,"
"##MN-00 00 59 2313 01642 5575 446998 205447 191"
"164.439479"
"$GPRMC,103246,A,2415.4268,N,08058.6781,W,2.4,330.5,130615,6.1,"
"##MN-00 00 55 2314 01646 5575 446996 205446 191"
"164.439525"
"$GPRMC,103250,A,2415.4292,N,08058.6804,W,2.6,326.4,130615,6.1,"
"##MN-00 00 57 2315 01639 5576 446987 205441 191"
"164.439572"
"$GPRMC,103254,A,2415.4319,N,08058.6817,W,2.5,327.8,130615,6.1,"
"##MN-00 00 56 2316 01649 5577 446987 205444 191"
"164.439618"
"$GPRMC,103258,A,2415.4344,N,08058.6839,W,2.6,324.0,130615,6.1,"
"##MN-00 00 56 2316 01639 5578 447012 205458 191"
"164.439664"
"$GPRMC,103302,A,2415.4372,N,08058.6861,W,2.8,324.0,130615,6.1,"
"##MN-00 00 58 2317 01647 5579 447041 205464 191"
"164.439711"
"$GPRMC,103306,A,2415.4398,N,08058.6879,W,2.7,324.7,130615,6.1,"
"##MN-00 00 56 2319 01647 5580 447040 205461 191"
"164.439757"
"$GPRMC,103310,A,2415.4420,N,08058.6900,W,2.7,323.6,130615,6.1,"
"##MN-00 00 57 2320 01652 5581 446996 205445 191"
"164.439803"
"$GPRMC,103314,A,2415.4445,N,08058.6915,W,2.5,324.9,130615,6.1,"
"##MN-00 00 56 2321 01652 5582 446960 205426 191"
"164.43985"
"$GPRMC,103318,A,2415.4469,N,08058.6933,W,2.6,323.4,130615,6.1,"
"##MN-00 00 60 2322 01654 5583 446958 205428 191"
"164.439896"
"$GPRMC,103322,A,2415.4496,N,08058.6944,W,2.5,326.2,130615,6.1,"
"##MN-00 00 57 2323 01660 5584 446950 205426 191"
"164.439942"
"$GPRMC,103326,A,2415.4525,N,08058.6962,W,2.5,325.5,130615,6.1,"
"##MN-00 00 55 2324 01661 5585 446931 205416 191"
"164.439988"
"$GPRMC,103330,A,2415.4547,N,08058.6977,W,2.5,328.3,130615,6.1,"
"##MN-00 00 56 2325 01666 5586 446924 205412 191"
"164.440035"
"$GPRMC,103334,A,2415.4568,N,08058.6991,W,2.4,329.7,130615,6.1,"
"##MN-00 00 56 2326 01670 5587 446920 205410 191"
"164.440081"
"$GPRMC,103339,A,2415.4594,N,08058.7008,W,2.4,330.4,130615,6.1,"
"##MN-00 00 15 2327 01675 5589 446920 205408 191"
"164.440127"
"$GPRMC,103342,A,2415.4612,N,08058.7017,W,2.4,331.1,130615,6.1,"
"##MN-00 00 50 2328 01677 5590 446921 205406 191"
"164.440174"
"$GPRMC,103346,A,2415.4633,N,08058.7030,W,2.5,331.1,130615,6.1,"
"##MN-00 00 56 2330 01679 5590 446919 205403 191"
"164.44022"
"$GPRMC,103351,A,2415.4662,N,08058.7050,W,2.5,331.5,130615,6.1,"
"##MN-00 00 56 2331 01682 5592 446921 205402 191"
"164.440266"
"$GPRMC,103355,A,2415.4688,N,08058.7066,W,2.5,330.5,130615,6.1,"
"##MN-00 00 56 2332 01681 5592 446923 205405 191"
"164.440313"
"$GPRMC,103359,A,2415.4713,N,08058.7086,W,2.6,330.0,130615,6.1,"
"##MN-00 00 56 2333 01688 5593 446950 205417 191"
"164.440359"
"$GPRMC,103403,A,2415.4738,N,08058.7102,W,2.5,330.1,130615,6.1,"
"##MN-00 00 56 2334 01687 5594 446969 205422 191"
"164.440405"
"$GPRMC,103407,A,2415.4763,N,08058.7124,W,2.6,330.3,130615,6.1,"
"##MN-00 00 56 2335 01692 5595 446972 205425 191"
"164.440451"
"$GPRMC,103411,A,2415.4784,N,08058.7140,W,2.5,330.0,130615,6.1,"
"##MN-00 00 56 2336 01691 5596 446964 205417 191"
"164.440498"
"$GPRMC,103415,A,2415.4807,N,08058.7164,W,2.6,329.6,130615,6.1,"
"##MN-00 00 55 2337 01700 5598 446934 205409 191"
"164.440544"
"$GPRMC,103419,A,2415.4831,N,08058.7179,W,2.5,330.3,130615,6.1,"
"##MN-00 00 55 2339 01699 5599 446937 205412 191"
"164.44059"
"$GPRMC,103423,A,2415.4853,N,08058.7200,W,2.6,327.9,130615,6.1,"
"##MN-00 00 55 2340 01699 5600 446948 205415 191"
"164.440637"
"$GPRMC,103427,A,2415.4881,N,08058.7216,W,2.5,328.8,130615,6.1,"
"##MN-00 00 56 2341 01700 5601 446953 205416 191"
"164.440683"
"$GPRMC,103431,A,2415.4904,N,08058.7234,W,2.6,327.1,130615,6.1,"
"##MN-00 00 56 2342 01705 5602 446952 205413 191"
"164.440741"
"$GPRMC,103435,A,2415.4928,N,08058.7251,W,2.5,329.1,130615,6.1,"
"##MN-00 00 55 2343 01707 5603 446937 205404 191"
"164.440787"
"$GPRMC,103439,A,2415.4951,N,08058.7267,W,2.5,327.1,130615,6.1,"
"##MN-00 00 56 2344 01711 5604 446915 205388 191"
"164.440833"
"$GPRMC,103443,A,2415.4972,N,08058.7284,W,2.5,327.3,130615,6.1,"
"##MN-00 00 15 2345 01714 5605 446896 205382 191"
"164.44088"
"$GPRMC,103447,A,2415.4995,N,08058.7301,W,2.5,327.9,130615,6.1,"
"##MN-00 00 56 2346 01716 5606 446891 205381 191"
"164.440926"
"$GPRMC,103451,A,2415.5019,N,08058.7316,W,2.5,328.1,130615,6.1,"
"##MN-00 00 56 2347 01716 5607 446892 205382 191"
"164.440972"
"$GPRMC,103455,A,2415.5042,N,08058.7334,W,2.5,328.4,130615,6.1,"
"##MN-00 00 10 2348 01719 5608 446898 205382 191"
"164.441019"
"$GPRMC,103459,A,2415.5067,N,08058.7348,W,2.5,328.7,130615,6.1,"
"##MN-00 00 56 2349 01721 5609 446915 205384 191"
"164.441065"
"$GPRMC,103503,A,2415.5092,N,08058.7364,W,2.6,328.7,130615,6.1,"
"##MN-00 00 55 2351 01725 5610 446907 205380 191"
"164.441111"
"$GPRMC,103507,A,2415.5118,N,08058.7377,W,2.5,330.9,130615,6.1,"
"##MN-00 00 53 2352 01727 5611 446893 205374 191"
"164.441157"
"$GPRMC,103511,A,2415.5143,N,08058.7395,W,2.6,329.5,130615,6.1,"
"##MN-00 00 12 2353 01728 5612 446887 205372 191"
"164.441204"
"$GPRMC,103515,A,2415.5168,N,08058.7410,W,2.5,330.1,130615,6.1,"
"##MN-00 00 56 2354 01732 5613 446878 205371 191"
"164.44125"
"$GPRMC,103519,A,2415.5190,N,08058.7429,W,2.5,328.3,130615,6.1,"
"##MN-00 00 56 2355 01731 5614 446880 205369 191"
"164.441296"
"$GPRMC,103523,A,2415.5212,N,08058.7449,W,2.5,328.2,130615,6.1,"
"##MN-00 00 57 2356 01736 5615 446882 205370 191"
"164.441343"
"$GPRMC,103527,A,2415.5236,N,08058.7464,W,2.4,327.3,130615,6.1,"
"##MN-00 00 58 2357 01737 5616 446882 205371 191"
"164.441389"
"$GPRMC,103531,A,2415.5262,N,08058.7480,W,2.5,327.3,130615,6.1,"
"##MN-00 00 56 2358 01744 5618 446893 205373 191"
"164.441435"
"$GPRMC,103535,A,2415.5284,N,08058.7496,W,2.4,326.3,130615,6.1,"
"##MN-00 00 57 2360 01744 5618 446900 205373 191"
"164.441481"
"$GPRMC,103539,A,2415.5307,N,08058.7514,W,2.4,325.7,130615,6.1,"
"##MN-00 00 57 2361 01749 5619 446909 205375 191"
"164.441528"
"$GPRMC,103543,A,2415.5326,N,08058.7533,W,2.4,322.7,130615,6.1,"
"##MN-00 00 57 2362 01749 5620 446936 205373 191"
"164.441574"
"$GPRMC,103547,A,2415.5352,N,08058.7551,W,2.3,323.2,130615,6.1,"
"##MN-00 00 57 2363 01756 5622 446941 205365 191"
"164.44162"
"$GPRMC,103551,A,2415.5374,N,08058.7568,W,2.3,321.4,130615,6.1,"
"##MN-00 00 57 2364 01757 5623 447023 205370 191"
"164.441667"
"$GPRMC,103555,A,2415.5392,N,08058.7587,W,2.4,322.6,130615,6.1,"
"##MN-00 00 57 2365 01761 5624 446986 205372 191"
"164.441713"
"$GPRMC,103559,A,2415.5417,N,08058.7602,W,2.3,320.8,130615,6.1,"
"##MN-00 00 57 2366 01762 5624 447108 205394 191"
"164.441759"
"$GPRMC,103603,A,2415.5438,N,08058.7623,W,2.4,321.2,130615,6.1,"
"##MN-00 00 57 2367 01765 5625 447251 205404 191"
"164.441806"
"$GPRMC,103607,A,2415.5457,N,08058.7638,W,2.3,320.1,130615,6.1,"
"##MN-00 00 56 2369 01771 5627 447504 205430 191"
"164.441852"
"$GPRMC,103611,A,2415.5474,N,08058.7659,W,2.4,321.2,130615,6.1,"
"##MN-00 00 56 2370 01771 5627 447755 205451 191"
"164.441898"
"$GPRMC,103615,A,2415.5493,N,08058.7677,W,2.3,320.6,130615,6.1,"
"##MN-00 00 56 2371 01775 5629 448262 205644 191"
"164.441944"
"$GPRMC,103619,A,2415.5514,N,08058.7696,W,2.4,320.4,130615,6.1,"
"##MN-00 00 57 2372 01778 5630 448942 205702 191"
"164.441991"
"$GPRMC,103623,A,2415.5535,N,08058.7711,W,2.3,322.0,130615,6.1,"
"##MN-00 00 56 2373 01784 5631 450997 206009 191"
"164.442037"
"$GPRMC,103627,A,2415.5555,N,08058.7731,W,2.4,321.1,130615,6.1,"
"##MN-00 00 57 2374 01783 5632 452929 206272 191"
"164.442083"
"$GPRMC,103631,A,2415.5578,N,08058.7747,W,2.3,322.3,130615,6.1,"
"##MN-00 00 55 2375 01789 5633 454571 206551 191"
"164.44213"
"$GPRMC,103635,A,2415.5598,N,08058.7765,W,2.4,319.5,130615,6.1,"
"##MN-00 00 56 2376 01788 5634 455222 206839 191"
"164.442176"
"$GPRMC,103639,A,2415.5616,N,08058.7785,W,2.4,320.3,130615,6.1,"
"##MN-00 00 57 2377 01792 5635 455751 206884 191"
"164.442222"
"$GPRMC,103643,A,2415.5637,N,08058.7800,W,2.4,319.1,130615,6.1,"
"##MN-00 00 57 2378 01793 5636 456101 207047 191"
"164.442269"
"$GPRMC,103647,A,2415.5659,N,08058.7823,W,2.5,319.4,130615,6.1,"
"##MN-00 00 58 2379 01795 5637 456754 207229 191"
"164.442315"
"$GPRMC,103651,A,2415.5677,N,08058.7841,W,2.4,319.3,130615,6.1,"
"##MN-00 00 55 2381 01799 5638 458002 207390 191"
"164.442361"
"$GPRMC,103655,A,2415.5696,N,08058.7861,W,2.4,318.3,130615,6.1,"
"##MN-00 00 56 2382 01800 5639 458659 207648 191"
"164.442407"
"$GPRMC,103659,A,2415.5714,N,08058.7881,W,2.4,317.8,130615,6.1,"
"##MN-00 00 57 2383 01801 5640 459026 207691 191"
"164.442454"
"$GPRMC,103703,A,2415.5734,N,08058.7899,W,2.4,318.4,130615,6.1,"
"##MN-00 00 55 2384 01807 5640 459542 207826 191"
"164.4425"
"$GPRMC,103707,A,2415.5752,N,08058.7920,W,2.4,316.7,130615,6.1,"
"##MN-00 00 56 2385 01804 5640 460067 207985 191"
"164.442546"
"$GPRMC,103711,A,2415.5771,N,08058.7942,W,2.5,316.6,130615,6.1,"
"##MN-00 00 57 2386 01810 5641 460509 208013 191"
"164.442593"
"$GPRMC,103715,A,2415.5796,N,08058.7959,W,2.4,318.0,130615,6.1,"
"##MN-00 00 57 2387 01810 5642 460776 208114 191"
"164.442639"
"$GPRMC,103719,A,2415.5815,N,08058.7980,W,2.4,317.5,130615,6.1,"
"##MN-00 00 57 2388 01814 5643 461172 208143 191"
"164.442685"
"$GPRMC,103723,A,2415.5832,N,08058.7999,W,2.2,316.6,130615,6.1,"
"##MN-00 00 57 2389 01817 5644 461414 208176 191"
"164.442731"
"$GPRMC,103727,A,2415.5849,N,08058.8020,W,2.2,315.7,130615,6.1,"
"##MN-00 00 58 2391 01822 5644 461647 208267 191"
"164.442778"
"$GPRMC,103731,A,2415.5865,N,08058.8039,W,2.2,314.6,130615,6.1,"
"##MN-00 00 56 2392 01824 5645 461781 208278 191"
"164.442824"
"$GPRMC,103735,A,2415.5880,N,08058.8061,W,2.2,313.7,130615,6.1,"
"##MN-00 00 57 2393 01829 5646 462058 208329 191"
"164.44287"
"$GPRMC,103739,A,2415.5898,N,08058.8082,W,2.2,313.5,130615,6.1,"
"##MN-00 00 58 2394 01830 5646 462610 208456 191"
"164.442917"
"$GPRMC,103743,A,2415.5916,N,08058.8101,W,2.3,313.4,130615,6.1,"
"##MN-00 00 57 2395 01836 5647 463229 208535 191"
"164.442963"
"$GPRMC,103748,A,2415.5933,N,08058.8128,W,2.2,312.7,130615,6.1,"
"##MN-00 00 57 2396 01836 5647 463516 208628 191"
"164.443009"
"$GPRMC,103752,A,2415.5952,N,08058.8148,W,2.2,312.6,130615,6.1,"
"##MN-00 00 58 2397 01840 5648 463653 208641 191"
"164.443056"
"$GPRMC,103755,A,2415.5963,N,08058.8165,W,2.2,312.0,130615,6.1,"
"##MN-00 00 57 2398 01844 5648 463501 208567 191"
"164.443102"
"$GPRMC,103800,A,2415.5987,N,08058.8190,W,2.2,310.7,130615,6.1,"
"##MN-00 00 56 2400 01848 5649 463287 208495 191"
"164.443148"
"$GPRMC,103803,A,2415.6002,N,08058.8204,W,2.2,310.9,130615,6.1,"
"##MN-00 00 57 2401 01851 5649 463182 208448 191"
"164.443194"
"$GPRMC,103807,A,2415.6019,N,08058.8226,W,2.2,311.0,130615,6.1,"
"##MN-00 00 56 2402 01852 5649 463148 208426 191"
"164.443241"
"$GPRMC,103812,A,2415.6039,N,08058.8252,W,2.2,311.5,130615,6.1,"
"##MN-00 00 56 2403 01856 5650 463228 208418 191"
"164.443287"
"$GPRMC,103816,A,2415.6055,N,08058.8273,W,2.2,312.1,130615,6.1,"
"##MN-00 00 57 2404 01855 5651 463506 208501 191"
"164.443333"
"$GPRMC,103820,A,2415.6071,N,08058.8296,W,2.3,311.9,130615,6.1,"
"##MN-00 00 57 2405 01862 5651 463690 208524 191"
"164.44338"
"$GPRMC,103824,A,2415.6086,N,08058.8314,W,2.2,310.1,130615,6.1,"
"##MN-00 00 57 2406 01859 5651 463772 208551 191"
"164.443426"
"$GPRMC,103828,A,2415.6106,N,08058.8339,W,2.4,311.0,130615,6.1,"
"##MN-00 00 60 2407 01865 5652 463738 208543 191"
"164.443472"
"$GPRMC,103832,A,2415.6122,N,08058.8356,W,2.3,312.4,130615,6.1,"
"##MN-00 00 55 2408 01868 5652 463802 208558 191"
"164.443519"
"$GPRMC,103836,A,2415.6140,N,08058.8381,W,2.4,312.3,130615,6.1,"
"##MN-00 00 57 2409 01872 5652 463546 208518 191"
"164.443565"
"$GPRMC,103840,A,2415.6157,N,08058.8399,W,2.3,313.7,130615,6.1,"
"##MN-00 00 57 2410 01874 5652 463593 208518 191"
"164.443611"
"$GPRMC,103844,A,2415.6176,N,08058.8419,W,2.4,312.9,130615,6.1,"
"##MN-00 00 58 2412 01877 5653 463617 208518 191"
"164.443657"
"$GPRMC,103848,A,2415.6191,N,08058.8441,W,2.3,312.2,130615,6.1,"
"##MN-00 00 56 2413 01880 5653 463717 208541 191"
"164.443704"
"$GPRMC,103852,A,2415.6205,N,08058.8464,W,2.3,311.4,130615,6.1,"
"##MN-00 00 56 2414 01885 5653 463821 208587 191"
"164.44375"
"$GPRMC,103856,A,2415.6219,N,08058.8484,W,2.3,310.0,130615,6.1,"
"##MN-00 00 56 2415 01887 5653 464094 208623 191"
"164.443796"
"$GPRMC,103900,A,2415.6233,N,08058.8505,W,2.2,309.9,130615,6.1,"
"##MN-00 00 58 2416 01889 5654 464287 208655 191"
"164.443843"
"$GPRMC,103904,A,2415.6250,N,08058.8523,W,2.2,310.5,130615,6.1,"
"##MN-00 00 56 2417 01890 5654 464440 208690 191"
"164.443889"
"$GPRMC,103908,A,2415.6265,N,08058.8545,W,2.2,311.1,130615,6.1,"
"##MN-00 00 57 2418 01896 5654 464672 208706 191"
"164.443947"
"$GPRMC,103912,A,2415.6283,N,08058.8564,W,2.2,312.5,130615,6.1,"
"##MN-00 00 56 2419 01899 5654 464841 208742 191"
"164.443993"
"$GPRMC,103916,A,2415.6302,N,08058.8587,W,2.3,312.1,130615,6.1,"
"##MN-00 00 57 2420 01901 5654 464913 208753 191"
"164.444039"
"$GPRMC,103920,A,2415.6321,N,08058.8605,W,2.3,313.0,130615,6.1,"
"##MN-00 00 56 2422 01902 5654 464977 208786 191"
"164.444086"
"$GPRMC,103924,A,2415.6339,N,08058.8628,W,2.3,311.6,130615,6.1,"
"##MN-00 00 57 2423 01906 5655 465014 208779 191"
"164.444132"
"$GPRMC,103928,A,2415.6356,N,08058.8647,W,2.2,312.1,130615,6.1,"
"##MN-00 00 57 2424 01907 5655 465042 208795 191"
"164.444178"
"$GPRMC,103932,A,2415.6374,N,08058.8670,W,2.3,311.2,130615,6.1,"
"##MN-00 00 58 2425 01909 5655 465059 208791 191"
"164.444225"
"$GPRMC,103936,A,2415.6389,N,08058.8689,W,2.2,312.9,130615,6.1,"
"##MN-00 00 56 2426 01911 5655 465102 208806 191"
"164.444271"
"$GPRMC,103940,A,2415.6406,N,08058.8710,W,2.3,311.8,130615,6.1,"
"##MN-00 00 57 2427 01914 5655 465145 208818 191"
"164.444317"
"$GPRMC,103944,A,2415.6424,N,08058.8729,W,2.3,312.7,130615,6.1,"
"##MN-00 00 56 2428 01917 5655 465247 208838 191"
"164.444363"
"$GPRMC,103948,A,2415.6442,N,08058.8751,W,2.3,312.3,130615,6.1,"
"##MN-00 00 57 2429 01920 5655 465341 208845 191"
"164.44441"
"$GPRMC,103952,A,2415.6458,N,08058.8770,W,2.2,313.1,130615,6.1,"
"##MN-00 00 56 2431 01920 5655 465428 208871 191"
"164.444456"
"$GPRMC,103956,A,2415.6476,N,08058.8793,W,2.3,312.0,130615,6.1,"
"##MN-00 00 58 2432 01922 5656 465491 208870 191"
"164.444502"
"$GPRMC,104000,A,2415.6490,N,08058.8811,W,2.2,312.9,130615,6.1,"
"##MN-00 00 57 2433 01924 5656 465606 208912 191"
"164.444549"
"$GPRMC,104004,A,2415.6505,N,08058.8835,W,2.4,311.6,130615,6.1,"
"##MN-00 00 57 2434 01930 5656 465714 208913 191"
"164.444595"
"$GPRMC,104008,A,2415.6519,N,08058.8849,W,2.2,312.1,130615,6.1,"
"##MN-00 00 57 2435 01924 5656 466026 209012 191"
"164.444641"
"$GPRMC,104012,A,2415.6536,N,08058.8874,W,2.4,310.3,130615,6.1,"
"##MN-00 00 57 2436 01927 5656 466091 209000 191"
"164.444687"
"$GPRMC,104016,A,2415.6550,N,08058.8889,W,2.3,312.3,130615,6.1,"
"##MN-00 00 57 2437 01925 5656 466313 209057 191"
"164.444734"
"$GPRMC,104020,A,2415.6569,N,08058.8914,W,2.5,311.5,130615,6.1,"
"##MN-00 00 58 2438 01931 5656 466318 209054 191"
"164.44478"
"$GPRMC,104024,A,2415.6588,N,08058.8931,W,2.3,314.6,130615,6.1,"
"##MN-00 00 57 2439 01932 5656 466448 209083 191"
"164.444826"
"$GPRMC,104028,A,2415.6606,N,08058.8952,W,2.5,312.9,130615,6.1,"
"##MN-00 00 57 2440 01931 5656 466483 209089 191"
"164.444873"
"$GPRMC,104032,A,2415.6623,N,08058.8971,W,2.3,314.3,130615,6.1,"
"##MN-00 00 57 2441 01933 5656 466623 209130 191"
"164.444919"
"$GPRMC,104036,A,2415.6635,N,08058.8995,W,2.4,312.3,130615,6.1,"
"##MN-00 00 58 2443 01933 5656 466666 209170 191"
"164.444965"
"$GPRMC,104040,A,2415.6648,N,08058.9017,W,2.3,311.4,130615,6.1,"
"##MN-00 00 57 2444 01935 5656 467015 209234 191"
"164.445012"
"$GPRMC,104044,A,2415.6664,N,08058.9039,W,2.3,309.7,130615,6.1,"
"##MN-00 00 57 2445 01937 5655 467195 209273 191"
"164.445058"
"$GPRMC,104048,A,2415.6684,N,08058.9061,W,2.4,309.9,130615,6.1,"
"##MN-00 00 57 2446 01941 5656 467641 209336 191"
"164.445104"
"$GPRMC,104052,A,2415.6700,N,08058.9083,W,2.3,309.7,130615,6.1,"
"##MN-00 00 57 2447 01939 5656 467815 209384 191"
"164.44515"
"$GPRMC,104056,A,2415.6711,N,08058.9108,W,2.3,309.2,130615,6.1,"
"##MN-00 00 58 2448 01941 5656 467921 209377 191"
"164.445197"
"$GPRMC,104100,A,2415.6738,N,08058.9127,W,2.3,310.1,130615,6.1,"
"##MN-00 00 57 2449 01944 5656 468002 209407 191"
"164.445243"
"$GPRMC,104104,A,2415.6754,N,08058.9151,W,2.3,309.7,130615,6.1,"
"##MN-00 00 57 2451 01948 5655 468075 209411 191"
"164.445289"
"$GPRMC,104108,A,2415.6771,N,08058.9171,W,2.3,309.6,130615,6.1,"
"##MN-00 00 57 2452 01949 5656 468161 209443 191"
"164.445336"
"$GPRMC,104112,A,2415.6789,N,08058.9195,W,2.3,308.0,130615,6.1,"
"##MN-00 00 57 2453 01954 5655 468264 209446 191"
"164.445382"
"$GPRMC,104116,A,2415.6801,N,08058.9214,W,2.2,309.0,130615,6.1,"
"##MN-00 00 57 2454 01953 5655 468510 209481 191"
"164.445428"
"$GPRMC,104120,A,2415.6815,N,08058.9239,W,2.3,307.7,130615,6.1,"
"##MN-00 00 58 2455 01956 5655 468870 209520 191"
"164.445475"
"$GPRMC,104124,A,2415.6833,N,08058.9257,W,2.2,310.5,130615,6.1,"
"##MN-00 00 57 2456 01959 5655 469063 209568 191"
"164.445521"
"$GPRMC,104128,A,2415.6850,N,08058.9281,W,2.4,310.5,130615,6.1,"
"##MN-00 00 58 2457 01961 5655 469145 209584 191"
"164.445567"
"$GPRMC,104132,A,2415.6865,N,08058.9300,W,2.3,311.7,130615,6.1,"
"##MN-00 00 58 2459 01963 5655 469209 209590 191"
"164.445613"
"$GPRMC,104136,A,2415.6883,N,08058.9321,W,2.4,312.7,130615,6.1,"
"##MN-00 00 58 2460 01967 5654 469271 209599 191"
"164.44566"
"$GPRMC,104140,A,2415.6898,N,08058.9340,W,2.2,313.5,130615,6.1,"
"##MN-00 00 57 2461 01969 5654 469479 209641 191"
"164.445706"
"$GPRMC,104144,A,2415.6917,N,08058.9362,W,2.4,313.8,130615,6.1,"
"##MN-00 00 58 2462 01972 5654 469764 209712 191"
"164.445752"
"$GPRMC,104148,A,2415.6933,N,08058.9386,W,2.4,313.1,130615,6.1,"
"##MN-00 00 59 2463 01974 5654 470143 209760 191"
"164.445799"
"$GPRMC,104152,A,2415.6951,N,08058.9404,W,2.4,313.6,130615,6.1,"
"##MN-00 00 58 2464 01976 5654 470674 209909 191"
"164.445845"
"$GPRMC,104156,A,2415.6967,N,08058.9429,W,2.4,313.2,130615,6.1,"
"##MN-00 00 57 2465 01981 5654 471421 209985 191"
"164.445891"
"$GPRMC,104200,A,2415.6987,N,08058.9447,W,2.3,313.7,130615,6.1,"
"##MN-00 00 59 2467 01982 5654 471971 210096 191"
"164.445938"
"$GPRMC,104204,A,2415.7003,N,08058.9469,W,2.4,312.9,130615,6.1,"
"##MN-00 00 57 2468 01984 5653 472257 210243 191"
"164.445984"
"$GPRMC,104208,A,2415.7021,N,08058.9488,W,2.3,313.6,130615,6.1,"
"##MN-00 00 58 2469 01987 5653 472391 210246 191"
"164.44603"
"$GPRMC,104212,A,2415.7040,N,08058.9509,W,2.3,313.2,130615,6.1,"
"##MN-00 00 57 2470 01988 5653 472542 210314 191"
"164.446076"
"$GPRMC,104216,A,2415.7060,N,08058.9531,W,2.4,312.2,130615,6.1,"
"##MN-00 00 58 2471 01992 5652 472606 210320 191"
"164.446123"
"$GPRMC,104220,A,2415.7076,N,08058.9552,W,2.3,311.9,130615,6.1,"
"##MN-00 00 57 2472 01995 5652 472669 210321 191"
"164.446169"
"$GPRMC,104224,A,2415.7094,N,08058.9574,W,2.3,311.2,130615,6.1,"
"##MN-00 00 57 2473 01999 5652 472871 210326 191"
"164.446215"
"$GPRMC,104228,A,2415.7111,N,08058.9595,W,2.3,311.0,130615,6.1,"
"##MN-00 00 57 2474 01998 5651 473577 210488 191"
"164.446262"
"$GPRMC,104232,A,2415.7129,N,08058.9618,W,2.4,311.0,130615,6.1,"
"##MN-00 00 59 2476 02004 5651 474332 210636 191"
"164.446308"
"$GPRMC,104236,A,2415.7144,N,08058.9639,W,2.3,310.3,130615,6.1,"
"##MN-00 00 57 2477 02007 5651 474743 210747 191"
"164.446354"
"$GPRMC,104240,A,2415.7161,N,08058.9662,W,2.4,309.6,130615,6.1,"
"##MN-00 00 58 2478 02011 5651 474978 210738 191"
"164.4464"
"$GPRMC,104245,A,2415.7180,N,08058.9689,W,2.2,309.8,130615,6.1,"
"##MN-00 00 57 2479 02014 5650 475359 210813 191"
"164.446447"
"$GPRMC,104249,A,2415.7198,N,08058.9709,W,2.3,308.0,130615,6.1,"
"##MN-00 00 58 2480 02016 5650 475987 210891 191"
"164.446493"
"$GPRMC,104252,A,2415.7209,N,08058.9726,W,2.2,309.5,130615,6.1,"
"##MN-00 00 57 2481 02022 5649 476815 211074 191"
"164.446539"
"$GPRMC,104257,A,2415.7230,N,08058.9754,W,2.3,308.2,130615,6.1,"
"##MN-00 00 57 2483 02021 5649 477251 211163 191"
"164.446586"
"$GPRMC,104301,A,2415.7249,N,08058.9776,W,2.4,310.0,130615,6.1,"
"##MN-00 00 58 2484 02026 5649 477554 211166 191"
"164.446632"
"$GPRMC,104305,A,2415.7266,N,08058.9795,W,2.3,309.4,130615,6.1,"
"##MN-00 00 58 2485 02028 5648 477715 211266 191"
"164.446678"
"$GPRMC,104309,A,2415.7282,N,08058.9820,W,2.4,309.3,130615,6.1,"
"##MN-00 00 58 2486 02036 5648 477847 211243 191"
"164.446725"
"$GPRMC,104313,A,2415.7298,N,08058.9838,W,2.2,308.5,130615,6.1,"
"##MN-00 00 57 2487 02036 5647 478028 211327 191"
"164.446771"
"$GPRMC,104317,A,2415.7314,N,08058.9864,W,2.4,307.5,130615,6.1,"
"##MN-00 00 59 2488 02041 5647 478255 211375 191"
"164.446817"
"$GPRMC,104321,A,2415.7328,N,08058.9884,W,2.3,307.8,130615,6.1,"
"##MN-00 00 56 2489 02043 5646 478807 211497 191"
"164.446863"
"$GPRMC,104324,A,2415.7339,N,08058.9903,W,2.4,307.4,130615,6.1,"
"##MN-00 00 58 2490 02045 5646 479182 211532 191"
"164.44691"
"$GPRMC,104329,A,2415.7357,N,08058.9928,W,2.2,308.0,130615,6.1,"
"##MN-00 00 57 2492 02053 5645 479827 211631 191"
"164.446956"
"$GPRMC,104333,A,2415.7372,N,08058.9949,W,2.2,308.0,130615,6.1,"
"##MN-00 00 57 2493 02056 5645 480257 211802 191"
"164.447002"
"$GPRMC,104337,A,2415.7386,N,08058.9969,W,2.2,308.7,130615,6.1,"
"##MN-00 00 57 2494 02062 5644 481181 211894 191"
"164.447049"
"$GPRMC,104341,A,2415.7401,N,08058.9989,W,2.2,308.5,130615,6.1,"
"##MN-00 00 57 2495 02066 5644 482336 212070 191"
"164.447095"
"$GPRMC,104345,A,2415.7418,N,08059.0011,W,2.2,307.9,130615,6.1,"
"##MN-00 00 58 2496 02068 5643 483451 212178 191"
"164.447141"
"$GPRMC,104349,A,2415.7433,N,08059.0033,W,2.2,308.4,130615,6.1,"
"##MN-00 00 58 2497 02073 5642 483991 212479 191"
"164.447199"
"$GPRMC,104353,A,2415.7448,N,08059.0052,W,2.2,310.0,130615,6.1,"
"##MN-00 00 57 2498 02077 5642 484627 212655 191"
"164.447245"
"$GPRMC,104357,A,2415.7465,N,08059.0074,W,2.2,310.5,130615,6.1,"
"##MN-00 00 58 2499 02082 5641 485416 212808 191"
"164.447292"
"$GPRMC,104401,A,2415.7482,N,08059.0094,W,2.2,311.7,130615,6.1,"
"##MN-00 00 57 2500 02083 5641 486797 213038 191"
"164.447338"
"$GPRMC,104405,A,2415.7500,N,08059.0116,W,2.3,312.0,130615,6.1,"
"##MN-00 00 56 2501 02087 5640 487369 213082 191"
"164.447384"
"$GPRMC,104409,A,2415.7516,N,08059.0134,W,2.3,313.4,130615,6.1,"
"##MN-00 00 57 2502 02089 5639 487886 213260 191"
"164.447431"
"$GPRMC,104413,A,2415.7534,N,08059.0156,W,2.4,314.8,130615,6.1,"
"##MN-00 00 57 2503 02093 5639 488243 213288 191"
"164.447477"
"$GPRMC,104417,A,2415.7551,N,08059.0175,W,2.3,314.3,130615,6.1,"
"##MN-00 00 56 2505 02094 5638 488858 213496 191"
"164.447523"
"$GPRMC,104421,A,2415.7567,N,08059.0197,W,2.4,313.8,130615,6.1,"
"##MN-00 00 58 2506 02095 5637 489321 213557 191"
"164.447569"
"$GPRMC,104425,A,2415.7584,N,08059.0215,W,2.2,312.9,130615,6.1,"
"##MN-00 00 56 2507 02097 5636 489846 213732 191"
"164.447616"
"$GPRMC,104429,A,2415.7599,N,08059.0240,W,2.4,310.9,130615,6.1,"
"##MN-00 00 58 2508 02097 5635 490103 213788 191"
"164.447662"
"$GPRMC,104433,A,2415.7616,N,08059.0262,W,2.3,311.5,130615,6.1,"
"##MN-00 00 58 2509 02103 5634 490545 213834 191"
"164.447708"
"$GPRMC,104437,A,2415.7632,N,08059.0283,W,2.4,309.5,130615,6.1,"
"##MN-00 00 57 2510 02102 5634 490881 213972 191"
"164.447755"
"$GPRMC,104441,A,2415.7646,N,08059.0307,W,2.3,310.1,130615,6.1,"
"##MN-00 00 56 2511 02106 5632 491214 214020 191"
"164.447801"
"$GPRMC,104445,A,2415.7664,N,08059.0325,W,2.3,309.1,130615,6.1,"
"##MN-00 00 58 2512 02107 5632 491786 214203 191"
"164.447847"
"$GPRMC,104449,A,2415.7678,N,08059.0348,W,2.2,308.8,130615,6.1,"
"##MN-00 00 57 2513 02110 5630 492641 214264 191"
"164.447894"
"$GPRMC,104453,A,2415.7692,N,08059.0369,W,2.2,307.1,130615,6.1,"
"##MN-00 00 57 2515 02110 5629 493069 214409 191"
"164.44794"
"$GPRMC,104457,A,2415.7708,N,08059.0390,W,2.2,305.9,130615,6.1,"
"##MN-00 00 57 2516 02113 5628 493680 214507 191"
"164.447986"
"$GPRMC,104501,A,2415.7725,N,08059.0410,W,2.2,304.9,130615,6.1,"
"##MN-00 00 58 2517 02114 5627 494208 214675 191"
"164.448032"
"$GPRMC,104505,A,2415.7742,N,08059.0433,W,2.2,306.7,130615,6.1,"
"##MN-00 00 58 2518 02119 5626 494505 214701 191"
"164.448079"
"$GPRMC,104509,A,2415.7758,N,08059.0452,W,2.2,309.1,130615,6.1,"
"##MN-00 00 57 2519 02124 5625 494611 214686 191"
"164.448125"
"$GPRMC,104513,A,2415.7775,N,08059.0473,W,2.2,310.1,130615,6.1,"
"##MN-00 00 58 2520 02125 5624 494524 214641 191"
"164.448171"
"$GPRMC,104517,A,2415.7791,N,08059.0493,W,2.3,311.4,130615,6.1,"
"##MN-00 00 57 2521 02126 5623 494258 214543 191"
"164.448218"
"$GPRMC,104521,A,2415.7811,N,08059.0513,W,2.3,313.5,130615,6.1,"
"##MN-00 00 57 2523 02130 5622 493817 214399 191"
"164.448264"
"$GPRMC,104525,A,2415.7827,N,08059.0533,W,2.3,313.6,130615,6.1,"
"##MN-00 00 57 2524 02131 5620 493483 214255 191"
"164.44831"
"$GPRMC,104529,A,2415.7842,N,08059.0553,W,2.3,313.9,130615,6.1,"
"##MN-00 00 57 2525 02134 5619 493404 214214 191"
"164.448356"
"$GPRMC,104533,A,2415.7860,N,08059.0575,W,2.4,314.0,130615,6.1,"
"##MN-00 00 57 2526 02137 5618 493406 214184 191"
"164.448403"
"$GPRMC,104537,A,2415.7878,N,08059.0596,W,2.3,313.4,130615,6.1,"
"##MN-00 00 57 2527 02138 5616 493470 214146 191"
"164.448449"
"$GPRMC,104541,A,2415.7896,N,08059.0618,W,2.4,313.1,130615,6.1,"
"##MN-00 00 58 2528 02140 5616 493573 214131 191"
"164.448495"
"$GPRMC,104545,A,2415.7914,N,08059.0639,W,2.4,312.6,130615,6.1,"
"##MN-00 00 56 2529 02143 5614 493898 214150 191"
"164.448542"
"$GPRMC,104549,A,2415.7932,N,08059.0658,W,2.4,313.6,130615,6.1,"
"##MN-00 00 57 2530 02145 5613 494376 214176 191"
"164.448588"
"$GPRMC,104553,A,2415.7950,N,08059.0679,W,2.4,313.6,130615,6.1,"
"##MN-00 00 58 2531 02144 5611 494959 214316 191"
"164.448634"
"$GPRMC,104557,A,2415.7967,N,08059.0701,W,2.3,313.2,130615,6.1,"
"##MN-00 00 57 2532 02149 5610 495349 214381 191"
"164.448681"
"$GPRMC,104601,A,2415.7984,N,08059.0720,W,2.3,313.3,130615,6.1,"
"##MN-00 00 58 2533 02151 5609 495602 214494 191"
"164.448727"
"$GPRMC,104605,A,2415.8000,N,08059.0745,W,2.4,312.9,130615,6.1,"
"##MN-00 00 57 2534 02154 5608 495741 214501 191"
"164.448773"
"$GPRMC,104609,A,2415.8018,N,08059.0762,W,2.3,313.1,130615,6.1,"
"##MN-00 00 57 2536 02156 5606 495811 214569 191"
"164.448819"
"$GPRMC,104613,A,2415.8036,N,08059.0788,W,2.4,311.0,130615,6.1,"
"##MN-00 00 58 2537 02158 5605 495868 214564 191"
"164.448866"
"$GPRMC,104617,A,2415.8051,N,08059.0807,W,2.2,311.1,130615,6.1,"
"##MN-00 00 55 2538 02161 5603 495964 214625 191"
"164.448912"
"$GPRMC,104621,A,2415.8065,N,08059.0831,W,2.4,308.0,130615,6.1,"
"##MN-00 00 56 2539 02163 5602 496018 214636 191"
"164.448958"
"$GPRMC,104625,A,2415.8080,N,08059.0853,W,2.3,307.6,130615,6.1,"
"##MN-00 00 57 2540 02166 5600 496052 214638 191"
"164.449005"
"$GPRMC,104629,A,2415.8094,N,08059.0875,W,2.3,305.5,130615,6.1,"
"##MN-00 00 57 2541 02166 5599 496105 214663 191"
"164.449051"
"$GPRMC,104633,A,2415.8108,N,08059.0896,W,2.2,308.0,130615,6.1,"
"##MN-00 00 57 2542 02174 5597 496146 214678 191"
"164.449097"
"$GPRMC,104637,A,2415.8120,N,08059.0917,W,2.3,305.8,130615,6.1,"
"##MN-00 00 57 2543 02174 5596 496191 214700 191"
"164.449144"
"$GPRMC,104641,A,2415.8137,N,08059.0943,W,2.3,306.5,130615,6.1,"
"##MN-00 00 57 2544 02176 5595 496234 214703 191"
"164.44919"
"$GPRMC,104645,A,2415.8152,N,08059.0961,W,2.2,305.1,130615,6.1,"
"##MN-00 00 57 2545 02178 5593 496315 214730 191"
"164.449236"
"$GPRMC,104649,A,2415.8167,N,08059.0986,W,2.3,306.2,130615,6.1,"
"##MN-00 00 57 2546 02183 5592 496378 214738 191"
"164.449282"
"$GPRMC,104653,A,2415.8183,N,08059.1005,W,2.2,306.4,130615,6.1,"
"##MN-00 00 57 2547 02186 5590 496536 214782 191"
"164.449329"
"$GPRMC,104657,A,2415.8199,N,08059.1027,W,2.3,307.8,130615,6.1,"
"##MN-00 00 57 2549 02189 5589 496909 214826 191"
"164.449375"
"$GPRMC,104701,A,2415.8216,N,08059.1046,W,2.2,309.7,130615,6.1,"
"##MN-00 00 57 2550 02189 5587 497939 215161 191"
"164.449421"
"$GPRMC,104705,A,2415.8232,N,08059.1069,W,2.3,310.5,130615,6.1,"
"##MN-00 00 57 2551 02193 5585 498647 215198 191"
"164.449468"
"$GPRMC,104709,A,2415.8249,N,08059.1088,W,2.3,311.3,130615,6.1,"
"##MN-00 00 57 2552 02193 5584 499403 215430 191"
"164.449514"
"$GPRMC,104713,A,2415.8266,N,08059.1114,W,2.4,311.3,130615,6.1,"
"##MN-00 00 58 2553 02198 5582 499853 215522 191"
"164.44956"
"$GPRMC,104717,A,2415.8284,N,08059.1134,W,2.3,311.7,130615,6.1,"
"##MN-00 00 56 2554 02197 5580 500410 215724 191"
"164.449606"
"$GPRMC,104721,A,2415.8302,N,08059.1160,W,2.5,310.6,130615,6.1,"
"##MN-00 00 58 2555 02198 5579 500517 215750 191"
"164.449653"
"$GPRMC,104726,A,2415.8322,N,08059.1185,W,2.3,311.2,130615,6.1,"
"##MN-00 00 56 2556 02202 5577 500764 215777 191"
"164.449699"
"$GPRMC,104730,A,2415.8340,N,08059.1207,W,2.4,308.7,130615,6.1,"
"##MN-00 00 57 2557 02204 5576 500909 215883 191"
"164.449745"
"$GPRMC,104734,A,2415.8360,N,08059.1228,W,2.4,310.8,130615,6.1,"
"##MN-00 00 57 2558 02206 5574 501516 215955 191"
"164.449792"
"$GPRMC,104738,A,2415.8375,N,08059.1248,W,2.3,309.0,130615,6.1,"
"##MN-00 00 57 2559 02208 5573 502084 216087 191"
"164.449838"
"$GPRMC,104742,A,2415.8390,N,08059.1272,W,2.3,308.9,130615,6.1,"
"##MN-00 00 58 2560 02214 5571 502602 216156 191"
"164.449884"
"$GPRMC,104746,A,2415.8402,N,08059.1290,W,2.2,306.9,130615,6.1,"
"##MN-00 00 57 2561 02218 5569 503595 216464 191"
"164.449931"
"$GPRMC,104750,A,2415.8416,N,08059.1315,W,2.2,306.6,130615,6.1,"
"##MN-00 00 57 2562 02222 5567 504770 216446 191"
"164.449977"
"$GPRMC,104754,A,2415.8432,N,08059.1333,W,2.1,306.8,130615,6.1,"
"##MN-00 00 58 2564 02221 5565 505674 216729 191"
"164.450023"
"$GPRMC,104758,A,2415.8447,N,08059.1358,W,2.3,307.3,130615,6.1,"
"##MN-00 00 56 2565 02229 5564 506379 216967 191"
"164.450069"
"$GPRMC,104802,A,2415.8463,N,08059.1377,W,2.2,309.7,130615,6.1,"
"##MN-00 00 57 2566 02228 5562 506877 217191 191"
"164.450116"
"$GPRMC,104806,A,2415.8481,N,08059.1402,W,2.4,308.8,130615,6.1,"
"##MN-00 00 58 2567 02232 5560 506907 217211 191"
"164.450162"
"$GPRMC,104810,A,2415.8499,N,08059.1423,W,2.3,310.6,130615,6.1,"
"##MN-00 00 55 2568 02233 5558 507106 217244 191"
"164.450208"
"$GPRMC,104814,A,2415.8517,N,08059.1449,W,2.6,308.2,130615,6.1,"
"##MN-00 00 57 2569 02231 5556 506978 217241 191"
"164.450255"
"$GPRMC,104818,A,2415.8534,N,08059.1477,W,2.5,308.2,130615,6.1,"
"##MN-00 00 57 2570 02236 5555 506954 217213 191"
"164.450301"
"$GPRMC,104822,A,2415.8552,N,08059.1496,W,2.5,307.6,130615,6.1,"
"##MN-00 00 57 2571 02234 5553 507066 217283 191"
"164.450347"
"$GPRMC,104826,A,2415.8571,N,08059.1525,W,2.7,308.0,130615,6.1,"
"##MN-00 00 58 2572 02237 5551 507103 217266 191"
"164.450394"
"$GPRMC,104830,A,2415.8588,N,08059.1546,W,2.5,309.5,130615,6.1,"
"##MN-00 00 57 2573 02238 5549 507441 217351 191"
"164.450451"
"$GPRMC,104834,A,2415.8604,N,08059.1572,W,2.6,307.1,130615,6.1,"
"##MN-00 00 57 2574 02240 5547 507535 217342 191"
"164.450498"
"$GPRMC,104838,A,2415.8622,N,08059.1594,W,2.5,309.0,130615,6.1,"
"##MN-00 00 56 2575 02241 5545 507990 217495 191"
"164.450544"
"$GPRMC,104842,A,2415.8642,N,08059.1619,W,2.5,309.0,130615,6.1,"
"##MN-00 00 57 2576 02243 5544 508582 217520 191"
"164.45059"
"$GPRMC,104846,A,2415.8658,N,08059.1640,W,2.5,309.9,130615,6.1,"
"##MN-00 00 56 2578 02244 5542 509160 217741 191"
"164.450637"
"$GPRMC,104850,A,2415.8676,N,08059.1663,W,2.5,308.0,130615,6.1,"
"##MN-00 00 57 2579 02244 5540 509518 217767 191"
"164.450683"
"$GPRMC,104854,A,2415.8691,N,08059.1687,W,2.5,309.3,130615,6.1,"
"##MN-00 00 57 2580 02247 5538 509825 217811 191"
"164.450729"
"$GPRMC,104858,A,2415.8709,N,08059.1709,W,2.5,308.8,130615,6.1,"
"##MN-00 00 57 2581 02248 5536 509903 217824 191"
"164.450775"
"$GPRMC,104902,A,2415.8726,N,08059.1734,W,2.5,308.3,130615,6.1,"
"##MN-00 00 56 2582 02252 5533 510011 217897 191"
"164.450822"
"$GPRMC,104906,A,2415.8741,N,08059.1756,W,2.4,307.6,130615,6.1,"
"##MN-00 00 57 2583 02252 5532 510079 217914 191"
"164.450868"
"$GPRMC,104910,A,2415.8759,N,08059.1781,W,2.5,307.3,130615,6.1,"
"##MN-00 00 57 2584 02256 5529 510108 217925 191"
"164.450914"
"$GPRMC,104914,A,2415.8774,N,08059.1803,W,2.4,307.8,130615,6.1,"
"##MN-00 00 57 2585 02253 5528 510136 217947 191"
"164.450961"
"$GPRMC,104918,A,2415.8792,N,08059.1826,W,2.5,308.1,130615,6.1,"
"##MN-00 00 57 2586 02259 5526 510166 217949 191"
"164.451007"
"$GPRMC,104922,A,2415.8809,N,08059.1847,W,2.4,308.5,130615,6.1,"
"##MN-00 00 57 2587 02255 5523 510184 217968 191"
"164.451053"
"$GPRMC,104926,A,2415.8828,N,08059.1873,W,2.5,308.3,130615,6.1,"
"##MN+00 00 57 2588 02260 5521 510184 217957 191"
"164.4511"
"$GPRMC,104930,A,2415.8844,N,08059.1895,W,2.4,307.9,130615,6.1,"
"##MN+00 00 55 2589 02261 5519 510198 217969 191"
"164.451146"
"$GPRMC,104934,A,2415.8863,N,08059.1920,W,2.4,309.3,130615,6.1,"
"##MN+00 00 57 2590 02262 5517 510211 217967 191"
"164.451192"
"$GPRMC,104938,A,2415.8878,N,08059.1944,W,2.4,308.7,130615,6.1,"
"##MN-00 00 57 2592 02265 5515 510234 217974 191"
"164.451238"
"$GPRMC,104942,A,2415.8896,N,08059.1966,W,2.4,310.4,130615,6.1,"
"##MN-00 00 57 2593 02268 5513 510258 217982 191"
"164.451285"
"$GPRMC,104946,A,2415.8913,N,08059.1990,W,2.4,309.6,130615,6.1,"
"##MN-00 00 57 2594 02270 5511 510283 217981 191"
"164.451331"
"$GPRMC,104950,A,2415.8925,N,08059.2006,W,2.4,310.5,130615,6.1,"
"##MN-00 00 57 2595 02271 5508 510332 217979 191"
"164.451377"
"$GPRMC,104954,A,2415.8943,N,08059.2030,W,2.4,308.9,130615,6.1,"
"##MN-00 00 58 2596 02271 5506 510396 217990 191"
"164.451424"
"$GPRMC,104958,A,2415.8965,N,08059.2059,W,2.4,309.4,130615,6.1,"
"##MN-00 00 56 2597 02274 5504 510518 218043 191"
"164.45147"
"$GPRMC,105002,A,2415.8983,N,08059.2082,W,2.5,308.4,130615,6.1,"
"##MN-00 00 57 2598 02274 5502 510591 218050 191"
"164.451516"
"$GPRMC,105006,A,2415.8998,N,08059.2107,W,2.5,308.2,130615,6.1,"
"##MN-00 00 57 2599 02278 5500 510747 218072 191"
"164.451562"
"$GPRMC,105010,A,2415.9016,N,08059.2129,W,2.4,308.9,130615,6.1,"
"##MN+00 00 57 2600 02274 5497 510865 218122 191"
"164.451609"
"$GPRMC,105014,A,2415.9034,N,08059.2154,W,2.5,309.6,130615,6.1,"
"##MN+00 00 56 2602 02276 5496 510932 218115 191"
"164.451655"
"$GPRMC,105018,A,2415.9050,N,08059.2175,W,2.3,308.9,130615,6.1,"
"##MN+00 00 57 2603 02274 5493 511066 218161 191"
"164.451701"
"$GPRMC,105022,A,2415.9069,N,08059.2201,W,2.4,306.7,130615,6.1,"
"##MN-00 00 67 2604 02281 5491 511162 218174 191"
"164.451748"
"$GPRMC,105026,A,2415.9083,N,08059.2222,W,2.3,306.5,130615,6.1,"
"##MN-00 00 63 2605 02277 5489 511490 218196 191"
"164.451794"
"$GPRMC,105030,A,2415.9102,N,08059.2251,W,2.5,305.7,130615,6.1,"
"##MN-00 00 60 2606 02280 5486 511388 218181 191"
"164.45184"
"#increment_net"
"$GPRMC,105034,A,2415.9117,N,08059.2272,W,2.3,307.0,130615,6.1,"
"##MN-00 00 59 2607 02278 5484 511539 218207 191"
"164.451887"
"$GPRMC,105038,A,2415.9134,N,08059.2301,W,2.5,305.4,130615,6.1,"
"##MN-00 00 58 2608 02281 5482 511518 218204 191"
"164.451933"
"$GPRMC,105042,A,2415.9149,N,08059.2320,W,2.3,305.4,130615,6.1,"
"##MN-00 00 60 2609 02278 5480 511617 218216 191"
"164.451979"
"$GPRMC,105046,A,2415.9164,N,08059.2348,W,2.5,304.0,130615,6.1,"
"##MN-00 00 59 2610 02283 5477 511567 218201 191"
"164.452025"
"$GPRMC,105050,A,2415.9178,N,08059.2368,W,2.3,305.3,130615,6.1,"
"##MN-00 00 58 2611 02279 5475 511554 218204 191"
"164.452072"
"$GPRMC,105054,A,2415.9193,N,08059.2397,W,2.5,304.2,130615,6.1,"
"##MN-00 00 58 2612 02282 5473 511398 218188 191"
"164.452118"
"$GPRMC,105058,A,2415.9209,N,08059.2417,W,2.3,304.6,130615,6.1,"
"##MN-00 00 58 2613 02280 5471 511358 218183 191"
"164.452164"
"$GPRMC,105102,A,2415.9225,N,08059.2444,W,2.4,303.8,130615,6.1,"
"##MN-00 00 59 2614 02282 5468 511261 218174 191"
"164.452211"
"$GPRMC,105106,A,2415.9240,N,08059.2465,W,2.3,305.4,130615,6.1,"
"##MN-00 00 57 2615 02277 5466 511316 218175 191"
"164.452257"
"$GPRMC,105110,A,2415.9257,N,08059.2493,W,2.4,305.9,130615,6.1,"
"##MN-00 00 57 2617 02279 5464 511175 218162 191"
"164.452303"
"$GPRMC,105114,A,2415.9272,N,08059.2511,W,2.3,307.6,130615,6.1,"
"##MN-00 00 59 2618 02275 5461 511096 218152 191"
"164.45235"
"$GPRMC,105118,A,2415.9290,N,08059.2537,W,2.4,308.7,130615,6.1,"
"##MN-00 00 57 2619 02278 5459 510949 218112 191"
"164.452396"
"$GPRMC,105122,A,2415.9305,N,08059.2558,W,2.3,310.0,130615,6.1,"
"##MN-00 00 61 2619 02274 5457 510804 218095 191"
"164.452442"
"$GPRMC,105126,A,2415.9326,N,08059.2585,W,2.6,311.2,130615,6.1,"
"##MN-00 00 59 2620 02272 5454 510579 218049 191"
"164.452488"
"$GPRMC,105130,A,2415.9344,N,08059.2603,W,2.4,312.8,130615,6.1,"
"##MN-00 00 58 2621 02272 5452 510456 218028 191"
"164.452535"
"$GPRMC,105134,A,2415.9366,N,08059.2628,W,2.6,312.6,130615,6.1,"
"##MN-00 00 59 2623 02273 5450 510405 218021 191"
"164.452581"
"$GPRMC,105138,A,2415.9386,N,08059.2645,W,2.4,314.8,130615,6.1,"
"##MN-00 00 58 2624 02272 5448 510398 218020 191"
"164.452627"
"$GPRMC,105142,A,2415.9406,N,08059.2664,W,2.5,313.9,130615,6.1,"
"##MN-00 00 59 2625 02272 5445 510404 218022 191"
"164.452674"
"$GPRMC,105146,A,2415.9424,N,08059.2685,W,2.4,314.9,130615,6.1,"
"##MN-00 00 57 2626 02272 5443 510447 218029 191"
"164.45272"
"$GPRMC,105150,A,2415.9442,N,08059.2706,W,2.4,313.9,130615,6.1,"
"##MN-00 00 58 2627 02269 5440 510440 218022 191"
"164.452766"
"$GPRMC,105155,A,2415.9462,N,08059.2733,W,2.3,311.8,130615,6.1,"
"##MN-00 00 58 2628 02270 5438 510344 218002 191"
"164.452813"
"$GPRMC,105158,A,2415.9474,N,08059.2749,W,2.3,311.0,130615,6.1,"
"##MN-00 00 56 2629 02269 5436 510242 217974 191"
"164.452859"
"$GPRMC,105202,A,2415.9489,N,08059.2771,W,2.3,310.1,130615,6.1,"
"##MN-00 00 58 2630 02264 5433 510085 217939 191"
"164.452905"
"$GPRMC,105207,A,2415.9510,N,08059.2801,W,2.4,309.1,130615,6.1,"
"##MN-00 00 57 2632 02265 5431 509959 217909 191"
"164.452951"
"$GPRMC,105211,A,2415.9525,N,08059.2822,W,2.3,307.8,130615,6.1,"
"##MN-00 00 58 2633 02262 5429 509894 217895 191"
"164.452998"
"$GPRMC,105215,A,2415.9539,N,08059.2844,W,2.4,307.8,130615,6.1,"
"##MN-00 00 57 2634 02262 5427 509820 217884 191"
"164.453044"
"$GPRMC,105218,A,2415.9550,N,08059.2861,W,2.3,307.2,130615,6.1,"
"##MN-00 00 59 2635 02257 5424 509778 217871 191"
"164.45309"
"$GPRMC,105223,A,2415.9571,N,08059.2888,W,2.4,307.4,130615,6.1,"
"##MN-00 00 58 2636 02257 5422 509704 217863 191"
"164.453137"
"$GPRMC,105226,A,2415.9582,N,08059.2902,W,2.3,307.2,130615,6.1,"
"##MN-00 00 57 2637 02256 5420 509666 217852 191"
"164.453183"
"$GPRMC,105231,A,2415.9603,N,08059.2930,W,2.4,307.2,130615,6.1,"
"##MN-00 00 58 2638 02251 5417 509646 217848 191"
"164.453229"
"$GPRMC,105235,A,2415.9619,N,08059.2952,W,2.3,307.1,130615,6.1,"
"##MN-00 00 58 2639 02251 5415 509617 217843 191"
"164.453275"
"$GPRMC,105239,A,2415.9633,N,08059.2973,W,2.3,307.3,130615,6.1,"
"##MN-00 00 58 2641 02250 5413 509566 217829 191"
"164.453322"
"$GPRMC,105243,A,2415.9648,N,08059.2996,W,2.3,307.3,130615,6.1,"
"##MN-00 00 57 2642 02249 5411 509502 217815 191"
"164.453368"
"$GPRMC,105247,A,2415.9662,N,08059.3017,W,2.2,308.0,130615,6.1,"
"##MN-00 00 58 2643 02247 5409 509418 217798 191"
"164.453414"
"$GPRMC,105251,A,2415.9679,N,08059.3040,W,2.3,307.6,130615,6.1,"
"##MN-00 00 57 2644 02249 5406 509335 217782 191"
"164.453461"
"$GPRMC,105255,A,2415.9694,N,08059.3061,W,2.2,308.0,130615,6.1,"
"##MN-00 00 60 2645 02243 5404 509283 217768 191"
"164.453507"
"$GPRMC,105259,A,2415.9712,N,08059.3086,W,2.3,307.0,130615,6.1,"
"##MN-00 00 57 2646 02247 5402 509127 217729 191"
"164.453553"
"$GPRMC,105303,A,2415.9727,N,08059.3107,W,2.2,306.5,130615,6.1,"
"##MN-00 00 59 2647 02241 5400 508955 217688 191"
"164.4536"
"$GPRMC,105307,A,2415.9744,N,08059.3132,W,2.4,305.8,130615,6.1,"
"##MN-00 00 58 2648 02241 5397 508500 217568 191"
"164.453646"
"$GPRMC,105311,A,2415.9756,N,08059.3152,W,2.3,308.0,130615,6.1,"
"##MN-00 00 60 2649 02235 5395 507978 217461 191"
"164.453704"
"$GPRMC,105315,A,2415.9774,N,08059.3177,W,2.5,307.5,130615,6.1,"
"##MN-00 00 59 2650 02236 5393 507389 217295 191"
"164.45375"
"$GPRMC,105319,A,2415.9789,N,08059.3197,W,2.2,309.6,130615,6.1,"
"##MN-00 00 61 2651 02233 5390 506861 217191 191"
"164.453796"
"$GPRMC,105323,A,2415.9807,N,08059.3219,W,2.3,311.2,130615,6.1,"
"##MN-00 00 60 2652 02234 5388 506429 217104 191"
"164.453843"
"$GPRMC,105327,A,2415.9823,N,08059.3237,W,2.2,312.4,130615,6.1,"
"##MN-00 00 58 2653 02229 5386 505931 216953 191"
"164.453889"
"$GPRMC,105331,A,2415.9839,N,08059.3259,W,2.3,312.2,130615,6.1,"
"##MN-00 00 58 2654 02229 5384 504677 216667 191"
"164.453935"
"$GPRMC,105335,A,2415.9854,N,08059.3277,W,2.1,312.5,130615,6.1,"
"##MN-00 00 58 2655 02225 5382 503710 216501 191"
"164.453981"
"$GPRMC,105339,A,2415.9870,N,08059.3299,W,2.2,311.3,130615,6.1,"
"##MN-00 00 59 2656 02224 5380 503096 216369 191"
"164.454028"
"$GPRMC,105343,A,2415.9885,N,08059.3318,W,2.2,311.4,130615,6.1,"
"##MN-00 00 57 2657 02221 5378 502721 216301 191"
"164.454074"
"$GPRMC,105347,A,2415.9901,N,08059.3339,W,2.2,310.0,130615,6.1,"
"##MN-00 00 58 2658 02217 5375 502458 216255 191"
"164.45412"
"$GPRMC,105351,A,2415.9918,N,08059.3360,W,2.2,311.2,130615,6.1,"
"##MN-00 00 60 2660 02214 5373 502081 216130 191"
"164.454167"
"$GPRMC,105355,A,2415.9935,N,08059.3381,W,2.3,310.6,130615,6.1,"
"##MN-00 00 62 2660 02213 5371 501135 215868 191"
"164.454213"
"$GPRMC,105359,A,2415.9950,N,08059.3400,W,2.2,311.4,130615,6.1,"
"##MN-00 00 57 2662 02209 5369 499911 215593 191"
"164.454259"
"$GPRMC,105403,A,2415.9962,N,08059.3415,W,2.2,310.5,130615,6.1,"
"##MN-00 00 59 2663 02208 5367 498804 215430 191"
"164.454306"
"$GPRMC,105407,A,2415.9980,N,08059.3441,W,2.2,310.6,130615,6.1,"
"##MN-00 00 58 2664 02205 5365 498217 215269 191"
"164.454352"
"$GPRMC,105411,A,2415.9994,N,08059.3461,W,2.1,309.7,130615,6.1,"
"##MN-00 00 62 2665 02201 5363 497763 215178 191"
"164.454398"
"$GPRMC,105415,A,2416.0008,N,08059.3483,W,2.1,308.8,130615,6.1,"
"##MN-00 00 58 2666 02200 5361 497453 215115 191"
"164.454444"
"$GPRMC,105419,A,2416.0024,N,08059.3501,W,2.1,309.5,130615,6.1,"
"##MN-00 00 58 2667 02194 5359 497315 215090 191"
"164.454491"
"$GPRMC,105423,A,2416.0038,N,08059.3517,W,2.1,308.9,130615,6.1,"
"##MN-00 00 57 2668 02193 5357 497180 215025 191"
"164.454537"
"$GPRMC,105427,A,2416.0052,N,08059.3535,W,2.1,308.3,130615,6.1,"
"##MN-00 00 58 2669 02189 5355 496892 214944 191"
"164.454583"
"$GPRMC,105431,A,2416.0066,N,08059.3556,W,2.1,307.1,130615,6.1,"
"##MN-00 00 58 2670 02185 5353 496545 214850 191"
"164.45463"
"$GPRMC,105435,A,2416.0083,N,08059.3578,W,2.2,308.0,130615,6.1,"
"##MN-00 00 58 2671 02181 5351 496203 214782 191"
"164.454676"
"$GPRMC,105439,A,2416.0099,N,08059.3598,W,2.2,308.8,130615,6.1,"
"##MN-00 00 61 2673 02177 5349 495965 214743 191"
"164.454722"
"$GPRMC,105443,A,2416.0117,N,08059.3620,W,2.2,309.6,130615,6.1,"
"##MN-00 00 57 2674 02175 5348 495591 214638 191"
"164.454768"
"$GPRMC,105447,A,2416.0132,N,08059.3641,W,2.3,309.5,130615,6.1,"
"##MN-00 00 60 2675 02172 5346 495341 214577 191"
"164.454815"
"$GPRMC,105451,A,2416.0150,N,08059.3663,W,2.3,310.3,130615,6.1,"
"##MN-00 00 57 2676 02171 5344 495063 214504 191"
"164.454861"
"$GPRMC,105455,A,2416.0161,N,08059.3690,W,2.3,309.1,130615,6.1,"
"##MN-00 00 60 2677 02162 5342 494869 214465 191"
"164.454907"
"$GPRMC,105459,A,2416.0179,N,08059.3717,W,2.3,309.3,130615,6.1,"
"##MN-00 00 58 2678 02159 5340 494221 214280 191"
"164.454954"
"$GPRMC,105503,A,2416.0193,N,08059.3736,W,2.3,308.3,130615,6.1,"
"##MN-00 00 58 2679 02158 5338 493740 214197 191"
"164.455"
"$GPRMC,105507,A,2416.0208,N,08059.3757,W,2.3,310.0,130615,6.1,"
"##MN-00 00 59 2680 02158 5337 493423 214172 191"
"164.455046"
"$GPRMC,105511,A,2416.0225,N,08059.3776,W,2.3,307.6,130615,6.1,"
"##MN-00 00 60 2681 02152 5335 493431 214226 191"
"164.455093"
"$GPRMC,105515,A,2416.0240,N,08059.3798,W,2.2,308.9,130615,6.1,"
"##MN-00 00 58 2682 02151 5334 493743 214462 191"
"164.455139"
"$GPRMC,105519,A,2416.0255,N,08059.3820,W,2.2,308.6,130615,6.1,"
"##MN-00 00 60 2683 02150 5332 494309 214714 191"
"164.455185"
"$GPRMC,105523,A,2416.0271,N,08059.3840,W,2.1,308.6,130615,6.1,"
"##MN-00 00 58 2684 02147 5331 494546 214788 191"
"164.455231"
"$GPRMC,105527,A,2416.0284,N,08059.3862,W,2.2,308.1,130615,6.1,"
"##MN-00 00 58 2685 02144 5329 494593 214810 191"
"164.455278"
"$GPRMC,105531,A,2416.0300,N,08059.3880,W,2.1,308.1,130615,6.1,"
"##MN-00 00 59 2686 02142 5327 494539 214799 191"
"164.455324"
"$GPRMC,105535,A,2416.0313,N,08059.3902,W,2.2,305.5,130615,6.1,"
"##MN-00 00 60 2688 02139 5326 494362 214753 191"
"164.45537"
"$GPRMC,105539,A,2416.0330,N,08059.3921,W,2.1,306.5,130615,6.1,"
"##MN-00 00 58 2689 02137 5324 494164 214717 191"
"164.455417"
"$GPRMC,105543,A,2416.0345,N,08059.3943,W,2.3,305.8,130615,6.1,"
"##MN-00 00 62 2689 02132 5323 494026 214695 191"
"164.455463"
"$GPRMC,105547,A,2416.0359,N,08059.3963,W,2.1,308.0,130615,6.1,"
"##MN-00 00 58 2690 02131 5321 493926 214675 191"
"164.455509"
"$GPRMC,105551,A,2416.0376,N,08059.3981,W,2.2,308.2,130615,6.1,"
"##MN-00 00 61 2691 02125 5320 493826 214653 191"
"164.455556"
"$GPRMC,105555,A,2416.0392,N,08059.4004,W,2.2,309.5,130615,6.1,"
"##MN-00 00 57 2693 02124 5318 493566 214580 191"
"164.455602"
"$GPRMC,105559,A,2416.0406,N,08059.4022,W,2.2,309.7,130615,6.1,"
"##MN-00 00 60 2693 02120 5317 492993 214452 191"
"164.455648"
"$GPRMC,105603,A,2416.0424,N,08059.4046,W,2.2,309.8,130615,6.1,"
"##MN-00 00 61 2694 02120 5316 492126 214253 191"
"164.455694"
"$GPRMC,105607,A,2416.0439,N,08059.4062,W,2.2,310.1,130615,6.1,"
"##MN-00 00 59 2695 02115 5314 491240 214083 191"
"164.455741"
"$GPRMC,105611,A,2416.0454,N,08059.4086,W,2.3,309.4,130615,6.1,"
"##MN-00 00 61 2696 02111 5313 490707 213974 191"
"164.455787"
"$GPRMC,105615,A,2416.0468,N,08059.4104,W,2.2,309.8,130615,6.1,"
"##MN+00 00 57 2697 02111 5311 490136 213850 191"
"164.455833"
"$GPRMC,105619,A,2416.0482,N,08059.4130,W,2.3,307.4,130615,6.1,"
"##MN+00 00 62 2698 02108 5310 489584 213748 191"
"164.45588"
"$GPRMC,105623,A,2416.0497,N,08059.4149,W,2.1,307.9,130615,6.1,"
"##MN+00 00 56 2699 02104 5308 489133 213673 191"
"164.455926"
"$GPRMC,105627,A,2416.0511,N,08059.4173,W,2.3,306.3,130615,6.1,"
"##MN-00 00 61 2700 02100 5307 488683 213586 191"
"164.455972"
"$GPRMC,105631,A,2416.0526,N,08059.4192,W,2.1,305.7,130615,6.1,"
"##MN+00 00 59 2701 02100 5306 488106 213440 191"
"164.456019"
"$GPRMC,105635,A,2416.0539,N,08059.4213,W,2.2,305.0,130615,6.1,"
"##MN+00 00 58 2702 02095 5304 487620 213350 191"
"164.456065"
"$GPRMC,105639,A,2416.0551,N,08059.4235,W,2.2,304.8,130615,6.1,"
"##MN+00 00 67 2703 02095 5303 487085 213246 191"
"164.456111"
"#increment_net"
"$GPRMC,105643,A,2416.0566,N,08059.4256,W,2.2,305.1,130615,6.1,"
"##MN-00 00 57 2703 02092 5302 486024 213013 191"
"164.456157"
"$GPRMC,105647,A,2416.0580,N,08059.4277,W,2.2,304.3,130615,6.1,"
"##MN-00 00 59 2705 02087 5301 484925 212821 191"
"164.456204"
"$GPRMC,105651,A,2416.0594,N,08059.4297,W,2.1,305.5,130615,6.1,"
"##MN-00 00 59 2706 02084 5300 484320 212700 191"
"164.45625"
"$GPRMC,105655,A,2416.0609,N,08059.4317,W,2.1,307.0,130615,6.1,"
"##MN-00 00 57 2707 02082 5298 483985 212627 191"
"164.456296"
"$GPRMC,105659,A,2416.0625,N,08059.4335,W,2.1,308.3,130615,6.1,"
"##MN-00 00 57 2708 02080 5297 483675 212578 191"
"164.456343"
"$GPRMC,105703,A,2416.0640,N,08059.4355,W,2.1,309.3,130615,6.1,"
"##MN-00 00 60 2709 02077 5296 483168 212452 191"
"164.456389"
"$GPRMC,105708,A,2416.0661,N,08059.4382,W,2.1,309.5,130615,6.1,"
"##MN-00 00 59 2710 02073 5295 482492 212349 191"
"164.456435"
"$GPRMC,105712,A,2416.0678,N,08059.4400,W,2.1,310.0,130615,6.1,"
"##MN-00 00 60 2712 02070 5294 482095 212262 191"
"164.456481"
"$GPRMC,105716,A,2416.0695,N,08059.4420,W,2.1,310.3,130615,6.1,"
"##MN-00 00 57 2713 02068 5293 481819 212202 191"
"164.456528"
"$GPRMC,105720,A,2416.0713,N,08059.4436,W,2.0,311.5,130615,6.1,"
"##MN-00 00 58 2714 02063 5292 481484 212144 191"
"164.456574"
"$GPRMC,105724,A,2416.0731,N,08059.4458,W,2.2,311.1,130615,6.1,"
"##MN-00 00 59 2715 02061 5291 481214 212105 191"
"164.45662"
"$GPRMC,105728,A,2416.0746,N,08059.4477,W,2.1,311.8,130615,6.1,"
"##MN-00 00 57 2716 02057 5290 480968 212083 191"
"164.456667"
"$GPRMC,105732,A,2416.0764,N,08059.4498,W,2.1,311.5,130615,6.1,"
"##MN-00 00 58 2717 02056 5289 480841 212020 191"
"164.456713"
"$GPRMC,105736,A,2416.0778,N,08059.4516,W,2.1,312.1,130615,6.1,"
"##MN-00 00 57 2719 02053 5288 480228 211902 191"
"164.456759"
"$GPRMC,105740,A,2416.0793,N,08059.4537,W,2.1,311.7,130615,6.1,"
"##MN-00 00 62 2720 02047 5287 479777 211800 191"
"164.456806"
"$GPRMC,105744,A,2416.0811,N,08059.4556,W,2.2,312.0,130615,6.1,"
"##MN-00 00 57 2721 02046 5286 479399 211750 191"
"164.456852"
"$GPRMC,105748,A,2416.0826,N,08059.4571,W,2.2,312.9,130615,6.1,"
"##MN-00 00 61 2722 02040 5285 479135 211698 191"
"164.45691"
"$GPRMC,105752,A,2416.0844,N,08059.4592,W,2.2,312.8,130615,6.1,"
"##MN-00 00 56 2723 02039 5285 478668 211567 191"
"164.456956"
"$GPRMC,105756,A,2416.0858,N,08059.4610,W,2.2,312.4,130615,6.1,"
"##MN-00 00 60 2724 02035 5284 478081 211425 191"
"164.457002"
"$GPRMC,105800,A,2416.0873,N,08059.4632,W,2.2,312.9,130615,6.1,"
"##MN-00 00 58 2725 02032 5283 477698 211350 191"
"164.457049"
"$GPRMC,105804,A,2416.0889,N,08059.4650,W,2.2,311.5,130615,6.1,"
"##MN-00 00 61 2726 02028 5282 477356 211283 191"
"164.457095"
"$GPRMC,105808,A,2416.0907,N,08059.4672,W,2.2,312.1,130615,6.1,"
"##MN-00 00 57 2728 02026 5282 476740 211106 191"
"164.457141"
"$GPRMC,105812,A,2416.0923,N,08059.4689,W,2.2,311.4,130615,6.1,"
"##MN-00 00 61 2729 02018 5281 476062 210971 191"
"164.457187"
"$GPRMC,105816,A,2416.0940,N,08059.4714,W,2.2,309.4,130615,6.1,"
"##MN-00 00 59 2730 02016 5281 475452 210914 191"
"164.457234"
"$GPRMC,105820,A,2416.0951,N,08059.4729,W,2.1,308.1,130615,6.1,"
"##MN-00 00 61 2731 02013 5280 475284 210881 191"
"164.45728"
"$GPRMC,105824,A,2416.0965,N,08059.4754,W,2.2,306.3,130615,6.1,"
"##MN-00 00 62 2732 02014 5279 475126 210849 191"
"164.457326"
"$GPRMC,105828,A,2416.0980,N,08059.4770,W,2.0,307.1,130615,6.1,"
"##MN-00 00 57 2733 02007 5279 474839 210786 191"
"164.457373"
"$GPRMC,105832,A,2416.0992,N,08059.4792,W,2.2,306.3,130615,6.1,"
"##MN-00 00 60 2734 02007 5278 474535 210718 191"
"164.457419"
"$GPRMC,105836,A,2416.1003,N,08059.4812,W,2.0,306.8,130615,6.1,"
"##MN-00 00 58 2735 02005 5278 474118 210650 191"
"164.457465"
"$GPRMC,105840,A,2416.1014,N,08059.4831,W,2.0,304.8,130615,6.1,"
"##MN-00 00 60 2736 02003 5277 473769 210572 191"
"164.457512"
"$GPRMC,105844,A,2416.1026,N,08059.4849,W,1.9,304.3,130615,6.1,"
"##MN-00 00 61 2738 02001 5277 473486 210512 191"
"164.457558"
"$GPRMC,105848,A,2416.1039,N,08059.4868,W,1.9,304.6,130615,6.1,"
"##MN-00 00 60 2739 02000 5276 473222 210450 191"
"164.457604"
"$GPRMC,105852,A,2416.1049,N,08059.4886,W,1.9,305.2,130615,6.1,"
"##MN-00 00 60 2740 01998 5276 472964 210407 191"
"164.45765"
"$GPRMC,105856,A,2416.1061,N,08059.4903,W,1.9,304.9,130615,6.1,"
"##MN-00 00 59 2741 01996 5275 472823 210386 191"
"164.457697"
"$GPRMC,105900,A,2416.1075,N,08059.4924,W,2.0,305.4,130615,6.1,"
"##MN-00 00 61 2742 01994 5275 472758 210368 191"
"164.457743"
"$GPRMC,105904,A,2416.1089,N,08059.4942,W,1.9,307.7,130615,6.1,"
"##MN-00 00 58 2743 01990 5274 472606 210345 191"
"164.457789"
"$GPRMC,105908,A,2416.1104,N,08059.4964,W,2.1,307.8,130615,6.1,"
"##MN-00 00 61 2745 01989 5274 472485 210309 191"
"164.457836"
"$GPRMC,105912,A,2416.1118,N,08059.4983,W,2.0,308.9,130615,6.1,"
"##MN-00 00 57 2746 01987 5274 472338 210283 191"
"164.457882"
"$GPRMC,105916,A,2416.1136,N,08059.5005,W,2.1,308.7,130615,6.1,"
"##MN-00 00 61 2747 01984 5274 472246 210255 191"
"164.457928"
"$GPRMC,105920,A,2416.1150,N,08059.5026,W,2.1,310.0,130615,6.1,"
"##MN-00 00 60 2748 01983 5273 472160 210243 191"
"164.457975"
"$GPRMC,105924,A,2416.1165,N,08059.5047,W,2.1,310.4,130615,6.1,"
"##MN-00 00 58 2749 01979 5273 472066 210218 191"
"164.458021"
"$GPRMC,105928,A,2416.1180,N,08059.5066,W,2.2,310.2,130615,6.1,"
"##MN-00 00 61 2750 01976 5273 472004 210200 191"
"164.458067"
"$GPRMC,105932,A,2416.1196,N,08059.5084,W,2.1,310.1,130615,6.1,"
"##MN-00 00 61 2751 01971 5273 471906 210180 191"
"164.458113"
"$GPRMC,105936,A,2416.1209,N,08059.5105,W,2.1,308.9,130615,6.1,"
"##MN-00 00 60 2752 01972 5273 471494 210107 191"
"164.45816"
"$GPRMC,105940,A,2416.1223,N,08059.5124,W,2.1,309.5,130615,6.1,"
"##MN-00 00 59 2754 01966 5272 471189 210025 191"
"164.458206"
"$GPRMC,105944,A,2416.1237,N,08059.5145,W,2.1,308.0,130615,6.1,"
"##MN-00 00 62 2755 01963 5272 470795 209940 191"
"164.458252"
"$GPRMC,105948,A,2416.1252,N,08059.5164,W,2.1,309.3,130615,6.1,"
"##MN-00 00 58 2756 01962 5272 470195 209849 191"
"164.458299"
"$GPRMC,105952,A,2416.1266,N,08059.5186,W,2.3,306.9,130615,6.1,"
"##MN-00 00 62 2757 01954 5272 469757 209778 191"
"164.458345"
"$GPRMC,105956,A,2416.1281,N,08059.5209,W,2.2,308.4,130615,6.1,"
"##MN-00 00 57 2758 01953 5272 469381 209705 191"
"164.458391"
"$GPRMC,110000,A,2416.1297,N,08059.5228,W,2.3,307.3,130615,6.1,"
"##MN-00 00 61 2759 01947 5272 469046 209638 191"
"164.458437"
"$GPRMC,110004,A,2416.1313,N,08059.5253,W,2.2,307.9,130615,6.1,"
"##MN-00 00 60 2760 01946 5272 468593 209553 191"
"164.458484"
"$GPRMC,110008,A,2416.1328,N,08059.5272,W,2.2,307.4,130615,6.1,"
"##MN-00 00 63 2761 01939 5272 468320 209507 191"
"164.45853"
"$GPRMC,110012,A,2416.1345,N,08059.5296,W,2.3,308.1,130615,6.1,"
"##MN-00 00 60 2762 01939 5272 467921 209401 191"
"164.458576"
"$GPRMC,110016,A,2416.1359,N,08059.5315,W,2.2,308.3,130615,6.1,"
"##MN-00 00 62 2763 01937 5272 467559 209334 191"
"164.458623"
"$GPRMC,110020,A,2416.1373,N,08059.5340,W,2.3,306.7,130615,6.1,"
"##MN-00 00 62 2764 01933 5272 467177 209264 191"
"164.458669"
"$GPRMC,110024,A,2416.1385,N,08059.5359,W,2.2,306.7,130615,6.1,"
"##MN-00 00 59 2765 01931 5272 466795 209175 191"
"164.458715"
"$GPRMC,110028,A,2416.1400,N,08059.5383,W,2.2,305.1,130615,6.1,"
"##MN-00 00 60 2766 01929 5272 466356 209054 191"
"164.458762"
"$GPRMC,110032,A,2416.1414,N,08059.5404,W,2.1,305.3,130615,6.1,"
"##MN+00 00 59 2767 01927 5273 465939 208999 191"
"164.458808"
"$GPRMC,110036,A,2416.1429,N,08059.5426,W,2.2,304.4,130615,6.1,"
"##MN+00 00 61 2768 01925 5273 465584 208881 191"
"164.458854"
"$GPRMC,110040,A,2416.1442,N,08059.5446,W,2.1,305.2,130615,6.1,"
"##MN+00 00 61 2770 01921 5273 464732 208718 191"
"164.4589"
"$GPRMC,110044,A,2416.1456,N,08059.5470,W,2.2,306.2,130615,6.1,"
"##MN-00 00 58 2771 01922 5273 464182 208630 191"
"164.458947"
"$GPRMC,110048,A,2416.1468,N,08059.5488,W,2.1,305.6,130615,6.1,"
"##MN-00 00 60 2772 01915 5273 463800 208551 191"
"164.458993"
"$GPRMC,110052,A,2416.1483,N,08059.5513,W,2.2,304.6,130615,6.1,"
"##MN-00 00 60 2773 01915 5273 463406 208519 191"
"164.459039"
"$GPRMC,110056,A,2416.1497,N,08059.5533,W,2.1,305.6,130615,6.1,"
"##MN-00 00 59 2774 01916 5274 463288 208502 191"
"164.459086"
"$GPRMC,110100,A,2416.1514,N,08059.5556,W,2.2,305.8,130615,6.1,"
"##MN-00 00 62 2775 01910 5274 463201 208487 191"
"164.459132"
