" Tow: 6-of-n-ed   RVWS/WS15161"
" Date: 13/06/2015"
" Temperature Probe #  4762    Conductivity Probe #  710"
" Pressure Probe #  159"
" Flow Meter Calibration  4.71 (m/count)  "
"164.322234"
"$GPRMC,074356,A,2419.2231,N,08102.1743,W,2.7,311.8,130615,6.1,"
"##MN-00 00 78 1538 01536 5773 048567 000012 192"
"164.32228"
"$GPRMC,074400,A,2419.2252,N,08102.1770,W,2.8,310.8,130615,6.1,"
"##MN-00 00 68 1538 01536 5773 450986 827899 192"
"164.322326"
"$GPRMC,074404,A,2419.2271,N,08102.1796,W,2.7,310.1,130615,6.1,"
"##MN-00 00 66 1538 01538 5773 450755 827912 192"
"164.322373"
"$GPRMC,074408,A,2419.2289,N,08102.1822,W,2.7,309.2,130615,6.1,"
"##MN-00 00 51 1538 01536 5773 450541 827912 192"
"164.322419"
"$GPRMC,074412,A,2419.2309,N,08102.1850,W,2.8,309.4,130615,6.1,"
"##MN-00 00 49 1538 01536 5773 450365 827911 192"
"164.322465"
"$GPRMC,074416,A,2419.2327,N,08102.1875,W,2.7,309.0,130615,6.1,"
"##MN-00 00 31 1538 01536 5773 449830 827913 192"
"164.322512"
"$GPRMC,074420,A,2419.2346,N,08102.1900,W,2.7,309.7,130615,6.1,"
"##MN-00 00 33 1538 01535 5773 449435 827914 192"
"164.322558"
"$GPRMC,074424,A,2419.2365,N,08102.1923,W,2.5,308.2,130615,6.1,"
"##MN-00 00 36 1539 01536 5774 449021 827845 192"
"164.322604"
"$GPRMC,074428,A,2419.2383,N,08102.1951,W,2.6,308.0,130615,6.1,"
"##MN-00 00 36 1539 01537 5774 448420 827913 192"
"164.32265"
"$GPRMC,074432,A,2419.2399,N,08102.1973,W,2.5,307.3,130615,6.1,"
"##MN-00 00 60 1539 01536 5773 447755 827914 192"
"164.322697"
"$GPRMC,074436,A,2419.2415,N,08102.1999,W,2.6,306.8,130615,6.1,"
"##MN-00 00 54 1539 01536 5773 449075 294231 192"
"164.322743"
"$GPRMC,074440,A,2419.2433,N,08102.2023,W,2.4,306.9,130615,6.1,"
"##MN-00 00 54 1539 01535 5774 454196 374724 192"
"164.322789"
"$GPRMC,074444,A,2419.2448,N,08102.2046,W,2.4,306.5,130615,6.1,"
"##MN-00 00 77 1539 01538 5774 450026 390012 192"
"164.322836"
"$GPRMC,074448,A,2419.2465,N,08102.2070,W,2.4,307.1,130615,6.1,"
"##MN-00 00 55 1539 01535 5774 447785 219947 192"
"164.322882"
"$GPRMC,074452,A,2419.2479,N,08102.2088,W,2.2,307.2,130615,6.1,"
"##MN-00 00 59 1540 01536 5774 449408 355865 192"
"164.322928"
"$GPRMC,074456,A,2419.2494,N,08102.2111,W,2.3,308.9,130615,6.1,"
"##MN-00 00 47 1541 01537 5774 447118 264161 192"
"164.322975"
"$GPRMC,074500,A,2419.2509,N,08102.2128,W,2.1,309.2,130615,6.1,"
"##MN-00 00 52 1541 01536 5774 446813 264610 192"
"164.323021"
"$GPRMC,074504,A,2419.2523,N,08102.2147,W,2.1,309.8,130615,6.1,"
"##MN-00 00 51 1542 01537 5774 446759 206575 192"
"164.323067"
"$GPRMC,074508,A,2419.2538,N,08102.2164,W,1.9,311.0,130615,6.1,"
"##MN-00 00 50 1543 01536 5774 446721 205504 192"
"164.323113"
"$GPRMC,074512,A,2419.2552,N,08102.2183,W,2.0,311.6,130615,6.1,"
"##MN-00 00 49 1544 01538 5774 446702 205899 192"
"164.32316"
"$GPRMC,074516,A,2419.2567,N,08102.2198,W,1.9,313.0,130615,6.1,"
"##MN-00 00 52 1545 01536 5775 446690 205511 192"
"164.323206"
"$GPRMC,074520,A,2419.2585,N,08102.2218,W,1.9,312.2,130615,6.1,"
"##MN-00 00 53 1545 01539 5775 446689 205315 192"
"164.323252"
"$GPRMC,074524,A,2419.2600,N,08102.2232,W,1.8,313.9,130615,6.1,"
"##MN-00 00 54 1546 01547 5775 446672 205286 192"
"164.323299"
"$GPRMC,074528,A,2419.2617,N,08102.2249,W,2.1,315.5,130615,6.1,"
"##MN-00 00 48 1546 01539 5775 446657 205234 192"
"164.323345"
"$GPRMC,074532,A,2419.2635,N,08102.2266,W,1.9,317.3,130615,6.1,"
"##MN-00 00 52 1547 01541 5775 446661 205177 192"
"164.323391"
"$GPRMC,074536,A,2419.2650,N,08102.2283,W,2.0,316.1,130615,6.1,"
"##MN-00 00 53 1548 01547 5775 446676 205203 192"
"164.323437"
"$GPRMC,074540,A,2419.2667,N,08102.2301,W,1.9,317.5,130615,6.1,"
"##MN-00 00 48 1549 01547 5775 446682 205201 192"
"164.323484"
"$GPRMC,074544,A,2419.2678,N,08102.2310,W,1.9,317.6,130615,6.1,"
"##MN-00 00 46 1549 01544 5775 446702 205229 192"
"164.32353"
"$GPRMC,074548,A,2419.2690,N,08102.2326,W,1.8,317.0,130615,6.1,"
"##MN-00 00 53 1550 01551 5776 446675 205178 192"
"164.323576"
"$GPRMC,074552,A,2419.2708,N,08102.2339,W,1.8,318.1,130615,6.1,"
"##MN-00 00 53 1551 01553 5776 446690 205185 192"
"164.323623"
"$GPRMC,074556,A,2419.2721,N,08102.2355,W,1.9,317.4,130615,6.1,"
"##MN-00 00 54 1552 01557 5776 446700 205183 192"
"164.323669"
"$GPRMC,074600,A,2419.2736,N,08102.2370,W,1.8,318.4,130615,6.1,"
"##MN-00 00 52 1553 01561 5777 446690 205181 192"
"164.323715"
"$GPRMC,074604,A,2419.2754,N,08102.2388,W,1.9,318.3,130615,6.1,"
"##MN-00 00 52 1554 01564 5777 446652 205170 192"
"164.323762"
"$GPRMC,074609,A,2419.2771,N,08102.2406,W,1.9,317.6,130615,6.1,"
"##MN-00 00 54 1555 01570 5777 446650 205162 192"
"164.323808"
"$GPRMC,074613,A,2419.2787,N,08102.2421,W,1.8,317.9,130615,6.1,"
"##MN-00 00 49 1556 01561 5778 446646 205159 192"
"164.323854"
"$GPRMC,074617,A,2419.2802,N,08102.2435,W,2.0,319.0,130615,6.1,"
"##MN-00 00 56 1556 01572 5778 446637 205160 192"
"164.3239"
"$GPRMC,074620,A,2419.2811,N,08102.2446,W,1.8,317.8,130615,6.1,"
"##MN-00 00 53 1557 01573 5778 446646 205163 192"
"164.323947"
"$GPRMC,074625,A,2419.2830,N,08102.2469,W,2.0,317.3,130615,6.1,"
"##MN-00 00 52 1558 01571 5779 446656 205156 192"
"164.323993"
"$GPRMC,074629,A,2419.2841,N,08102.2486,W,1.8,314.0,130615,6.1,"
"##MN-00 00 53 1559 01582 5779 446654 205153 192"
"164.324039"
"$GPRMC,074632,A,2419.2849,N,08102.2493,W,1.9,313.7,130615,6.1,"
"##MN-00 00 53 1560 01582 5780 446658 205150 192"
"164.324086"
"$GPRMC,074637,A,2419.2870,N,08102.2514,W,1.8,313.0,130615,6.1,"
"##MN-00 00 54 1561 01589 5780 446668 205150 192"
"164.324132"
"$GPRMC,074641,A,2419.2884,N,08102.2527,W,1.8,312.5,130615,6.1,"
"##MN-00 00 52 1562 01592 5780 446668 205147 192"
"164.324178"
"$GPRMC,074645,A,2419.2899,N,08102.2543,W,1.7,312.8,130615,6.1,"
"##MN-00 00 53 1563 01591 5781 446662 205142 192"
"164.324225"
"$GPRMC,074649,A,2419.2912,N,08102.2558,W,1.7,314.4,130615,6.1,"
"##MN-00 00 53 1564 01597 5781 446655 205139 192"
"164.324271"
"$GPRMC,074653,A,2419.2927,N,08102.2572,W,1.7,314.2,130615,6.1,"
"##MN-00 00 50 1565 01600 5782 446664 205140 192"
"164.324317"
"$GPRMC,074657,A,2419.2941,N,08102.2587,W,1.8,314.3,130615,6.1,"
"##MN-00 00 52 1566 01598 5782 446685 205141 192"
"164.324363"
"$GPRMC,074701,A,2419.2954,N,08102.2601,W,1.7,314.7,130615,6.1,"
"##MN-00 00 52 1567 01604 5783 446677 205139 192"
"164.32441"
"$GPRMC,074705,A,2419.2968,N,08102.2620,W,1.9,314.2,130615,6.1,"
"##MN-00 00 50 1568 01601 5783 446663 205134 192"
"164.324456"
"$GPRMC,074709,A,2419.2986,N,08102.2637,W,1.9,316.1,130615,6.1,"
"##MN-00 00 54 1569 01605 5783 446629 205129 192"
"164.324502"
"$GPRMC,074713,A,2419.3001,N,08102.2652,W,1.9,313.6,130615,6.1,"
"##MN-00 00 52 1570 01605 5784 446609 205126 192"
"164.324549"
"$GPRMC,074717,A,2419.3015,N,08102.2668,W,1.9,314.8,130615,6.1,"
"##MN-00 00 54 1571 01608 5784 446606 205124 192"
"164.324595"
"$GPRMC,074721,A,2419.3031,N,08102.2682,W,1.8,314.7,130615,6.1,"
"##MN-00 00 54 1572 01611 5785 446613 205124 192"
"164.324641"
"$GPRMC,074725,A,2419.3044,N,08102.2699,W,1.8,314.2,130615,6.1,"
"##MN-00 00 52 1573 01611 5785 446611 205123 192"
"164.324688"
"$GPRMC,074729,A,2419.3058,N,08102.2715,W,1.8,313.6,130615,6.1,"
"##MN-00 00 54 1574 01614 5785 446599 205120 192"
"164.324734"
"$GPRMC,074733,A,2419.3073,N,08102.2732,W,1.8,312.8,130615,6.1,"
"##MN-00 00 54 1575 01616 5786 446590 205118 192"
"164.32478"
"$GPRMC,074737,A,2419.3087,N,08102.2749,W,1.9,312.8,130615,6.1,"
"##MN-00 00 55 1576 01620 5786 446604 205117 192"
"164.324826"
"$GPRMC,074741,A,2419.3100,N,08102.2769,W,1.9,311.2,130615,6.1,"
"##MN-00 00 54 1577 01621 5787 446603 205117 192"
"164.324873"
"$GPRMC,074745,A,2419.3112,N,08102.2789,W,1.8,309.6,130615,6.1,"
"##MN-00 00 56 1578 01622 5787 446609 205116 192"
"164.324919"
"$GPRMC,074749,A,2419.3123,N,08102.2805,W,1.8,306.4,130615,6.1,"
"##MN-00 00 54 1579 01629 5788 446616 205116 192"
"164.324965"
"$GPRMC,074753,A,2419.3134,N,08102.2825,W,1.8,306.8,130615,6.1,"
"##MN-00 00 53 1580 01630 5788 446618 205115 192"
"164.325012"
"$GPRMC,074757,A,2419.3148,N,08102.2839,W,1.7,308.1,130615,6.1,"
"##MN-00 00 55 1581 01634 5789 446619 205114 192"
"164.325058"
"$GPRMC,074801,A,2419.3162,N,08102.2855,W,1.7,308.8,130615,6.1,"
"##MN-00 00 52 1582 01635 5789 446607 205112 192"
"164.325116"
"$GPRMC,074805,A,2419.3174,N,08102.2873,W,1.7,310.4,130615,6.1,"
"##MN-00 00 55 1583 01640 5790 446599 205109 192"
"164.325162"
"$GPRMC,074809,A,2419.3187,N,08102.2886,W,1.7,312.0,130615,6.1,"
"##MN-00 00 54 1584 01646 5790 446602 205108 192"
"164.325208"
"$GPRMC,074813,A,2419.3199,N,08102.2902,W,1.8,311.8,130615,6.1,"
"##MN-00 00 53 1585 01647 5791 446607 205108 192"
"164.325255"
"$GPRMC,074817,A,2419.3210,N,08102.2917,W,1.7,313.2,130615,6.1,"
"##MN-00 00 55 1586 01650 5791 446603 205106 192"
"164.325301"
"$GPRMC,074821,A,2419.3223,N,08102.2934,W,1.7,312.4,130615,6.1,"
"##MN-00 00 55 1587 01654 5792 446590 205104 192"
"164.325347"
"$GPRMC,074825,A,2419.3232,N,08102.2948,W,1.7,312.4,130615,6.1,"
"##MN-00 00 54 1588 01656 5792 446589 205103 192"
"164.325394"
"$GPRMC,074829,A,2419.3248,N,08102.2964,W,1.7,311.6,130615,6.1,"
"##MN-00 00 53 1589 01660 5793 446610 205107 192"
"164.32544"
"$GPRMC,074833,A,2419.3259,N,08102.2980,W,1.7,311.2,130615,6.1,"
"##MN-00 00 53 1590 01659 5793 446626 205110 192"
"164.325486"
"$GPRMC,074837,A,2419.3271,N,08102.2998,W,1.7,310.2,130615,6.1,"
"##MN-00 00 54 1591 01664 5794 446618 205108 192"
"164.325532"
"$GPRMC,074841,A,2419.3282,N,08102.3013,W,1.7,308.9,130615,6.1,"
"##MN-00 00 53 1592 01665 5795 446613 205106 192"
"164.325579"
"$GPRMC,074845,A,2419.3295,N,08102.3029,W,1.7,307.5,130615,6.1,"
"##MN-00 00 52 1594 01668 5795 446620 205106 192"
"164.325625"
"$GPRMC,074849,A,2419.3308,N,08102.3046,W,1.7,306.8,130615,6.1,"
"##MN-00 00 54 1595 01674 5795 446635 205111 192"
"164.325671"
"$GPRMC,074853,A,2419.3320,N,08102.3063,W,1.7,306.9,130615,6.1,"
"##MN-00 00 52 1596 01670 5796 446633 205109 192"
"164.325718"
"$GPRMC,074857,A,2419.3332,N,08102.3082,W,1.8,306.3,130615,6.1,"
"##MN-00 00 55 1597 01675 5797 446627 205110 192"
"164.325764"
"$GPRMC,074901,A,2419.3343,N,08102.3096,W,1.7,305.2,130615,6.1,"
"##MN-00 00 52 1598 01680 5797 446648 205114 192"
"164.32581"
"$GPRMC,074905,A,2419.3351,N,08102.3114,W,1.7,303.6,130615,6.1,"
"##MN-00 00 52 1599 01681 5798 446641 205111 192"
"164.325856"
"$GPRMC,074909,A,2419.3364,N,08102.3132,W,1.7,302.0,130615,6.1,"
"##MN-00 00 54 1600 01683 5798 446628 205109 192"
"164.325903"
"$GPRMC,074913,A,2419.3372,N,08102.3148,W,1.7,301.2,130615,6.1,"
"##MN-00 00 53 1601 01687 5798 446628 205108 192"
"164.325949"
"$GPRMC,074917,A,2419.3379,N,08102.3163,W,1.6,301.3,130615,6.1,"
"##MN-00 00 53 1602 01693 5799 446653 205108 192"
"164.325995"
"$GPRMC,074921,A,2419.3391,N,08102.3177,W,1.6,301.6,130615,6.1,"
"##MN-00 00 55 1603 01693 5799 446632 205105 192"
"164.326042"
"$GPRMC,074925,A,2419.3401,N,08102.3194,W,1.6,302.5,130615,6.1,"
"##MN-00 00 53 1604 01700 5800 446619 205104 192"
"164.326088"
"$GPRMC,074929,A,2419.3409,N,08102.3209,W,1.5,303.2,130615,6.1,"
"##MN-00 00 53 1605 01701 5800 446621 205104 192"
"164.326134"
"$GPRMC,074933,A,2419.3418,N,08102.3224,W,1.5,302.5,130615,6.1,"
"##MN-00 00 57 1606 01702 5801 446628 205104 192"
"164.326181"
"$GPRMC,074937,A,2419.3427,N,08102.3241,W,1.5,302.4,130615,6.1,"
"##MN-00 00 53 1607 01710 5801 446616 205101 192"
"164.326227"
"$GPRMC,074941,A,2419.3437,N,08102.3255,W,1.5,304.6,130615,6.1,"
"##MN-00 00 53 1608 01710 5802 446610 205100 192"
"164.326273"
"$GPRMC,074945,A,2419.3447,N,08102.3273,W,1.6,304.8,130615,6.1,"
"##MN-00 00 54 1609 01714 5802 446607 205099 192"
"164.326319"
"$GPRMC,074949,A,2419.3456,N,08102.3289,W,1.6,305.1,130615,6.1,"
"##MN-00 00 54 1610 01720 5803 446605 205098 192"
"164.326366"
"$GPRMC,074953,A,2419.3466,N,08102.3305,W,1.6,305.5,130615,6.1,"
"##MN-00 00 54 1611 01724 5803 446609 205098 192"
"164.326412"
"$GPRMC,074957,A,2419.3473,N,08102.3320,W,1.5,305.1,130615,6.1,"
"##MN-00 00 52 1612 01726 5804 446623 205099 192"
"164.326458"
"$GPRMC,075001,A,2419.3481,N,08102.3336,W,1.5,304.0,130615,6.1,"
"##MN-00 00 54 1613 01726 5804 446625 205099 192"
"164.326505"
"$GPRMC,075005,A,2419.3490,N,08102.3353,W,1.6,303.4,130615,6.1,"
"##MN-00 00 52 1614 01731 5805 446620 205099 192"
"164.326551"
"$GPRMC,075009,A,2419.3499,N,08102.3370,W,1.5,301.8,130615,6.1,"
"##MN-00 00 51 1615 01731 5805 446769 205133 192"
"164.326597"
"$GPRMC,075013,A,2419.3508,N,08102.3382,W,1.6,302.0,130615,6.1,"
"##MN-00 00 52 1616 01732 5806 446938 205172 192"
"164.326644"
"$GPRMC,075017,A,2419.3516,N,08102.3407,W,1.6,301.3,130615,6.1,"
"##MN-00 00 52 1617 01734 5806 446954 205166 192"
"164.32669"
"$GPRMC,075021,A,2419.3527,N,08102.3429,W,1.7,302.3,130615,6.1,"
"##MN-00 00 55 1618 01733 5807 446821 205151 192"
"164.326736"
"$GPRMC,075025,A,2419.3537,N,08102.3439,W,1.6,301.1,130615,6.1,"
"##MN-00 00 51 1619 01736 5807 446983 205182 192"
"164.326782"
"$GPRMC,075029,A,2419.3549,N,08102.3462,W,1.9,303.1,130615,6.1,"
"##MN-00 00 53 1620 01731 5808 447000 205177 192"
"164.326829"
"$GPRMC,075033,A,2419.3560,N,08102.3477,W,1.7,304.3,130615,6.1,"
"##MN-00 00 53 1621 01739 5808 446819 205152 192"
"164.326875"
"$GPRMC,075038,A,2419.3575,N,08102.3499,W,1.8,303.8,130615,6.1,"
"##MN-00 00 51 1622 01737 5809 447065 205209 192"
"164.326921"
"$GPRMC,075041,A,2419.3585,N,08102.3513,W,1.8,304.1,130615,6.1,"
"##MN-00 00 55 1623 01738 5810 447201 205220 192"
"164.326968"
"$GPRMC,075046,A,2419.3596,N,08102.3534,W,1.7,304.2,130615,6.1,"
"##MN-00 00 52 1624 01746 5810 447349 205278 192"
"164.327014"
"$GPRMC,075050,A,2419.3607,N,08102.3553,W,1.7,305.0,130615,6.1,"
"##MN-00 00 52 1625 01746 5810 447554 205340 192"
"164.32706"
"$GPRMC,075054,A,2419.3615,N,08102.3570,W,1.7,304.8,130615,6.1,"
"##MN-00 00 54 1626 01751 5811 447740 205377 192"
"164.327106"
"$GPRMC,075058,A,2419.3628,N,08102.3585,W,1.6,303.5,130615,6.1,"
"##MN-00 00 54 1627 01756 5811 448445 205491 192"
"164.327153"
"$GPRMC,075102,A,2419.3638,N,08102.3605,W,1.7,303.0,130615,6.1,"
"##MN-00 00 55 1628 01758 5812 449563 205747 192"
"164.327199"
"$GPRMC,075106,A,2419.3650,N,08102.3620,W,1.6,304.9,130615,6.1,"
"##MN-00 00 53 1629 01765 5812 451858 205948 192"
"164.327245"
"$GPRMC,075110,A,2419.3660,N,08102.3631,W,1.6,304.7,130615,6.1,"
"##MN-00 00 53 1630 01768 5813 454131 206595 192"
"164.327292"
"$GPRMC,075114,A,2419.3672,N,08102.3649,W,1.6,305.6,130615,6.1,"
"##MN-00 00 51 1631 01771 5813 455929 207234 192"
"164.327338"
"$GPRMC,075118,A,2419.3682,N,08102.3664,W,1.7,304.0,130615,6.1,"
"##MN-00 00 54 1632 01770 5814 456923 207514 192"
"164.327384"
"$GPRMC,075122,A,2419.3691,N,08102.3683,W,1.7,303.9,130615,6.1,"
"##MN-00 00 52 1633 01776 5814 457399 207479 192"
"164.327431"
"$GPRMC,075126,A,2419.3701,N,08102.3700,W,1.7,302.9,130615,6.1,"
"##MN-00 00 52 1634 01775 5815 457455 207603 192"
"164.327477"
"$GPRMC,075130,A,2419.3714,N,08102.3721,W,1.8,302.8,130615,6.1,"
"##MN-00 00 53 1635 01776 5815 458125 207688 192"
"164.327523"
"$GPRMC,075134,A,2419.3726,N,08102.3739,W,1.7,303.1,130615,6.1,"
"##MN-00 00 52 1636 01783 5815 458774 207709 192"
"164.327569"
"$GPRMC,075138,A,2419.3737,N,08102.3757,W,1.8,303.6,130615,6.1,"
"##MN-00 00 53 1637 01782 5816 459385 207881 192"
"164.327616"
"$GPRMC,075142,A,2419.3748,N,08102.3776,W,1.8,305.0,130615,6.1,"
"##MN-00 00 54 1638 01787 5816 459662 207891 192"
"164.327662"
"$GPRMC,075146,A,2419.3759,N,08102.3790,W,1.7,305.3,130615,6.1,"
"##MN-00 00 52 1639 01791 5816 460045 207887 192"
"164.327708"
"$GPRMC,075150,A,2419.3769,N,08102.3811,W,1.8,305.5,130615,6.1,"
"##MN-00 00 54 1640 01793 5816 460398 207953 192"
"164.327755"
"$GPRMC,075154,A,2419.3781,N,08102.3822,W,1.6,305.5,130615,6.1,"
"##MN-00 00 53 1641 01798 5816 460612 207993 192"
"164.327801"
"$GPRMC,075158,A,2419.3794,N,08102.3840,W,1.7,305.3,130615,6.1,"
"##MN-00 00 54 1642 01801 5817 460673 207986 192"
"164.327847"
"$GPRMC,075202,A,2419.3806,N,08102.3853,W,1.6,306.0,130615,6.1,"
"##MN-00 00 53 1643 01804 5817 460651 207999 192"
"164.327894"
"$GPRMC,075206,A,2419.3817,N,08102.3873,W,1.8,305.2,130615,6.1,"
"##MN-00 00 54 1644 01807 5817 460597 207974 192"
"164.32794"
"$GPRMC,075210,A,2419.3828,N,08102.3889,W,1.7,305.9,130615,6.1,"
"##MN-00 00 52 1645 01811 5817 460609 207941 192"
"164.327986"
"$GPRMC,075214,A,2419.3839,N,08102.3907,W,1.8,304.9,130615,6.1,"
"##MN-00 00 52 1646 01811 5817 460588 207931 192"
"164.328032"
"$GPRMC,075218,A,2419.3852,N,08102.3924,W,1.7,306.3,130615,6.1,"
"##MN-00 00 51 1647 01818 5817 460658 207940 192"
"164.328079"
"$GPRMC,075222,A,2419.3864,N,08102.3941,W,1.8,306.1,130615,6.1,"
"##MN-00 00 54 1648 01817 5817 460806 207969 192"
"164.328125"
"$GPRMC,075226,A,2419.3875,N,08102.3961,W,1.8,306.3,130615,6.1,"
"##MN-00 00 54 1649 01820 5817 461025 207994 192"
"164.328171"
"$GPRMC,075230,A,2419.3888,N,08102.3978,W,1.8,308.1,130615,6.1,"
"##MN-00 00 52 1650 01823 5817 461132 207985 192"
"164.328218"
"$GPRMC,075234,A,2419.3899,N,08102.3995,W,1.9,309.0,130615,6.1,"
"##MN-00 00 52 1651 01827 5817 461177 208015 192"
"164.328264"
"$GPRMC,075238,A,2419.3911,N,08102.4008,W,1.8,309.7,130615,6.1,"
"##MN-00 00 51 1652 01825 5817 461212 208039 192"
"164.32831"
"$GPRMC,075242,A,2419.3925,N,08102.4028,W,1.9,308.6,130615,6.1,"
"##MN-00 00 54 1653 01828 5817 461249 208042 192"
"164.328368"
"$GPRMC,075246,A,2419.3936,N,08102.4043,W,1.9,307.1,130615,6.1,"
"##MN-00 00 52 1654 01831 5817 461293 208044 192"
"164.328414"
"$GPRMC,075250,A,2419.3949,N,08102.4064,W,1.9,307.2,130615,6.1,"
"##MN-00 00 53 1655 01839 5817 461326 208044 192"
"164.328461"
"$GPRMC,075254,A,2419.3958,N,08102.4080,W,1.7,306.2,130615,6.1,"
"##MN-00 00 52 1656 01836 5817 461563 208102 192"
"164.328507"
"$GPRMC,075258,A,2419.3971,N,08102.4102,W,1.9,303.9,130615,6.1,"
"##MN-00 00 54 1657 01836 5817 461840 208160 192"
"164.328553"
"$GPRMC,075302,A,2419.3980,N,08102.4122,W,1.8,304.1,130615,6.1,"
"##MN-00 00 53 1658 01838 5817 461973 208189 192"
"164.3286"
"$GPRMC,075306,A,2419.3992,N,08102.4142,W,1.9,301.4,130615,6.1,"
"##MN-00 00 53 1659 01841 5817 462025 208187 192"
"164.328646"
"$GPRMC,075310,A,2419.4001,N,08102.4163,W,1.8,300.7,130615,6.1,"
"##MN-00 00 54 1660 01844 5816 462096 208199 192"
"164.328692"
"$GPRMC,075314,A,2419.4011,N,08102.4180,W,1.7,298.9,130615,6.1,"
"##MN-00 00 53 1661 01846 5816 462170 208239 192"
"164.328738"
"$GPRMC,075318,A,2419.4018,N,08102.4198,W,1.7,299.6,130615,6.1,"
"##MN-00 00 54 1662 01852 5816 462332 208253 192"
"164.328785"
"$GPRMC,075322,A,2419.4026,N,08102.4210,W,1.6,300.3,130615,6.1,"
"##MN-00 00 53 1663 01853 5816 462374 208261 192"
"164.328831"
"$GPRMC,075326,A,2419.4034,N,08102.4228,W,1.7,299.2,130615,6.1,"
"##MN-00 00 54 1664 01856 5816 462395 208273 192"
"164.328877"
"$GPRMC,075330,A,2419.4044,N,08102.4246,W,1.6,301.1,130615,6.1,"
"##MN-00 00 53 1665 01859 5816 462689 208313 192"
"164.328924"
"$GPRMC,075334,A,2419.4052,N,08102.4267,W,1.7,300.7,130615,6.1,"
"##MN-00 00 52 1666 01861 5816 463128 208413 192"
"164.32897"
"$GPRMC,075338,A,2419.4065,N,08102.4285,W,1.6,301.7,130615,6.1,"
"##MN-00 00 54 1667 01867 5815 463407 208443 192"
"164.329016"
"$GPRMC,075342,A,2419.4073,N,08102.4299,W,1.6,300.7,130615,6.1,"
"##MN-00 00 52 1668 01866 5815 463557 208473 192"
"164.329063"
"$GPRMC,075346,A,2419.4083,N,08102.4317,W,1.7,300.5,130615,6.1,"
"##MN-00 00 54 1669 01872 5815 463640 208518 192"
"164.329109"
"$GPRMC,075350,A,2419.4092,N,08102.4332,W,1.6,301.0,130615,6.1,"
"##MN-00 00 51 1670 01872 5814 463695 208539 192"
"164.329155"
"$GPRMC,075354,A,2419.4104,N,08102.4353,W,1.8,301.9,130615,6.1,"
"##MN-00 00 54 1671 01873 5814 463737 208550 192"
"164.329201"
"$GPRMC,075358,A,2419.4115,N,08102.4371,W,1.7,304.0,130615,6.1,"
"##MN-00 00 52 1672 01877 5814 463767 208550 192"
"164.329248"
"$GPRMC,075402,A,2419.4128,N,08102.4389,W,1.8,305.5,130615,6.1,"
"##MN-00 00 53 1673 01881 5814 463796 208561 192"
"164.329294"
"$GPRMC,075406,A,2419.4142,N,08102.4404,W,1.7,308.5,130615,6.1,"
"##MN-00 00 52 1674 01885 5814 463912 208577 192"
"164.32934"
"$GPRMC,075410,A,2419.4155,N,08102.4422,W,1.8,307.8,130615,6.1,"
"##MN-00 00 52 1675 01887 5813 464122 208597 192"
"164.329387"
"$GPRMC,075414,A,2419.4167,N,08102.4440,W,1.8,308.4,130615,6.1,"
"##MN-00 00 54 1676 01888 5813 464265 208642 192"
"164.329433"
"$GPRMC,075418,A,2419.4178,N,08102.4456,W,1.8,307.6,130615,6.1,"
"##MN-00 00 52 1677 01891 5812 464383 208659 192"
"164.329479"
"$GPRMC,075422,A,2419.4191,N,08102.4473,W,1.7,308.2,130615,6.1,"
"##MN-00 00 55 1678 01892 5812 464915 208774 192"
"164.329525"
"$GPRMC,075426,A,2419.4200,N,08102.4490,W,1.7,307.2,130615,6.1,"
"##MN-00 00 55 1679 01899 5812 465409 208886 192"
"164.329572"
"$GPRMC,075430,A,2419.4211,N,08102.4505,W,1.7,308.0,130615,6.1,"
"##MN-00 00 52 1680 01903 5812 465776 208914 192"
"164.329618"
"$GPRMC,075434,A,2419.4225,N,08102.4523,W,1.7,307.6,130615,6.1,"
"##MN-00 00 52 1681 01905 5811 465964 208927 192"
"164.329664"
"$GPRMC,075438,A,2419.4236,N,08102.4538,W,1.7,307.9,130615,6.1,"
"##MN-00 00 53 1682 01908 5811 466244 208942 192"
"164.329711"
"$GPRMC,075442,A,2419.4247,N,08102.4555,W,1.7,306.0,130615,6.1,"
"##MN-00 00 54 1683 01912 5810 466638 209023 192"
"164.329757"
"$GPRMC,075446,A,2419.4256,N,08102.4566,W,1.7,306.6,130615,6.1,"
"##MN-00 00 53 1684 01916 5810 467342 209159 192"
"164.329803"
"$GPRMC,075450,A,2419.4268,N,08102.4588,W,1.7,304.0,130615,6.1,"
"##MN-00 00 53 1685 01917 5810 468029 209319 192"
"164.32985"
"$GPRMC,075454,A,2419.4279,N,08102.4606,W,1.7,303.4,130615,6.1,"
"##MN-00 00 52 1686 01923 5809 468459 209449 192"
"164.329896"
"$GPRMC,075458,A,2419.4286,N,08102.4624,W,1.7,302.6,130615,6.1,"
"##MN-00 00 52 1687 01921 5809 468967 209617 192"
"164.329942"
"$GPRMC,075502,A,2419.4296,N,08102.4644,W,1.7,302.8,130615,6.1,"
"##MN-00 00 53 1688 01926 5808 469232 209622 192"
"164.329988"
"$GPRMC,075506,A,2419.4305,N,08102.4660,W,1.7,302.8,130615,6.1,"
"##MN-00 00 53 1689 01925 5808 469523 209684 192"
"164.330035"
"$GPRMC,075511,A,2419.4319,N,08102.4683,W,1.8,303.6,130615,6.1,"
"##MN-00 00 54 1690 01932 5807 469885 209740 192"
"164.330081"
"$GPRMC,075515,A,2419.4330,N,08102.4697,W,1.6,304.2,130615,6.1,"
"##MN-00 00 52 1691 01935 5807 470175 209828 192"
"164.330127"
"$GPRMC,075519,A,2419.4340,N,08102.4716,W,1.8,304.9,130615,6.1,"
"##MN-00 00 53 1692 01939 5806 470490 209884 192"
"164.330174"
"$GPRMC,075523,A,2419.4351,N,08102.4733,W,1.6,305.4,130615,6.1,"
"##MN-00 00 52 1693 01943 5805 470644 209917 192"
"164.33022"
"$GPRMC,075527,A,2419.4365,N,08102.4749,W,1.7,306.3,130615,6.1,"
"##MN-00 00 52 1694 01947 5805 470835 209933 192"
"164.330266"
"$GPRMC,075530,A,2419.4373,N,08102.4762,W,1.7,307.1,130615,6.1,"
"##MN-00 00 52 1695 01951 5804 471046 209954 192"
"164.330312"
"$GPRMC,075534,A,2419.4387,N,08102.4780,W,1.8,308.2,130615,6.1,"
"##MN-00 00 51 1696 01952 5804 471185 210011 192"
"164.330359"
"$GPRMC,075539,A,2419.4402,N,08102.4803,W,1.8,307.6,130615,6.1,"
"##MN-00 00 53 1697 01956 5803 471328 210063 192"
"164.330405"
"$GPRMC,075543,A,2419.4411,N,08102.4819,W,1.8,307.0,130615,6.1,"
"##MN-00 00 53 1698 01958 5803 471461 210060 192"
"164.330451"
"$GPRMC,075547,A,2419.4420,N,08102.4837,W,1.8,307.3,130615,6.1,"
"##MN-00 00 53 1699 01967 5802 471556 210059 192"
"164.330498"
"$GPRMC,075551,A,2419.4433,N,08102.4853,W,1.8,309.2,130615,6.1,"
"##MN-00 00 52 1700 01967 5801 471646 210118 192"
"164.330544"
"$GPRMC,075555,A,2419.4445,N,08102.4873,W,1.8,309.4,130615,6.1,"
"##MN-00 00 53 1701 01970 5801 471702 210143 192"
"164.33059"
"$GPRMC,075559,A,2419.4456,N,08102.4888,W,1.8,309.9,130615,6.1,"
"##MN-00 00 52 1702 01974 5800 471742 210145 192"
"164.330637"
"$GPRMC,075603,A,2419.4467,N,08102.4906,W,1.8,310.3,130615,6.1,"
"##MN-00 00 54 1703 01978 5800 471769 210159 192"
"164.330683"
"$GPRMC,075607,A,2419.4478,N,08102.4921,W,1.7,310.3,130615,6.1,"
"##MN-00 00 53 1704 01981 5799 471811 210182 192"
"164.330729"
"$GPRMC,075611,A,2419.4489,N,08102.4938,W,1.8,310.1,130615,6.1,"
"##MN-00 00 54 1704 01985 5798 472138 210199 192"
"164.330775"
"$GPRMC,075615,A,2419.4500,N,08102.4953,W,1.7,309.1,130615,6.1,"
"##MN-00 00 52 1705 01994 5797 473271 210480 192"
"164.330822"
"$GPRMC,075619,A,2419.4510,N,08102.4969,W,1.7,308.2,130615,6.1,"
"##MN-00 00 53 1706 01996 5797 473920 210520 192"
"164.330868"
"$GPRMC,075623,A,2419.4521,N,08102.4986,W,1.6,306.9,130615,6.1,"
"##MN-00 00 53 1707 02001 5796 474607 210612 192"
"164.330914"
"$GPRMC,075627,A,2419.4528,N,08102.5000,W,1.6,304.4,130615,6.1,"
"##MN-00 00 54 1708 02001 5795 475021 210818 192"
"164.330961"
"$GPRMC,075631,A,2419.4539,N,08102.5014,W,1.5,303.5,130615,6.1,"
"##MN-00 00 52 1709 02009 5794 475271 210933 192"
"164.331007"
"$GPRMC,075635,A,2419.4550,N,08102.5027,W,1.6,302.0,130615,6.1,"
"##MN-00 00 51 1710 02006 5794 475397 210995 192"
"164.331053"
"$GPRMC,075639,A,2419.4561,N,08102.5047,W,1.6,300.7,130615,6.1,"
"##MN-00 00 53 1711 02013 5792 475575 211010 192"
"164.3311"
"$GPRMC,075643,A,2419.4572,N,08102.5062,W,1.6,301.0,130615,6.1,"
"##MN-00 00 52 1712 02015 5792 475753 211011 192"
"164.331146"
"$GPRMC,075647,A,2419.4582,N,08102.5085,W,1.7,300.9,130615,6.1,"
"##MN-00 00 53 1713 02014 5791 475868 211046 192"
"164.331192"
"$GPRMC,075651,A,2419.4589,N,08102.5103,W,1.6,301.4,130615,6.1,"
"##MN-00 00 51 1714 02020 5790 476095 211078 192"
"164.331238"
"$GPRMC,075655,A,2419.4600,N,08102.5119,W,1.8,301.3,130615,6.1,"
"##MN-00 00 51 1715 02019 5790 476103 211066 192"
"164.331285"
"$GPRMC,075659,A,2419.4610,N,08102.5137,W,1.7,301.7,130615,6.1,"
"##MN-00 00 53 1716 02024 5789 476259 211071 192"
"164.331331"
"$GPRMC,075703,A,2419.4619,N,08102.5153,W,1.8,300.3,130615,6.1,"
"##MN-00 00 51 1717 02023 5787 476580 211127 192"
"164.331377"
"$GPRMC,075707,A,2419.4632,N,08102.5171,W,1.8,302.9,130615,6.1,"
"##MN-00 00 53 1718 02029 5787 477018 211219 192"
"164.331424"
"$GPRMC,075711,A,2419.4644,N,08102.5186,W,1.7,304.0,130615,6.1,"
"##MN-00 00 52 1719 02028 5786 477378 211261 192"
"164.33147"
"$GPRMC,075715,A,2419.4658,N,08102.5206,W,1.8,306.0,130615,6.1,"
"##MN-00 00 52 1719 02037 5785 477526 211288 192"
"164.331528"
"$GPRMC,075719,A,2419.4670,N,08102.5218,W,1.7,307.3,130615,6.1,"
"##MN-00 00 51 1720 02033 5784 478819 211584 192"
"164.331574"
"$GPRMC,075723,A,2419.4686,N,08102.5242,W,1.9,308.0,130615,6.1,"
"##MN-00 00 51 1721 02034 5783 479283 211653 192"
"164.33162"
"$GPRMC,075727,A,2419.4695,N,08102.5257,W,1.8,307.9,130615,6.1,"
"##MN-00 00 49 1722 02034 5782 479669 211718 192"
"164.331667"
"$GPRMC,075731,A,2419.4708,N,08102.5282,W,2.1,306.3,130615,6.1,"
"##MN-00 00 54 1723 02033 5781 480182 211860 192"
"164.331713"
"$GPRMC,075735,A,2419.4720,N,08102.5296,W,1.8,304.7,130615,6.1,"
"##MN-00 00 52 1724 02037 5780 480618 211907 192"
"164.331759"
"$GPRMC,075739,A,2419.4731,N,08102.5321,W,2.1,300.8,130615,6.1,"
"##MN-00 00 53 1725 02037 5779 480920 211933 192"
"164.331806"
"$GPRMC,075743,A,2419.4742,N,08102.5337,W,1.9,300.6,130615,6.1,"
"##MN-00 00 52 1726 02042 5778 481193 211958 192"
"164.331852"
"$GPRMC,075747,A,2419.4753,N,08102.5357,W,1.7,300.3,130615,6.1,"
"##MN-00 00 52 1727 02046 5777 481429 212058 192"
"164.331898"
"$GPRMC,075751,A,2419.4763,N,08102.5377,W,1.8,299.1,130615,6.1,"
"##MN-00 00 52 1728 02047 5776 481674 212073 192"
"164.331944"
"$GPRMC,075755,A,2419.4774,N,08102.5397,W,1.8,298.9,130615,6.1,"
"##MN-00 00 54 1729 02051 5775 482039 212143 192"
"164.331991"
"$GPRMC,075759,A,2419.4782,N,08102.5417,W,1.8,298.1,130615,6.1,"
"##MN-00 00 53 1730 02052 5774 482351 212193 192"
"164.332037"
"$GPRMC,075803,A,2419.4792,N,08102.5433,W,1.7,298.8,130615,6.1,"
"##MN-00 00 52 1731 02060 5772 482573 212210 192"
"164.332083"
"$GPRMC,075807,A,2419.4799,N,08102.5452,W,1.7,298.3,130615,6.1,"
"##MN-00 00 52 1732 02058 5771 482876 212319 192"
"164.33213"
"$GPRMC,075811,A,2419.4809,N,08102.5469,W,1.8,298.9,130615,6.1,"
"##MN-00 00 53 1733 02061 5770 483225 212383 192"
"164.332176"
"$GPRMC,075815,A,2419.4818,N,08102.5489,W,1.7,298.4,130615,6.1,"
"##MN-00 00 53 1734 02063 5769 483352 212425 192"
"164.332222"
"$GPRMC,075819,A,2419.4828,N,08102.5506,W,1.7,299.7,130615,6.1,"
"##MN-00 00 53 1735 02066 5768 483572 212444 192"
"164.332269"
"$GPRMC,075823,A,2419.4839,N,08102.5525,W,1.7,300.8,130615,6.1,"
"##MN-00 00 53 1736 02070 5767 483800 212446 192"
"164.332315"
"$GPRMC,075827,A,2419.4849,N,08102.5539,W,1.7,302.1,130615,6.1,"
"##MN-00 00 53 1737 02071 5766 484011 212484 192"
"164.332361"
"$GPRMC,075831,A,2419.4865,N,08102.5561,W,1.8,303.2,130615,6.1,"
"##MN-00 00 52 1737 02079 5764 484200 212601 192"
"164.332407"
"$GPRMC,075835,A,2419.4875,N,08102.5575,W,1.7,303.3,130615,6.1,"
"##MN-00 00 51 1738 02077 5763 484413 212663 192"
"164.332454"
"$GPRMC,075839,A,2419.4883,N,08102.5592,W,1.9,302.1,130615,6.1,"
"##MN-00 00 53 1739 02075 5762 484469 212687 192"
"164.3325"
"$GPRMC,075843,A,2419.4900,N,08102.5611,W,1.8,303.0,130615,6.1,"
"##MN-00 00 53 1740 02081 5760 484661 212707 192"
"164.332546"
"$GPRMC,075847,A,2419.4915,N,08102.5632,W,2.0,305.6,130615,6.1,"
"##MN-00 00 52 1741 02082 5759 484859 212722 192"
"164.332593"
"$GPRMC,075851,A,2419.4929,N,08102.5647,W,1.8,308.1,130615,6.1,"
"##MN-00 00 54 1742 02084 5757 485298 212803 192"
"164.332639"
"$GPRMC,075855,A,2419.4944,N,08102.5665,W,1.9,309.7,130615,6.1,"
"##MN-00 00 54 1743 02088 5756 485881 212918 192"
"164.332685"
"$GPRMC,075859,A,2419.4957,N,08102.5679,W,1.8,311.7,130615,6.1,"
"##MN-00 00 52 1744 02092 5755 486569 213058 192"
"164.332731"
"$GPRMC,075903,A,2419.4972,N,08102.5698,W,1.9,311.6,130615,6.1,"
"##MN-00 00 53 1745 02093 5754 486904 213094 192"
"164.332778"
"$GPRMC,075907,A,2419.4983,N,08102.5715,W,1.8,311.5,130615,6.1,"
"##MN-00 00 52 1746 02097 5752 487666 213265 192"
"164.332824"
"$GPRMC,075911,A,2419.4995,N,08102.5733,W,1.9,310.6,130615,6.1,"
"##MN-00 00 52 1747 02097 5751 487985 213259 192"
"164.33287"
"$GPRMC,075915,A,2419.5005,N,08102.5751,W,1.9,310.6,130615,6.1,"
"##MN-00 00 54 1748 02097 5750 488251 213310 192"
"164.332917"
"$GPRMC,075919,A,2419.5015,N,08102.5769,W,1.8,308.9,130615,6.1,"
"##MN-00 00 53 1749 02101 5748 488489 213376 192"
"164.332963"
"$GPRMC,075923,A,2419.5023,N,08102.5789,W,1.8,307.6,130615,6.1,"
"##MN-00 00 53 1750 02103 5747 488569 213416 192"
"164.333009"
"$GPRMC,075927,A,2419.5034,N,08102.5806,W,1.7,307.5,130615,6.1,"
"##MN-00 00 53 1751 02107 5746 488660 213422 192"
"164.333056"
"$GPRMC,075931,A,2419.5047,N,08102.5824,W,1.8,306.3,130615,6.1,"
"##MN-00 00 53 1752 02107 5744 488771 213465 192"
"164.333102"
"$GPRMC,075935,A,2419.5060,N,08102.5843,W,1.8,305.9,130615,6.1,"
"##MN-00 00 53 1753 02108 5742 489013 213555 192"
"164.333148"
"$GPRMC,075939,A,2419.5070,N,08102.5860,W,1.7,305.1,130615,6.1,"
"##MN-00 00 53 1754 02111 5741 489236 213622 192"
"164.333194"
"$GPRMC,075943,A,2419.5081,N,08102.5879,W,1.7,304.7,130615,6.1,"
"##MN-00 00 54 1755 02115 5739 489462 213669 192"
"164.333241"
"$GPRMC,075947,A,2419.5091,N,08102.5896,W,1.7,303.5,130615,6.1,"
"##MN-00 00 54 1756 02114 5738 489683 213689 192"
"164.333287"
"$GPRMC,075951,A,2419.5102,N,08102.5912,W,1.7,302.9,130615,6.1,"
"##MN-00 00 54 1757 02118 5736 489762 213701 192"
"164.333333"
"$GPRMC,075956,A,2419.5113,N,08102.5932,W,1.6,300.6,130615,6.1,"
"##MN-00 00 52 1758 02123 5735 489887 213749 192"
"164.33338"
"$GPRMC,080000,A,2419.5120,N,08102.5950,W,1.7,299.3,130615,6.1,"
"##MN-00 00 53 1759 02120 5734 489938 213769 192"
"164.333426"
"$GPRMC,080004,A,2419.5131,N,08102.5965,W,1.6,299.6,130615,6.1,"
"##MN-00 00 54 1760 02124 5732 490006 213774 192"
"164.333472"
"$GPRMC,080008,A,2419.5142,N,08102.5986,W,1.6,298.6,130615,6.1,"
"##MN-00 00 53 1761 02126 5730 490049 213800 192"
"164.333519"
"$GPRMC,080012,A,2419.5149,N,08102.6004,W,1.6,298.0,130615,6.1,"
"##MN-00 00 53 1762 02128 5728 490089 213806 192"
"164.333565"
"$GPRMC,080016,A,2419.5161,N,08102.6019,W,1.6,297.7,130615,6.1,"
"##MN-00 00 54 1763 02128 5727 490133 213809 192"
"164.333611"
"$GPRMC,080020,A,2419.5170,N,08102.6038,W,1.7,298.0,130615,6.1,"
"##MN-00 00 53 1764 02133 5725 490243 213871 192"
"164.333657"
"$GPRMC,080024,A,2419.5179,N,08102.6055,W,1.7,299.1,130615,6.1,"
"##MN-00 00 52 1765 02132 5724 490523 213931 192"
"164.333704"
"$GPRMC,080028,A,2419.5188,N,08102.6073,W,1.7,300.4,130615,6.1,"
"##MN-00 00 52 1766 02133 5722 490726 213969 192"
"164.33375"
"$GPRMC,080032,A,2419.5197,N,08102.6091,W,1.7,301.7,130615,6.1,"
"##MN-00 00 53 1767 02140 5720 490970 213996 192"
"164.333796"
"$GPRMC,080036,A,2419.5210,N,08102.6109,W,1.7,303.7,130615,6.1,"
"##MN-00 00 54 1768 02135 5719 491202 214096 192"
"164.333843"
"$GPRMC,080040,A,2419.5224,N,08102.6129,W,1.8,306.1,130615,6.1,"
"##MN-00 00 54 1769 02139 5717 491587 214140 192"
"164.333889"
"$GPRMC,080044,A,2419.5237,N,08102.6145,W,1.8,308.7,130615,6.1,"
"##MN-00 00 53 1770 02138 5715 492017 214250 192"
"164.333935"
"$GPRMC,080048,A,2419.5251,N,08102.6167,W,2.0,309.3,130615,6.1,"
"##MN-00 00 53 1771 02141 5713 492157 214236 192"
"164.333981"
"$GPRMC,080052,A,2419.5266,N,08102.6182,W,1.8,311.3,130615,6.1,"
"##MN-00 00 52 1772 02142 5712 492411 214296 192"
"164.334028"
"$GPRMC,080056,A,2419.5280,N,08102.6203,W,2.0,310.8,130615,6.1,"
"##MN-00 00 54 1773 02141 5710 492749 214370 192"
"164.334074"
"$GPRMC,080100,A,2419.5294,N,08102.6221,W,1.9,312.1,130615,6.1,"
"##MN-00 00 52 1774 02144 5708 493112 214447 192"
"164.33412"
"$GPRMC,080104,A,2419.5312,N,08102.6237,W,1.9,310.7,130615,6.1,"
"##MN-00 00 52 1775 02145 5706 493310 214511 192"
"164.334167"
"$GPRMC,080108,A,2419.5327,N,08102.6258,W,2.1,310.4,130615,6.1,"
"##MN-00 00 55 1776 02144 5705 493398 214517 192"
"164.334213"
"$GPRMC,080112,A,2419.5340,N,08102.6275,W,2.0,311.2,130615,6.1,"
"##MN-00 00 52 1777 02145 5703 493472 214535 192"
"164.334259"
"$GPRMC,080116,A,2419.5355,N,08102.6294,W,2.0,309.9,130615,6.1,"
"##MN-00 00 56 1778 02145 5701 493668 214579 192"
"164.334306"
"$GPRMC,080120,A,2419.5367,N,08102.6313,W,1.9,311.2,130615,6.1,"
"##MN-00 00 53 1779 02153 5699 493930 214634 192"
"164.334352"
"$GPRMC,080124,A,2419.5378,N,08102.6329,W,1.9,309.3,130615,6.1,"
"##MN-00 00 53 1780 02152 5697 494097 214670 192"
"164.334398"
"$GPRMC,080128,A,2419.5389,N,08102.6347,W,1.8,308.9,130615,6.1,"
"##MN-00 00 54 1781 02158 5696 494309 214657 192"
"164.334444"
"$GPRMC,080132,A,2419.5399,N,08102.6362,W,1.7,305.9,130615,6.1,"
"##MN-00 00 52 1782 02158 5694 494603 214755 192"
"164.334491"
"$GPRMC,080136,A,2419.5409,N,08102.6384,W,1.8,303.6,130615,6.1,"
"##MN-00 00 53 1783 02157 5692 494940 214808 192"
"164.334537"
"$GPRMC,080140,A,2419.5417,N,08102.6399,W,1.7,300.2,130615,6.1,"
"##MN-00 00 54 1784 02166 5690 495078 214829 192"
"164.334583"
"$GPRMC,080144,A,2419.5424,N,08102.6417,W,1.7,299.3,130615,6.1,"
"##MN-00 00 53 1785 02167 5688 495228 214865 192"
"164.33463"
"$GPRMC,080148,A,2419.5433,N,08102.6438,W,1.7,301.3,130615,6.1,"
"##MN-00 00 53 1786 02172 5687 495573 214933 192"
"164.334688"
"$GPRMC,080152,A,2419.5441,N,08102.6456,W,1.6,301.0,130615,6.1,"
"##MN-00 00 54 1787 02172 5685 496143 215011 192"
"164.334734"
"$GPRMC,080156,A,2419.5449,N,08102.6475,W,1.7,301.6,130615,6.1,"
"##MN-00 00 55 1788 02177 5683 496617 215193 192"
"164.33478"
"$GPRMC,080200,A,2419.5456,N,08102.6493,W,1.6,301.0,130615,6.1,"
"##MN-00 00 52 1789 02180 5681 497264 215306 192"
"164.334826"
"$GPRMC,080204,A,2419.5464,N,08102.6511,W,1.7,301.8,130615,6.1,"
"##MN-00 00 52 1790 02179 5679 497687 215389 192"
"164.334873"
"$GPRMC,080208,A,2419.5475,N,08102.6533,W,1.8,301.0,130615,6.1,"
"##MN-00 00 54 1791 02183 5677 498094 215451 192"
"164.334919"
"$GPRMC,080212,A,2419.5485,N,08102.6550,W,1.7,301.8,130615,6.1,"
"##MN-00 00 52 1792 02185 5675 498283 215502 192"
"164.334965"
"$GPRMC,080216,A,2419.5497,N,08102.6568,W,1.8,302.2,130615,6.1,"
"##MN-00 00 54 1793 02189 5673 498309 215511 192"
"164.335012"
"$GPRMC,080220,A,2419.5508,N,08102.6584,W,1.8,303.6,130615,6.1,"
"##MN-00 00 53 1794 02193 5672 498360 215514 192"
"164.335058"
"$GPRMC,080224,A,2419.5518,N,08102.6602,W,1.7,303.9,130615,6.1,"
"##MN-00 00 53 1795 02195 5670 498379 215510 192"
"164.335104"
"$GPRMC,080228,A,2419.5531,N,08102.6616,W,1.8,305.3,130615,6.1,"
"##MN-00 00 54 1796 02197 5667 498365 215502 192"
"164.33515"
"$GPRMC,080232,A,2419.5543,N,08102.6633,W,1.7,307.2,130615,6.1,"
"##MN-00 00 55 1797 02200 5665 498352 215494 192"
"164.335197"
"$GPRMC,080236,A,2419.5554,N,08102.6648,W,1.7,307.9,130615,6.1,"
"##MN-00 00 53 1798 02205 5663 498403 215504 192"
"164.335243"
"$GPRMC,080240,A,2419.5565,N,08102.6665,W,1.7,307.7,130615,6.1,"
"##MN-00 00 53 1799 02206 5661 498497 215522 192"
"164.335289"
"$GPRMC,080244,A,2419.5575,N,08102.6683,W,1.7,307.5,130615,6.1,"
"##MN-00 00 55 1800 02212 5659 498550 215518 192"
"164.335336"
"$GPRMC,080248,A,2419.5584,N,08102.6696,W,1.6,306.8,130615,6.1,"
"##MN-00 00 53 1801 02212 5658 498674 215541 192"
"164.335382"
"$GPRMC,080252,A,2419.5602,N,08102.6712,W,1.7,308.5,130615,6.1,"
"##MN-00 00 54 1802 02219 5656 498816 215546 192"
"164.335428"
"$GPRMC,080256,A,2419.5613,N,08102.6728,W,1.7,308.1,130615,6.1,"
"##MN-00 00 53 1803 02221 5654 498932 215565 192"
"164.335475"
"$GPRMC,080300,A,2419.5623,N,08102.6749,W,1.8,307.1,130615,6.1,"
"##MN-00 00 54 1804 02224 5652 499019 215594 192"
"164.335521"
"$GPRMC,080304,A,2419.5634,N,08102.6767,W,1.7,304.1,130615,6.1,"
"##MN-00 00 53 1805 02228 5650 499160 215609 192"
"164.335567"
"$GPRMC,080308,A,2419.5643,N,08102.6785,W,1.7,302.5,130615,6.1,"
"##MN-00 00 52 1806 02233 5648 499267 215617 192"
"164.335613"
"$GPRMC,080312,A,2419.5656,N,08102.6800,W,1.7,304.2,130615,6.1,"
"##MN-00 00 53 1807 02234 5645 499296 215610 192"
"164.33566"
"$GPRMC,080316,A,2419.5669,N,08102.6819,W,1.7,304.5,130615,6.1,"
"##MN-00 00 53 1808 02238 5643 499349 215628 192"
"164.335706"
"$GPRMC,080320,A,2419.5680,N,08102.6837,W,1.8,305.2,130615,6.1,"
"##MN-00 00 53 1809 02240 5641 499404 215631 192"
"164.335752"
"$GPRMC,080324,A,2419.5692,N,08102.6850,W,1.7,305.6,130615,6.1,"
"##MN-00 00 53 1810 02240 5639 499642 215653 192"
"164.335799"
"$GPRMC,080328,A,2419.5702,N,08102.6868,W,1.8,304.2,130615,6.1,"
"##MN-00 00 54 1811 02244 5637 499895 215696 192"
"164.335845"
"$GPRMC,080332,A,2419.5714,N,08102.6886,W,1.7,304.8,130615,6.1,"
"##MN-00 00 54 1812 02249 5635 500413 215770 192"
"164.335891"
"$GPRMC,080336,A,2419.5724,N,08102.6904,W,1.7,302.5,130615,6.1,"
"##MN-00 00 54 1813 02253 5633 500897 215818 192"
"164.335938"
"$GPRMC,080340,A,2419.5732,N,08102.6922,W,1.7,302.7,130615,6.1,"
"##MN-00 00 53 1814 02257 5631 501116 215832 192"
"164.335984"
"$GPRMC,080344,A,2419.5742,N,08102.6937,W,1.7,303.3,130615,6.1,"
"##MN-00 00 52 1815 02260 5628 501437 215863 192"
"164.33603"
"$GPRMC,080348,A,2419.5753,N,08102.6956,W,1.7,303.5,130615,6.1,"
"##MN-00 00 54 1816 02263 5626 502301 215914 192"
"164.336076"
"$GPRMC,080352,A,2419.5766,N,08102.6969,W,1.7,304.7,130615,6.1,"
"##MN-00 00 53 1817 02262 5624 503147 216235 192"
"164.336123"
"$GPRMC,080356,A,2419.5779,N,08102.6985,W,1.7,305.0,130615,6.1,"
"##MN-00 00 54 1818 02270 5622 503690 216387 192"
"164.336169"
"$GPRMC,080400,A,2419.5790,N,08102.6998,W,1.6,305.3,130615,6.1,"
"##MN-00 00 52 1819 02271 5620 504251 216557 192"
"164.336215"
"$GPRMC,080404,A,2419.5799,N,08102.7020,W,1.8,303.0,130615,6.1,"
"##MN-00 00 52 1820 02274 5618 504648 216625 192"
"164.336262"
"$GPRMC,080408,A,2419.5807,N,08102.7039,W,1.7,301.9,130615,6.1,"
"##MN+00 00 54 1821 02275 5616 505043 216732 192"
"164.336308"
"$GPRMC,080412,A,2419.5817,N,08102.7057,W,1.7,301.2,130615,6.1,"
"##MN+00 00 53 1822 02278 5613 505284 216771 192"
"164.336354"
"$GPRMC,080416,A,2419.5826,N,08102.7074,W,1.7,302.2,130615,6.1,"
"##MN+00 00 53 1823 02281 5611 505521 216812 192"
"164.3364"
"$GPRMC,080420,A,2419.5837,N,08102.7092,W,1.7,303.3,130615,6.1,"
"##MN-00 00 52 1824 02283 5609 506012 216871 192"
"164.336447"
"$GPRMC,080424,A,2419.5850,N,08102.7108,W,1.7,304.8,130615,6.1,"
"##MN+00 00 52 1825 02281 5607 506390 216966 192"
"164.336493"
"$GPRMC,080428,A,2419.5862,N,08102.7126,W,1.7,306.9,130615,6.1,"
"##MN+00 00 53 1826 02283 5605 506640 217037 192"
"164.336539"
"$GPRMC,080432,A,2419.5876,N,08102.7142,W,1.7,308.8,130615,6.1,"
"##MN+00 00 61 1827 02288 5603 506738 217167 192"
"164.336586"
"#increment_net"
"$GPRMC,080436,A,2419.5889,N,08102.7160,W,1.8,310.1,130615,6.1,"
"##MN-00 00 57 1828 02286 5601 507338 217286 192"
"164.336632"
"$GPRMC,080440,A,2419.5898,N,08102.7178,W,1.7,310.4,130615,6.1,"
"##MN-00 00 55 1829 02287 5598 507684 217317 192"
"164.336678"
"$GPRMC,080444,A,2419.5912,N,08102.7196,W,1.8,310.7,130615,6.1,"
"##MN-00 00 56 1830 02288 5596 507688 217346 192"
"164.336725"
"$GPRMC,080448,A,2419.5922,N,08102.7207,W,1.7,310.0,130615,6.1,"
"##MN-00 00 53 1831 02285 5594 507436 217302 192"
"164.336771"
"$GPRMC,080452,A,2419.5936,N,08102.7225,W,1.8,309.0,130615,6.1,"
"##MN-00 00 55 1833 02283 5591 506776 217177 192"
"164.336817"
"$GPRMC,080457,A,2419.5952,N,08102.7247,W,1.7,308.8,130615,6.1,"
"##MN-00 00 52 1834 02284 5589 506175 217082 192"
"164.336863"
"$GPRMC,080500,A,2419.5961,N,08102.7258,W,1.7,309.3,130615,6.1,"
"##MN-00 00 53 1835 02281 5587 505624 216948 192"
"164.33691"
"$GPRMC,080505,A,2419.5974,N,08102.7272,W,1.7,311.6,130615,6.1,"
"##MN-00 00 52 1836 02283 5584 505387 216922 192"
"164.336956"
"$GPRMC,080509,A,2419.5984,N,08102.7287,W,1.7,311.0,130615,6.1,"
"##MN-00 00 53 1837 02278 5582 505203 216835 192"
"164.337002"
"$GPRMC,080513,A,2419.5995,N,08102.7303,W,1.7,311.2,130615,6.1,"
"##MN-00 00 53 1838 02276 5580 505087 216830 192"
"164.337049"
"$GPRMC,080517,A,2419.6006,N,08102.7316,W,1.6,309.0,130615,6.1,"
"##MN-00 00 52 1839 02275 5577 505107 216815 192"
"164.337095"
"$GPRMC,080520,A,2419.6016,N,08102.7331,W,1.7,307.4,130615,6.1,"
"##MN-00 00 53 1840 02276 5575 505130 216814 192"
"164.337141"
"$GPRMC,080525,A,2419.6028,N,08102.7350,W,1.6,305.5,130615,6.1,"
"##MN-00 00 52 1841 02275 5573 505161 216824 192"
"164.337187"
"$GPRMC,080529,A,2419.6035,N,08102.7366,W,1.5,304.6,130615,6.1,"
"##MN-00 00 52 1842 02274 5570 505148 216815 192"
"164.337234"
"$GPRMC,080533,A,2419.6045,N,08102.7381,W,1.5,303.2,130615,6.1,"
"##MN-00 00 53 1843 02275 5568 505150 216816 192"
"164.33728"
"$GPRMC,080537,A,2419.6050,N,08102.7395,W,1.4,303.1,130615,6.1,"
"##MN-00 00 55 1844 02273 5565 505135 216813 192"
"164.337326"
"$GPRMC,080541,A,2419.6061,N,08102.7411,W,1.5,303.6,130615,6.1,"
"##MN-00 00 52 1845 02276 5563 505119 216807 192"
"164.337373"
"$GPRMC,080545,A,2419.6068,N,08102.7424,W,1.4,302.1,130615,6.1,"
"##MN-00 00 52 1847 02274 5561 505149 216818 192"
"164.337419"
"$GPRMC,080549,A,2419.6078,N,08102.7442,W,1.6,303.4,130615,6.1,"
"##MN-00 00 53 1848 02272 5558 505098 216805 192"
"164.337465"
"$GPRMC,080553,A,2419.6085,N,08102.7456,W,1.5,302.9,130615,6.1,"
"##MN-00 00 52 1849 02272 5556 505082 216798 192"
"164.337512"
"$GPRMC,080557,A,2419.6093,N,08102.7468,W,1.5,302.4,130615,6.1,"
"##MN-00 00 52 1850 02272 5554 504910 216762 192"
"164.337558"
"$GPRMC,080601,A,2419.6102,N,08102.7483,W,1.5,303.1,130615,6.1,"
"##MN-00 00 52 1851 02270 5551 504749 216726 192"
"164.337604"
"$GPRMC,080605,A,2419.6110,N,08102.7500,W,1.5,303.0,130615,6.1,"
"##MN-00 00 52 1852 02267 5549 504445 216677 192"
"164.33765"
"$GPRMC,080609,A,2419.6118,N,08102.7516,W,1.5,304.6,130615,6.1,"
"##MN-00 00 52 1853 02270 5547 504144 216604 192"
"164.337697"
"$GPRMC,080613,A,2419.6126,N,08102.7530,W,1.5,304.4,130615,6.1,"
"##MN-00 00 52 1854 02264 5544 503630 216484 192"
"164.337743"
"$GPRMC,080617,A,2419.6138,N,08102.7551,W,1.6,305.7,130615,6.1,"
"##MN-00 00 54 1855 02264 5542 502633 216278 192"
"164.337789"
"$GPRMC,080621,A,2419.6147,N,08102.7569,W,1.6,306.2,130615,6.1,"
"##MN-00 00 51 1856 02261 5540 502024 216194 192"
"164.337836"
"$GPRMC,080625,A,2419.6158,N,08102.7587,W,1.6,306.8,130615,6.1,"
"##MN-00 00 52 1857 02259 5538 501640 216069 192"
"164.337894"
"$GPRMC,080629,A,2419.6169,N,08102.7603,W,1.7,308.3,130615,6.1,"
"##MN-00 00 54 1858 02255 5535 501315 216067 192"
"164.33794"
"$GPRMC,080633,A,2419.6180,N,08102.7623,W,1.7,308.4,130615,6.1,"
"##MN-00 00 52 1859 02255 5533 501107 216005 192"
"164.337986"
"$GPRMC,080637,A,2419.6191,N,08102.7637,W,1.6,308.4,130615,6.1,"
"##MN-00 00 53 1860 02253 5530 500920 215943 192"
"164.338032"
"$GPRMC,080641,A,2419.6201,N,08102.7653,W,1.7,307.4,130615,6.1,"
"##MN-00 00 53 1861 02252 5528 500797 215918 192"
"164.338079"
"$GPRMC,080645,A,2419.6209,N,08102.7662,W,1.5,307.9,130615,6.1,"
"##MN-00 00 52 1862 02251 5526 500707 215909 192"
"164.338125"
"$GPRMC,080649,A,2419.6226,N,08102.7681,W,1.6,308.7,130615,6.1,"
"##MN-00 00 51 1864 02248 5524 500510 215854 192"
"164.338171"
"$GPRMC,080653,A,2419.6240,N,08102.7692,W,1.6,308.9,130615,6.1,"
"##MN-00 00 53 1865 02246 5521 500186 215803 192"
"164.338218"
"$GPRMC,080657,A,2419.6250,N,08102.7710,W,1.6,310.0,130615,6.1,"
"##MN-00 00 52 1866 02247 5519 499915 215754 192"
"164.338264"
"$GPRMC,080701,A,2419.6259,N,08102.7727,W,1.6,309.6,130615,6.1,"
"##MN-00 00 51 1867 02243 5517 499738 215718 192"
"164.33831"
"$GPRMC,080705,A,2419.6272,N,08102.7743,W,1.7,308.5,130615,6.1,"
"##MN-00 00 53 1868 02240 5514 499670 215714 192"
"164.338356"
"$GPRMC,080709,A,2419.6286,N,08102.7754,W,1.6,308.0,130615,6.1,"
"##MN-00 00 51 1869 02241 5512 499606 215704 192"
"164.338403"
"$GPRMC,080713,A,2419.6301,N,08102.7768,W,1.8,307.6,130615,6.1,"
"##MN-00 00 52 1870 02232 5510 499476 215678 192"
"164.338449"
"$GPRMC,080717,A,2419.6315,N,08102.7783,W,1.8,309.0,130615,6.1,"
"##MN-00 00 54 1871 02231 5508 499321 215668 192"
"164.338495"
"$GPRMC,080721,A,2419.6328,N,08102.7800,W,1.8,308.8,130615,6.1,"
"##MN-00 00 52 1872 02228 5506 499204 215658 192"
"164.338542"
"$GPRMC,080725,A,2419.6342,N,08102.7815,W,1.8,312.3,130615,6.1,"
"##MN-00 00 52 1873 02226 5503 499163 215656 192"
"164.338588"
"$GPRMC,080729,A,2419.6356,N,08102.7832,W,1.8,314.2,130615,6.1,"
"##MN-00 00 55 1874 02222 5501 499134 215653 192"
"164.338634"
"$GPRMC,080733,A,2419.6371,N,08102.7847,W,1.8,316.8,130615,6.1,"
"##MN-00 00 52 1875 02222 5499 499066 215653 192"
"164.338681"
"$GPRMC,080737,A,2419.6385,N,08102.7861,W,1.8,317.2,130615,6.1,"
"##MN-00 00 53 1876 02218 5497 499000 215651 192"
"164.338727"
"$GPRMC,080741,A,2419.6400,N,08102.7877,W,1.8,318.5,130615,6.1,"
"##MN-00 00 53 1877 02217 5495 498948 215645 192"
"164.338773"
"$GPRMC,080745,A,2419.6414,N,08102.7890,W,1.8,319.4,130615,6.1,"
"##MN-00 00 52 1878 02214 5493 498934 215635 192"
"164.338819"
"$GPRMC,080749,A,2419.6428,N,08102.7904,W,1.8,319.8,130615,6.1,"
"##MN-00 00 55 1879 02210 5491 498870 215615 192"
"164.338866"
"$GPRMC,080753,A,2419.6439,N,08102.7915,W,1.7,318.7,130615,6.1,"
"##MN-00 00 55 1880 02208 5489 498667 215581 192"
"164.338912"
"$GPRMC,080757,A,2419.6454,N,08102.7931,W,1.8,316.7,130615,6.1,"
"##MN-00 00 57 1881 02206 5487 498359 215546 192"
"164.338958"
"$GPRMC,080801,A,2419.6468,N,08102.7945,W,1.7,316.8,130615,6.1,"
"##MN-00 00 50 1882 02204 5484 498180 215508 192"
"164.339005"
"$GPRMC,080805,A,2419.6483,N,08102.7966,W,1.8,314.1,130615,6.1,"
"##MN-00 00 54 1883 02198 5482 497985 215471 192"
"164.339051"
"$GPRMC,080809,A,2419.6500,N,08102.7982,W,1.7,313.9,130615,6.1,"
"##MN-00 00 53 1884 02198 5480 497819 215458 192"
"164.339097"
"$GPRMC,080813,A,2419.6514,N,08102.7998,W,1.7,313.2,130615,6.1,"
"##MN-00 00 54 1885 02193 5478 497779 215434 192"
"164.339144"
"$GPRMC,080817,A,2419.6527,N,08102.8013,W,1.7,317.0,130615,6.1,"
"##MN-00 00 54 1886 02191 5476 497755 215423 192"
"164.33919"
"$GPRMC,080821,A,2419.6540,N,08102.8022,W,1.6,316.4,130615,6.1,"
"##MN-00 00 52 1887 02193 5474 497650 215403 192"
"164.339236"
"$GPRMC,080825,A,2419.6552,N,08102.8035,W,1.7,318.3,130615,6.1,"
"##MN-00 00 55 1888 02190 5472 497552 215375 192"
"164.339282"
"$GPRMC,080829,A,2419.6566,N,08102.8050,W,1.5,316.8,130615,6.1,"
"##MN-00 00 52 1890 02192 5470 497438 215359 192"
"164.339329"
"$GPRMC,080833,A,2419.6577,N,08102.8065,W,1.6,315.7,130615,6.1,"
"##MN-00 00 54 1890 02185 5468 497257 215316 192"
"164.339375"
"$GPRMC,080837,A,2419.6594,N,08102.8078,W,1.7,317.0,130615,6.1,"
"##MN-00 00 52 1891 02183 5466 497016 215274 192"
"164.339421"
"$GPRMC,080841,A,2419.6605,N,08102.8087,W,1.7,315.2,130615,6.1,"
"##MN-00 00 52 1893 02180 5465 496773 215219 192"
"164.339468"
"$GPRMC,080845,A,2419.6623,N,08102.8100,W,1.7,317.4,130615,6.1,"
"##MN-00 00 53 1894 02182 5463 496377 215142 192"
"164.339514"
"$GPRMC,080849,A,2419.6637,N,08102.8108,W,1.6,317.3,130615,6.1,"
"##MN-00 00 52 1895 02180 5461 496018 215093 192"
"164.33956"
"$GPRMC,080853,A,2419.6652,N,08102.8125,W,1.8,317.7,130615,6.1,"
"##MN-00 00 55 1896 02173 5459 495476 214992 192"
"164.339606"
"$GPRMC,080857,A,2419.6664,N,08102.8139,W,1.6,318.6,130615,6.1,"
"##MN-00 00 52 1897 02172 5457 494997 214947 192"
"164.339653"
"$GPRMC,080901,A,2419.6678,N,08102.8154,W,1.8,317.7,130615,6.1,"
"##MN-00 00 53 1898 02169 5455 494395 214845 192"
"164.339699"
"$GPRMC,080905,A,2419.6693,N,08102.8168,W,1.7,318.8,130615,6.1,"
"##MN-00 00 52 1899 02167 5453 493708 214708 192"
"164.339745"
"$GPRMC,080910,A,2419.6710,N,08102.8184,W,1.6,319.0,130615,6.1,"
"##MN-00 00 53 1900 02166 5451 493337 214567 192"
"164.339792"
"$GPRMC,080913,A,2419.6718,N,08102.8195,W,1.6,317.6,130615,6.1,"
"##MN-00 00 53 1901 02164 5449 493117 214506 192"
"164.339838"
"$GPRMC,080917,A,2419.6734,N,08102.8208,W,1.6,316.6,130615,6.1,"
"##MN-00 00 54 1902 02163 5447 492944 214472 192"
"164.339884"
"$GPRMC,080922,A,2419.6750,N,08102.8223,W,1.5,315.6,130615,6.1,"
"##MN-00 00 53 1903 02159 5446 492694 214432 192"
"164.339931"
"$GPRMC,080926,A,2419.6764,N,08102.8238,W,1.6,315.9,130615,6.1,"
"##MN-00 00 53 1904 02159 5444 492556 214422 192"
"164.339977"
"$GPRMC,080930,A,2419.6776,N,08102.8251,W,1.5,314.9,130615,6.1,"
"##MN-00 00 52 1905 02153 5442 492404 214345 192"
"164.340023"
"$GPRMC,080934,A,2419.6792,N,08102.8267,W,1.7,314.1,130615,6.1,"
"##MN-00 00 56 1906 02150 5440 492204 214324 192"
"164.340069"
"$GPRMC,080938,A,2419.6807,N,08102.8280,W,1.5,314.6,130615,6.1,"
"##MN-00 00 51 1907 02149 5438 491948 214262 192"
"164.340116"
"$GPRMC,080942,A,2419.6821,N,08102.8295,W,1.7,315.3,130615,6.1,"
"##MN-00 00 51 1908 02145 5437 491731 214220 192"
"164.340162"
"$GPRMC,080946,A,2419.6834,N,08102.8309,W,1.6,317.9,130615,6.1,"
"##MN-00 00 53 1909 02143 5435 491627 214202 192"
"164.340208"
"$GPRMC,080950,A,2419.6850,N,08102.8322,W,1.7,319.1,130615,6.1,"
"##MN-00 00 54 1910 02141 5433 491527 214176 192"
"164.340255"
"$GPRMC,080954,A,2419.6865,N,08102.8335,W,1.7,321.0,130615,6.1,"
"##MN-00 00 53 1912 02140 5432 491496 214162 192"
"164.340301"
"$GPRMC,080958,A,2419.6880,N,08102.8347,W,1.7,321.1,130615,6.1,"
"##MN-00 00 55 1913 02137 5430 491397 214137 192"
"164.340347"
"$GPRMC,081002,A,2419.6895,N,08102.8360,W,1.6,321.6,130615,6.1,"
"##MN-00 00 53 1914 02136 5428 491339 214117 192"
"164.340394"
"$GPRMC,081006,A,2419.6909,N,08102.8374,W,1.7,320.0,130615,6.1,"
"##MN-00 00 54 1915 02132 5427 491248 214096 192"
"164.34044"
"$GPRMC,081010,A,2419.6926,N,08102.8386,W,1.7,317.3,130615,6.1,"
"##MN-00 00 55 1916 02130 5425 491056 214059 192"
"164.340486"
"$GPRMC,081014,A,2419.6942,N,08102.8396,W,1.6,317.0,130615,6.1,"
"##MN-00 00 53 1917 02127 5423 490774 213983 192"
"164.340532"
"$GPRMC,081018,A,2419.6956,N,08102.8410,W,1.6,317.2,130615,6.1,"
"##MN-00 00 52 1918 02126 5422 490391 213914 192"
"164.340579"
"$GPRMC,081022,A,2419.6967,N,08102.8423,W,1.6,316.7,130615,6.1,"
"##MN-00 00 51 1919 02126 5420 490179 213881 192"
"164.340625"
"$GPRMC,081026,A,2419.6978,N,08102.8436,W,1.5,315.6,130615,6.1,"
"##MN-00 00 53 1920 02121 5419 490051 213864 192"
"164.340671"
"$GPRMC,081030,A,2419.6989,N,08102.8451,W,1.6,314.0,130615,6.1,"
"##MN-00 00 54 1921 02120 5417 489933 213818 192"
"164.340718"
"$GPRMC,081034,A,2419.6999,N,08102.8465,W,1.5,313.4,130615,6.1,"
"##MN-00 00 52 1922 02118 5416 489691 213755 192"
"164.340764"
"$GPRMC,081038,A,2419.7010,N,08102.8480,W,1.6,311.8,130615,6.1,"
"##MN+00 00 55 1923 02114 5414 488909 213538 192"
"164.34081"
"$GPRMC,081042,A,2419.7018,N,08102.8493,W,1.6,312.0,130615,6.1,"
"##MN+00 00 52 1924 02115 5413 487843 213365 192"
"164.340856"
"$GPRMC,081046,A,2419.7028,N,08102.8506,W,1.5,309.6,130615,6.1,"
"##MN+00 00 53 1925 02111 5411 487221 213254 192"
"164.340903"
"$GPRMC,081050,A,2419.7039,N,08102.8520,W,1.5,309.4,130615,6.1,"
"##MN-00 00 53 1926 02114 5410 486971 213207 192"
"164.340949"
"$GPRMC,081054,A,2419.7046,N,08102.8534,W,1.3,309.9,130615,6.1,"
"##MN-00 00 53 1927 02112 5408 486918 213193 192"
"164.340995"
"$GPRMC,081058,A,2419.7057,N,08102.8548,W,1.5,310.7,130615,6.1,"
"##MN-00 00 53 1928 02111 5407 486872 213189 192"
"164.341042"
"$GPRMC,081102,A,2419.7068,N,08102.8558,W,1.4,312.4,130615,6.1,"
"##MN-00 00 52 1929 02109 5405 486836 213180 192"
"164.341088"
"$GPRMC,081106,A,2419.7081,N,08102.8571,W,1.5,313.7,130615,6.1,"
"##MN-00 00 53 1930 02107 5404 486726 213158 192"
"164.341146"
"$GPRMC,081110,A,2419.7090,N,08102.8584,W,1.4,314.3,130615,6.1,"
"##MN-00 00 51 1931 02104 5402 486687 213137 192"
"164.341192"
"$GPRMC,081114,A,2419.7103,N,08102.8598,W,1.5,314.4,130615,6.1,"
"##MN-00 00 54 1933 02102 5401 486606 213115 192"
"164.341238"
"$GPRMC,081118,A,2419.7117,N,08102.8613,W,1.5,315.3,130615,6.1,"
"##MN-00 00 51 1934 02105 5400 486341 213067 192"
"164.341285"
"$GPRMC,081122,A,2419.7132,N,08102.8627,W,1.6,316.3,130615,6.1,"
"##MN-00 00 51 1934 02098 5398 485951 212973 192"
"164.341331"
"$GPRMC,081126,A,2419.7151,N,08102.8642,W,1.7,316.3,130615,6.1,"
"##MN+00 00 52 1935 02094 5397 485665 212932 192"
"164.341377"
"$GPRMC,081130,A,2419.7164,N,08102.8652,W,1.7,316.2,130615,6.1,"
"##MN+00 00 60 1937 02094 5396 485450 212897 192"
"164.341424"
"$GPRMC,081134,A,2419.7171,N,08102.8670,W,1.8,312.9,130615,6.1,"
"##MN+00 00 54 1937 02089 5394 485347 212878 192"
"164.34147"
"#increment_net"
"$GPRMC,081138,A,2419.7182,N,08102.8681,W,1.6,313.4,130615,6.1,"
"##MN-00 00 51 1939 02086 5393 485179 212839 192"
"164.341516"
"$GPRMC,081142,A,2419.7193,N,08102.8700,W,1.7,312.2,130615,6.1,"
"##MN-00 00 51 1940 02081 5392 484636 212758 192"
"164.341563"
"$GPRMC,081146,A,2419.7206,N,08102.8714,W,1.7,314.5,130615,6.1,"
"##MN-00 00 50 1941 02082 5390 484187 212648 192"
"164.341609"
"$GPRMC,081150,A,2419.7219,N,08102.8728,W,1.8,314.0,130615,6.1,"
"##MN-00 00 52 1942 02072 5389 483873 212628 192"
"164.341655"
"$GPRMC,081154,A,2419.7231,N,08102.8744,W,1.7,315.3,130615,6.1,"
"##MN-00 00 50 1943 02072 5388 483535 212574 192"
"164.341701"
"$GPRMC,081158,A,2419.7244,N,08102.8758,W,1.8,315.3,130615,6.1,"
"##MN-00 00 52 1944 02069 5387 483142 212495 192"
"164.341748"
"$GPRMC,081202,A,2419.7258,N,08102.8776,W,1.7,315.2,130615,6.1,"
"##MN-00 00 53 1945 02064 5386 482591 212354 192"
"164.341794"
"$GPRMC,081206,A,2419.7271,N,08102.8788,W,1.6,314.7,130615,6.1,"
"##MN-00 00 49 1946 02062 5385 481906 212273 192"
"164.34184"
"$GPRMC,081210,A,2419.7285,N,08102.8806,W,1.8,312.8,130615,6.1,"
"##MN-00 00 51 1947 02056 5384 481357 212175 192"
"164.341887"
"$GPRMC,081214,A,2419.7296,N,08102.8822,W,1.7,313.5,130615,6.1,"
"##MN-00 00 52 1948 02056 5383 480801 212083 192"
"164.341933"
"$GPRMC,081218,A,2419.7307,N,08102.8837,W,1.7,311.8,130615,6.1,"
"##MN-00 00 50 1949 02055 5382 480482 212015 192"
"164.341979"
"$GPRMC,081222,A,2419.7320,N,08102.8849,W,1.6,312.3,130615,6.1,"
"##MN-00 00 51 1950 02056 5380 480231 211944 192"
"164.342025"
"$GPRMC,081226,A,2419.7332,N,08102.8865,W,1.6,311.4,130615,6.1,"
"##MN-00 00 50 1951 02050 5379 480102 211893 192"
"164.342072"
"$GPRMC,081230,A,2419.7343,N,08102.8880,W,1.6,311.0,130615,6.1,"
"##MN-00 00 50 1952 02049 5378 480021 211870 192"
"164.342118"
"$GPRMC,081234,A,2419.7353,N,08102.8894,W,1.5,309.7,130615,6.1,"
"##MN-00 00 49 1953 02048 5377 479972 211862 192"
"164.342164"
"$GPRMC,081238,A,2419.7363,N,08102.8909,W,1.6,309.2,130615,6.1,"
"##MN-00 00 52 1954 02044 5376 479668 211779 192"
"164.342211"
"$GPRMC,081242,A,2419.7375,N,08102.8920,W,1.5,309.6,130615,6.1,"
"##MN-00 00 50 1955 02042 5376 478680 211648 192"
"164.342257"
"$GPRMC,081246,A,2419.7388,N,08102.8932,W,1.6,309.8,130615,6.1,"
"##MN-00 00 50 1957 02039 5374 477533 211388 192"
"164.342303"
"$GPRMC,081250,A,2419.7401,N,08102.8947,W,1.6,311.2,130615,6.1,"
"##MN-00 00 50 1958 02033 5374 476813 211256 192"
"164.34235"
"$GPRMC,081254,A,2419.7408,N,08102.8963,W,1.5,311.1,130615,6.1,"
"##MN-00 00 50 1959 02032 5373 476483 211226 192"
"164.342396"
"$GPRMC,081258,A,2419.7426,N,08102.8975,W,1.6,312.6,130615,6.1,"
"##MN-00 00 49 1960 02025 5372 476250 211140 192"
"164.342442"
"$GPRMC,081302,A,2419.7437,N,08102.8992,W,1.6,313.3,130615,6.1,"
"##MN-00 00 52 1961 02026 5371 475695 211040 192"
"164.342488"
"$GPRMC,081306,A,2419.7447,N,08102.9004,W,1.6,313.3,130615,6.1,"
"##MN-00 00 50 1962 02020 5370 475272 210991 192"
"164.342535"
"$GPRMC,081310,A,2419.7462,N,08102.9021,W,1.7,314.3,130615,6.1,"
"##MN-00 00 56 1963 02015 5369 475092 210977 192"
"164.342581"
"$GPRMC,081314,A,2419.7473,N,08102.9035,W,1.6,313.1,130615,6.1,"
"##MN-00 00 51 1964 02009 5368 474925 210917 192"
"164.342627"
"$GPRMC,081318,A,2419.7487,N,08102.9054,W,1.8,309.8,130615,6.1,"
"##MN-00 00 52 1965 02010 5368 474826 210897 192"
"164.342674"
"$GPRMC,081322,A,2419.7498,N,08102.9066,W,1.6,311.0,130615,6.1,"
"##MN-00 00 51 1966 02008 5367 474798 210910 192"
"164.34272"
"$GPRMC,081326,A,2419.7520,N,08102.9075,W,1.6,312.0,130615,6.1,"
"##MN-00 00 50 1967 02007 5367 474789 210908 192"
"164.342766"
"$GPRMC,081330,A,2419.7531,N,08102.9089,W,1.6,314.8,130615,6.1,"
"##MN-00 00 49 1968 02003 5366 474771 210881 192"
"164.342812"
"$GPRMC,081334,A,2419.7542,N,08102.9101,W,1.6,315.0,130615,6.1,"
"##MN-00 00 51 1969 02002 5365 474689 210866 192"
"164.342859"
"$GPRMC,081338,A,2419.7549,N,08102.9120,W,1.6,314.5,130615,6.1,"
"##MN-00 00 52 1970 02000 5365 474597 210853 192"
"164.342905"
"$GPRMC,081342,A,2419.7563,N,08102.9133,W,1.5,314.7,130615,6.1,"
"##MN-00 00 51 1971 01997 5364 474536 210852 192"
"164.342951"
"$GPRMC,081346,A,2419.7576,N,08102.9144,W,1.6,313.7,130615,6.1,"
"##MN-00 00 50 1972 01994 5363 474452 210832 192"
"164.342998"
"$GPRMC,081350,A,2419.7588,N,08102.9156,W,1.5,313.1,130615,6.1,"
"##MN-00 00 49 1973 01993 5363 474369 210820 192"
"164.343044"
"$GPRMC,081354,A,2419.7599,N,08102.9171,W,1.6,311.5,130615,6.1,"
"##MN-00 00 49 1974 01990 5362 474120 210765 192"
"164.34309"
"$GPRMC,081359,A,2419.7610,N,08102.9191,W,1.5,309.8,130615,6.1,"
"##MN-00 00 51 1975 01986 5362 473844 210736 192"
"164.343137"
"$GPRMC,081403,A,2419.7620,N,08102.9207,W,1.6,308.3,130615,6.1,"
"##MN-00 00 51 1976 01985 5361 473463 210673 192"
"164.343183"
"$GPRMC,081406,A,2419.7624,N,08102.9220,W,1.5,307.8,130615,6.1,"
"##MN-00 00 50 1977 01984 5361 473171 210660 192"
"164.343229"
"$GPRMC,081411,A,2419.7636,N,08102.9238,W,1.5,307.8,130615,6.1,"
"##MN-00 00 51 1979 01979 5360 472894 210584 192"
"164.343275"
"$GPRMC,081415,A,2419.7646,N,08102.9252,W,1.6,309.2,130615,6.1,"
"##MN-00 00 52 1980 01977 5360 472550 210509 192"
"164.343322"
"$GPRMC,081419,A,2419.7657,N,08102.9267,W,1.6,310.9,130615,6.1,"
"##MN-00 00 49 1981 01974 5360 471977 210376 192"
"164.343368"
"$GPRMC,081423,A,2419.7670,N,08102.9282,W,1.6,308.9,130615,6.1,"
"##MN-00 00 51 1982 01968 5359 471249 210223 192"
"164.343414"
"$GPRMC,081427,A,2419.7682,N,08102.9299,W,1.6,308.4,130615,6.1,"
"##MN-00 00 52 1983 01968 5359 470960 210186 192"
"164.343461"
"$GPRMC,081431,A,2419.7693,N,08102.9313,W,1.6,308.0,130615,6.1,"
"##MN-00 00 49 1984 01960 5358 470816 210142 192"
"164.343507"
"$GPRMC,081435,A,2419.7711,N,08102.9324,W,1.6,309.1,130615,6.1,"
"##MN-00 00 51 1985 01962 5357 470763 210159 192"
"164.343553"
"$GPRMC,081439,A,2419.7722,N,08102.9337,W,1.6,311.1,130615,6.1,"
"##MN-00 00 51 1986 01956 5357 470716 210116 192"
"164.3436"
"$GPRMC,081443,A,2419.7729,N,08102.9351,W,1.6,311.0,130615,6.1,"
"##MN-00 00 52 1987 01958 5357 470658 210112 192"
"164.343646"
"$GPRMC,081447,A,2419.7744,N,08102.9366,W,1.6,314.0,130615,6.1,"
"##MN-00 00 49 1988 01952 5357 470619 210104 192"
"164.343692"
"$GPRMC,081451,A,2419.7761,N,08102.9383,W,1.6,314.6,130615,6.1,"
"##MN-00 00 51 1989 01948 5356 470559 210078 192"
"164.343738"
"$GPRMC,081455,A,2419.7776,N,08102.9393,W,1.6,317.5,130615,6.1,"
"##MN-00 00 51 1990 01946 5356 470314 210041 192"
"164.343785"
"$GPRMC,081459,A,2419.7784,N,08102.9405,W,1.7,316.9,130615,6.1,"
"##MN-00 00 49 1991 01944 5356 469789 209979 192"
"164.343831"
"$GPRMC,081503,A,2419.7800,N,08102.9420,W,1.7,318.4,130615,6.1,"
"##MN-00 00 49 1992 01943 5355 469147 209733 192"
"164.343877"
"$GPRMC,081507,A,2419.7813,N,08102.9433,W,1.7,318.7,130615,6.1,"
"##MN-00 00 52 1994 01935 5355 468347 209604 192"
"164.343924"
