" Tow: 6-of-n-in   RVWS/WS15161"
" Date: 13/06/2015"
" Temperature Probe #  4762    Conductivity Probe #  710"
" Pressure Probe #  159"
" Flow Meter Calibration  4.71 (m/count)  "
"164.229676"
"$GPRMC,053039,A,2422.2383,N,08105.7706,W,3.0,311.4,130615,6.0,"
"##MN-00 00 54 0830 01537 5826 000194 000052 192"
"164.229722"
"$GPRMC,053044,A,2422.2408,N,08105.7735,W,2.9,312.0,130615,6.0,"
"##MN-00 00 57 0830 01536 5827 447908 827839 192"
"164.229769"
"$GPRMC,053048,A,2422.2432,N,08105.7767,W,3.0,311.2,130615,6.0,"
"##MN-00 00 52 0830 01535 5827 448279 827839 192"
"164.229815"
"$GPRMC,053052,A,2422.2451,N,08105.7787,W,2.9,311.1,130615,6.0,"
"##MN-00 00 28 0830 01536 5827 448389 827910 192"
"164.229861"
"$GPRMC,053056,A,2422.2471,N,08105.7818,W,2.9,310.3,130615,6.0,"
"##MN-00 00 23 0830 01537 5827 448128 827910 192"
"164.229907"
"$GPRMC,053100,A,2422.2490,N,08105.7841,W,2.8,309.6,130615,6.0,"
"##MN-00 00 36 0830 01536 5827 447627 827638 192"
"164.229954"
"$GPRMC,053104,A,2422.2511,N,08105.7869,W,2.9,310.2,130615,6.0,"
"##MN-00 00 32 0831 01535 5827 447367 827909 192"
"164.23"
"$GPRMC,053108,A,2422.2529,N,08105.7892,W,2.9,308.6,130615,6.0,"
"##MN-00 00 44 0831 01536 5827 446873 827841 192"
"164.230046"
"$GPRMC,053112,A,2422.2549,N,08105.7921,W,2.8,309.3,130615,6.0,"
"##MN-00 00 55 0831 01536 5827 446616 827909 192"
"164.230104"
"$GPRMC,053116,A,2422.2570,N,08105.7944,W,2.8,309.7,130615,6.0,"
"##MN-00 00 54 0831 01537 5827 445881 827909 192"
"164.23015"
"$GPRMC,053120,A,2422.2591,N,08105.7967,W,2.8,309.9,130615,6.0,"
"##MN-00 00 51 0831 01535 5827 445640 383186 192"
"164.230197"
"$GPRMC,053124,A,2422.2612,N,08105.7991,W,2.6,313.0,130615,6.0,"
"##MN-00 00 57 0831 01536 5827 449278 304817 192"
"164.230243"
"$GPRMC,053128,A,2422.2632,N,08105.8017,W,2.7,314.3,130615,6.0,"
"##MN-00 00 57 0832 01538 5827 447004 253703 192"
"164.230289"
"$GPRMC,053132,A,2422.2654,N,08105.8036,W,2.6,316.1,130615,6.0,"
"##MN-00 00 61 0832 01537 5827 447851 396646 192"
"164.230336"
"$GPRMC,053136,A,2422.2677,N,08105.8060,W,2.6,317.0,130615,6.0,"
"##MN-00 00 52 0833 01537 5828 447731 250390 192"
"164.230382"
"$GPRMC,053140,A,2422.2695,N,08105.8079,W,2.4,317.4,130615,6.0,"
"##MN-00 00 53 0834 01537 5827 446404 205704 192"
"164.230428"
"$GPRMC,053144,A,2422.2714,N,08105.8101,W,2.4,316.5,130615,6.0,"
"##MN-00 00 49 0835 01538 5828 446363 206825 192"
"164.230475"
"$GPRMC,053148,A,2422.2733,N,08105.8118,W,2.3,318.2,130615,6.0,"
"##MN-00 00 55 0835 01535 5828 446394 229148 192"
"164.230521"
"$GPRMC,053152,A,2422.2753,N,08105.8137,W,2.3,319.6,130615,6.0,"
"##MN-00 00 49 0835 01537 5828 446329 207563 192"
"164.230567"
"$GPRMC,053156,A,2422.2769,N,08105.8154,W,2.2,320.4,130615,6.0,"
"##MN-00 00 54 0836 01534 5828 446379 230659 192"
"164.230613"
"$GPRMC,053200,A,2422.2791,N,08105.8175,W,2.3,320.7,130615,6.0,"
"##MN-00 00 52 0837 01539 5828 446335 218175 192"
"164.23066"
"$GPRMC,053204,A,2422.2809,N,08105.8190,W,2.2,322.0,130615,6.0,"
"##MN-00 00 57 0837 01539 5828 446787 252813 192"
"164.230706"
"$GPRMC,053208,A,2422.2829,N,08105.8208,W,2.3,321.5,130615,6.0,"
"##MN-00 00 51 0837 01536 5828 446396 218432 192"
"164.230752"
"$GPRMC,053212,A,2422.2855,N,08105.8226,W,2.3,323.0,130615,6.0,"
"##MN-00 00 55 0838 01535 5828 446342 207656 192"
"164.230799"
"$GPRMC,053216,A,2422.2878,N,08105.8242,W,2.3,322.9,130615,6.0,"
"##MN-00 00 67 0839 01535 5828 446376 230681 192"
"164.230845"
"$GPRMC,053220,A,2422.2896,N,08105.8262,W,2.3,324.2,130615,6.0,"
"##MN-00 00 54 0840 01539 5828 446743 245896 192"
"164.230891"
"$GPRMC,053224,A,2422.2916,N,08105.8277,W,2.3,323.5,130615,6.0,"
"##MN-00 00 49 0840 01537 5829 446548 259647 192"
"164.230938"
"$GPRMC,053228,A,2422.2935,N,08105.8295,W,2.4,322.4,130615,6.0,"
"##MN-00 00 56 0841 01536 5829 446365 205914 192"
"164.230984"
"$GPRMC,053232,A,2422.2954,N,08105.8309,W,2.2,321.3,130615,6.0,"
"##MN-00 00 50 0841 01539 5829 446797 305191 192"
"164.23103"
"$GPRMC,053236,A,2422.2971,N,08105.8322,W,2.3,319.2,130615,6.0,"
"##MN-00 00 63 0842 01535 5830 446432 229853 192"
"164.231076"
"$GPRMC,053240,A,2422.2990,N,08105.8342,W,2.2,318.2,130615,6.0,"
"##MN-00 00 57 0842 01543 5830 446951 244468 192"
"164.231123"
"$GPRMC,053244,A,2422.3006,N,08105.8356,W,2.1,316.8,130615,6.0,"
"##MN-00 00 56 0843 01537 5830 446921 275638 192"
"164.231169"
"$GPRMC,053248,A,2422.3025,N,08105.8379,W,2.3,317.2,130615,6.0,"
"##MN-00 00 56 0843 01535 5830 446413 207931 192"
"164.231215"
"$GPRMC,053252,A,2422.3043,N,08105.8394,W,2.1,316.7,130615,6.0,"
"##MN-00 00 57 0844 01537 5831 446780 411711 192"
"164.231262"
"$GPRMC,053256,A,2422.3062,N,08105.8418,W,2.4,315.8,130615,6.0,"
"##MN-00 00 51 0844 01537 5831 446351 243618 192"
"164.231308"
"$GPRMC,053300,A,2422.3080,N,08105.8434,W,2.2,316.2,130615,6.0,"
"##MN-00 00 51 0845 01537 5831 446563 296268 192"
"164.231354"
"$GPRMC,053304,A,2422.3098,N,08105.8455,W,2.2,315.6,130615,6.0,"
"##MN-00 00 48 0846 01536 5832 446349 207903 192"
"164.2314"
"$GPRMC,053308,A,2422.3116,N,08105.8473,W,2.1,317.9,130615,6.0,"
"##MN-00 00 48 0846 01538 5832 446648 263999 192"
"164.231447"
"$GPRMC,053312,A,2422.3134,N,08105.8491,W,2.2,316.4,130615,6.0,"
"##MN-00 00 56 0847 01538 5832 446369 206116 192"
"164.231493"
"$GPRMC,053316,A,2422.3149,N,08105.8504,W,2.1,317.3,130615,6.0,"
"##MN-00 00 53 0848 01540 5832 446441 245051 192"
"164.231539"
"$GPRMC,053320,A,2422.3167,N,08105.8523,W,2.1,317.0,130615,6.0,"
"##MN-00 00 47 0848 01537 5832 446387 205482 192"
"164.231586"
"$GPRMC,053324,A,2422.3185,N,08105.8540,W,2.1,316.9,130615,6.0,"
"##MN-00 00 52 0849 01539 5833 446397 205787 192"
"164.231632"
"$GPRMC,053329,A,2422.3203,N,08105.8558,W,2.0,316.8,130615,6.0,"
"##MN-00 00 52 0850 01542 5833 446408 205642 192"
"164.231678"
"$GPRMC,053333,A,2422.3219,N,08105.8573,W,2.1,316.2,130615,6.0,"
"##MN-00 00 51 0850 01546 5833 446406 205457 192"
"164.231725"
"$GPRMC,053337,A,2422.3232,N,08105.8594,W,2.0,315.2,130615,6.0,"
"##MN-00 00 49 0851 01542 5833 446373 205370 192"
"164.231771"
"$GPRMC,053341,A,2422.3248,N,08105.8613,W,2.1,314.2,130615,6.0,"
"##MN-00 00 52 0852 01543 5834 446380 205351 192"
"164.231817"
"$GPRMC,053345,A,2422.3260,N,08105.8628,W,1.9,314.3,130615,6.0,"
"##MN-00 00 53 0852 01545 5834 446381 205356 192"
"164.231863"
"$GPRMC,053349,A,2422.3275,N,08105.8649,W,2.0,314.4,130615,6.0,"
"##MN-00 00 54 0853 01554 5835 446374 205355 192"
"164.23191"
"$GPRMC,053353,A,2422.3289,N,08105.8667,W,1.9,314.1,130615,6.0,"
"##MN-00 00 51 0854 01552 5835 446361 205355 192"
"164.231956"
"$GPRMC,053357,A,2422.3307,N,08105.8688,W,2.1,313.7,130615,6.0,"
"##MN-00 00 53 0855 01551 5835 446367 205353 192"
"164.232002"
"$GPRMC,053401,A,2422.3322,N,08105.8707,W,2.1,314.0,130615,6.0,"
"##MN-00 00 54 0856 01560 5836 446363 205354 192"
"164.232049"
"$GPRMC,053405,A,2422.3336,N,08105.8722,W,2.1,313.2,130615,6.0,"
"##MN-00 00 50 0857 01555 5836 446367 205355 192"
"164.232095"
"$GPRMC,053409,A,2422.3351,N,08105.8741,W,2.1,313.4,130615,6.0,"
"##MN-00 00 56 0857 01559 5837 446368 205354 192"
"164.232141"
"$GPRMC,053413,A,2422.3365,N,08105.8759,W,2.1,312.7,130615,6.0,"
"##MN-00 00 52 0858 01558 5837 446367 205359 192"
"164.232188"
"$GPRMC,053417,A,2422.3380,N,08105.8783,W,2.2,311.8,130615,6.0,"
"##MN-00 00 53 0859 01560 5837 446362 205352 192"
"164.232234"
"$GPRMC,053421,A,2422.3397,N,08105.8802,W,2.1,311.4,130615,6.0,"
"##MN-00 00 55 0860 01565 5837 446354 205350 192"
"164.23228"
"$GPRMC,053425,A,2422.3409,N,08105.8822,W,2.1,310.0,130615,6.0,"
"##MN-00 00 56 0861 01570 5838 446358 205348 192"
"164.232326"
"$GPRMC,053429,A,2422.3425,N,08105.8840,W,2.1,310.9,130615,6.0,"
"##MN-00 00 54 0862 01570 5838 446350 205361 192"
"164.232373"
"$GPRMC,053433,A,2422.3438,N,08105.8858,W,2.0,311.3,130615,6.0,"
"##MN-00 00 55 0863 01569 5838 446357 205364 192"
"164.232419"
"$GPRMC,053437,A,2422.3452,N,08105.8877,W,2.0,312.2,130615,6.0,"
"##MN-00 00 56 0864 01578 5839 446349 205348 192"
"164.232465"
"$GPRMC,053441,A,2422.3466,N,08105.8894,W,2.0,312.6,130615,6.0,"
"##MN-00 00 55 0865 01577 5839 446348 205347 192"
"164.232512"
"$GPRMC,053445,A,2422.3483,N,08105.8913,W,2.1,313.1,130615,6.0,"
"##MN-00 00 58 0866 01585 5840 446360 205342 192"
"164.232558"
"$GPRMC,053449,A,2422.3499,N,08105.8938,W,2.0,313.0,130615,6.0,"
"##MN-00 00 52 0866 01584 5840 446358 205340 192"
"164.232604"
"$GPRMC,053453,A,2422.3517,N,08105.8959,W,2.2,313.8,130615,6.0,"
"##MN-00 00 54 0867 01583 5840 446349 205333 192"
"164.23265"
"$GPRMC,053457,A,2422.3532,N,08105.8978,W,2.1,315.1,130615,6.0,"
"##MN-00 00 56 0868 01586 5841 446353 205334 192"
"164.232697"
"$GPRMC,053501,A,2422.3552,N,08105.8996,W,2.2,314.5,130615,6.0,"
"##MN-00 00 57 0869 01588 5841 446363 205333 192"
"164.232743"
"$GPRMC,053505,A,2422.3568,N,08105.9014,W,2.2,315.9,130615,6.0,"
"##MN-00 00 55 0870 01593 5842 446354 205331 192"
"164.232789"
"$GPRMC,053509,A,2422.3586,N,08105.9029,W,2.2,315.9,130615,6.0,"
"##MN-00 00 56 0871 01593 5842 446357 205331 192"
"164.232836"
"$GPRMC,053513,A,2422.3604,N,08105.9048,W,2.2,315.9,130615,6.0,"
"##MN-00 00 57 0872 01595 5843 446362 205331 192"
"164.232882"
"$GPRMC,053517,A,2422.3620,N,08105.9061,W,2.1,315.2,130615,6.0,"
"##MN-00 00 56 0873 01601 5843 446358 205329 192"
"164.232928"
"$GPRMC,053521,A,2422.3638,N,08105.9082,W,2.3,315.5,130615,6.0,"
"##MN-00 00 54 0874 01598 5843 446364 205330 192"
"164.232975"
"$GPRMC,053525,A,2422.3658,N,08105.9101,W,2.3,316.8,130615,6.0,"
"##MN-00 00 54 0875 01602 5843 446369 205329 192"
"164.233021"
"$GPRMC,053529,A,2422.3676,N,08105.9118,W,2.3,316.8,130615,6.0,"
"##MN-00 00 57 0876 01604 5844 446381 205330 192"
"164.233067"
"$GPRMC,053533,A,2422.3694,N,08105.9137,W,2.3,317.1,130615,6.0,"
"##MN-00 00 57 0877 01610 5844 446394 205330 192"
"164.233113"
"$GPRMC,053537,A,2422.3711,N,08105.9154,W,2.2,317.5,130615,6.0,"
"##MN-00 00 55 0878 01609 5845 446396 205330 192"
"164.23316"
"$GPRMC,053541,A,2422.3729,N,08105.9174,W,2.2,317.4,130615,6.0,"
"##MN-00 00 57 0879 01615 5845 446392 205328 192"
"164.233206"
"$GPRMC,053545,A,2422.3743,N,08105.9194,W,2.1,315.5,130615,6.0,"
"##MN-00 00 54 0880 01617 5845 446394 205329 192"
"164.233252"
"$GPRMC,053549,A,2422.3758,N,08105.9212,W,2.1,314.2,130615,6.0,"
"##MN-00 00 56 0881 01620 5846 446402 205329 192"
"164.233299"
"$GPRMC,053553,A,2422.3773,N,08105.9230,W,2.1,313.5,130615,6.0,"
"##MN-00 00 56 0882 01627 5846 446407 205329 192"
"164.233356"
"$GPRMC,053557,A,2422.3791,N,08105.9249,W,2.1,313.1,130615,6.0,"
"##MN-00 00 54 0883 01625 5847 446414 205328 192"
"164.233403"
"$GPRMC,053601,A,2422.3806,N,08105.9268,W,2.1,312.4,130615,6.0,"
"##MN-00 00 55 0884 01632 5847 446403 205326 192"
"164.233449"
"$GPRMC,053605,A,2422.3821,N,08105.9288,W,2.1,311.6,130615,6.0,"
"##MN-00 00 53 0885 01630 5847 446405 205326 192"
"164.233495"
"$GPRMC,053609,A,2422.3838,N,08105.9310,W,2.2,310.7,130615,6.0,"
"##MN-00 00 56 0886 01633 5848 446397 205324 192"
"164.233542"
"$GPRMC,053613,A,2422.3853,N,08105.9328,W,2.2,310.3,130615,6.0,"
"##MN-00 00 55 0887 01636 5848 446398 205324 192"
"164.233588"
"$GPRMC,053617,A,2422.3870,N,08105.9350,W,2.2,309.8,130615,6.0,"
"##MN-00 00 55 0888 01638 5848 446409 205324 192"
"164.233634"
"$GPRMC,053621,A,2422.3888,N,08105.9368,W,2.2,311.6,130615,6.0,"
"##MN-00 00 56 0889 01638 5849 446403 205321 192"
"164.233681"
"$GPRMC,053625,A,2422.3904,N,08105.9389,W,2.2,312.0,130615,6.0,"
"##MN-00 00 55 0890 01647 5849 446391 205320 192"
"164.233727"
"$GPRMC,053629,A,2422.3922,N,08105.9408,W,2.2,312.7,130615,6.0,"
"##MN-00 00 56 0891 01646 5849 446397 205320 192"
"164.233773"
"$GPRMC,053633,A,2422.3938,N,08105.9427,W,2.2,313.1,130615,6.0,"
"##MN-00 00 55 0892 01649 5850 446398 205320 192"
"164.233819"
"$GPRMC,053637,A,2422.3954,N,08105.9445,W,2.2,314.2,130615,6.0,"
"##MN-00 00 56 0893 01652 5850 446405 205320 192"
"164.233866"
"$GPRMC,053641,A,2422.3972,N,08105.9465,W,2.2,314.1,130615,6.0,"
"##MN-00 00 56 0894 01659 5851 446413 205319 192"
"164.233912"
"$GPRMC,053645,A,2422.3987,N,08105.9481,W,2.1,314.0,130615,6.0,"
"##MN-00 00 53 0895 01660 5851 446435 205323 192"
"164.233958"
"$GPRMC,053649,A,2422.4005,N,08105.9502,W,2.2,314.0,130615,6.0,"
"##MN-00 00 56 0896 01661 5851 446437 205323 192"
"164.234005"
"$GPRMC,053653,A,2422.4021,N,08105.9520,W,2.1,314.2,130615,6.0,"
"##MN-00 00 55 0897 01666 5852 446432 205323 192"
"164.234051"
"$GPRMC,053657,A,2422.4037,N,08105.9541,W,2.2,314.2,130615,6.0,"
"##MN-00 00 55 0898 01667 5852 446418 205320 192"
"164.234097"
"$GPRMC,053701,A,2422.4052,N,08105.9557,W,2.1,314.2,130615,6.0,"
"##MN-00 00 57 0899 01673 5853 446411 205318 192"
"164.234144"
"$GPRMC,053705,A,2422.4070,N,08105.9577,W,2.2,313.7,130615,6.0,"
"##MN-00 00 56 0900 01675 5853 446408 205318 192"
"164.23419"
"$GPRMC,053709,A,2422.4087,N,08105.9595,W,2.1,314.2,130615,6.0,"
"##MN-00 00 54 0901 01681 5853 446411 205317 192"
"164.234236"
"$GPRMC,053713,A,2422.4102,N,08105.9615,W,2.2,313.0,130615,6.0,"
"##MN-00 00 53 0902 01679 5854 446427 205320 192"
"164.234282"
"$GPRMC,053717,A,2422.4120,N,08105.9635,W,2.2,312.9,130615,6.0,"
"##MN-00 00 56 0903 01681 5854 446431 205319 192"
"164.234329"
"$GPRMC,053721,A,2422.4135,N,08105.9654,W,2.2,311.8,130615,6.0,"
"##MN-00 00 54 0904 01685 5855 446424 205317 192"
"164.234375"
"$GPRMC,053725,A,2422.4153,N,08105.9675,W,2.2,311.9,130615,6.0,"
"##MN-00 00 55 0905 01690 5855 446421 205316 192"
"164.234421"
"$GPRMC,053729,A,2422.4167,N,08105.9694,W,2.2,310.9,130615,6.0,"
"##MN-00 00 53 0906 01690 5856 446415 205314 192"
"164.234468"
"$GPRMC,053733,A,2422.4184,N,08105.9718,W,2.2,310.8,130615,6.0,"
"##MN-00 00 54 0907 01692 5856 446418 205315 192"
"164.234514"
"$GPRMC,053737,A,2422.4198,N,08105.9737,W,2.2,309.6,130615,6.0,"
"##MN-00 00 55 0908 01694 5856 446429 205316 192"
"164.23456"
"$GPRMC,053741,A,2422.4214,N,08105.9761,W,2.2,308.9,130615,6.0,"
"##MN-00 00 59 0909 01694 5857 446424 205315 192"
"164.234606"
"$GPRMC,053746,A,2422.4234,N,08105.9787,W,2.2,308.7,130615,6.0,"
"##MN-00 00 55 0910 01696 5857 446441 205317 192"
"164.234653"
"$GPRMC,053750,A,2422.4254,N,08105.9810,W,2.3,307.6,130615,6.0,"
"##MN-00 00 55 0911 01700 5857 446474 205321 192"
"164.234699"
"$GPRMC,053754,A,2422.4271,N,08105.9830,W,2.2,309.3,130615,6.0,"
"##MN-00 00 55 0912 01700 5858 446475 205320 192"
"164.234745"
"$GPRMC,053757,A,2422.4283,N,08105.9845,W,2.2,309.8,130615,6.0,"
"##MN-00 00 55 0913 01705 5858 446470 205320 192"
"164.234792"
"$GPRMC,053802,A,2422.4304,N,08105.9870,W,2.2,312.6,130615,6.0,"
"##MN-00 00 55 0914 01709 5858 446576 205339 192"
"164.234838"
"$GPRMC,053806,A,2422.4321,N,08105.9888,W,2.2,313.1,130615,6.0,"
"##MN-00 00 55 0915 01711 5859 446656 205342 192"
"164.234884"
"$GPRMC,053810,A,2422.4337,N,08105.9906,W,2.1,313.7,130615,6.0,"
"##MN-00 00 56 0916 01715 5859 446596 205339 192"
"164.234931"
"$GPRMC,053814,A,2422.4355,N,08105.9924,W,2.2,314.7,130615,6.0,"
"##MN-00 00 55 0917 01717 5860 446574 205334 192"
"164.234977"
"$GPRMC,053818,A,2422.4370,N,08105.9944,W,2.1,315.3,130615,6.0,"
"##MN-00 00 55 0918 01724 5860 446742 205354 192"
"164.235023"
"$GPRMC,053822,A,2422.4388,N,08105.9962,W,2.2,315.2,130615,6.0,"
"##MN-00 00 54 0920 01723 5861 446811 205381 192"
"164.235069"
"$GPRMC,053826,A,2422.4406,N,08105.9982,W,2.2,314.8,130615,6.0,"
"##MN-00 00 55 0921 01726 5861 446903 205384 192"
"164.235116"
"$GPRMC,053830,A,2422.4422,N,08105.9998,W,2.1,314.4,130615,6.0,"
"##MN-00 00 54 0922 01726 5861 447011 205421 192"
"164.235162"
"$GPRMC,053834,A,2422.4441,N,08106.0019,W,2.2,314.7,130615,6.0,"
"##MN-00 00 56 0923 01727 5862 447379 205476 192"
"164.235208"
"$GPRMC,053838,A,2422.4458,N,08106.0036,W,2.1,315.6,130615,6.0,"
"##MN-00 00 53 0924 01730 5862 447763 205525 192"
"164.235255"
"$GPRMC,053842,A,2422.4477,N,08106.0058,W,2.3,314.9,130615,6.0,"
"##MN-00 00 54 0925 01730 5862 447820 205542 192"
"164.235301"
"$GPRMC,053846,A,2422.4493,N,08106.0077,W,2.2,314.7,130615,6.0,"
"##MN-00 00 56 0926 01736 5863 448022 205564 192"
"164.235347"
"$GPRMC,053850,A,2422.4509,N,08106.0098,W,2.2,312.4,130615,6.0,"
"##MN-00 00 54 0927 01733 5863 448204 205608 192"
"164.235394"
"$GPRMC,053854,A,2422.4527,N,08106.0119,W,2.3,312.1,130615,6.0,"
"##MN-00 00 56 0928 01738 5863 448218 205603 192"
"164.23544"
"$GPRMC,053858,A,2422.4542,N,08106.0137,W,2.2,312.3,130615,6.0,"
"##MN-00 00 55 0929 01742 5864 448366 205639 192"
"164.235486"
"$GPRMC,053902,A,2422.4557,N,08106.0155,W,2.2,312.2,130615,6.0,"
"##MN-00 00 55 0930 01742 5864 448496 205667 192"
"164.235532"
"$GPRMC,053906,A,2422.4575,N,08106.0177,W,2.2,314.1,130615,6.0,"
"##MN-00 00 57 0931 01749 5865 448578 205683 192"
"164.235579"
"$GPRMC,053910,A,2422.4589,N,08106.0195,W,2.1,315.5,130615,6.0,"
"##MN-00 00 54 0932 01750 5865 448619 205691 192"
"164.235625"
"$GPRMC,053914,A,2422.4605,N,08106.0215,W,2.2,315.1,130615,6.0,"
"##MN-00 00 57 0933 01755 5865 448600 205688 192"
"164.235671"
"$GPRMC,053918,A,2422.4619,N,08106.0235,W,2.1,315.4,130615,6.0,"
"##MN-00 00 54 0934 01757 5865 448631 205699 192"
"164.235718"
"$GPRMC,053922,A,2422.4636,N,08106.0257,W,2.2,313.6,130615,6.0,"
"##MN-00 00 54 0935 01757 5865 448673 205702 192"
"164.235764"
"$GPRMC,053926,A,2422.4651,N,08106.0276,W,2.2,313.2,130615,6.0,"
"##MN-00 00 56 0936 01760 5866 448714 205699 192"
"164.23581"
"$GPRMC,053930,A,2422.4669,N,08106.0294,W,2.2,313.4,130615,6.0,"
"##MN-00 00 54 0937 01765 5866 448824 205709 192"
"164.235856"
"$GPRMC,053934,A,2422.4684,N,08106.0314,W,2.2,313.3,130615,6.0,"
"##MN-00 00 57 0938 01765 5866 449122 205715 192"
"164.235903"
"$GPRMC,053938,A,2422.4701,N,08106.0333,W,2.2,313.6,130615,6.0,"
"##MN-00 00 55 0939 01769 5867 449327 205708 192"
"164.235949"
"$GPRMC,053942,A,2422.4717,N,08106.0352,W,2.1,313.4,130615,6.0,"
"##MN-00 00 57 0940 01773 5867 449500 205702 192"
"164.235995"
"$GPRMC,053946,A,2422.4734,N,08106.0373,W,2.2,312.3,130615,6.0,"
"##MN-00 00 55 0941 01778 5868 449666 205706 192"
"164.236042"
"$GPRMC,053950,A,2422.4751,N,08106.0390,W,2.1,313.0,130615,6.0,"
"##MN-00 00 57 0942 01779 5868 449725 205718 192"
"164.236088"
"$GPRMC,053954,A,2422.4767,N,08106.0410,W,2.2,312.2,130615,6.0,"
"##MN-00 00 54 0943 01784 5868 449768 205729 192"
"164.236134"
"$GPRMC,053958,A,2422.4782,N,08106.0430,W,2.1,312.1,130615,6.0,"
"##MN-00 00 53 0944 01783 5868 449778 205733 192"
"164.236181"
"$GPRMC,054002,A,2422.4802,N,08106.0451,W,2.2,312.7,130615,6.0,"
"##MN-00 00 56 0945 01788 5869 449777 205737 192"
"164.236227"
"$GPRMC,054006,A,2422.4818,N,08106.0469,W,2.2,313.2,130615,6.0,"
"##MN-00 00 54 0946 01789 5869 449780 205735 192"
"164.236273"
"$GPRMC,054010,A,2422.4836,N,08106.0486,W,2.2,314.7,130615,6.0,"
"##MN-00 00 57 0947 01794 5869 449794 205745 192"
"164.236319"
"$GPRMC,054014,A,2422.4849,N,08106.0499,W,2.1,315.6,130615,6.0,"
"##MN-00 00 53 0948 01795 5869 449838 205748 192"
"164.236366"
"$GPRMC,054018,A,2422.4872,N,08106.0522,W,2.2,316.1,130615,6.0,"
"##MN-00 00 56 0949 01797 5870 449884 205757 192"
"164.236412"
"$GPRMC,054022,A,2422.4888,N,08106.0540,W,2.1,316.6,130615,6.0,"
"##MN-00 00 55 0950 01803 5870 449985 205753 192"
"164.236458"
"$GPRMC,054026,A,2422.4906,N,08106.0558,W,2.2,316.7,130615,6.0,"
"##MN-00 00 57 0951 01805 5870 450043 205754 192"
"164.236505"
"$GPRMC,054030,A,2422.4919,N,08106.0571,W,2.1,317.5,130615,6.0,"
"##MN-00 00 54 0952 01808 5870 450093 205757 192"
"164.236551"
"$GPRMC,054034,A,2422.4941,N,08106.0592,W,2.2,317.2,130615,6.0,"
"##MN-00 00 54 0953 01810 5871 450157 205759 192"
"164.236609"
"$GPRMC,054038,A,2422.4961,N,08106.0611,W,2.2,318.1,130615,6.0,"
"##MN-00 00 56 0954 01813 5871 450256 205758 192"
"164.236655"
"$GPRMC,054042,A,2422.4980,N,08106.0628,W,2.2,317.5,130615,6.0,"
"##MN-00 00 55 0955 01814 5871 450313 205768 192"
"164.236701"
"$GPRMC,054046,A,2422.4997,N,08106.0647,W,2.2,317.2,130615,6.0,"
"##MN-00 00 54 0956 01818 5871 450364 205771 192"
"164.236748"
"$GPRMC,054050,A,2422.5013,N,08106.0665,W,2.2,317.0,130615,6.0,"
"##MN-00 00 55 0957 01820 5872 450390 205773 192"
"164.236794"
"$GPRMC,054054,A,2422.5030,N,08106.0683,W,2.1,316.8,130615,6.0,"
"##MN-00 00 56 0958 01824 5872 450447 205777 192"
"164.23684"
"$GPRMC,054058,A,2422.5045,N,08106.0704,W,2.2,314.9,130615,6.0,"
"##MN-00 00 55 0959 01828 5872 450524 205776 192"
"164.236887"
"$GPRMC,054102,A,2422.5060,N,08106.0722,W,2.0,313.4,130615,6.0,"
"##MN-00 00 55 0960 01833 5872 450648 205806 192"
"164.236933"
"$GPRMC,054106,A,2422.5076,N,08106.0740,W,2.1,311.8,130615,6.0,"
"##MN-00 00 54 0961 01832 5872 450801 205829 192"
"164.236979"
"$GPRMC,054110,A,2422.5092,N,08106.0759,W,2.1,312.8,130615,6.0,"
"##MN-00 00 56 0962 01839 5873 450866 205828 192"
"164.237025"
"$GPRMC,054114,A,2422.5109,N,08106.0777,W,2.1,312.2,130615,6.0,"
"##MN-00 00 55 0963 01840 5873 450870 205832 192"
"164.237072"
"$GPRMC,054118,A,2422.5125,N,08106.0795,W,2.1,313.0,130615,6.0,"
"##MN-00 00 55 0964 01845 5873 450929 205840 192"
"164.237118"
"$GPRMC,054122,A,2422.5143,N,08106.0813,W,2.1,313.0,130615,6.0,"
"##MN-00 00 55 0965 01846 5873 450960 205853 192"
"164.237164"
"$GPRMC,054126,A,2422.5160,N,08106.0835,W,2.2,313.2,130615,6.0,"
"##MN-00 00 55 0966 01850 5873 451012 205858 192"
"164.237211"
"$GPRMC,054130,A,2422.5178,N,08106.0850,W,2.1,314.5,130615,6.0,"
"##MN-00 00 54 0967 01855 5873 451077 205878 192"
"164.237257"
"$GPRMC,054134,A,2422.5196,N,08106.0871,W,2.3,314.2,130615,6.0,"
"##MN-00 00 55 0968 01856 5873 451149 205885 192"
"164.237303"
"$GPRMC,054138,A,2422.5214,N,08106.0889,W,2.2,316.1,130615,6.0,"
"##MN-00 00 55 0969 01859 5874 451184 205891 192"
"164.23735"
"$GPRMC,054142,A,2422.5232,N,08106.0907,W,2.2,315.9,130615,6.0,"
"##MN-00 00 54 0970 01861 5874 451208 205899 192"
"164.237396"
"$GPRMC,054146,A,2422.5248,N,08106.0926,W,2.2,316.3,130615,6.0,"
"##MN-00 00 55 0971 01862 5874 451214 205899 192"
"164.237442"
"$GPRMC,054150,A,2422.5266,N,08106.0946,W,2.2,315.0,130615,6.0,"
"##MN-00 00 55 0972 01868 5874 451223 205901 192"
"164.237488"
"$GPRMC,054154,A,2422.5284,N,08106.0965,W,2.2,314.8,130615,6.0,"
"##MN-00 00 54 0973 01872 5874 451267 205911 192"
"164.237535"
"$GPRMC,054158,A,2422.5302,N,08106.0984,W,2.2,315.4,130615,6.0,"
"##MN-00 00 55 0974 01872 5874 451307 205917 192"
"164.237581"
"$GPRMC,054202,A,2422.5319,N,08106.1002,W,2.2,315.3,130615,6.0,"
"##MN-00 00 53 0975 01871 5875 451405 205947 192"
"164.237627"
"$GPRMC,054206,A,2422.5338,N,08106.1023,W,2.3,314.5,130615,6.0,"
"##MN-00 00 55 0977 01875 5875 451431 205944 192"
"164.237674"
"$GPRMC,054210,A,2422.5355,N,08106.1041,W,2.2,314.7,130615,6.0,"
"##MN-00 00 56 0978 01881 5875 451425 205945 192"
"164.23772"
"$GPRMC,054214,A,2422.5374,N,08106.1062,W,2.2,314.4,130615,6.0,"
"##MN-00 00 54 0978 01884 5875 451442 205948 192"
"164.237766"
"$GPRMC,054218,A,2422.5389,N,08106.1080,W,2.2,314.4,130615,6.0,"
"##MN-00 00 54 0980 01885 5875 451539 205969 192"
"164.237812"
"$GPRMC,054223,A,2422.5413,N,08106.1106,W,2.4,314.5,130615,6.0,"
"##MN-00 00 56 0981 01887 5875 451634 205990 192"
"164.237859"
"$GPRMC,054226,A,2422.5425,N,08106.1120,W,2.3,313.7,130615,6.0,"
"##MN-00 00 54 0982 01890 5875 451736 206002 192"
"164.237905"
"$GPRMC,054231,A,2422.5448,N,08106.1149,W,2.4,312.9,130615,6.0,"
"##MN-00 00 55 0983 01890 5875 451806 206004 192"
"164.237951"
"$GPRMC,054235,A,2422.5466,N,08106.1171,W,2.3,313.1,130615,6.0,"
"##MN-00 00 55 0984 01894 5875 451932 206010 192"
"164.237998"
"$GPRMC,054239,A,2422.5482,N,08106.1189,W,2.2,311.9,130615,6.0,"
"##MN-00 00 55 0985 01899 5876 452025 206052 192"
"164.238044"
"$GPRMC,054243,A,2422.5499,N,08106.1210,W,2.3,312.6,130615,6.0,"
"##MN-00 00 54 0986 01905 5876 452139 206084 192"
"164.23809"
"$GPRMC,054247,A,2422.5515,N,08106.1228,W,2.2,312.8,130615,6.0,"
"##MN-00 00 55 0987 01906 5876 452231 206105 192"
"164.238137"
"$GPRMC,054251,A,2422.5533,N,08106.1248,W,2.2,312.3,130615,6.0,"
"##MN-00 00 55 0988 01908 5876 452384 206146 192"
"164.238183"
"$GPRMC,054255,A,2422.5550,N,08106.1268,W,2.2,312.5,130615,6.0,"
"##MN-00 00 55 0988 01914 5876 452735 206211 192"
"164.238229"
"$GPRMC,054259,A,2422.5565,N,08106.1286,W,2.2,312.5,130615,6.0,"
"##MN-00 00 54 0989 01915 5876 453285 206295 192"
"164.238275"
"$GPRMC,054303,A,2422.5583,N,08106.1308,W,2.2,312.8,130615,6.0,"
"##MN-00 00 56 0990 01916 5876 454095 206519 192"
"164.238322"
"$GPRMC,054307,A,2422.5600,N,08106.1326,W,2.2,312.9,130615,6.0,"
"##MN-00 00 54 0991 01922 5876 455524 206723 192"
"164.238368"
"$GPRMC,054311,A,2422.5616,N,08106.1348,W,2.3,311.5,130615,6.0,"
"##MN-00 00 55 0992 01917 5876 455987 206822 192"
"164.238414"
"$GPRMC,054315,A,2422.5637,N,08106.1371,W,2.4,312.1,130615,6.0,"
"##MN-00 00 53 0993 01920 5876 456546 206969 192"
"164.238461"
"$GPRMC,054319,A,2422.5652,N,08106.1391,W,2.3,311.2,130615,6.0,"
"##MN-00 00 56 0994 01917 5876 456815 207101 192"
"164.238507"
"$GPRMC,054323,A,2422.5672,N,08106.1416,W,2.5,311.6,130615,6.0,"
"##MN-00 00 54 0995 01925 5876 456917 207124 192"
"164.238553"
"$GPRMC,054327,A,2422.5687,N,08106.1432,W,2.2,310.1,130615,6.0,"
"##MN-00 00 53 0996 01923 5876 457228 207221 192"
"164.2386"
"$GPRMC,054331,A,2422.5703,N,08106.1459,W,2.4,309.1,130615,6.0,"
"##MN-00 00 55 0997 01925 5876 457360 207241 192"
"164.238646"
"$GPRMC,054335,A,2422.5719,N,08106.1475,W,2.2,308.6,130615,6.0,"
"##MN-00 00 55 0998 01930 5876 457760 207334 192"
"164.238692"
"$GPRMC,054339,A,2422.5734,N,08106.1496,W,2.2,308.1,130615,6.0,"
"##MN-00 00 55 0999 01935 5876 458179 207343 192"
"164.238738"
"$GPRMC,054343,A,2422.5750,N,08106.1515,W,2.2,310.5,130615,6.0,"
"##MN-00 00 55 1000 01937 5876 458657 207480 192"
"164.238785"
"$GPRMC,054347,A,2422.5764,N,08106.1535,W,2.2,311.1,130615,6.0,"
"##MN-00 00 54 1001 01938 5876 459639 207663 192"
"164.238831"
"$GPRMC,054351,A,2422.5782,N,08106.1553,W,2.2,313.1,130615,6.0,"
"##MN-00 00 56 1002 01941 5876 460099 207805 192"
"164.238877"
"$GPRMC,054355,A,2422.5797,N,08106.1572,W,2.2,314.1,130615,6.0,"
"##MN-00 00 56 1003 01944 5876 460400 207898 192"
"164.238924"
"$GPRMC,054359,A,2422.5817,N,08106.1591,W,2.2,314.8,130615,6.0,"
"##MN-00 00 55 1004 01948 5876 460853 207911 192"
"164.23897"
"$GPRMC,054403,A,2422.5833,N,08106.1608,W,2.2,316.0,130615,6.0,"
"##MN-00 00 53 1005 01947 5876 461751 208245 192"
"164.239016"
"$GPRMC,054407,A,2422.5854,N,08106.1626,W,2.2,318.7,130615,6.0,"
"##MN-00 00 54 1006 01951 5876 462473 208315 192"
"164.239063"
"$GPRMC,054411,A,2422.5872,N,08106.1641,W,2.2,319.7,130615,6.0,"
"##MN-00 00 54 1007 01954 5875 462889 208421 192"
"164.239109"
"$GPRMC,054415,A,2422.5891,N,08106.1659,W,2.3,319.5,130615,6.0,"
"##MN-00 00 54 1008 01955 5875 463113 208473 192"
"164.239155"
"$GPRMC,054419,A,2422.5909,N,08106.1677,W,2.2,319.5,130615,6.0,"
"##MN-00 00 54 1009 01956 5875 463482 208527 192"
"164.239201"
"$GPRMC,054423,A,2422.5926,N,08106.1698,W,2.2,318.5,130615,6.0,"
"##MN-00 00 55 1010 01959 5874 463758 208673 192"
"164.239248"
"$GPRMC,054427,A,2422.5943,N,08106.1717,W,2.3,318.4,130615,6.0,"
"##MN-00 00 54 1011 01964 5874 464740 208800 192"
"164.239294"
"$GPRMC,054431,A,2422.5959,N,08106.1738,W,2.1,317.4,130615,6.0,"
"##MN-00 00 53 1012 01962 5874 465256 208950 192"
"164.23934"
"$GPRMC,054435,A,2422.5976,N,08106.1759,W,2.2,315.2,130615,6.0,"
"##MN-00 00 56 1013 01965 5874 465943 209105 192"
"164.239387"
"$GPRMC,054439,A,2422.5992,N,08106.1777,W,2.2,314.8,130615,6.0,"
"##MN-00 00 54 1014 01969 5874 466907 209267 192"
"164.239433"
"$GPRMC,054443,A,2422.6009,N,08106.1797,W,2.3,313.7,130615,6.0,"
"##MN-00 00 55 1015 01972 5873 467215 209294 192"
"164.239479"
"$GPRMC,054447,A,2422.6024,N,08106.1815,W,2.1,315.1,130615,6.0,"
"##MN-00 00 55 1016 01978 5873 467549 209368 192"
"164.239525"
"$GPRMC,054451,A,2422.6041,N,08106.1832,W,2.1,313.8,130615,6.0,"
"##MN-00 00 54 1017 01982 5872 467936 209473 192"
"164.239572"
"$GPRMC,054455,A,2422.6057,N,08106.1851,W,2.1,314.2,130615,6.0,"
"##MN-00 00 54 1018 01984 5872 468098 209497 192"
"164.239618"
"$GPRMC,054459,A,2422.6074,N,08106.1868,W,2.1,312.4,130615,6.0,"
"##MN-00 00 55 1019 01988 5871 468142 209539 192"
"164.239664"
"$GPRMC,054503,A,2422.6089,N,08106.1886,W,2.0,313.0,130615,6.0,"
"##MN-00 00 56 1020 01993 5871 468173 209529 192"
"164.239722"
"$GPRMC,054507,A,2422.6106,N,08106.1902,W,2.1,314.1,130615,6.0,"
"##MN-00 00 55 1021 01998 5871 468165 209566 192"
"164.239769"
"$GPRMC,054511,A,2422.6122,N,08106.1919,W,2.0,315.0,130615,6.0,"
"##MN-00 00 54 1022 02003 5870 468126 209559 192"
"164.239815"
"$GPRMC,054515,A,2422.6139,N,08106.1936,W,2.1,314.6,130615,6.0,"
"##MN-00 00 53 1023 02002 5869 468141 209591 192"
"164.239861"
"$GPRMC,054519,A,2422.6154,N,08106.1955,W,2.1,314.8,130615,6.0,"
"##MN-00 00 53 1024 02005 5869 468348 209618 192"
"164.239907"
"$GPRMC,054523,A,2422.6172,N,08106.1972,W,2.1,315.2,130615,6.0,"
"##MN-00 00 54 1025 02012 5869 468814 209703 192"
"164.239954"
"$GPRMC,054527,A,2422.6190,N,08106.1991,W,2.1,315.7,130615,6.0,"
"##MN-00 00 54 1026 02016 5868 469240 209771 192"
"164.24"
"$GPRMC,054531,A,2422.6207,N,08106.2008,W,2.1,315.3,130615,6.0,"
"##MN-00 00 54 1027 02018 5867 469371 209819 192"
"164.240046"
"$GPRMC,054535,A,2422.6223,N,08106.2027,W,2.1,314.4,130615,6.0,"
"##MN-00 00 54 1028 02022 5867 469493 209829 192"
"164.240093"
"$GPRMC,054539,A,2422.6241,N,08106.2045,W,2.1,313.9,130615,6.0,"
"##MN-00 00 53 1029 02022 5866 469561 209859 192"
"164.240139"
"$GPRMC,054543,A,2422.6255,N,08106.2066,W,2.2,313.2,130615,6.0,"
"##MN-00 00 54 1030 02025 5865 469620 209947 192"
"164.240185"
"$GPRMC,054547,A,2422.6270,N,08106.2082,W,2.1,313.8,130615,6.0,"
"##MN-00 00 54 1031 02028 5865 469811 209975 192"
"164.240231"
"$GPRMC,054551,A,2422.6288,N,08106.2102,W,2.2,313.0,130615,6.0,"
"##MN-00 00 54 1032 02030 5864 469944 209984 192"
"164.240278"
"$GPRMC,054555,A,2422.6306,N,08106.2121,W,2.1,313.9,130615,6.0,"
"##MN-00 00 55 1033 02032 5863 470054 210011 192"
"164.240324"
"$GPRMC,054559,A,2422.6323,N,08106.2139,W,2.1,314.4,130615,6.0,"
"##MN-00 00 54 1034 02035 5863 470310 210024 192"
"164.24037"
"$GPRMC,054603,A,2422.6338,N,08106.2161,W,2.1,314.3,130615,6.0,"
"##MN-00 00 54 1035 02039 5862 470547 210099 192"
"164.240417"
"$GPRMC,054607,A,2422.6356,N,08106.2178,W,2.1,315.1,130615,6.0,"
"##MN-00 00 53 1036 02041 5862 470781 210096 192"
"164.240463"
"$GPRMC,054611,A,2422.6371,N,08106.2198,W,2.2,314.3,130615,6.0,"
"##MN-00 00 54 1036 02044 5861 470964 210134 192"
"164.240509"
"$GPRMC,054615,A,2422.6389,N,08106.2218,W,2.1,314.1,130615,6.0,"
"##MN-00 00 54 1037 02047 5860 471415 210187 192"
"164.240556"
"$GPRMC,054619,A,2422.6406,N,08106.2237,W,2.2,313.5,130615,6.0,"
"##MN-00 00 53 1038 02046 5859 471952 210309 192"
"164.240602"
"$GPRMC,054623,A,2422.6422,N,08106.2258,W,2.2,313.5,130615,6.0,"
"##MN-00 00 55 1039 02051 5858 472496 210351 192"
"164.240648"
"$GPRMC,054627,A,2422.6439,N,08106.2276,W,2.2,312.7,130615,6.0,"
"##MN-00 00 52 1040 02050 5858 473331 210452 192"
"164.240694"
"$GPRMC,054631,A,2422.6460,N,08106.2301,W,2.2,312.7,130615,6.0,"
"##MN-00 00 54 1041 02052 5857 474046 210595 192"
"164.240741"
"$GPRMC,054635,A,2422.6475,N,08106.2312,W,2.1,313.5,130615,6.0,"
"##MN-00 00 53 1042 02055 5856 474780 210684 192"
"164.240787"
"$GPRMC,054639,A,2422.6494,N,08106.2328,W,2.2,312.8,130615,6.0,"
"##MN-00 00 55 1043 02058 5855 475718 210927 192"
"164.240833"
"$GPRMC,054644,A,2422.6515,N,08106.2349,W,2.1,315.6,130615,6.0,"
"##MN-00 00 55 1044 02059 5854 476379 211086 192"
"164.24088"
"$GPRMC,054648,A,2422.6534,N,08106.2366,W,2.2,316.6,130615,6.0,"
"##MN-00 00 55 1045 02063 5853 477276 211156 192"
"164.240926"
"$GPRMC,054651,A,2422.6544,N,08106.2381,W,2.2,316.3,130615,6.0,"
"##MN-00 00 54 1046 02065 5853 477471 211197 192"
"164.240972"
"$GPRMC,054655,A,2422.6563,N,08106.2399,W,2.1,316.0,130615,6.0,"
"##MN-00 00 53 1047 02067 5851 477604 211364 192"
"164.241019"
"$GPRMC,054659,A,2422.6580,N,08106.2418,W,2.2,314.5,130615,6.0,"
"##MN-00 00 54 1048 02067 5850 477710 211336 192"
"164.241065"
"$GPRMC,054703,A,2422.6595,N,08106.2435,W,2.1,315.4,130615,6.0,"
"##MN-00 00 55 1049 02070 5849 477930 211386 192"
"164.241111"
"$GPRMC,054707,A,2422.6610,N,08106.2454,W,2.1,314.0,130615,6.0,"
"##MN-00 00 54 1050 02069 5849 478158 211392 192"
"164.241157"
"$GPRMC,054711,A,2422.6627,N,08106.2472,W,2.1,313.9,130615,6.0,"
"##MN-00 00 54 1051 02075 5848 478330 211421 192"
"164.241204"
"$GPRMC,054715,A,2422.6642,N,08106.2490,W,2.1,312.8,130615,6.0,"
"##MN-00 00 55 1052 02078 5847 478406 211527 192"
"164.24125"
"$GPRMC,054720,A,2422.6662,N,08106.2511,W,2.1,313.5,130615,6.0,"
"##MN-00 00 54 1053 02080 5846 478630 211576 192"
"164.241296"
"$GPRMC,054724,A,2422.6675,N,08106.2530,W,2.1,313.8,130615,6.0,"
"##MN-00 00 54 1054 02082 5844 478882 211590 192"
"164.241343"
"$GPRMC,054728,A,2422.6691,N,08106.2547,W,2.0,314.4,130615,6.0,"
"##MN-00 00 54 1055 02085 5844 479252 211683 192"
"164.241389"
"$GPRMC,054732,A,2422.6704,N,08106.2566,W,2.1,312.6,130615,6.0,"
"##MN-00 00 54 1056 02088 5843 479706 211772 192"
"164.241435"
"$GPRMC,054736,A,2422.6720,N,08106.2584,W,2.1,312.7,130615,6.0,"
"##MN-00 00 55 1057 02090 5841 479797 211761 192"
"164.241481"
"$GPRMC,054740,A,2422.6734,N,08106.2603,W,2.0,310.8,130615,6.0,"
"##MN-00 00 54 1058 02094 5840 479704 211767 192"
"164.241528"
"$GPRMC,054744,A,2422.6749,N,08106.2620,W,2.0,311.4,130615,6.0,"
"##MN-00 00 54 1059 02094 5839 479571 211764 192"
"164.241574"
"$GPRMC,054748,A,2422.6763,N,08106.2638,W,2.0,310.6,130615,6.0,"
"##MN-00 00 54 1060 02098 5838 480108 211839 192"
"164.24162"
"$GPRMC,054752,A,2422.6776,N,08106.2657,W,1.9,310.6,130615,6.0,"
"##MN-00 00 55 1061 02100 5837 481645 212172 192"
"164.241667"
"$GPRMC,054756,A,2422.6794,N,08106.2675,W,2.1,312.2,130615,6.0,"
"##MN-00 00 55 1062 02102 5835 483758 212576 192"
"164.241713"
"$GPRMC,054800,A,2422.6808,N,08106.2691,W,1.9,313.8,130615,6.0,"
"##MN-00 00 54 1063 02103 5834 485209 212752 192"
"164.241759"
"$GPRMC,054804,A,2422.6826,N,08106.2713,W,2.1,315.3,130615,6.0,"
"##MN-00 00 55 1064 02103 5833 485830 212811 192"
"164.241806"
"$GPRMC,054808,A,2422.6841,N,08106.2727,W,2.0,317.8,130615,6.0,"
"##MN-00 00 55 1065 02109 5832 486074 212949 192"
"164.241852"
"$GPRMC,054812,A,2422.6859,N,08106.2746,W,2.2,319.3,130615,6.0,"
"##MN-00 00 53 1067 02109 5830 486214 213000 192"
"164.241898"
"$GPRMC,054816,A,2422.6875,N,08106.2762,W,2.1,319.2,130615,6.0,"
"##MN-00 00 54 1068 02109 5829 486221 213030 192"
"164.241944"
"$GPRMC,054820,A,2422.6895,N,08106.2780,W,2.2,319.8,130615,6.0,"
"##MN-00 00 54 1069 02112 5828 486206 213012 192"
"164.241991"
"$GPRMC,054824,A,2422.6912,N,08106.2797,W,2.1,319.1,130615,6.0,"
"##MN-00 00 54 1070 02113 5826 486207 213034 192"
"164.242037"
"$GPRMC,054828,A,2422.6930,N,08106.2814,W,2.2,319.8,130615,6.0,"
"##MN-00 00 54 1071 02114 5825 486254 213058 192"
"164.242083"
"$GPRMC,054832,A,2422.6948,N,08106.2832,W,2.2,319.0,130615,6.0,"
"##MN-00 00 55 1072 02116 5824 486514 213120 192"
"164.24213"
"$GPRMC,054836,A,2422.6964,N,08106.2850,W,2.1,318.2,130615,6.0,"
"##MN-00 00 54 1073 02120 5822 486791 213181 192"
"164.242176"
"$GPRMC,054840,A,2422.6981,N,08106.2868,W,2.1,316.7,130615,6.0,"
"##MN-00 00 54 1074 02119 5821 486636 213135 192"
"164.242222"
"$GPRMC,054844,A,2422.6998,N,08106.2887,W,2.1,316.3,130615,6.0,"
"##MN-00 00 54 1075 02125 5819 486484 213115 192"
"164.242269"
"$GPRMC,054848,A,2422.7014,N,08106.2904,W,2.2,316.6,130615,6.0,"
"##MN-00 00 55 1076 02125 5818 486384 213115 192"
"164.242315"
"$GPRMC,054852,A,2422.7032,N,08106.2923,W,2.1,316.3,130615,6.0,"
"##MN-00 00 54 1077 02129 5816 486522 213139 192"
"164.242361"
"$GPRMC,054856,A,2422.7047,N,08106.2938,W,2.1,316.1,130615,6.0,"
"##MN-00 00 54 1078 02127 5815 486738 213192 192"
"164.242407"
"$GPRMC,054900,A,2422.7065,N,08106.2959,W,2.2,315.6,130615,6.0,"
"##MN-00 00 54 1079 02129 5814 486904 213195 192"
"164.242454"
"$GPRMC,054904,A,2422.7082,N,08106.2974,W,2.1,316.4,130615,6.0,"
"##MN-00 00 55 1080 02130 5812 487181 213271 192"
"164.2425"
"$GPRMC,054908,A,2422.7101,N,08106.2995,W,2.2,315.3,130615,6.0,"
"##MN-00 00 55 1081 02137 5810 487505 213302 192"
"164.242546"
"$GPRMC,054912,A,2422.7115,N,08106.3010,W,2.0,315.4,130615,6.0,"
"##MN-00 00 53 1082 02135 5809 487775 213412 192"
"164.242593"
"$GPRMC,054916,A,2422.7133,N,08106.3032,W,2.2,313.6,130615,6.0,"
"##MN-00 00 57 1083 02135 5807 487949 213412 192"
"164.242639"
"$GPRMC,054920,A,2422.7148,N,08106.3049,W,2.0,312.6,130615,6.0,"
"##MN-00 00 54 1084 02140 5806 488168 213449 192"
"164.242685"
"$GPRMC,054924,A,2422.7164,N,08106.3068,W,2.2,312.1,130615,6.0,"
"##MN-00 00 55 1085 02142 5804 488216 213482 192"
"164.242731"
"$GPRMC,054928,A,2422.7180,N,08106.3085,W,1.9,314.5,130615,6.0,"
"##MN-00 00 54 1086 02145 5802 488628 213544 192"
"164.242778"
"$GPRMC,054932,A,2422.7195,N,08106.3100,W,2.0,314.1,130615,6.0,"
"##MN-00 00 55 1087 02144 5800 489318 213627 192"
"164.242824"
"$GPRMC,054936,A,2422.7212,N,08106.3118,W,1.9,315.8,130615,6.0,"
"##MN-00 00 56 1088 02151 5799 489765 213718 192"
"164.242882"
"$GPRMC,054940,A,2422.7227,N,08106.3132,W,1.9,315.3,130615,6.0,"
"##MN-00 00 55 1089 02155 5797 490233 213739 192"
"164.242928"
"$GPRMC,054944,A,2422.7244,N,08106.3151,W,1.9,315.3,130615,6.0,"
"##MN-00 00 55 1090 02157 5796 490732 213865 192"
"164.242975"
"$GPRMC,054948,A,2422.7259,N,08106.3170,W,1.9,313.6,130615,6.0,"
"##MN-00 00 55 1091 02159 5794 491187 213953 192"
"164.243021"
"$GPRMC,054952,A,2422.7271,N,08106.3190,W,1.9,313.0,130615,6.0,"
"##MN-00 00 54 1092 02162 5792 491407 214017 192"
"164.243067"
"$GPRMC,054956,A,2422.7288,N,08106.3206,W,1.9,312.2,130615,6.0,"
"##MN-00 00 54 1093 02162 5790 491629 214122 192"
"164.243113"
"$GPRMC,055000,A,2422.7303,N,08106.3226,W,2.1,312.3,130615,6.0,"
"##MN-00 00 55 1094 02164 5789 491848 214134 192"
"164.24316"
"$GPRMC,055004,A,2422.7318,N,08106.3241,W,2.0,312.5,130615,6.0,"
"##MN-00 00 55 1095 02166 5787 492050 214163 192"
"164.243206"
"$GPRMC,055008,A,2422.7336,N,08106.3260,W,2.1,313.3,130615,6.0,"
"##MN-00 00 55 1096 02168 5785 492256 214194 192"
"164.243252"
"$GPRMC,055012,A,2422.7352,N,08106.3277,W,2.0,315.1,130615,6.0,"
"##MN-00 00 54 1097 02170 5783 492558 214266 192"
"164.243299"
"$GPRMC,055016,A,2422.7370,N,08106.3296,W,2.1,315.2,130615,6.0,"
"##MN-00 00 55 1098 02173 5782 492796 214250 192"
"164.243345"
"$GPRMC,055020,A,2422.7386,N,08106.3314,W,2.1,315.8,130615,6.0,"
"##MN-00 00 55 1099 02174 5780 492995 214334 192"
"164.243391"
"$GPRMC,055024,A,2422.7404,N,08106.3331,W,2.1,315.9,130615,6.0,"
"##MN-00 00 55 1100 02178 5778 493193 214326 192"
"164.243438"
"$GPRMC,055028,A,2422.7419,N,08106.3349,W,2.1,316.4,130615,6.0,"
"##MN-00 00 54 1101 02178 5776 493314 214382 192"
"164.243484"
"$GPRMC,055032,A,2422.7436,N,08106.3367,W,2.1,315.9,130615,6.0,"
"##MN-00 00 54 1102 02179 5774 493382 214430 192"
"164.24353"
"$GPRMC,055036,A,2422.7451,N,08106.3385,W,2.1,315.4,130615,6.0,"
"##MN-00 00 54 1104 02180 5773 493448 214457 192"
"164.243576"
"$GPRMC,055040,A,2422.7469,N,08106.3403,W,2.1,315.5,130615,6.0,"
"##MN-00 00 55 1105 02183 5770 493484 214467 192"
"164.243623"
"$GPRMC,055044,A,2422.7484,N,08106.3421,W,2.1,315.6,130615,6.0,"
"##MN-00 00 56 1106 02185 5769 493532 214479 192"
"164.243669"
"$GPRMC,055048,A,2422.7500,N,08106.3439,W,2.1,314.7,130615,6.0,"
"##MN-00 00 55 1107 02187 5767 493601 214496 192"
"164.243715"
"$GPRMC,055052,A,2422.7515,N,08106.3454,W,2.1,313.9,130615,6.0,"
"##MN-00 00 55 1108 02191 5765 493677 214493 192"
"164.243762"
"$GPRMC,055056,A,2422.7534,N,08106.3473,W,2.1,314.0,130615,6.0,"
"##MN-00 00 55 1109 02191 5763 493838 214522 192"
"164.243808"
"$GPRMC,055100,A,2422.7549,N,08106.3491,W,2.0,314.2,130615,6.0,"
"##MN-00 00 56 1110 02195 5761 493947 214569 192"
"164.243854"
"$GPRMC,055104,A,2422.7565,N,08106.3508,W,2.0,314.1,130615,6.0,"
"##MN-00 00 55 1111 02195 5759 493992 214570 192"
"164.2439"
"$GPRMC,055108,A,2422.7581,N,08106.3529,W,2.1,313.3,130615,6.0,"
"##MN-00 00 55 1112 02197 5757 493994 214579 192"
"164.243947"
"$GPRMC,055112,A,2422.7596,N,08106.3542,W,2.0,313.8,130615,6.0,"
"##MN-00 00 54 1113 02202 5755 494005 214580 192"
"164.243993"
"$GPRMC,055116,A,2422.7613,N,08106.3562,W,2.1,313.4,130615,6.0,"
"##MN-00 00 56 1114 02197 5753 494105 214615 192"
"164.244039"
"$GPRMC,055120,A,2422.7632,N,08106.3582,W,2.0,313.4,130615,6.0,"
"##MN-00 00 55 1115 02204 5752 494242 214632 192"
"164.244086"
"$GPRMC,055124,A,2422.7648,N,08106.3602,W,2.1,313.1,130615,6.0,"
"##MN-00 00 55 1116 02204 5750 494351 214659 192"
"164.244132"
"$GPRMC,055128,A,2422.7665,N,08106.3620,W,2.1,312.8,130615,6.0,"
"##MN-00 00 56 1117 02207 5748 494494 214680 192"
"164.244178"
"$GPRMC,055132,A,2422.7679,N,08106.3635,W,2.0,313.3,130615,6.0,"
"##MN-00 00 55 1118 02210 5746 494707 214717 192"
"164.244225"
"$GPRMC,055136,A,2422.7695,N,08106.3654,W,2.1,313.0,130615,6.0,"
"##MN-00 00 56 1119 02211 5743 494829 214743 192"
"164.244271"
"$GPRMC,055140,A,2422.7708,N,08106.3671,W,1.9,313.4,130615,6.0,"
"##MN-00 00 55 1120 02217 5741 494927 214749 192"
"164.244317"
"$GPRMC,055144,A,2422.7725,N,08106.3686,W,1.9,314.1,130615,6.0,"
"##MN-00 00 55 1121 02219 5739 495092 214810 192"
"164.244363"
"$GPRMC,055148,A,2422.7740,N,08106.3703,W,2.0,314.1,130615,6.0,"
"##MN-00 00 54 1122 02220 5737 495279 214848 192"
"164.24441"
"$GPRMC,055152,A,2422.7755,N,08106.3719,W,1.9,314.9,130615,6.0,"
"##MN-00 00 55 1123 02227 5735 495445 214864 192"
"164.244456"
"$GPRMC,055156,A,2422.7772,N,08106.3736,W,1.9,314.9,130615,6.0,"
"##MN-00 00 54 1124 02230 5733 495779 214956 192"
"164.244502"
"$GPRMC,055200,A,2422.7786,N,08106.3751,W,1.9,315.3,130615,6.0,"
"##MN-00 00 54 1125 02232 5731 496213 215055 192"
"164.244549"
"$GPRMC,055205,A,2422.7805,N,08106.3773,W,2.0,314.5,130615,6.0,"
"##MN-00 00 56 1126 02235 5729 496436 215081 192"
"164.244595"
"$GPRMC,055209,A,2422.7820,N,08106.3790,W,1.9,314.4,130615,6.0,"
"##MN-00 00 55 1127 02240 5727 496528 215088 192"
"164.244641"
"$GPRMC,055213,A,2422.7836,N,08106.3808,W,2.0,313.9,130615,6.0,"
"##MN-00 00 55 1128 02243 5725 496604 215109 192"
"164.244687"
"$GPRMC,055217,A,2422.7849,N,08106.3826,W,1.9,313.9,130615,6.0,"
"##MN-00 00 54 1129 02243 5722 496787 215125 192"
"164.244734"
"$GPRMC,055221,A,2422.7867,N,08106.3845,W,2.0,313.7,130615,6.0,"
"##MN-00 00 56 1130 02246 5720 497007 215186 192"
"164.24478"
"$GPRMC,055225,A,2422.7881,N,08106.3862,W,1.9,313.9,130615,6.0,"
"##MN+00 00 53 1131 02250 5718 497833 215413 192"
"164.244826"
"$GPRMC,055229,A,2422.7898,N,08106.3880,W,2.0,314.1,130615,6.0,"
"##MN+00 00 55 1132 02251 5716 499455 215624 192"
"164.244873"
"$GPRMC,055233,A,2422.7914,N,08106.3896,W,2.1,315.2,130615,6.0,"
"##MN+00 00 55 1134 02255 5714 500467 215814 192"
"164.244919"
"$GPRMC,055237,A,2422.7932,N,08106.3914,W,2.0,315.3,130615,6.0,"
"##MN-00 00 55 1135 02258 5712 501256 215921 192"
"164.244965"
"$GPRMC,055241,A,2422.7946,N,08106.3934,W,2.1,314.9,130615,6.0,"
"##MN-00 00 55 1136 02262 5710 501905 216070 192"
"164.245012"
"$GPRMC,055245,A,2422.7963,N,08106.3949,W,2.0,315.5,130615,6.0,"
"##MN-00 00 54 1137 02261 5708 502438 216285 192"
"164.245058"
"$GPRMC,055249,A,2422.7979,N,08106.3968,W,2.1,313.9,130615,6.0,"
"##MN-00 00 54 1138 02259 5705 502909 216376 192"
"164.245104"
"$GPRMC,055253,A,2422.7996,N,08106.3988,W,2.1,314.9,130615,6.0,"
"##MN-00 00 55 1139 02263 5704 503131 216409 192"
"164.24515"
"$GPRMC,055257,A,2422.8011,N,08106.4003,W,2.1,313.9,130615,6.0,"
"##MN-00 00 55 1140 02261 5701 503339 216465 192"
"164.245197"
"$GPRMC,055301,A,2422.8026,N,08106.4022,W,2.2,313.9,130615,6.0,"
"##MN-00 00 55 1141 02267 5699 503542 216501 192"
"164.245243"
"$GPRMC,055305,A,2422.8040,N,08106.4039,W,2.0,313.4,130615,6.0,"
"##MN-00 00 55 1142 02268 5697 503842 216541 192"
"164.245289"
"$GPRMC,055309,A,2422.8058,N,08106.4061,W,2.2,313.5,130615,6.0,"
"##MN-00 00 55 1143 02271 5695 504420 216590 192"
"164.245336"
"$GPRMC,055313,A,2422.8073,N,08106.4076,W,2.1,313.7,130615,6.0,"
"##MN-00 00 54 1144 02270 5692 505209 216963 192"
"164.245382"
"$GPRMC,055317,A,2422.8090,N,08106.4098,W,2.2,312.1,130615,6.0,"
"##MN-00 00 54 1145 02269 5690 506188 217084 192"
"164.245428"
"$GPRMC,055321,A,2422.8105,N,08106.4118,W,2.1,312.6,130615,6.0,"
"##MN+00 00 54 1146 02269 5688 507172 217277 192"
"164.245475"
"$GPRMC,055325,A,2422.8122,N,08106.4138,W,2.2,310.4,130615,6.0,"
"##MN+00 00 65 1147 02269 5686 507652 217347 192"
"164.245521"
"$GPRMC,055329,A,2422.8137,N,08106.4158,W,2.2,310.1,130615,6.0,"
"##MN+00 00 62 1148 02268 5683 507661 217369 192"
"164.245567"
"#increment_net"
"$GPRMC,055333,A,2422.8149,N,08106.4176,W,2.1,309.7,130615,6.0,"
"##MN-00 00 58 1149 02268 5681 507969 217424 192"
"164.245613"
"$GPRMC,055337,A,2422.8167,N,08106.4195,W,2.2,308.9,130615,6.0,"
"##MN-00 00 62 1150 02262 5678 507955 217459 192"
"164.24566"
"$GPRMC,055341,A,2422.8183,N,08106.4212,W,2.1,309.4,130615,6.0,"
"##MN-00 00 57 1151 02260 5676 507965 217395 192"
"164.245706"
"$GPRMC,055345,A,2422.8198,N,08106.4227,W,2.2,309.4,130615,6.0,"
"##MN-00 00 57 1152 02256 5674 507411 217317 192"
"164.245752"
"$GPRMC,055349,A,2422.8214,N,08106.4245,W,2.1,310.9,130615,6.0,"
"##MN-00 00 57 1153 02258 5671 506954 217253 192"
"164.245799"
"$GPRMC,055353,A,2422.8227,N,08106.4259,W,1.9,311.7,130615,6.0,"
"##MN-00 00 57 1154 02252 5669 506703 217161 192"
"164.245845"
"$GPRMC,055357,A,2422.8245,N,08106.4281,W,2.2,312.1,130615,6.0,"
"##MN-00 00 56 1155 02254 5666 505644 216944 192"
"164.245891"
"$GPRMC,055401,A,2422.8260,N,08106.4296,W,1.9,313.2,130615,6.0,"
"##MN-00 00 58 1156 02251 5664 505065 216932 192"
"164.245938"
"$GPRMC,055405,A,2422.8277,N,08106.4315,W,2.1,313.0,130615,6.0,"
"##MN-00 00 57 1157 02252 5661 504707 216899 192"
"164.245984"
"$GPRMC,055409,A,2422.8292,N,08106.4329,W,1.8,314.2,130615,6.0,"
"##MN-00 00 57 1158 02251 5659 504507 216781 192"
"164.24603"
"$GPRMC,055413,A,2422.8307,N,08106.4350,W,2.1,313.6,130615,6.0,"
"##MN-00 00 61 1159 02248 5656 504337 216763 192"
"164.246076"
"$GPRMC,055417,A,2422.8322,N,08106.4366,W,1.9,315.2,130615,6.0,"
"##MN-00 00 56 1160 02245 5654 504216 216700 192"
"164.246134"
"$GPRMC,055421,A,2422.8337,N,08106.4384,W,2.1,313.2,130615,6.0,"
"##MN-00 00 57 1161 02243 5651 504033 216676 192"
"164.246181"
"$GPRMC,055425,A,2422.8357,N,08106.4404,W,2.1,313.2,130615,6.0,"
"##MN-00 00 56 1162 02241 5649 503848 216632 192"
"164.246227"
"$GPRMC,055429,A,2422.8372,N,08106.4420,W,2.1,312.6,130615,6.0,"
"##MN-00 00 57 1163 02241 5646 503709 216606 192"
"164.246273"
"$GPRMC,055433,A,2422.8386,N,08106.4440,W,2.1,312.1,130615,6.0,"
"##MN-00 00 59 1164 02240 5644 503569 216590 192"
"164.246319"
"$GPRMC,055437,A,2422.8400,N,08106.4458,W,2.0,313.1,130615,6.0,"
"##MN-00 00 57 1165 02240 5641 503430 216555 192"
"164.246366"
"$GPRMC,055441,A,2422.8416,N,08106.4478,W,2.0,313.5,130615,6.0,"
"##MN-00 00 58 1166 02238 5639 503318 216535 192"
"164.246412"
"$GPRMC,055445,A,2422.8434,N,08106.4495,W,2.0,315.2,130615,6.0,"
"##MN-00 00 56 1167 02239 5637 503245 216516 192"
"164.246458"
"$GPRMC,055449,A,2422.8452,N,08106.4512,W,1.9,315.2,130615,6.0,"
"##MN-00 00 56 1168 02238 5634 503202 216504 192"
"164.246505"
"$GPRMC,055453,A,2422.8467,N,08106.4528,W,2.0,315.4,130615,6.0,"
"##MN-00 00 59 1170 02236 5632 503160 216494 192"
"164.246551"
"$GPRMC,055457,A,2422.8481,N,08106.4543,W,1.9,315.9,130615,6.0,"
"##MN-00 00 56 1171 02237 5629 503105 216482 192"
"164.246597"
"$GPRMC,055501,A,2422.8499,N,08106.4561,W,2.0,315.8,130615,6.0,"
"##MN-00 00 58 1172 02236 5627 502947 216440 192"
"164.246644"
"$GPRMC,055505,A,2422.8513,N,08106.4577,W,2.0,316.7,130615,6.0,"
"##MN-00 00 57 1173 02232 5624 502710 216400 192"
"164.24669"
"$GPRMC,055509,A,2422.8530,N,08106.4596,W,2.0,314.9,130615,6.0,"
"##MN-00 00 56 1174 02234 5623 502437 216346 192"
"164.246736"
"$GPRMC,055513,A,2422.8545,N,08106.4614,W,1.9,314.0,130615,6.0,"
"##MN-00 00 56 1175 02233 5620 502215 216303 192"
"164.246782"
"$GPRMC,055517,A,2422.8560,N,08106.4635,W,2.1,314.1,130615,6.0,"
"##MN-00 00 58 1176 02229 5617 502007 216284 192"
"164.246829"
"$GPRMC,055521,A,2422.8574,N,08106.4655,W,2.1,310.7,130615,6.0,"
"##MN-00 00 58 1177 02228 5615 501795 216222 192"
"164.246875"
"$GPRMC,055525,A,2422.8588,N,08106.4675,W,2.0,310.5,130615,6.0,"
"##MN-00 00 57 1178 02226 5612 501512 216174 192"
"164.246921"
"$GPRMC,055529,A,2422.8603,N,08106.4693,W,2.0,311.5,130615,6.0,"
"##MN-00 00 56 1179 02225 5610 501265 216128 192"
"164.246968"
"$GPRMC,055533,A,2422.8615,N,08106.4709,W,1.9,312.1,130615,6.0,"
"##MN-00 00 57 1180 02223 5608 500795 216014 192"
"164.247014"
"$GPRMC,055537,A,2422.8631,N,08106.4726,W,1.9,313.7,130615,6.0,"
"##MN-00 00 55 1181 02224 5605 500041 215906 192"
"164.24706"
"$GPRMC,055541,A,2422.8647,N,08106.4743,W,1.8,314.5,130615,6.0,"
"##MN-00 00 56 1182 02223 5603 498934 215633 192"
"164.247106"
"$GPRMC,055545,A,2422.8665,N,08106.4763,W,2.0,315.0,130615,6.0,"
"##MN-00 00 56 1184 02222 5600 498081 215493 192"
"164.247153"
"$GPRMC,055549,A,2422.8678,N,08106.4776,W,1.8,316.1,130615,6.0,"
"##MN-00 00 55 1185 02220 5598 497419 215373 192"
"164.247199"
"$GPRMC,055553,A,2422.8694,N,08106.4791,W,1.9,316.3,130615,6.0,"
"##MN-00 00 57 1186 02219 5595 496831 215262 192"
"164.247245"
"$GPRMC,055557,A,2422.8708,N,08106.4808,W,1.9,316.2,130615,6.0,"
"##MN-00 00 56 1187 02220 5593 496441 215193 192"
"164.247292"
"$GPRMC,055601,A,2422.8726,N,08106.4823,W,1.8,316.3,130615,6.0,"
"##MN-00 00 57 1188 02220 5591 496159 215126 192"
"164.247338"
"$GPRMC,055605,A,2422.8744,N,08106.4838,W,1.8,316.9,130615,6.0,"
"##MN-00 00 56 1189 02219 5589 495921 215051 192"
"164.247384"
"$GPRMC,055609,A,2422.8759,N,08106.4853,W,1.8,316.6,130615,6.0,"
"##MN-00 00 57 1190 02219 5586 495642 214989 192"
"164.247431"
"$GPRMC,055613,A,2422.8777,N,08106.4870,W,1.9,316.5,130615,6.0,"
"##MN-00 00 54 1191 02220 5584 495443 214947 192"
"164.247477"
"$GPRMC,055617,A,2422.8792,N,08106.4885,W,1.8,317.0,130615,6.0,"
"##MN-00 00 56 1192 02215 5581 495249 214879 192"
"164.247523"
"$GPRMC,055621,A,2422.8812,N,08106.4906,W,2.0,316.2,130615,6.0,"
"##MN-00 00 58 1193 02211 5579 495047 214850 192"
"164.247569"
"$GPRMC,055626,A,2422.8831,N,08106.4924,W,1.9,315.2,130615,6.0,"
"##MN-00 00 55 1194 02213 5577 494958 214872 192"
"164.247616"
"$GPRMC,055630,A,2422.8845,N,08106.4939,W,1.9,316.0,130615,6.0,"
"##MN-00 00 56 1195 02211 5575 494906 214828 192"
"164.247662"
"$GPRMC,055634,A,2422.8862,N,08106.4954,W,1.9,317.5,130615,6.0,"
"##MN-00 00 58 1196 02211 5573 494914 214833 192"
"164.247708"
"$GPRMC,055638,A,2422.8874,N,08106.4965,W,1.9,318.2,130615,6.0,"
"##MN-00 00 57 1198 02209 5570 494942 214827 192"
"164.247755"
"$GPRMC,055642,A,2422.8889,N,08106.4979,W,1.9,318.7,130615,6.0,"
"##MN-00 00 56 1199 02210 5568 494968 214832 192"
"164.247801"
"$GPRMC,055646,A,2422.8909,N,08106.4996,W,1.9,319.0,130615,6.0,"
"##MN-00 00 56 1200 02207 5566 494948 214819 192"
"164.247847"
"$GPRMC,055650,A,2422.8922,N,08106.5012,W,1.9,318.0,130615,6.0,"
"##MN-00 00 56 1201 02209 5564 494877 214799 192"
"164.247894"
"$GPRMC,055654,A,2422.8938,N,08106.5029,W,1.8,316.0,130615,6.0,"
"##MN-00 00 56 1202 02207 5561 494765 214788 192"
"164.24794"
"$GPRMC,055658,A,2422.8951,N,08106.5045,W,1.8,314.3,130615,6.0,"
"##MN-00 00 54 1203 02208 5559 494802 214799 192"
"164.247986"
"$GPRMC,055702,A,2422.8967,N,08106.5061,W,1.7,314.3,130615,6.0,"
"##MN-00 00 55 1204 02204 5557 494787 214785 192"
"164.248032"
"$GPRMC,055706,A,2422.8979,N,08106.5077,W,1.7,313.1,130615,6.0,"
"##MN-00 00 57 1205 02203 5555 494700 214769 192"
"164.248079"
"$GPRMC,055710,A,2422.8994,N,08106.5094,W,1.7,314.0,130615,6.0,"
"##MN-00 00 55 1206 02201 5553 494532 214736 192"
"164.248125"
"$GPRMC,055714,A,2422.9008,N,08106.5112,W,1.8,313.6,130615,6.0,"
"##MN-00 00 56 1207 02198 5551 494465 214726 192"
"164.248171"
"$GPRMC,055718,A,2422.9019,N,08106.5126,W,1.8,314.8,130615,6.0,"
"##MN-00 00 54 1209 02196 5549 494451 214724 192"
"164.248218"
"$GPRMC,055722,A,2422.9034,N,08106.5135,W,1.8,315.3,130615,6.0,"
"##MN-00 00 56 1210 02192 5547 494408 214712 192"
"164.248264"
"$GPRMC,055726,A,2422.9052,N,08106.5152,W,1.9,316.2,130615,6.0,"
"##MN-00 00 55 1211 02192 5545 494341 214698 192"
"164.24831"
"$GPRMC,055730,A,2422.9066,N,08106.5163,W,1.9,317.8,130615,6.0,"
"##MN-00 00 56 1212 02184 5543 494281 214686 192"
"164.248356"
"$GPRMC,055734,A,2422.9084,N,08106.5181,W,2.0,318.3,130615,6.0,"
"##MN-00 00 55 1213 02184 5541 494235 214675 192"
"164.248403"
"$GPRMC,055738,A,2422.9098,N,08106.5195,W,1.9,319.3,130615,6.0,"
"##MN-00 00 55 1214 02182 5539 494196 214671 192"
"164.248449"
"$GPRMC,055742,A,2422.9116,N,08106.5211,W,2.0,318.5,130615,6.0,"
"##MN-00 00 56 1215 02177 5537 494190 214671 192"
"164.248495"
"$GPRMC,055746,A,2422.9131,N,08106.5228,W,1.9,319.1,130615,6.0,"
"##MN-00 00 56 1216 02175 5535 494179 214665 192"
"164.248542"
"$GPRMC,055750,A,2422.9149,N,08106.5243,W,2.0,318.7,130615,6.0,"
"##MN-00 00 55 1217 02171 5533 494160 214664 192"
"164.248588"
"$GPRMC,055754,A,2422.9164,N,08106.5258,W,1.9,319.1,130615,6.0,"
"##MN-00 00 55 1218 02171 5531 494132 214652 192"
"164.248634"
"$GPRMC,055758,A,2422.9180,N,08106.5275,W,1.9,318.0,130615,6.0,"
"##MN-00 00 54 1219 02166 5529 494054 214634 192"
"164.248681"
"$GPRMC,055802,A,2422.9196,N,08106.5294,W,1.9,316.3,130615,6.0,"
"##MN-00 00 55 1221 02164 5527 493966 214616 192"
"164.248727"
"$GPRMC,055806,A,2422.9214,N,08106.5314,W,1.8,315.3,130615,6.0,"
"##MN-00 00 55 1222 02159 5525 493825 214592 192"
"164.248773"
"$GPRMC,055810,A,2422.9228,N,08106.5330,W,1.9,314.6,130615,6.0,"
"##MN-00 00 55 1223 02158 5523 493640 214572 192"
"164.248819"
"$GPRMC,055814,A,2422.9242,N,08106.5345,W,1.8,314.9,130615,6.0,"
"##MN-00 00 54 1224 02155 5521 493535 214535 192"
"164.248866"
"$GPRMC,055818,A,2422.9256,N,08106.5362,W,1.9,314.1,130615,6.0,"
"##MN-00 00 55 1225 02150 5519 493475 214531 192"
"164.248912"
"$GPRMC,055822,A,2422.9269,N,08106.5379,W,1.8,314.5,130615,6.0,"
"##MN-00 00 54 1226 02145 5518 493361 214501 192"
"164.248958"
"$GPRMC,055826,A,2422.9285,N,08106.5397,W,1.9,314.6,130615,6.0,"
"##MN-00 00 55 1227 02144 5515 493236 214483 192"
"164.249005"
"$GPRMC,055830,A,2422.9299,N,08106.5415,W,1.9,314.0,130615,6.0,"
"##MN-00 00 56 1228 02141 5513 493095 214466 192"
"164.249051"
"$GPRMC,055834,A,2422.9315,N,08106.5433,W,1.9,314.6,130615,6.0,"
"##MN-00 00 58 1229 02137 5512 492954 214433 192"
"164.249097"
"$GPRMC,055838,A,2422.9329,N,08106.5449,W,1.9,314.0,130615,6.0,"
"##MN-00 00 56 1230 02136 5510 492730 214405 192"
"164.249144"
"$GPRMC,055842,A,2422.9344,N,08106.5470,W,2.0,314.4,130615,6.0,"
"##MN-00 00 55 1231 02130 5508 492567 214382 192"
"164.24919"
"$GPRMC,055846,A,2422.9359,N,08106.5484,W,1.9,314.0,130615,6.0,"
"##MN-00 00 55 1232 02129 5506 492310 214346 192"
"164.249236"
"$GPRMC,055850,A,2422.9373,N,08106.5502,W,1.9,313.5,130615,6.0,"
"##MN-00 00 56 1234 02127 5504 492054 214305 192"
"164.249282"
"$GPRMC,055854,A,2422.9390,N,08106.5518,W,1.9,314.7,130615,6.0,"
"##MN-00 00 54 1235 02126 5503 491858 214287 192"
"164.249329"
"$GPRMC,055858,A,2422.9405,N,08106.5533,W,1.9,314.9,130615,6.0,"
"##MN-00 00 54 1236 02120 5501 491418 214178 192"
"164.249387"
"$GPRMC,055902,A,2422.9423,N,08106.5553,W,2.1,314.9,130615,6.0,"
"##MN-00 00 61 1236 02114 5499 489936 213804 192"
"164.249433"
"$GPRMC,055906,A,2422.9440,N,08106.5571,W,2.1,315.3,130615,6.0,"
"##MN+00 00 55 1238 02111 5497 487976 213449 192"
"164.249479"
"$GPRMC,055910,A,2422.9456,N,08106.5589,W,2.1,315.6,130615,6.0,"
"##MN+00 00 56 1239 02110 5496 486792 213367 192"
"164.249525"
"$GPRMC,055914,A,2422.9474,N,08106.5605,W,2.1,317.3,130615,6.0,"
"##MN+00 00 57 1240 02107 5494 486323 213157 192"
"164.249572"
"$GPRMC,055918,A,2422.9491,N,08106.5621,W,2.0,317.8,130615,6.0,"
"##MN-00 00 55 1241 02105 5492 485887 213173 192"
"164.249618"
"$GPRMC,055922,A,2422.9507,N,08106.5639,W,2.1,317.9,130615,6.0,"
"##MN-00 00 55 1242 02103 5490 485370 213044 192"
"164.249664"
"$GPRMC,055926,A,2422.9524,N,08106.5654,W,2.1,319.6,130615,6.0,"
"##MN-00 00 54 1243 02100 5488 485009 212984 192"
"164.249711"
"$GPRMC,055930,A,2422.9540,N,08106.5669,W,2.0,319.5,130615,6.0,"
"##MN-00 00 54 1244 02097 5487 484333 212829 192"
"164.249757"
"$GPRMC,055934,A,2422.9558,N,08106.5686,W,2.0,318.9,130615,6.0,"
"##MN-00 00 55 1245 02095 5485 483060 212589 192"
"164.249803"
"$GPRMC,055938,A,2422.9574,N,08106.5701,W,2.0,317.5,130615,6.0,"
"##MN-00 00 56 1247 02090 5484 481775 212321 192"
"164.24985"
"$GPRMC,055942,A,2422.9589,N,08106.5719,W,2.0,316.3,130615,6.0,"
"##MN+00 00 57 1248 02088 5482 480704 212096 192"
"164.249896"
"$GPRMC,055946,A,2422.9605,N,08106.5738,W,2.0,315.7,130615,6.0,"
"##MN+00 00 62 1248 02089 5480 479137 211826 192"
"164.249942"
"$GPRMC,055950,A,2422.9619,N,08106.5753,W,1.9,315.4,130615,6.0,"
"##MN+00 00 55 1249 02083 5479 479064 211789 192"
"164.249988"
"#increment_net"
"$GPRMC,055954,A,2422.9636,N,08106.5770,W,2.0,315.7,130615,6.0,"
"##MN-00 00 55 1251 02080 5478 478360 211561 192"
"164.250035"
"$GPRMC,055958,A,2422.9651,N,08106.5787,W,2.0,316.7,130615,6.0,"
"##MN-00 00 55 1252 02075 5476 477335 211396 192"
"164.250081"
"$GPRMC,060002,A,2422.9666,N,08106.5802,W,2.1,316.3,130615,6.0,"
"##MN-00 00 57 1252 02073 5474 476654 211267 192"
"164.250127"
"$GPRMC,060006,A,2422.9684,N,08106.5818,W,2.1,316.4,130615,6.0,"
"##MN-00 00 53 1253 02069 5473 476146 211121 192"
"164.250174"
"$GPRMC,060010,A,2422.9704,N,08106.5836,W,2.0,315.9,130615,6.0,"
"##MN-00 00 54 1255 02063 5472 475332 210974 192"
"164.25022"
"$GPRMC,060014,A,2422.9722,N,08106.5856,W,2.1,315.0,130615,6.0,"
"##MN-00 00 53 1256 02062 5470 473954 210840 192"
"164.250266"
"$GPRMC,060018,A,2422.9741,N,08106.5871,W,2.0,316.8,130615,6.0,"
"##MN-00 00 54 1257 02058 5469 472775 210523 192"
"164.250313"
"$GPRMC,060022,A,2422.9758,N,08106.5889,W,2.0,317.0,130615,6.0,"
"##MN-00 00 53 1258 02056 5467 472162 210425 192"
"164.250359"
"$GPRMC,060026,A,2422.9774,N,08106.5907,W,1.9,317.6,130615,6.0,"
"##MN-00 00 55 1259 02050 5466 471944 210402 192"
"164.250405"
"$GPRMC,060030,A,2422.9789,N,08106.5921,W,1.9,316.5,130615,6.0,"
"##MN-00 00 54 1260 02052 5465 471893 210396 192"
"164.250451"
"$GPRMC,060034,A,2422.9803,N,08106.5939,W,1.9,316.6,130615,6.0,"
"##MN-00 00 55 1261 02048 5464 471887 210362 192"
"164.250498"
"$GPRMC,060038,A,2422.9818,N,08106.5957,W,2.0,315.5,130615,6.0,"
"##MN-00 00 53 1262 02049 5463 471850 210354 192"
"164.250544"
"$GPRMC,060042,A,2422.9832,N,08106.5969,W,1.8,316.2,130615,6.0,"
"##MN-00 00 53 1263 02040 5462 471754 210319 192"
"164.25059"
"$GPRMC,060046,A,2422.9847,N,08106.5991,W,2.1,313.3,130615,6.0,"
"##MN-00 00 56 1264 02035 5461 471209 210267 192"
"164.250637"
"$GPRMC,060050,A,2422.9860,N,08106.6005,W,1.8,313.0,130615,6.0,"
"##MN-00 00 54 1265 02032 5460 470457 210117 192"
"164.250683"
"$GPRMC,060054,A,2422.9874,N,08106.6024,W,2.1,311.5,130615,6.0,"
"##MN-00 00 56 1266 02029 5459 469489 209945 192"
"164.250729"
"$GPRMC,060058,A,2422.9886,N,08106.6038,W,1.9,313.2,130615,6.0,"
"##MN-00 00 54 1267 02030 5458 468755 209861 192"
"164.250775"
"$GPRMC,060103,A,2422.9908,N,08106.6062,W,1.9,313.8,130615,6.0,"
"##MN-00 00 56 1268 02025 5457 467708 209596 192"
"164.250822"
"$GPRMC,060107,A,2422.9926,N,08106.6076,W,2.0,315.7,130615,6.0,"
"##MN-00 00 54 1269 02026 5456 466851 209440 192"
"164.250868"
"$GPRMC,060111,A,2422.9943,N,08106.6087,W,1.9,316.4,130615,6.0,"
"##MN-00 00 54 1270 02020 5455 466291 209280 192"
"164.250914"
"$GPRMC,060115,A,2422.9958,N,08106.6103,W,2.1,317.2,130615,6.0,"
"##MN-00 00 53 1272 02019 5455 465564 209180 192"
"164.250961"
"$GPRMC,060119,A,2422.9973,N,08106.6116,W,1.9,318.4,130615,6.0,"
"##MN-00 00 52 1273 02015 5454 465078 209021 192"
"164.251007"
"$GPRMC,060123,A,2422.9990,N,08106.6135,W,2.0,317.7,130615,6.0,"
"##MN-00 00 54 1274 02015 5453 464362 208875 192"
"164.251053"
"$GPRMC,060127,A,2423.0005,N,08106.6150,W,1.9,318.0,130615,6.0,"
"##MN-00 00 54 1275 02015 5452 463891 208761 192"
"164.2511"
"$GPRMC,060131,A,2423.0023,N,08106.6168,W,1.9,316.8,130615,6.0,"
"##MN-00 00 54 1276 02011 5452 463534 208680 192"
"164.251146"
"$GPRMC,060135,A,2423.0040,N,08106.6186,W,1.9,316.9,130615,6.0,"
"##MN-00 00 54 1277 02009 5451 463402 208631 192"
"164.251192"
"$GPRMC,060139,A,2423.0056,N,08106.6201,W,1.8,315.9,130615,6.0,"
"##MN-00 00 56 1278 02006 5450 462940 208542 192"
"164.251238"
"$GPRMC,060143,A,2423.0071,N,08106.6221,W,1.9,315.1,130615,6.0,"
"##MN-00 00 54 1279 02005 5450 462553 208444 192"
"164.251285"
"$GPRMC,060147,A,2423.0087,N,08106.6237,W,1.8,314.8,130615,6.0,"
"##MN-00 00 53 1280 02001 5449 462062 208317 192"
"164.251331"
"$GPRMC,060151,A,2423.0103,N,08106.6257,W,2.0,314.4,130615,6.0,"
"##MN-00 00 54 1281 02000 5449 461479 208314 192"
"164.251377"
