" Tow: 6E-GELZO   RVWS/WS15161"
" Date: 18/06/2015"
" Temperature Probe #  4762    Conductivity Probe #  710"
" Pressure Probe #  159"
" Flow Meter Calibration  4.71 (m/count)  "
"170.090648"
"$GPRMC,021027,A,2606.2498,N,07919.9529,W,0.3,123.3,190615,7.5,"
"##MN-00 00 62 0000 01540 5572 443096 827833 199"
"170.090694"
"$GPRMC,021032,A,2606.2491,N,07919.9521,W,0.3,121.3,190615,7.5,"
"##MN-00 00 62 0000 01541 5573 438399 827895 199"
"170.090741"
"$GPRMC,021036,A,2606.2487,N,07919.9517,W,0.4,122.8,190615,7.5,"
"##MN-00 00 62 0000 01539 5574 439143 827895 199"
"170.090787"
"$GPRMC,021040,A,2606.2480,N,07919.9510,W,0.5,129.6,190615,7.5,"
"##MN-00 00 62 0000 01539 5574 439906 827895 199"
"170.090833"
"$GPRMC,021044,A,2606.2474,N,07919.9506,W,0.6,135.2,190615,7.5,"
"##MN-00 00 62 0000 01538 5574 440522 827895 199"
"170.09088"
"$GPRMC,021048,A,2606.2467,N,07919.9502,W,0.6,139.2,190615,7.5,"
"##MN-00 00 62 0000 01541 5575 441011 827895 199"
"170.090926"
"$GPRMC,021052,A,2606.2459,N,07919.9498,W,0.7,143.8,190615,7.5,"
"##MN-00 00 62 0000 01539 5575 441334 827895 199"
"170.090972"
"$GPRMC,021056,A,2606.2450,N,07919.9492,W,0.8,147.2,190615,7.5,"
"##MN-00 00 62 0000 01541 5576 441684 827895 199"
"170.091019"
"$GPRMC,021100,A,2606.2439,N,07919.9486,W,0.9,149.6,190615,7.5,"
"##MN-00 00 62 0000 01539 5576 441338 827895 199"
"170.091065"
"$GPRMC,021104,A,2606.2430,N,07919.9480,W,0.9,151.6,190615,7.5,"
"##MN-00 00 62 0000 01539 5577 440370 827895 199"
"170.091111"
"$GPRMC,021108,A,2606.2419,N,07919.9474,W,1.0,152.6,190615,7.5,"
"##MN-00 00 62 0000 01540 5577 440280 827895 199"
"170.091157"
"$GPRMC,021112,A,2606.2408,N,07919.9468,W,1.0,153.1,190615,7.5,"
"##MN-00 00 62 0000 01541 5577 439997 827894 199"
"170.091204"
"$GPRMC,021116,A,2606.2397,N,07919.9462,W,1.0,153.8,190615,7.5,"
"##MN-00 00 62 0000 01540 5578 439426 827894 199"
"170.09125"
"$GPRMC,021120,A,2606.2384,N,07919.9456,W,1.1,154.5,190615,7.5,"
"##MN-00 00 62 0000 01541 5578 439192 827894 199"
"170.091296"
"$GPRMC,021124,A,2606.2372,N,07919.9451,W,1.1,156.1,190615,7.5,"
"##MN-00 00 62 0000 01541 5579 438401 827894 199"
"170.091343"
"$GPRMC,021128,A,2606.2361,N,07919.9448,W,1.1,157.4,190615,7.5,"
"##MN-00 00 62 0000 01540 5579 437977 827894 199"
"170.091389"
"$GPRMC,021132,A,2606.2352,N,07919.9446,W,1.1,159.1,190615,7.5,"
"##MN-00 00 62 0000 01541 5580 437886 827894 199"
"170.091435"
"$GPRMC,021136,A,2606.2343,N,07919.9444,W,1.1,161.0,190615,7.5,"
"##MN-00 00 62 0000 01539 5580 437766 827827 199"
"170.091481"
"$GPRMC,021140,A,2606.2332,N,07919.9441,W,1.1,162.7,190615,7.5,"
"##MN-00 00 62 0000 01540 5581 438019 827826 199"
"170.091528"
"$GPRMC,021144,A,2606.2318,N,07919.9438,W,1.1,164.4,190615,7.5,"
"##MN-00 00 62 0000 01538 5581 438522 827894 199"
"170.091574"
"$GPRMC,021148,A,2606.2305,N,07919.9434,W,1.1,166.0,190615,7.5,"
"##MN-00 00 62 0000 01540 5581 439202 827894 199"
"170.09162"
"$GPRMC,021152,A,2606.2293,N,07919.9432,W,1.1,167.5,190615,7.5,"
"##MN-00 00 62 0000 01538 5582 439930 827894 199"
"170.091667"
"$GPRMC,021156,A,2606.2280,N,07919.9430,W,1.1,169.0,190615,7.5,"
"##MN-00 00 62 0000 01541 5583 440586 827893 199"
"170.091713"
"$GPRMC,021200,A,2606.2268,N,07919.9429,W,1.1,171.4,190615,7.5,"
"##MN-00 00 62 0000 01538 5583 441224 827893 199"
"170.091759"
"$GPRMC,021204,A,2606.2256,N,07919.9429,W,1.1,173.7,190615,7.5,"
"##MN-00 00 62 0000 01539 5584 441811 827893 199"
"170.091806"
"$GPRMC,021208,A,2606.2243,N,07919.9429,W,1.1,176.5,190615,7.5,"
"##MN-00 00 62 0000 01540 5584 442310 827892 199"
"170.091852"
"$GPRMC,021212,A,2606.2231,N,07919.9431,W,1.1,179.5,190615,7.5,"
"##MN-00 00 62 0000 01541 5584 442537 827893 199"
"170.091898"
"$GPRMC,021217,A,2606.2213,N,07919.9434,W,1.1,183.5,190615,7.5,"
"##MN-00 00 62 0000 01540 5585 442911 827893 199"
"170.091944"
"$GPRMC,021221,A,2606.2202,N,07919.9437,W,1.1,186.5,190615,7.5,"
"##MN-00 00 62 0000 01539 5585 443203 827893 199"
"170.091991"
"$GPRMC,021225,A,2606.2192,N,07919.9443,W,1.1,190.7,190615,7.5,"
"##MN-00 00 62 0000 01540 5586 443539 827893 199"
"170.092037"
"$GPRMC,021229,A,2606.2178,N,07919.9447,W,1.1,194.0,190615,7.5,"
"##MN-00 00 62 0000 01540 5586 444032 827892 199"
"170.092083"
"$GPRMC,021233,A,2606.2166,N,07919.9452,W,1.2,197.7,190615,7.5,"
"##MN-00 00 62 0000 01540 5587 444355 827892 199"
"170.09213"
"$GPRMC,021237,A,2606.2155,N,07919.9459,W,1.2,200.6,190615,7.5,"
"##MN-00 00 62 0000 01541 5587 444696 827893 199"
"170.092176"
"$GPRMC,021241,A,2606.2143,N,07919.9465,W,1.2,202.7,190615,7.5,"
"##MN-00 00 62 0000 01539 5587 445127 827892 199"
"170.092222"
"$GPRMC,021245,A,2606.2130,N,07919.9471,W,1.2,203.7,190615,7.5,"
"##MN-00 00 63 0000 01540 5588 445544 827892 199"
"170.092269"
"$GPRMC,021249,A,2606.2115,N,07919.9477,W,1.2,204.3,190615,7.5,"
"##MN-00 00 63 0000 01539 5588 445528 827756 199"
"170.092315"
"$GPRMC,021253,A,2606.2104,N,07919.9484,W,1.2,204.6,190615,7.5,"
"##MN-00 00 63 0000 01539 5589 445593 827892 199"
"170.092361"
"$GPRMC,021257,A,2606.2096,N,07919.9491,W,1.2,203.8,190615,7.5,"
"##MN-00 00 63 0000 01540 5589 445351 827892 19"
"170.092407"
"$GPRMC,021301,A,2606.2081,N,07919.9494,W,1.2,203.0,190615,7.5,"
"##MN-00 00 54 0000 01541 5590 445732 827892 199"
"170.092454"
"$GPRMC,021305,A,2606.2066,N,07919.9498,W,1.2,200.7,190615,7.5,"
"##MN-00 00 49 0000 01540 5590 445831 827890 199"
"170.0925"
"$GPRMC,021309,A,2606.2054,N,07919.9501,W,1.2,198.7,190615,7.5,"
"##MN-00 00 50 0000 01539 5590 445713 827891 199"
"170.092546"
"$GPRMC,021313,A,2606.2041,N,07919.9505,W,1.1,196.8,190615,7.5,"
"##MN-00 00 50 0000 01539 5591 445751 827891 199"
"170.092593"
"$GPRMC,021317,A,2606.2030,N,07919.9505,W,1.1,195.0,190615,7.5,"
"##MN-00 00 50 0000 01540 5592 445544 827891 199"
"170.092639"
"$GPRMC,021321,A,2606.2019,N,07919.9508,W,1.0,193.3,190615,7.5,"
"##MN-00 00 50 0000 01540 5592 445329 827891 199"
"170.092685"
"$GPRMC,021325,A,2606.2007,N,07919.9508,W,1.0,190.8,190615,7.5,"
"##MN-00 00 50 0000 01539 5592 445096 827890 199"
"170.092731"
"$GPRMC,021329,A,2606.1996,N,07919.9509,W,0.9,188.9,190615,7.5,"
"##MN-00 00 50 0000 01539 5593 445063 827890 199"
"170.092778"
"$GPRMC,021333,A,2606.1987,N,07919.9509,W,0.9,187.4,190615,7.5,"
"##MN-00 00 50 0000 01540 5593 444987 827888 199"
"170.092824"
"$GPRMC,021337,A,2606.1978,N,07919.9510,W,0.8,186.5,190615,7.5,"
"##MN-00 00 51 0000 01540 5593 444261 827889 199"
"170.092882"
"$GPRMC,021341,A,2606.1969,N,07919.9512,W,0.8,186.3,190615,7.5,"
"##MN-00 00 52 0001 01539 5594 443231 542237 199"
"170.092928"
"$GPRMC,021345,A,2606.1961,N,07919.9512,W,0.7,186.8,190615,7.5,"
"##MN-00 00 52 0001 0153 554 440500 220679 199"
"170.092975"
"$GPRMC,021349,A,2606.1954,N,07919.9514,W,0.6,187.9,190615,7.5,"
"##MN-00 00 38 0002 01541 5595 440467 204073 199"
"170.093021"
"$GPRMC,021353,A,2606.1951,N,07919.9516,W,0.6,189.7,190615,7.5,"
"##MN-00 00 35 0003 01541 5595 440565 204138 199"
"170.093067"
"$GPRMC,021357,A,2606.1949,N,07919.9519,W,0.5,191.9,190615,7.5,"
"##MN-00 00 34 0004 01542 5595 440430 204133 199"
"170.093113"
"$GPRMC,021401,A,2606.1945,N,07919.9523,W,0.5,195.0,190615,7.5,"
"##MN-00 00 33 0005 01541 5596 440357 204061 199"
"170.09316"
"$GPRMC,021405,A,2606.1937,N,07919.9525,W,0.5,199.4,190615,7.5,"
"##MN-00 00 33 0006 01545 5596 440294 203999 199"
"170.093206"
"$GPRMC,021409,A,2606.1931,N,07919.9530,W,0.5,206.3,190615,7.5,"
"##MN-00 00 18 0007 01543 5597 440244 204011 199"
"170.093252"
"$GPRMC,021413,A,2606.1927,N,07919.9534,W,0.5,209.9,190615,7.5,"
"##MN-00 00 19 0008 01546 5597 440230 203997 199"
"170.093299"
"$GPRMC,021417,A,2606.1921,N,07919.9538,W,0.5,216.9,190615,7.5,"
"##MN-00 00 19 0009 01551 5598 440229 203971 199"
"170.093345"
"$GPRMC,021421,A,2606.1917,N,07919.9541,W,0.5,220.6,190615,7.5,"
"##MN-00 00 19 0010 01552 5598 440243 203990 199"
"170.093391"
"$GPRMC,021425,A,2606.1913,N,07919.9545,W,0.5,224.1,190615,7.5,"
"##MN-00 00 19 0011 01556 5599 440260 203960 199"
"170.093438"
"$GPRMC,021429,A,2606.1916,N,07919.9550,W,0.5,226.4,190615,7.5,"
"##MN-00 00 19 0012 01557 5599 440289 203967 199"
"170.093484"
"$GPRMC,021433,A,2606.1917,N,07919.9553,W,0.5,228.9,190615,7.5,"
"##MN-00 00 19 0014 01561 5600 440281 203968 199"
"170.09353"
"$GPRMC,021437,A,2606.1918,N,07919.9559,W,0.5,230.4,190615,7.5,"
"##MN-00 00 19 0015 01566 5601 440270 203967 199"
"170.093576"
"$GPRMC,021441,A,2606.1919,N,07919.9564,W,0.5,231.5,190615,7.5,"
"##MN-00 00 19 0016 01568 5602 440289 203957 199"
"170.093623"
"$GPRMC,021445,A,2606.1914,N,07919.9567,W,0.4,232.1,190615,7.5,"
"##MN-00 00 19 0017 01572 5603 440314 203946 199"
"170.093669"
"$GPRMC,021449,A,2606.1912,N,07919.9571,W,0.5,232.3,190615,7.5,"
"##MN-00 00 19 0018 01576 5604 440301 203940 199"
"170.093715"
"$GPRMC,021453,A,2606.1908,N,07919.9575,W,0.4,232.2,190615,7.5,"
"##MN-00 00 19 0019 01579 5604 440299 203933 199"
"170.093762"
"$GPRMC,021457,A,2606.1906,N,07919.9578,W,0.4,231.6,190615,7.5,"
"##MN-00 00 19 0020 01584 5605 440313 203936 199"
"170.093808"
"$GPRMC,021501,A,2606.1902,N,07919.9582,W,0.4,231.6,190615,7.5,"
"##MN-00 00 18 0021 01586 5606 440323 203933 199"
"170.093854"
"$GPRMC,021505,A,2606.1895,N,07919.9586,W,0.3,231.4,190615,7.5,"
"##MN-00 00 18 0022 01590 5607 440329 203935 199"
"170.0939"
"$GPRMC,021509,A,2606.1889,N,07919.9589,W,0.3,231.3,190615,7.5,"
"##MN-00 00 19 0023 01595 5608 440318 203932 199"
"170.093947"
"$GPRMC,021513,A,2606.1885,N,07919.9592,W,0.3,230.6,190615,7.5,"
"##MN-00 00 17 0024 01597 5609 440296 203926 198"
"170.093993"
"$GPRMC,021517,A,2606.1881,N,07919.9595,W,0.3,229.8,190615,7.5,"
"##MN-00 00 16 0025 01600 5610 440298 203921 199"
"170.094039"
"$GPRMC,021521,A,2606.1877,N,07919.9597,W,0.3,228.2,190615,7.5,"
"##MN-00 00 19 0026 01601 5611 440300 203919 199"
"170.094086"
"$GPRMC,021525,A,2606.1873,N,07919.9600,W,0.3,226.9,190615,7.5,"
"##MN-00 00 18 0027 01605 5612 440303 203920 199"
"170.094132"
"$GPRMC,021529,A,2606.1870,N,07919.9601,W,0.3,224.6,190615,7.5,"
"##MN-00 00 18 0029 01611 5613 440316 203920 199"
"170.094178"
"$GPRMC,021533,A,2606.1866,N,07919.9604,W,0.3,221.6,190615,7.5,"
"##MN-00 00 19 0030 01611 5614 440349 203920 199"
"170.094225"
"$GPRMC,021537,A,2606.1862,N,07919.9606,W,0.3,219.0,190615,7.5,"
"##MN-00 00 19 0031 01615 5615 440373 203922 199"
"170.094271"
"$GPRMC,021541,A,2606.1859,N,07919.9607,W,0.3,217.1,190615,7.5,"
"##MN-00 00 18 0032 01619 5617 440345 203916 199"
"170.094317"
"$GPRMC,021545,A,2606.1857,N,07919.9610,W,0.3,215.1,190615,7.5,"
"##MN-00 00 19 0033 01622 5618 440306 203912 199"
"170.094363"
"$GPRMC,021549,A,2606.1854,N,07919.9613,W,0.3,214.6,190615,7.5,"
"##MN-00 00 18 0034 01627 5619 440301 203910 199"
"170.09441"
"$GPRMC,021553,A,2606.1851,N,07919.9615,W,0.3,215.4,190615,7.5,"
"##MN-00 00 17 0035 01630 5620 440299 203909 199"
"170.094456"
"$GPRMC,021557,A,2606.1848,N,07919.9618,W,0.3,216.7,190615,7.5,"
"##MN-00 00 19 0036 01631 5621 440332 203913 199"
"170.094502"
"$GPRMC,021601,A,2606.1842,N,07919.9620,W,0.4,218.4,190615,7.5,"
"##MN-00 00 18 0037 01633 5623 440351 203914 199"
"170.094549"
"$GPRMC,021605,A,2606.1840,N,07919.9624,W,0.4,219.9,190615,7.5,"
"##MN-00 00 19 0038 01637 5624 440347 203914 199"
"170.094595"
"$GPRMC,021609,A,2606.1841,N,07919.9629,W,0.4,221.4,190615,7.5,"
"##MN-00 00 19 0039 01638 5625 440376 203916 199"
"170.094641"
"$GPRMC,021613,A,2606.1840,N,07919.9635,W,0.4,222.8,190615,7.5,"
"##MN-00 00 19 0040 01643 5626 440411 203926 199"
"170.094688"
"$GPRMC,021617,A,2606.1835,N,07919.9639,W,0.4,225.3,190615,7.5,"
"##MN-00 00 18 0041 01647 5627 440432 203927 199"
"170.094734"
"$GPRMC,021621,A,2606.1833,N,07919.9643,W,0.4,227.2,190615,7.5,"
"##MN-00 00 19 0042 01650 5628 440462 203931 199"
"170.09478"
"$GPRMC,021625,A,2606.1831,N,07919.9649,W,0.4,229.8,190615,7.5,"
"##MN-00 00 18 0044 01654 5630 440528 203937 199"
"170.094826"
"$GPRMC,021629,A,2606.1830,N,07919.9653,W,0.4,232.3,190615,7.5,"
"##MN-00 00 19 0045 01658 5631 440627 203953 199"
"170.094873"
"$GPRMC,021633,A,2606.1827,N,07919.9657,W,0.4,234.0,190615,7.5,"
"##MN-00 00 18 0046 01663 5632 440909 204011 199"
"170.094919"
"$GPRMC,021637,A,2606.1825,N,07919.9660,W,0.4,235.3,190615,7.5,"
"##MN-00 00 19 0047 01666 5634 441249 204110 199"
"170.094965"
"$GPRMC,021642,A,2606.1821,N,07919.9664,W,0.3,235.5,190615,7.5,"
"##MN-00 00 48 0048 01669 5635 441705 204108 199"
"170.095012"
"$GPRMC,021646,A,2606.1815,N,07919.9665,W,0.3,234.6,190615,7.5,"
"##MN-00 00 18 0049 01675 5636 441896 204153 199"
"170.095058"
"$GPRMC,021650,A,2606.1815,N,07919.9669,W,0.3,233.1,190615,7.5,"
"##MN-00 00 44 0050 01680 5637 442018 204179 199"
"170.095104"
"$GPRMC,021654,A,2606.1815,N,07919.9672,W,0.3,232.4,190615,7.5,"
"##MN+00 00 19 0051 01683 5639 442150 204243 199"
"170.09515"
"$GPRMC,021658,A,2606.1810,N,07919.9676,W,0.3,231.4,190615,7.5,"
"##MN+00 00 48 0052 01687 5640 442289 204278 199"
"170.095197"
"$GPRMC,021702,A,2606.1808,N,07919.9678,W,0.3,230.0,190615,7.5,"
"##MN+00 00 18 0053 01692 5641 442411 204286 199"
"170.095243"
"$GPRMC,021706,A,2606.1805,N,07919.9679,W,0.3,229.2,190615,7.5,"
"##MN-00 00 19 0054 01697 5642 442486 204285 199"
"170.095289"
"$GPRMC,021710,A,2606.1802,N,07919.9682,W,0.3,227.8,190615,7.5,"
"##MN-00 00 20 0055 01700 5643 442528 204301 199"
"170.095336"
"$GPRMC,021714,A,2606.1797,N,07919.9681,W,0.3,226.4,190615,7.5,"
"##MN-00 00 19 0056 01704 5645 442559 204306 199"
"170.095382"
"$GPRMC,021718,A,2606.1796,N,07919.9682,W,0.3,223.9,190615,7.5,"
"##MN+00 00 19 0057 01706 5646 442590 204331 199"
"170.095428"
"$GPRMC,021722,A,2606.1794,N,07919.9684,W,0.3,220.8,190615,7.5,"
"##MN+00 00 47 0058 01703 5647 442606 204337 199"
"170.095475"
"$GPRMC,021726,A,2606.1790,N,07919.9685,W,0.3,219.7,190615,7.5,"
"##MN+00 00 19 0059 01707 5649 442620 204345 199"
"170.095521"
"#increment_net"
"$GPRMC,021730,A,2606.1790,N,07919.9689,W,0.3,218.6,190615,7.5,"
"##MN-00 00 19 0060 01706 5650 442662 204353 199"
"170.095567"
"$GPRMC,021734,A,2606.1786,N,07919.9691,W,0.3,218.8,190615,7.5,"
"##MN-00 00 19 0061 01709 5651 442756 204362 199"
"170.095613"
"$GPRMC,021738,A,2606.1783,N,07919.9694,W,0.3,219.1,190615,7.5,"
"##MN-00 00 19 0062 01705 5652 442774 204373 199"
"170.09566"
"$GPRMC,021742,A,2606.1778,N,07919.9697,W,0.3,220.1,190615,7.5,"
"##MN-00 00 19 0063 01704 5653 442801 204383 199"
"170.095706"
"$GPRMC,021746,A,2606.1776,N,07919.9702,W,0.3,221.3,190615,7.5,"
"##MN-00 00 19 0064 01704 5655 442816 204376 199"
"170.095752"
"$GPRMC,021750,A,2606.1774,N,07919.9707,W,0.3,222.9,190615,7.5,"
"##MN-00 00 19 0066 01702 5656 442827 204394 199"
"170.095799"
"$GPRMC,021754,A,2606.1773,N,07919.9711,W,0.3,224.1,190615,7.5,"
"##MN-00 00 19 0067 01701 5657 442807 204395 199"
"170.095845"
"$GPRMC,021758,A,2606.1772,N,07919.9715,W,0.4,226.0,190615,7.5,"
"##MN-00 00 19 0068 01696 5658 442763 204387 199"
"170.095891"
"$GPRMC,021802,A,2606.1772,N,07919.9718,W,0.3,227.9,190615,7.5,"
"##MN-00 00 19 0069 01695 5659 442719 204377 199"
"170.095938"
"$GPRMC,021806,A,2606.1771,N,07919.9721,W,0.3,230.0,190615,7.5,"
"##MN-00 00 19 0070 01692 5660 442660 204371 199"
"170.095984"
"$GPRMC,021810,A,2606.1768,N,07919.9723,W,0.4,231.3,190615,7.5,"
"##MN-00 00 19 0071 01692 5661 442597 204354 199"
"170.09603"
"$GPRMC,021814,A,2606.1765,N,07919.9724,W,0.3,233.9,190615,7.5,"
"##MN-00 00 19 0072 01687 5663 442526 204338 199"
"170.096076"
"$GPRMC,021818,A,2606.1762,N,07919.9729,W,0.4,236.4,190615,7.5,"
"##MN-00 00 19 0073 01685 5664 442504 204338 198"
"170.096134"
"$GPRMC,021822,A,2606.1761,N,07919.9733,W,0.3,238.1,190615,7.5,"
"##MN-00 00 19 0075 01683 5665 442489 204331 199"
"170.096181"
"$GPRMC,021826,A,2606.1758,N,07919.9736,W,0.3,239.7,190615,7.5,"
"##MN-00 00 19 0076 01680 5666 442454 204328 199"
"170.096227"
"$GPRMC,021830,A,2606.1755,N,07919.9738,W,0.3,241.2,190615,7.5,"
"##MN-00 00 19 0077 01678 5667 442402 204313 199"
"170.096273"
"$GPRMC,021834,A,2606.1752,N,07919.9741,W,0.3,242.4,190615,7.5,"
"##MN-00 00 19 0078 01676 5669 442307 204294 199"
"170.096319"
"$GPRMC,021838,A,2606.1751,N,07919.9745,W,0.3,243.1,190615,7.5,"
"##MN-00 00 19 0079 01674 5670 442195 204279 199"
"170.096366"
"$GPRMC,021842,A,2606.1750,N,07919.9748,W,0.3,244.5,190615,7.5,"
"##MN-00 00 19 0080 01671 5671 442192 204277 199"
"170.096412"
"$GPRMC,021846,A,2606.1750,N,07919.9752,W,0.3,245.8,190615,7.5,"
"##MN-00 00 19 0081 01669 5672 442144 204273 199"
"170.096458"
"$GPRMC,021850,A,2606.1750,N,07919.9754,W,0.2,246.5,190615,7.5,"
"##MN-00 00 19 0083 01667 5673 442107 204266 199"
"170.096505"
"$GPRMC,021854,A,2606.1748,N,07919.9758,W,0.3,247.8,190615,7.5,"
"##MN-00 00 19 0084 01665 5674 442088 204259 199"
"170.096551"
"$GPRMC,021858,A,2606.1749,N,07919.9759,W,0.3,248.5,190615,7.5,"
"##MN-00 00 19 0085 01661 5675 442070 204243 199"
"170.096597"
"$GPRMC,021902,A,2606.1749,N,07919.9762,W,0.2,249.0,190615,7.5,"
"##MN-00 00 19 0086 01658 5677 441969 204223 199"
"170.096644"
"$GPRMC,021906,A,2606.1747,N,07919.9765,W,0.2,248.6,190615,7.5,"
"##MN-00 00 19 0087 01657 5678 441735 204191 199"
"170.09669"
"$GPRMC,021910,A,2606.1747,N,07919.9767,W,0.2,248.4,190615,7.5,"
"##MN-00 00 19 0088 01655 5679 441334 204122 199"
"170.096736"
"$GPRMC,021914,A,2606.1747,N,07919.9772,W,0.2,248.4,190615,7.5,"
"##MN-00 00 19 0089 01649 5680 441005 204091 199"
"170.096782"
"$GPRMC,021918,A,2606.1744,N,07919.9774,W,0.2,248.5,190615,7.5,"
"##MN-00 00 19 0090 01646 5681 440737 204028 199"
"170.096829"
"$GPRMC,021922,A,2606.1744,N,07919.9777,W,0.2,248.6,190615,7.5,"
"##MN-00 00 19 0092 01646 5682 440481 203965 199"
"170.096875"
"$GPRMC,021926,A,2606.1747,N,07919.9781,W,0.2,249.3,190615,7.5,"
"##MN-00 00 19 0093 01642 5684 440353 203944 199"
"170.096921"
"$GPRMC,021930,A,2606.1745,N,07919.9784,W,0.3,250.7,190615,7.5,"
"##MN-00 00 19 0094 01637 5685 440334 203937 199"
"170.096968"
"$GPRMC,021934,A,2606.1749,N,07919.9790,W,0.2,251.7,190615,7.5,"
"##MN-00 00 19 0095 01635 5686 440298 203935 199"
"170.097014"
"$GPRMC,021938,A,2606.1749,N,07919.9794,W,0.3,252.6,190615,7.5,"
"##MN-00 00 19 0096 01633 5687 440294 203908 199"
"170.09706"
"$GPRMC,021942,A,2606.1749,N,07919.9797,W,0.3,253.3,190615,7.5,"
"##MN-00 00 19 0097 01629 5688 440328 203913 199"
"170.097106"
"$GPRMC,021946,A,2606.1749,N,07919.9801,W,0.3,253.1,190615,7.5,"
"##MN+00 00 19 0099 01628 5689 440312 203908 199"
"170.097153"
"$GPRMC,021950,A,2606.1749,N,07919.9805,W,0.3,253.3,190615,7.5,"
"##MN+00 00 19 0100 01624 5690 440349 203912 199"
"170.097199"
"$GPRMC,021954,A,2606.1747,N,07919.9810,W,0.3,253.5,190615,7.5,"
"##MN+00 00 19 0101 01620 5692 440305 203903 199"
"170.097245"
"$GPRMC,021958,A,2606.1747,N,07919.9813,W,0.3,253.4,190615,7.5,"
"##MN+00 00 19 0102 01619 5693 440246 203885 199"
"170.097292"
"$GPRMC,022002,A,2606.1745,N,07919.9816,W,0.3,253.6,190615,7.5,"
"##MN+00 00 19 0103 01614 5694 440211 203882 199"
"170.097338"
"$GPRMC,022006,A,2606.1744,N,07919.9819,W,0.3,254.6,190615,7.5,"
"##MN+00 00 18 0104 01614 5695 440222 203881 199"
"170.097384"
"#increment_net"
"$GPRMC,022010,A,2606.1746,N,07919.9823,W,0.3,255.5,190615,7.5,"
"##MN-00 00 19 0105 01613 5697 440210 203878 199"
"170.097431"
"$GPRMC,022014,A,2606.1746,N,07919.9827,W,0.3,256.8,190615,7.5,"
"##MN-00 00 19 0106 01606 5698 440193 203875 199"
"170.097477"
"$GPRMC,022018,A,2606.1744,N,07919.9831,W,0.3,257.7,190615,7.5,"
"##MN-00 00 18 0108 01601 5699 440194 203877 199"
"170.097523"
"$GPRMC,022022,A,2606.1743,N,07919.9834,W,0.2,258.3,190615,7.5,"
"##MN-00 00 18 0109 01601 5700 440218 203880 199"
"170.097569"
"$GPRMC,022026,A,2606.1742,N,07919.9837,W,0.2,258.5,190615,7.5,"
"##MN-00 00 47 0110 01598 5701 440218 203880 199"
"170.097616"
"$GPRMC,022030,A,2606.1740,N,07919.9838,W,0.3,259.1,190615,7.5,"
"##MN-00 00 18 0111 01595 5702 440223 203881 199"
"170.097662"
"$GPRMC,022034,A,2606.1740,N,07919.9841,W,0.3,259.8,190615,7.5,"
"##MN-00 00 18 0112 01593 5703 440218 203880 199"
"170.097708"
"$GPRMC,022038,A,2606.1740,N,07919.9843,W,0.3,260.2,190615,7.5,"
"##MN-00 00 18 0114 01588 5704 440207 203879 199"
"170.097755"
"$GPRMC,022042,A,2606.1740,N,07919.9846,W,0.2,260.9,190615,7.5,"
"##MN-00 00 19 0115 01586 5706 440194 203878 199"
"170.097801"
"$GPRMC,022046,A,2606.1740,N,07919.9849,W,0.2,261.9,190615,7.5,"
"##MN-00 00 18 0116 01583 5707 440197 203877 199"
"170.097847"
"$GPRMC,022050,A,2606.1740,N,07919.9852,W,0.2,263.1,190615,7.5,"
"##MN-00 00 19 0117 01582 5708 440207 203878 199"
"170.097894"
"$GPRMC,022054,A,2606.1739,N,07919.9853,W,0.2,264.7,190615,7.5,"
"##MN-00 00 18 0118 01579 5709 440211 203879 198"
"170.09794"
"$GPRMC,022058,A,2606.1738,N,07919.9855,W,0.2,265.8,190615,7.5,"
"##MN-00 00 19 0119 01577 5711 440200 203878 199"
"170.097986"
"$GPRMC,022102,A,2606.1743,N,07919.9859,W,0.2,267.1,190615,7.5,"
"##MN-00 00 19 0121 01575 5712 440195 203877 199"
"170.098032"
"$GPRMC,022106,A,2606.1742,N,07919.9860,W,0.2,268.6,190615,7.5,"
"##MN-00 00 18 0122 01572 5713 440214 203879 199"
"170.098079"
"$GPRMC,022110,A,2606.1740,N,07919.9860,W,0.2,268.4,190615,7.5,"
"##MN-00 00 19 0123 01568 5714 440221 203880 199"
"170.098125"
"$GPRMC,022115,A,2606.1739,N,07919.9864,W,0.2,268.4,190615,7.5,"
"##MN-00 00 18 0124 01567 5716 440208 203879 199"
"170.098171"
"$GPRMC,022119,A,2606.1740,N,07919.9868,W,0.2,268.5,190615,7.5,"
"##MN-00 00 18 0125 01562 5717 440207 203881 198"
"170.098218"
"$GPRMC,022123,A,2606.1739,N,07919.9871,W,0.2,269.0,190615,7.5,"
"##MN-00 00 18 0127 01561 5718 440231 203886 199"
"170.098264"
"$GPRMC,022127,A,2606.1739,N,07919.9873,W,0.2,269.3,190615,7.5,"
"##MN-00 00 18 0128 01559 5719 440251 203887 199"
"170.09831"
"$GPRMC,022131,A,2606.1738,N,07919.9877,W,0.2,269.1,190615,7.5,"
"##MN-00 00 47 0129 01556 5720 440219 203884 199"
"170.098356"
"$GPRMC,022135,A,2606.1734,N,07919.9876,W,0.2,268.7,190615,7.5,"
"##MN-00 00 18 0130 01554 5721 440225 203886 198"
"170.098403"
"$GPRMC,022139,A,2606.1735,N,07919.9879,W,0.2,267.9,190615,7.5,"
"##MN-00 00 18 0131 01550 5723 440236 203887 198"
"170.098449"
"$GPRMC,022143,A,2606.1736,N,07919.9882,W,0.2,266.9,190615,7.5,"
"##MN-00 00 18 0133 01546 5724 440255 203890 199"
"170.098495"
"$GPRMC,022147,A,2606.1736,N,07919.9886,W,0.2,266.6,190615,7.5,"
"##MN-00 00 18 0134 01546 5725 440262 203891 199"
"170.098542"
"$GPRMC,022151,A,2606.1736,N,07919.9888,W,0.2,266.4,190615,7.5,"
"##MN-00 00 18 0134 01546 5725 440262 203891 199"
"170.099039"
""
"##MN+00 00 37 0146 01540 5738 440327 203961 199"
"170.099086"
"$GPRMC,022238,A,2606.1729,N,07919.9923,W,0.2,263.5,190615,7.5,"
"##MN+00 00 37 0147 01541 5740 440314 203958 199"
"170.099132"
"$GPRMC,022242,A,2606.1730,N,07919.9926,W,0.2,261.6,190615,7.5,"
"##MN-00 00 38 0148 01539 5741 440322 203962 199"
"170.099178"
"$GPRMC,022246,A,2606.1728,N,07919.9931,W,0.2,258.5,190615,7.5,"
"##MN+00 00 37 0149 01538 5742 440338 203973 199"
"170.099225"
"$GPRMC,022250,A,2606.1727,N,07919.9933,W,0.2,256.2,190615,7.5,"
"##MN+00 00 36 0150 01541 5743 440333 204385 199"
"170.099271"
"$GPRMC,022254,A,2606.1727,N,07919.9934,W,0.2,254.1,190615,7.5,"
"##MN+00 00 35 0151 01539 5744 440345 204168 199"
"170.099317"
"$GPRMC,022258,A,2606.1725,N,07919.9936,W,0.2,251.8,190615,7.5,"
"##MN-00 00 36 0152 01541 5746 440317 204060 199"
"170.099363"
"#increment_net"
"$GPRMC,022302,A,2606.1722,N,07919.9938,W,0.2,248.8,190615,7.5,"
"##MN-00 00 36 0153 01540 5747 440312 204058 199"
"170.09941"
"$GPRMC,022306,A,2606.1720,N,07919.9939,W,0.2,246.2,190615,7.5,"
"##MN+00 00 37 0154 01537 5748 440303 204057 199"
"170.099456"
"$GPRMC,022310,A,2606.1716,N,07919.9939,W,0.2,243.9,190615,7.5,"
"##MN+00 00 47 0155 01540 5749 440315 204048 199"
"170.099502"
"$GPRMC,022314,A,2606.1718,N,07919.9942,W,0.2,239.0,190615,7.5,"
"##MN+00 00 40 0156 01539 5750 440337 204063 199"
"170.099549"
"$GPRMC,022318,A,2606.1718,N,07919.9944,W,0.2,236.9,190615,7.5,"
"##MN+00 00 49 0157 01540 5751 440342 204067 199"
"170.099595"
"$GPRMC,022322,A,2606.1718,N,07919.9946,W,0.3,234.4,190615,7.5,"
"##MN+00 00 38 0158 01540 5752 440342 204048 199"
"170.099641"
"$GPRMC,022326,A,2606.1717,N,07919.9948,W,0.3,231.8,190615,7.5,"
"##MN+00 00 37 0159 01538 5753 440313 204048 199"
"170.099687"
"$GPRMC,022330,A,2606.1714,N,07919.9951,W,0.3,230.7,190615,7.5,"
"##MN-00 00 46 0160 01540 5754 440310 204008 199"
"170.099734"
"#increment_net"
"$GPRMC,022334,A,2606.1711,N,07919.9953,W,0.3,229.0,190615,7.5,"
"##MN+00 00 43 0161 01542 5756 440347 204015 199"
"170.09978"
"$GPRMC,022338,A,2606.1709,N,07919.9956,W,0.3,227.8,190615,7.5,"
"##MN+00 00 48 0162 01541 5756 440368 204019 199"
"170.099826"
"$GPRMC,022342,A,2606.1707,N,07919.9958,W,0.4,227.7,190615,7.5,"
"##MN+00 00 51 0163 01540 5758 440355 204019 198"
"170.099873"
"$GPRMC,022346,A,2606.1702,N,07919.9961,W,0.3,228.1,190615,7.5,"
"##MN-00 00 51 0164 01538 5759 440341 204019 199"
"170.099919"
"$GPRMC,022350,A,2606.1702,N,07919.9967,W,0.4,229.4,190615,7.5,"
"##MN+00 00 39 0165 01540 5760 440335 204025 199"
"170.099965"
"$GPRMC,022354,A,2606.1700,N,07919.9971,W,0.4,230.4,190615,7.5,"
"##MN+00 00 46 0166 01538 5761 440341 204110 198"
"170.100012"
"$GPRMC,022358,A,2606.1697,N,07919.9975,W,0.4,232.0,190615,7.5,"
"##MN+00 00 38 0167 01540 5762 440321 205020 198"
"170.100058"
"$GPRMC,022402,A,2606.1694,N,07919.9978,W,0.3,233.0,190615,7.5,"
"##MN-00 00 35 0168 01540 5763 440357 204030 198"
"170.100116"
"$GPRMC,022406,A,2606.1689,N,07919.9982,W,0.3,234.2,190615,7.5,"
"##MN-00 00 37 0170 01540 5764 440323 204164 199"
"170.100162"
"#increment_net"
"$GPRMC,022410,A,2606.1686,N,07919.9985,W,0.4,235.5,190615,7.5,"
"##MN-00 00 37 0171 01539 5765 440306 205543 199"
"170.100208"
"$GPRMC,022414,A,2606.1683,N,07919.9989,W,0.4,235.5,190615,7.5,"
"##MN-00 00 52 0172 01539 5767 441169 283343 199"
"170.100255"
"$GPRMC,022418,A,2606.1681,N,07919.9993,W,0.4,234.9,190615,7.5,"
"##MN-00 00 51 0172 01537 5768 442883 684845 198"
"170.100301"
"$GPRMC,022422,A,2606.1675,N,07919.9995,W,0.4,233.0,190615,7.5,"
"##MN-00 00 51 0172 01539 5769 447316 827868 199"
"170.100347"
"$GPRMC,022426,A,2606.1671,N,07920.0000,W,0.4,228.8,190615,7.5,"
"##MN-00 00 48 0172 01540 5770 451404 827872 199"
"170.100394"
"$GPRMC,022430,A,2606.1664,N,07920.0003,W,0.4,223.9,190615,7.5,"
"##MN-00 00 48 0172 01541 5771 453593 827874 198"
"170.10044"
"$GPRMC,022434,A,2606.1660,N,07920.0004,W,0.4,218.5,190615,7.5,"
"##MN-00 00 55 0172 01540 5772 455485 578103 198"
"170.100486"
"$GPRMC,022438,A,2606.1656,N,07920.0005,W,0.5,212.9,190615,7.5,"
"##MN-00 00 46 0172 01539 5773 453991 658408 198"
"170.100532"
"$GPRMC,022442,A,2606.1651,N,07920.0006,W,0.5,207.3,190615,7.5,"
"##MN-00 00 46 0172 01539 5774 456459 827701 198"
"170.100579"
"$GPRMC,022446,A,2606.1646,N,07920.0008,W,0.6,202.2,190615,7.5,"
"##MN-00 00 46 0172 01539 5775 458895 827870 199"
"170.100625"
"$GPRMC,022450,A,2606.1639,N,07920.0008,W,0.6,197.3,190615,7.5,"
"##MN-00 00 51 0172 01539 5776 460518 827875 198"
"170.100671"
"$GPRMC,022454,A,2606.1630,N,07920.0009,W,0.7,193.0,190615,7.5,"
"##MN-00 00 52 0172 01540 5777 461742 827877 199"
"170.100718"
"$GPRMC,022458,A,2606.1621,N,07920.0010,W,0.8,189.7,190615,7.5,"
"##MN-00 00 52 0172 01539 5778 462438 827879 198"
