" Tow: 6EM-A   RVWS/WS15161"
" Date: 18/06/2015"
" Temperature Probe #  4762    Conductivity Probe #  710"
" Pressure Probe #  159"
" Flow Meter Calibration  4.71 (m/count)  "
"169.925324"
"$GPRMC,221224,A,2558.4021,N,07918.2915,W,3.0,291.4,180615,7.4,"
"##MN-00 00 50 0192 01530 6488 430563 797871 200"
"169.92537"
"$GPRMC,221229,A,2558.4040,N,07918.2959,W,3.0,292.8,180615,7.4,"
"##MN-00 00 23 0193 01527 6488 439769 203936 200"
"169.925417"
"$GPRMC,221233,A,2558.4055,N,07918.2991,W,2.9,294.4,180615,7.4,"
"##MN-00 00 20 0194 01530 6489 439763 205301 200"
"169.925463"
"$GPRMC,221237,A,2558.4070,N,07918.3021,W,2.9,296.0,180615,7.4,"
"##MN-00 00 15 0195 01530 6489 439835 204132 200"
"169.925509"
"$GPRMC,221241,A,2558.4084,N,07918.3053,W,2.9,297.2,180615,7.4,"
"##MN-00 00 15 0196 01529 6489 439927 204339 200"
"169.925556"
"$GPRMC,221245,A,2558.4099,N,07918.3082,W,2.9,298.4,180615,7.4,"
"##MN-00 00 14 0196 01527 6489 439931 204609 200"
"169.925613"
"$GPRMC,221249,A,2558.4113,N,07918.3112,W,2.8,298.9,180615,7.4,"
"##MN-00 00 14 0197 01530 6489 439893 204199 200"
"169.92566"
"$GPRMC,221253,A,2558.4128,N,07918.3140,W,2.8,299.4,180615,7.4,"
"##MN-00 00 14 0198 01528 6490 439883 204088 200"
"169.925706"
"$GPRMC,221257,A,2558.4144,N,07918.3170,W,2.8,300.1,180615,7.4,"
"##MN-00 00 14 0199 01528 6490 439919 204090 200"
"169.925752"
"$GPRMC,221301,A,2558.4159,N,07918.3199,W,2.8,300.5,180615,7.4,"
"##MN-00 00 14 0200 01529 6490 439979 204110 200"
"169.925799"
"$GPRMC,221305,A,2558.4175,N,07918.3230,W,2.7,300.7,180615,7.4,"
"##MN-00 00 13 0201 01530 6491 440024 204109 200"
"169.925845"
"$GPRMC,221309,A,2558.4189,N,07918.3259,W,2.7,300.6,180615,7.4,"
"##MN-00 00 12 0202 01532 6490 440074 204134 200"
"169.925891"
"$GPRMC,221313,A,2558.4214,N,07918.3288,W,2.6,300.5,180615,7.4,"
"##MN-00 00 12 0203 01532 6491 440073 204134 200"
"169.925937"
"$GPRMC,221317,A,2558.4234,N,07918.3318,W,2.6,300.0,180615,7.4,"
"##MN-00 00 11 0204 01533 6490 440052 204102 200"
"169.925984"
"$GPRMC,221321,A,2558.4245,N,07918.3346,W,2.6,299.6,180615,7.4,"
"##MN-00 00 12 0205 01534 6491 440079 204103 200"
"169.92603"
"$GPRMC,221325,A,2558.4254,N,07918.3374,W,2.5,299.1,180615,7.4,"
"##MN-00 00 12 0206 01537 6490 440174 204106 200"
"169.926076"
"$GPRMC,221329,A,2558.4268,N,07918.3400,W,2.5,298.4,180615,7.4,"
"##MN-00 00 13 0207 01541 6490 440204 204101 200"
"169.926123"
"$GPRMC,221333,A,2558.4281,N,07918.3426,W,2.5,298.2,180615,7.4,"
"##MN-00 00 13 0208 01543 6490 440216 204094 200"
"169.926169"
"$GPRMC,221337,A,2558.4290,N,07918.3452,W,2.4,297.3,180615,7.4,"
"##MN-00 00 12 0209 01545 6490 440346 204112 200"
"169.926215"
"$GPRMC,221341,A,2558.4301,N,07918.3479,W,2.4,296.4,180615,7.4,"
"##MN-00 00 13 0210 01550 6490 440384 204110 200"
"169.926262"
"$GPRMC,221345,A,2558.4312,N,07918.3504,W,2.4,295.9,180615,7.4,"
"##MN-00 00 13 0211 01554 6490 440427 204119 200"
"169.926308"
"$GPRMC,221349,A,2558.4322,N,07918.3534,W,2.4,295.0,180615,7.4,"
"##MN-00 00 13 0212 01554 6489 441451 204301 200"
"169.926354"
"$GPRMC,221353,A,2558.4332,N,07918.3562,W,2.4,294.7,180615,7.4,"
"##MN-00 00 13 0213 01557 6489 441861 204355 200"
"169.926401"
"$GPRMC,221357,A,2558.4341,N,07918.3587,W,2.4,294.4,180615,7.4,"
"##MN-00 00 13 0214 01560 6488 442082 204419 200"
"169.926447"
"$GPRMC,221401,A,2558.4352,N,07918.3613,W,2.4,294.2,180615,7.4,"
"##MN-00 00 13 0216 01563 6488 442169 204394 200"
"169.926493"
"$GPRMC,221405,A,2558.4362,N,07918.3636,W,2.4,294.3,180615,7.4,"
"##MN-00 00 13 0217 01564 6488 442401 204422 200"
"169.926539"
"$GPRMC,221409,A,2558.4372,N,07918.3663,W,2.4,294.6,180615,7.4,"
"##MN-00 00 13 0218 01567 6487 442682 204436 200"
"169.926586"
"$GPRMC,221413,A,2558.4381,N,07918.3689,W,2.4,295.2,180615,7.4,"
"##MN-00 00 13 0219 01570 6487 442762 204530 200"
"169.926632"
"$GPRMC,221417,A,2558.4394,N,07918.3717,W,2.4,295.9,180615,7.4,"
"##MN-00 00 13 0220 01572 6487 442859 204534 200"
"169.926678"
"$GPRMC,221421,A,2558.4406,N,07918.3744,W,2.5,296.0,180615,7.4,"
"##MN-00 00 15 0221 01574 6486 442915 204541 200"
"169.926725"
"$GPRMC,221425,A,2558.4419,N,07918.3772,W,2.5,296.3,180615,7.4,"
"##MN-00 00 18 0222 01578 6485 442968 204548 200"
"169.926771"
"$GPRMC,221429,A,2558.4431,N,07918.3801,W,2.5,296.4,180615,7.4,"
"##MN-00 00 14 0223 01582 6485 442993 204596 200"
"169.926817"
"$GPRMC,221434,A,2558.4449,N,07918.3835,W,2.6,296.9,180615,7.4,"
"##MN-00 00 14 0224 01581 6484 443042 204606 200"
"169.926863"
"$GPRMC,221438,A,2558.4460,N,07918.3865,W,2.6,296.7,180615,7.4,"
"##MN-00 00 14 0226 01587 6483 443066 204610 200"
"169.92691"
"$GPRMC,221442,A,2558.4473,N,07918.3891,W,2.6,296.9,180615,7.4,"
"##MN-00 00 14 0227 01586 6483 443074 204600 200"
"169.926956"
"$GPRMC,221446,A,2558.4481,N,07918.3909,W,2.6,297.0,180615,7.4,"
"##MN-00 00 16 0228 01591 6482 443076 204596 200"
"169.927002"
"$GPRMC,221450,A,2558.4500,N,07918.3941,W,2.6,296.9,180615,7.4,"
"##MN-00 00 15 0229 01595 6482 443077 204612 200"
"169.927049"
"$GPRMC,221454,A,2558.4514,N,07918.3968,W,2.6,296.2,180615,7.4,"
"##MN-00 00 14 0230 01596 6481 443078 204622 200"
"169.927095"
"$GPRMC,221458,A,2558.4529,N,07918.3996,W,2.6,296.5,180615,7.4,"
"##MN-00 00 14 0231 01599 6480 443076 204616 200"
"169.927141"
"$GPRMC,221502,A,2558.4543,N,07918.4024,W,2.5,296.9,180615,7.4,"
"##MN-00 00 14 0232 01600 6480 443070 204616 200"
"169.927188"
"$GPRMC,221506,A,2558.4556,N,07918.4053,W,2.5,296.3,180615,7.4,"
"##MN-00 00 14 0233 01602 6479 443069 204615 200"
"169.927234"
"$GPRMC,221510,A,2558.4568,N,07918.4082,W,2.5,296.0,180615,7.4,"
"##MN-00 00 15 0234 01605 6478 443073 204612 200"
"169.92728"
"$GPRMC,221514,A,2558.4579,N,07918.4111,W,2.5,296.1,180615,7.4,"
"##MN-00 00 50 0235 01610 6477 443102 204615 200"
"169.927326"
"$GPRMC,221518,A,2558.4590,N,07918.4140,W,2.5,296.2,180615,7.4,"
"##MN-00 00 15 0237 01613 6476 443132 204622 200"
"169.927373"
"$GPRMC,221522,A,2558.4603,N,07918.4169,W,2.4,295.3,180615,7.4,"
"##MN-00 00 14 0238 01617 6475 443172 204617 200"
"169.927419"
"$GPRMC,221526,A,2558.4614,N,07918.4196,W,2.4,295.3,180615,7.4,"
"##MN-00 00 14 0239 01620 6475 443257 204647 200"
"169.927465"
"$GPRMC,221530,A,2558.4626,N,07918.4224,W,2.4,295.5,180615,7.4,"
"##MN-00 00 14 0240 01620 6474 443332 204656 200"
"169.927512"
"$GPRMC,221534,A,2558.4637,N,07918.4249,W,2.4,295.5,180615,7.4,"
"##MN-00 00 12 0241 01625 6473 443407 204658 200"
"169.927558"
"$GPRMC,221538,A,2558.4648,N,07918.4277,W,2.4,295.2,180615,7.4,"
"##MN-00 00 49 0242 01629 6472 443470 204658 200"
"169.927604"
"$GPRMC,221542,A,2558.4657,N,07918.4304,W,2.4,294.8,180615,7.4,"
"##MN-00 00 12 0243 01632 6471 443537 204666 200"
"169.92765"
"$GPRMC,221546,A,2558.4666,N,07918.4332,W,2.4,294.5,180615,7.4,"
"##MN-00 00 12 0244 01635 6471 443596 204675 200"
"169.927697"
"$GPRMC,221550,A,2558.4676,N,07918.4360,W,2.4,294.1,180615,7.4,"
"##MN-00 00 12 0245 01639 6470 443674 204702 200"
"169.927743"
"$GPRMC,221554,A,2558.4686,N,07918.4387,W,2.4,293.5,180615,7.4,"
"##MN-00 00 48 0246 01643 6469 443743 204716 200"
"169.927789"
"$GPRMC,221558,A,2558.4697,N,07918.4411,W,2.3,292.9,180615,7.4,"
"##MN-00 00 11 0247 01645 6468 443819 204715 200"
"169.927836"
"$GPRMC,221602,A,2558.4709,N,07918.4436,W,2.3,293.1,180615,7.4,"
"##MN-00 00 11 0249 01648 6467 443911 204748 200"
"169.927882"
"$GPRMC,221606,A,2558.4720,N,07918.4462,W,2.3,293.0,180615,7.4,"
"##MN-00 00 11 0250 01653 6466 443966 204753 200"
"169.927928"
"$GPRMC,221610,A,2558.4731,N,07918.4488,W,2.3,292.7,180615,7.4,"
"##MN-00 00 11 0251 01656 6465 444006 204759 200"
"169.927975"
"$GPRMC,221614,A,2558.4740,N,07918.4514,W,2.2,292.6,180615,7.4,"
"##MN-00 00 11 0252 01660 6464 444043 204759 200"
"169.928021"
"$GPRMC,221618,A,2558.4745,N,07918.4543,W,2.2,292.7,180615,7.4,"
"##MN-00 00 12 0253 01663 6464 444118 204765 200"
"169.928067"
"$GPRMC,221622,A,2558.4753,N,07918.4572,W,2.2,292.1,180615,7.4,"
"##MN-00 00 45 0254 01668 6462 444197 204781 200"
"169.928113"
"$GPRMC,221626,A,2558.4760,N,07918.4599,W,2.2,291.2,180615,7.4,"
"##MN-00 00 10 0255 01672 6461 444435 204817 200"
"169.92816"
"$GPRMC,221630,A,2558.4769,N,07918.4625,W,2.2,290.5,180615,7.4,"
"##MN-00 00 11 0256 01674 6461 444711 204818 200"
"169.928206"
"$GPRMC,221634,A,2558.4776,N,07918.4653,W,2.2,289.7,180615,7.4,"
"##MN-00 00 11 0257 01680 6460 444796 204865 200"
"169.928252"
"$GPRMC,221638,A,2558.4784,N,07918.4678,W,2.2,289.0,180615,7.4,"
"##MN-00 00 47 0258 01681 6459 444811 204878 200"
"169.928299"
"$GPRMC,221642,A,2558.4791,N,07918.4705,W,2.2,288.6,180615,7.4,"
"##MN-00 00 11 0259 01684 6458 444932 204882 200"
"169.928345"
"$GPRMC,221646,A,2558.4796,N,07918.4733,W,2.2,288.4,180615,7.4,"
"##MN-00 00 11 0260 01689 6457 445023 204909 200"
"169.928391"
"$GPRMC,221650,A,2558.4805,N,07918.4759,W,2.2,288.1,180615,7.4,"
"##MN-00 00 12 0261 01692 6456 445047 204906 200"
"169.928437"
"$GPRMC,221654,A,2558.4813,N,07918.4785,W,2.2,288.0,180615,7.4,"
"##MN-00 00 10 0262 01693 6455 445099 204928 200"
"169.928484"
"$GPRMC,221658,A,2558.4821,N,07918.4812,W,2.2,288.1,180615,7.4,"
"##MN-00 00 48 0263 01697 6454 445325 205060 200"
"169.92853"
"$GPRMC,221702,A,2558.4828,N,07918.4837,W,2.3,288.0,180615,7.4,"
"##MN-00 00 12 0264 01699 6453 445502 205125 200"
"169.928576"
"$GPRMC,221706,A,2558.4836,N,07918.4864,W,2.3,287.9,180615,7.4,"
"##MN-00 00 11 0265 01702 6452 445611 205023 200"
"169.928623"
"$GPRMC,221710,A,2558.4846,N,07918.4893,W,2.3,287.9,180615,7.4,"
"##MN-00 00 11 0266 01704 6451 445701 205037 200"
"169.928669"
"$GPRMC,221714,A,2558.4854,N,07918.4921,W,2.3,288.2,180615,7.4,"
"##MN-00 00 09 0267 01706 6450 445773 205042 200"
"169.928715"
"$GPRMC,221718,A,2558.4864,N,07918.4949,W,2.3,288.1,180615,7.4,"
"##MN-00 00 10 0269 01709 6449 445839 205071 200"
"169.928762"
"$GPRMC,221722,A,2558.4872,N,07918.4978,W,2.4,288.1,180615,7.4,"
"##MN-00 00 38 0270 01710 6448 445894 205080 200"
"169.928808"
"$GPRMC,221726,A,2558.4881,N,07918.5008,W,2.3,287.9,180615,7.4,"
"##MN-00 00 10 0271 01712 6447 445909 205077 200"
"169.928854"
"$GPRMC,221730,A,2558.4886,N,07918.5041,W,2.4,288.0,180615,7.4,"
"##MN-00 00 10 0272 01714 6445 445924 205078 200"
"169.9289"
"$GPRMC,221734,A,2558.4893,N,07918.5069,W,2.4,288.0,180615,7.4,"
"##MN-00 00 09 0273 01717 6445 445921 205081 200"
"169.928958"
"$GPRMC,221738,A,2558.4901,N,07918.5098,W,2.4,287.8,180615,7.4,"
"##MN-00 00 10 0274 01719 6444 445887 205083 200"
"169.929005"
"$GPRMC,221742,A,2558.4911,N,07918.5124,W,2.4,287.9,180615,7.4,"
"##MN-00 00 09 0275 01722 6442 445871 205082 200"
"169.929051"
"$GPRMC,221746,A,2558.4919,N,07918.5150,W,2.4,288.0,180615,7.4,"
"##MN-00 00 44 0276 01726 6441 445867 205081 200"
"169.929097"
"$GPRMC,221750,A,2558.4923,N,07918.5173,W,2.4,287.6,180615,7.4,"
"##MN-00 00 10 0277 01726 6440 445860 205078 200"
"169.929144"
"$GPRMC,221754,A,2558.4933,N,07918.5200,W,2.4,287.5,180615,7.4,"
"##MN-00 00 10 0278 01730 6439 445855 205077 200"
"169.92919"
"$GPRMC,221758,A,2558.4939,N,07918.5222,W,2.3,287.5,180615,7.4,"
"##MN-00 00 48 0279 01733 6439 445866 205076 200"
"169.929236"
"$GPRMC,221802,A,2558.4946,N,07918.5249,W,2.3,287.4,180615,7.4,"
"##MN-00 00 28 0280 01737 6437 445885 205078 200"
"169.929282"
"$GPRMC,221806,A,2558.4951,N,07918.5278,W,2.3,287.1,180615,7.4,"
"##MN-00 00 47 0281 01739 6436 445952 205087 200"
"169.929329"
"$GPRMC,221810,A,2558.4959,N,07918.5303,W,2.3,287.0,180615,7.4,"
"##MN-00 00 10 0282 01744 6435 446051 205113 200"
"169.929375"
"$GPRMC,221814,A,2558.4969,N,07918.5329,W,2.3,287.2,180615,7.4,"
"##MN-00 00 09 0284 01746 6434 446197 205118 200"
"169.929421"
"$GPRMC,221818,A,2558.4977,N,07918.5355,W,2.3,287.2,180615,7.4,"
"##MN-00 00 08 0285 01749 6433 446376 205148 200"
"169.929468"
"$GPRMC,221822,A,2558.4984,N,07918.5381,W,2.3,286.7,180615,7.4,"
"##MN-00 00 09 0286 01751 6432 446461 205154 200"
"169.929514"
"$GPRMC,221826,A,2558.4991,N,07918.5408,W,2.3,286.9,180615,7.4,"
"##MN-00 00 10 0287 01755 6430 446645 205195 200"
"169.92956"
"$GPRMC,221830,A,2558.4998,N,07918.5437,W,2.3,287.1,180615,7.4,"
"##MN-00 00 10 0288 01757 6429 446802 205235 200"
"169.929607"
"$GPRMC,221834,A,2558.5009,N,07918.5470,W,2.3,287.3,180615,7.4,"
"##MN-00 00 10 0289 01760 6428 446889 205257 200"
"169.929653"
"$GPRMC,221838,A,2558.5016,N,07918.5495,W,2.3,287.6,180615,7.4,"
"##MN-00 00 09 0290 01760 6427 446904 205267 200"
"169.929699"
"$GPRMC,221842,A,2558.5020,N,07918.5520,W,2.3,287.9,180615,7.4,"
"##MN-00 00 10 0291 01765 6426 446941 205300 200"
"169.929745"
"$GPRMC,221846,A,2558.5030,N,07918.5549,W,2.3,288.1,180615,7.4,"
"##MN-00 00 10 0292 01765 6425 447018 205305 200"
"169.929792"
"$GPRMC,221850,A,2558.5037,N,07918.5574,W,2.3,288.4,180615,7.4,"
"##MN-00 00 10 0293 01770 6424 447070 205320 200"
"169.929838"
"$GPRMC,221854,A,2558.5042,N,07918.5597,W,2.3,288.4,180615,7.4,"
"##MN-00 00 10 0294 01771 6423 447152 205345 199"
"169.929884"
"$GPRMC,221858,A,2558.5049,N,07918.5622,W,2.3,288.8,180615,7.4,"
"##MN-00 00 09 0296 01775 6422 447202 205347 199"
"169.929931"
"$GPRMC,221902,A,2558.5059,N,07918.5651,W,2.3,288.9,180615,7.4,"
"##MN-00 00 08 0297 01776 6420 447237 205341 200"
"169.929977"
"$GPRMC,221906,A,2558.5067,N,07918.5680,W,2.3,289.6,180615,7.4,"
"##MN-00 00 10 0298 01774 6419 447284 205361 200"
"169.930023"
"$GPRMC,221911,A,2558.5078,N,07918.5712,W,2.3,289.7,180615,7.4,"
"##MN-00 00 10 0299 01773 6418 447287 205359 200"
"169.930069"
"$GPRMC,221915,A,2558.5089,N,07918.5737,W,2.2,289.7,180615,7.4,"
"##MN-00 00 16 0300 01773 6416 447269 205365 200"
"169.930116"
"$GPRMC,221919,A,2558.5095,N,07918.5767,W,2.2,290.5,180615,7.4,"
"##MN-00 00 09 0301 01773 6415 447254 205370 200"
"169.930162"
"$GPRMC,221923,A,2558.5103,N,07918.5791,W,2.2,290.8,180615,7.4,"
"##MN-00 00 48 0303 01772 6415 447250 205370 200"
"169.930208"
"$GPRMC,221927,A,2558.5113,N,07918.5814,W,2.2,291.3,180615,7.4,"
"##MN-00 00 46 0304 01772 6413 447253 205537 200"
"169.930255"
"$GPRMC,221931,A,2558.5121,N,07918.5838,W,2.2,291.7,180615,7.4,"
"##MN-00 00 09 0305 01773 6412 447242 205372 200"
"169.930301"
"$GPRMC,221935,A,2558.5131,N,07918.5863,W,2.2,291.7,180615,7.4,"
"##MN-00 00 09 0306 01773 6411 447231 205371 200"
"169.930347"
"$GPRMC,221939,A,2558.5139,N,07918.5890,W,2.2,291.4,180615,7.4,"
"##MN-00 00 09 0307 01772 6410 447200 205369 199"
"169.930394"
"$GPRMC,221943,A,2558.5149,N,07918.5915,W,2.2,292.2,180615,7.4,"
"##MN-00 00 48 0308 01775 6408 447163 205364 200"
"169.93044"
"$GPRMC,221947,A,2558.5157,N,07918.5939,W,2.2,292.5,180615,7.4,"
"##MN-00 00 09 0309 01776 6407 447173 205368 199"
"169.930486"
"$GPRMC,221951,A,2558.5170,N,07918.5961,W,2.2,291.9,180615,7.4,"
"##MN-00 00 09 0310 01778 6407 447199 205369 199"
"169.930532"
"$GPRMC,221955,A,2558.5179,N,07918.5986,W,2.1,291.9,180615,7.4,"
"##MN-00 00 08 0311 01780 6405 447192 205367 200"
"169.930579"
"$GPRMC,221959,A,2558.5189,N,07918.6011,W,2.2,292.3,180615,7.4,"
"##MN-00 00 37 0313 01781 6404 447168 205366 200"
"169.930625"
"$GPRMC,222003,A,2558.5197,N,07918.6034,W,2.1,292.3,180615,7.4,"
"##MN-00 00 09 0314 01782 6402 447172 205365 200"
"169.930671"
"$GPRMC,222007,A,2558.5206,N,07918.6059,W,2.1,291.9,180615,7.4,"
"##MN-00 00 09 0315 01784 6401 447162 205364 199"
"169.930718"
"$GPRMC,222011,A,2558.5214,N,07918.6084,W,2.1,291.6,180615,7.4,"
"##MN-00 00 09 0316 01784 6400 447133 205360 200"
"169.930764"
"$GPRMC,222015,A,2558.5224,N,07918.6107,W,2.1,291.4,180615,7.4,"
"##MN-00 00 50 0317 01783 6399 447101 205353 200"
"169.93081"
"$GPRMC,222019,A,2558.5233,N,07918.6131,W,2.1,291.1,180615,7.4,"
"##MN+00 00 13 0318 01784 6398 447073 205346 200"
"169.930856"
"$GPRMC,222023,A,2558.5240,N,07918.6160,W,2.1,291.0,180615,7.4,"
"##MN+00 00 11 0319 01783 6396 447047 205345 200"
"169.930903"
"$GPRMC,222027,A,2558.5247,N,07918.6186,W,2.1,290.9,180615,7.4,"
"##MN+00 00 09 0320 01786 6395 447057 205345 200"
"169.930949"
"$GPRMC,222031,A,2558.5257,N,07918.6211,W,2.1,291.0,180615,7.4,"
"##MN-00 00 09 0322 01784 6394 447033 205338 199"
"169.930995"
"$GPRMC,222035,A,2558.5266,N,07918.6235,W,2.1,291.0,180615,7.4,"
"##MN+00 00 12 0323 01788 6393 447034 205338 200"
"169.931042"
"$GPRMC,222039,A,2558.5276,N,07918.6261,W,2.1,290.7,180615,7.4,"
"##MN+00 00 10 0324 01788 6392 447062 205342 199"
"169.931088"
"$GPRMC,222043,A,2558.5286,N,07918.6284,W,2.2,291.0,180615,7.4,"
"##MN+00 00 13 0325 01789 6391 447064 205343 199"
"169.931134"
"$GPRMC,222047,A,2558.5293,N,07918.6309,W,2.2,290.7,180615,7.4,"
"##MN-00 00 13 0326 01788 6390 447041 205340 200"
"169.931181"
"#increment_net"
"$GPRMC,222051,A,2558.5301,N,07918.6335,W,2.2,291.1,180615,7.4,"
"##MN-00 00 50 0327 01788 6388 447011 205334 200"
"169.931227"
"$GPRMC,222055,A,2558.5311,N,07918.6358,W,2.2,291.4,180615,7.4,"
"##MN-00 00 51 0328 01790 6387 446972 205329 200"
"169.931273"
"$GPRMC,222059,A,2558.5318,N,07918.6387,W,2.2,290.8,180615,7.4,"
"##MN-00 00 49 0329 01791 6386 446914 205320 200"
"169.931319"
"$GPRMC,222103,A,2558.5329,N,07918.6410,W,2.2,290.9,180615,7.4,"
"##MN-00 00 08 0330 01789 6384 446940 205319 200"
"169.931366"
"$GPRMC,222107,A,2558.5336,N,07918.6436,W,2.2,290.5,180615,7.4,"
"##MN-00 00 48 0332 01788 6384 446969 205323 200"
"169.931412"
"$GPRMC,222111,A,2558.5345,N,07918.6461,W,2.2,290.2,180615,7.4,"
"##MN-00 00 50 0333 01787 6382 446996 205331 199"
"169.931458"
"$GPRMC,222115,A,2558.5352,N,07918.6489,W,2.2,290.4,180615,7.4,"
"##MN-00 00 11 0334 01787 6381 447029 205334 199"
"169.931505"
"$GPRMC,222119,A,2558.5359,N,07918.6518,W,2.3,290.5,180615,7.4,"
"##MN-00 00 50 0335 01786 6380 447033 205333 200"
"169.931551"
"$GPRMC,222123,A,2558.5367,N,07918.6547,W,2.2,290.4,180615,7.4,"
"##MN-00 00 50 0336 01784 6378 447024 205333 200"
"169.931597"
"$GPRMC,222127,A,2558.5373,N,07918.6566,W,2.2,290.2,180615,7.4,"
"##MN-00 00 49 0338 01784 6378 447040 205335 200"
"169.931643"
"$GPRMC,222131,A,2558.5383,N,07918.6589,W,2.2,290.0,180615,7.4,"
"##MN-00 00 50 0339 01783 6376 447051 205337 200"
"169.93169"
"$GPRMC,222135,A,2558.5392,N,07918.6615,W,2.2,290.0,180615,7.4,"
"##MN+00 00 49 0340 01782 6375 447052 205337 199"
"169.931736"
"$GPRMC,222139,A,2558.5403,N,07918.6637,W,2.2,290.1,180615,7.4,"
"##MN+00 00 50 0341 01783 6374 447045 205336 199"
"169.931782"
"$GPRMC,222143,A,2558.5406,N,07918.6659,W,2.2,289.8,180615,7.4,"
"##MN+00 00 52 0342 01781 6373 447030 205335 200"
"169.931829"
"$GPRMC,222147,A,2558.5413,N,07918.6684,W,2.2,289.6,180615,7.4,"
"##MN-00 00 51 0343 01782 6371 447001 205328 200"
"169.931875"
"$GPRMC,222151,A,2558.5421,N,07918.6709,W,2.2,289.8,180615,7.4,"
"##MN-00 00 51 0344 01782 6370 446944 205316 200"
"169.931921"
"$GPRMC,222155,A,2558.5430,N,07918.6735,W,2.2,289.4,180615,7.4,"
"##MN-00 00 52 0345 01783 6369 446913 205312 200"
"169.931968"
"$GPRMC,222159,A,2558.5439,N,07918.6761,W,2.1,289.8,180615,7.4,"
"##MN-00 00 50 0347 01783 6368 446932 205304 199"
"169.932014"
"$GPRMC,222203,A,2558.5448,N,07918.6786,W,2.2,289.3,180615,7.4,"
"##MN-00 00 10 0348 01782 6367 446851 205288 199"
"169.93206"
"$GPRMC,222207,A,2558.5457,N,07918.6807,W,2.2,289.4,180615,7.4,"
"##MN-00 00 11 0349 01784 6366 446792 205282 200"
"169.932118"
"$GPRMC,222211,A,2558.5461,N,07918.6832,W,2.2,289.6,180615,7.4,"
"##MN+00 00 10 0350 01783 6365 446739 205268 199"
"169.932164"
"$GPRMC,222215,A,2558.5467,N,07918.6855,W,2.2,289.3,180615,7.4,"
"##MN+00 00 12 0351 01787 6363 446606 205235 199"
"169.932211"
"$GPRMC,222219,A,2558.5473,N,07918.6883,W,2.2,289.2,180615,7.4,"
"##MN+00 00 50 0352 01788 6362 446604 205230 200"
"169.932257"
"#increment_net"
"$GPRMC,222223,A,2558.5481,N,07918.6908,W,2.2,289.3,180615,7.4,"
"##MN-00 00 12 0353 01786 6361 446717 205255 199"
"169.932303"
"$GPRMC,222227,A,2558.5490,N,07918.6936,W,2.2,289.2,180615,7.4,"
"##MN-00 00 11 0354 01788 6360 446827 205277 199"
"169.93235"
"$GPRMC,222231,A,2558.5497,N,07918.6959,W,2.2,289.5,180615,7.4,"
"##MN-00 00 11 0355 01787 6359 446868 205286 199"
"169.932396"
"$GPRMC,222235,A,2558.5501,N,07918.6980,W,2.2,289.3,180615,7.4,"
"##MN-00 00 11 0357 01786 6358 446812 205274 199"
"169.932442"
"$GPRMC,222239,A,2558.5513,N,07918.7012,W,2.2,290.0,180615,7.4,"
"##MN-00 00 10 0358 01786 6357 446792 205273 199"
"169.932488"
"$GPRMC,222243,A,2558.5524,N,07918.7037,W,2.2,290.0,180615,7.4,"
"##MN-00 00 11 0359 01784 6355 446782 205270 199"
"169.932535"
"$GPRMC,222247,A,2558.5536,N,07918.7070,W,2.2,290.5,180615,7.4,"
"##MN-00 00 12 0360 01787 6354 446734 205262 199"
"169.932581"
"$GPRMC,222251,A,2558.5544,N,07918.7088,W,2.2,291.0,180615,7.4,"
"##MN-00 00 11 0361 01785 6353 446730 205260 199"
"169.932627"
"$GPRMC,222255,A,2558.5558,N,07918.7121,W,2.3,291.5,180615,7.5,"
"##MN-00 00 11 0362 01786 6352 446745 205262 199"
"169.932674"
"$GPRMC,222259,A,2558.5568,N,07918.7147,W,2.3,291.7,180615,7.5,"
"##MN+00 00 09 0363 01786 6351 446755 205265 199"
"169.93272"
"$GPRMC,222303,A,2558.5579,N,07918.7172,W,2.3,291.4,180615,7.5,"
"##MN+00 00 10 0364 01786 6350 446770 205266 199"
"169.932766"
"$GPRMC,222307,A,2558.5589,N,07918.7201,W,2.3,291.8,180615,7.5,"
"##MN+00 00 10 0365 01786 6348 446787 205268 199"
"169.932813"
"$GPRMC,222311,A,2558.5601,N,07918.7226,W,2.3,292.2,180615,7.5,"
"##MN-00 00 10 0367 01786 6347 446759 205263 199"
"169.932859"
"$GPRMC,222315,A,2558.5612,N,07918.7254,W,2.3,292.6,180615,7.5,"
"##MN+00 00 09 0368 01783 6346 446730 205253 199"
"169.932905"
"$GPRMC,222319,A,2558.5619,N,07918.7284,W,2.3,292.4,180615,7.5,"
"##MN+00 00 11 0369 01785 6345 446712 205252 199"
"169.932951"
"$GPRMC,222324,A,2558.5630,N,07918.7317,W,2.3,292.1,180615,7.5,"
"##MN+00 00 12 0370 01788 6344 446710 205248 199"
"169.932998"
"$GPRMC,222327,A,2558.5637,N,07918.7337,W,2.3,291.7,180615,7.5,"
"##MN-00 00 49 0371 01786 6343 446739 205260 199"
"169.933044"
"#increment_net"
"$GPRMC,222331,A,2558.5645,N,07918.7364,W,2.3,291.0,180615,7.5,"
"##MN-00 00 48 0372 01786 6342 446773 205262 199"
"169.93309"
"$GPRMC,222335,A,2558.5656,N,07918.7392,W,2.3,290.6,180615,7.5,"
"##MN-00 00 10 0373 01783 6341 446774 205262 199"
"169.933137"
"$GPRMC,222339,A,2558.5665,N,07918.7417,W,2.3,290.4,180615,7.5,"
"##MN-00 00 10 0374 01782 6339 446742 205255 199"
"169.933183"
"$GPRMC,222344,A,2558.5677,N,07918.7447,W,2.2,290.3,180615,7.5,"
"##MN-00 00 13 0375 01784 6338 446788 205262 199"
"169.933229"
"$GPRMC,222348,A,2558.5685,N,07918.7476,W,2.3,290.2,180615,7.5,"
"##MN-00 00 10 0377 01783 6337 446814 205271 199"
"169.933275"
"$GPRMC,222352,A,2558.5695,N,07918.7501,W,2.2,290.1,180615,7.5,"
"##MN-00 00 42 0378 01784 6336 446803 205271 199"
"169.933322"
"$GPRMC,222356,A,2558.5705,N,07918.7527,W,2.2,290.2,180615,7.5,"
"##MN-00 00 10 0379 01780 6335 446784 205267 199"
"169.933368"
"$GPRMC,222400,A,2558.5714,N,07918.7551,W,2.3,290.7,180615,7.5,"
"##MN-00 00 09 0380 01780 6334 446802 205273 199"
"169.933414"
"$GPRMC,222404,A,2558.5723,N,07918.7576,W,2.3,290.4,180615,7.5,"
"##MN+00 00 48 0381 01781 6333 446817 205274 199"
"169.933461"
"$GPRMC,222408,A,2558.5731,N,07918.7603,W,2.3,290.3,180615,7.5,"
"##MN+00 00 48 0382 01778 6331 446755 205260 199"
"169.933507"
"$GPRMC,222412,A,2558.5739,N,07918.7628,W,2.3,290.1,180615,7.5,"
"##MN+00 00 47 0384 01781 6330 446732 205253 199"
"169.933553"
"$GPRMC,222416,A,2558.5750,N,07918.7653,W,2.3,290.6,180615,7.5,"
"##MN-00 00 10 0385 01779 6329 446694 205245 199"
"169.9336"
"$GPRMC,222420,A,2558.5759,N,07918.7680,W,2.3,290.6,180615,7.5,"
"##MN-00 00 44 0386 01779 6328 446620 205222 199"
"169.933646"
"$GPRMC,222424,A,2558.5768,N,07918.7704,W,2.3,290.7,180615,7.5,"
"##MN-00 00 09 0387 01777 6327 446568 205214 199"
"169.933692"
"$GPRMC,222428,A,2558.5775,N,07918.7733,W,2.2,290.9,180615,7.5,"
"##MN-00 00 46 0388 01777 6326 446560 205208 199"
"169.933738"
"$GPRMC,222432,A,2558.5785,N,07918.7758,W,2.3,291.3,180615,7.5,"
"##MN+00 00 10 0390 01776 6325 446509 205198 199"
"169.933785"
"$GPRMC,222436,A,2558.5796,N,07918.7785,W,2.3,291.6,180615,7.5,"
"##MN+00 00 10 0391 01776 6324 446468 205184 199"
"169.933831"
"$GPRMC,222440,A,2558.5804,N,07918.7811,W,2.3,291.2,180615,7.5,"
"##MN+00 00 10 0392 01779 6323 446309 205155 199"
"169.933877"
"#increment_net"
"$GPRMC,222444,A,2558.5813,N,07918.7839,W,2.3,291.4,180615,7.5,"
"##MN-00 00 10 0393 01778 6322 446230 205131 199"
"169.933924"
"$GPRMC,222448,A,2558.5824,N,07918.7866,W,2.3,291.5,180615,7.5,"
"##MN-00 00 47 0394 01776 6320 446161 205117 199"
"169.93397"
"$GPRMC,222452,A,2558.5840,N,07918.7897,W,2.3,291.7,180615,7.5,"
"##MN-00 00 09 0396 01775 6319 446062 205101 199"
"169.934016"
"$GPRMC,222456,A,2558.5853,N,07918.7926,W,2.3,291.2,180615,7.5,"
"##MN-00 00 08 0397 01774 6318 446034 205095 199"
"169.934062"
"$GPRMC,222500,A,2558.5862,N,07918.7959,W,2.3,290.9,180615,7.5,"
"##MN-00 00 08 0398 01773 6317 446064 205100 199"
"169.934109"
"$GPRMC,222504,A,2558.5869,N,07918.7989,W,2.3,290.8,180615,7.5,"
"##MN-00 00 44 0399 01774 6316 446106 205105 199"
"169.934155"
"$GPRMC,222508,A,2558.5876,N,07918.8017,W,2.4,290.5,180615,7.5,"
"##MN-00 00 09 0400 01771 6315 446124 205107 199"
"169.934201"
"$GPRMC,222512,A,2558.5883,N,07918.8042,W,2.3,290.4,180615,7.5,"
"##MN-00 00 09 0402 01772 6314 446132 205108 199"
"169.934248"
"$GPRMC,222516,A,2558.5890,N,07918.8067,W,2.3,290.3,180615,7.5,"
"##MN+00 00 46 0403 01772 6313 446176 205114 199"
"169.934294"
"$GPRMC,222520,A,2558.5896,N,07918.8092,W,2.3,290.6,180615,7.5,"
"##MN+00 00 09 0404 01774 6312 446292 205146 199"
"169.93434"
"$GPRMC,222524,A,2558.5901,N,07918.8116,W,2.3,290.4,180615,7.5,"
"##MN+00 00 09 0405 01773 6311 446442 205167 199"
"169.934387"
"$GPRMC,222528,A,2558.5909,N,07918.8143,W,2.3,290.9,180615,7.5,"
"##MN-00 00 09 0406 01773 6310 446496 205190 199"
"169.934433"
"$GPRMC,222532,A,2558.5919,N,07918.8168,W,2.3,290.5,180615,7.5,"
"##MN+00 00 09 0408 01772 6309 446526 205198 199"
"169.934479"
"$GPRMC,222536,A,2558.5929,N,07918.8193,W,2.3,290.5,180615,7.5,"
"##MN+00 00 09 0409 01773 6308 446544 205200 199"
"169.934525"
"$GPRMC,222540,A,2558.5941,N,07918.8222,W,2.3,290.5,180615,7.5,"
"##MN+00 00 13 0410 01774 6307 446578 205209 199"
"169.934572"
"$GPRMC,222544,A,2558.5948,N,07918.8245,W,2.3,290.3,180615,7.5,"
"##MN-00 00 11 0411 01777 6306 446618 205221 199"
"169.934618"
"#increment_net"
"$GPRMC,222548,A,2558.5956,N,07918.8274,W,2.3,289.9,180615,7.5,"
"##MN-00 00 50 0413 01783 6305 446633 205221 199"
"169.934664"
"$GPRMC,222552,A,2558.5962,N,07918.8300,W,2.4,289.3,180615,7.5,"
"##MN-00 00 51 0414 01787 6304 446676 205230 199"
"169.934711"
"$GPRMC,222556,A,2558.5970,N,07918.8327,W,2.4,288.8,180615,7.5,"
"##MN-00 00 51 0416 01794 6303 446702 205233 199"
"169.934757"
"$GPRMC,222600,A,2558.5981,N,07918.8357,W,2.4,287.8,180615,7.5,"
"##MN-00 00 51 0417 01793 6302 446664 205225 199"
"169.934803"
"$GPRMC,222604,A,2558.5988,N,07918.8387,W,2.5,286.5,180615,7.5,"
"##MN-00 00 51 0419 01795 6301 446624 205218 199"
"169.93485"
"$GPRMC,222608,A,2558.5999,N,07918.8417,W,2.5,285.8,180615,7.5,"
"##MN-00 00 51 0421 01794 6300 446563 205197 199"
"169.934896"
"$GPRMC,222612,A,2558.6003,N,07918.8447,W,2.5,285.0,180615,7.5,"
"##MN-00 00 09 0422 01792 6299 446468 205176 199"
"169.934942"
"$GPRMC,222616,A,2558.6012,N,07918.8475,W,2.5,284.6,180615,7.5,"
"##MN-00 00 10 0424 01791 6297 446366 205153 199"
"169.934988"
"$GPRMC,222620,A,2558.6017,N,07918.8505,W,2.5,284.1,180615,7.5,"
"##MN-00 00 46 0425 01792 6296 446229 205124 199"
"169.935035"
"$GPRMC,222624,A,2558.6030,N,07918.8541,W,2.5,284.3,180615,7.5,"
"##MN-00 00 52 0427 01790 6295 446073 205098 199"
"169.935081"
"$GPRMC,222628,A,2558.6035,N,07918.8573,W,2.5,283.9,180615,7.5,"
"##MN-00 00 52 0429 01786 6295 445946 205072 199"
"169.935127"
"$GPRMC,222632,A,2558.6039,N,07918.8605,W,2.5,283.9,180615,7.5,"
"##MN-00 00 11 0430 01787 6294 445892 205063 199"
"169.935174"
"$GPRMC,222636,A,2558.6046,N,07918.8634,W,2.5,283.8,180615,7.5,"
"##MN-00 00 52 0432 01782 6293 445895 205064 199"
"169.93522"
"$GPRMC,222640,A,2558.6055,N,07918.8665,W,2.5,284.2,180615,7.5,"
"##MN-00 00 52 0433 01779 6292 445906 205065 199"
"169.935266"
"$GPRMC,222644,A,2558.6059,N,07918.8696,W,2.5,284.7,180615,7.5,"
"##MN-00 00 50 0435 01779 6291 445916 205065 199"
"169.935313"
"$GPRMC,222648,A,2558.6066,N,07918.8725,W,2.6,285.2,180615,7.5,"
"##MN-00 00 50 0436 01776 6290 445926 205068 199"
"169.93537"
"$GPRMC,222652,A,2558.6073,N,07918.8754,W,2.5,285.4,180615,7.5,"
"##MN-00 00 50 0438 01775 6289 445960 205073 199"
"169.935417"
"$GPRMC,222656,A,2558.6085,N,07918.8786,W,2.5,285.9,180615,7.5,"
"##MN-00 00 12 0439 01774 6288 446000 205080 199"
"169.935463"
"$GPRMC,222700,A,2558.6093,N,07918.8816,W,2.5,286.0,180615,7.5,"
"##MN-00 00 10 0441 01773 6287 446051 205088 199"
"169.935509"
"$GPRMC,222704,A,2558.6102,N,07918.8848,W,2.5,286.1,180615,7.5,"
"##MN-00 00 10 0443 01770 6286 446085 205097 199"
"169.935556"
"$GPRMC,222708,A,2558.6109,N,07918.8880,W,2.5,286.5,180615,7.5,"
"##MN-00 00 10 0444 01769 6284 446100 205099 199"
"169.935602"
"$GPRMC,222712,A,2558.6115,N,07918.8913,W,2.5,286.7,180615,7.5,"
"##MN-00 00 11 0446 01765 6284 446099 205099 199"
"169.935648"
"$GPRMC,222716,A,2558.6122,N,07918.8945,W,2.5,287.1,180615,7.5,"
"##MN-00 00 11 0447 01763 6283 446114 205101 199"
"169.935694"
"$GPRMC,222720,A,2558.6131,N,07918.8977,W,2.5,287.3,180615,7.5,"
"##MN-00 00 11 0449 01761 6281 446111 205101 199"
"169.935741"
"$GPRMC,222724,A,2558.6140,N,07918.9007,W,2.5,287.0,180615,7.5,"
"##MN-00 00 11 0450 01760 6281 446096 205099 199"
"169.935787"
"$GPRMC,222728,A,2558.6151,N,07918.9039,W,2.5,287.2,180615,7.5,"
"##MN-00 00 11 0452 01756 6280 446098 205102 199"
"169.935833"
"$GPRMC,222732,A,2558.6160,N,07918.9068,W,2.5,287.1,180615,7.5,"
"##MN-00 00 11 0454 01751 6279 446121 205107 199"
"169.93588"
"$GPRMC,222736,A,2558.6169,N,07918.9098,W,2.5,287.2,180615,7.5,"
"##MN-00 00 11 0455 01746 6278 446108 205103 199"
"169.935926"
"$GPRMC,222740,A,2558.6179,N,07918.9129,W,2.5,286.7,180615,7.5,"
"##MN-00 00 11 0457 01744 6277 446071 205095 199"
"169.935972"
"$GPRMC,222744,A,2558.6187,N,07918.9158,W,2.5,286.7,180615,7.5,"
"##MN-00 00 11 0458 01742 6276 446033 205090 199"
"169.936019"
"$GPRMC,222748,A,2558.6197,N,07918.9185,W,2.5,286.9,180615,7.5,"
"##MN-00 00 11 0460 01738 6275 446029 205091 199"
"169.936065"
"$GPRMC,222752,A,2558.6205,N,07918.9213,W,2.5,286.5,180615,7.5,"
"##MN-00 00 11 0462 01733 6274 446027 205088 199"
"169.936111"
"$GPRMC,222756,A,2558.6214,N,07918.9241,W,2.5,286.5,180615,7.5,"
"##MN-00 00 11 0463 01732 6273 446017 205088 199"
"169.936157"
"$GPRMC,222800,A,2558.6222,N,07918.9270,W,2.5,285.8,180615,7.5,"
"##MN-00 00 11 0465 01729 6272 446019 205090 199"
"169.936204"
"$GPRMC,222804,A,2558.6229,N,07918.9300,W,2.4,286.0,180615,7.5,"
"##MN-00 00 10 0466 01727 6272 446024 205090 199"
"169.93625"
"$GPRMC,222808,A,2558.6236,N,07918.9332,W,2.5,286.1,180615,7.5,"
"##MN-00 00 11 0468 01724 6270 445990 205079 199"
"169.936296"
"$GPRMC,222812,A,2558.6243,N,07918.9361,W,2.5,285.6,180615,7.5,"
"##MN-00 00 10 0469 01722 6270 445925 205068 199"
"169.936343"
"$GPRMC,222817,A,2558.6252,N,07918.9398,W,2.5,286.0,180615,7.5,"
"##MN-00 00 11 0471 01717 6269 445869 205056 199"
"169.936389"
"$GPRMC,222820,A,2558.6256,N,07918.9422,W,2.5,286.0,180615,7.5,"
"##MN-00 00 11 0472 01714 6268 445609 205000 199"
"169.936435"
"$GPRMC,222825,A,2558.6266,N,07918.9458,W,2.5,286.0,180615,7.5,"
"##MN-00 00 11 0474 01710 6267 445183 204949 199"
"169.936481"
"$GPRMC,222828,A,2558.6270,N,07918.9477,W,2.5,286.2,180615,7.5,"
"##MN-00 00 11 0476 01706 6266 445057 204921 199"
"169.936528"
"$GPRMC,222832,A,2558.6279,N,07918.9509,W,2.5,286.8,180615,7.5,"
"##MN-00 00 10 0477 01701 6265 444845 204893 199"
"169.936574"
"$GPRMC,222836,A,2558.6288,N,07918.9537,W,2.5,287.4,180615,7.5,"
"##MN-00 00 09 0479 01699 6264 444507 204796 199"
"169.93662"
"$GPRMC,222841,A,2558.6298,N,07918.9574,W,2.5,287.3,180615,7.5,"
"##MN-00 00 10 0480 01693 6264 444307 204779 199"
"169.936667"
"$GPRMC,222845,A,2558.6306,N,07918.9603,W,2.6,287.1,180615,7.5,"
"##MN-00 00 09 0482 01690 6263 444147 204723 199"
"169.936713"
"$GPRMC,222849,A,2558.6317,N,07918.9635,W,2.5,287.3,180615,7.5,"
"##MN-00 00 10 0484 01685 6262 444029 204693 199"
"169.936759"
"$GPRMC,222853,A,2558.6331,N,07918.9668,W,2.5,287.2,180615,7.5,"
"##MN-00 00 13 0485 01680 6261 443953 204673 199"
"169.936806"
"$GPRMC,222857,A,2558.6342,N,07918.9700,W,2.5,286.9,180615,7.5,"
"##MN-00 00 43 0487 01678 6260 443903 204665 199"
"169.936852"
"$GPRMC,222901,A,2558.6350,N,07918.9729,W,2.6,287.0,180615,7.5,"
"##MN-00 00 11 0488 01670 6259 443844 204651 199"
"169.936898"
"$GPRMC,222905,A,2558.6359,N,07918.9762,W,2.6,287.0,180615,7.5,"
"##MN-00 00 10 0490 01668 6258 443792 204649 199"
"169.936944"
"$GPRMC,222909,A,2558.6367,N,07918.9792,W,2.5,286.7,180615,7.5,"
"##MN-00 00 11 0491 01663 6258 443784 204657 199"
"169.936991"
"$GPRMC,222913,A,2558.6375,N,07918.9823,W,2.5,286.4,180615,7.5,"
"##MN-00 00 10 0493 01662 6257 443807 204669 199"
"169.937037"
"$GPRMC,222917,A,2558.6385,N,07918.9856,W,2.5,286.5,180615,7.5,"
"##MN-00 00 50 0495 01657 6256 443843 204685 199"
"169.937083"
"$GPRMC,222921,A,2558.6390,N,07918.9886,W,2.5,286.9,180615,7.5,"
"##MN-00 00 12 0496 01650 6255 443852 204693 199"
"169.93713"
"$GPRMC,222925,A,2558.6399,N,07918.9917,W,2.5,286.6,180615,7.5,"
"##MN-00 00 11 0498 01650 6254 443791 204690 199"
"169.937176"
"$GPRMC,222929,A,2558.6407,N,07918.9949,W,2.5,286.6,180615,7.5,"
"##MN-00 00 15 0499 01644 6253 443763 204692 199"
"169.937222"
"$GPRMC,222933,A,2558.6411,N,07918.9982,W,2.5,285.9,180615,7.5,"
"##MN-00 00 11 0501 01642 6252 443750 204691 199"
"169.937268"
"$GPRMC,222937,A,2558.6415,N,07919.0011,W,2.6,286.2,180615,7.5,"
"##MN-00 00 11 0503 01639 6252 443675 204679 199"
"169.937315"
"$GPRMC,222941,A,2558.6422,N,07919.0041,W,2.6,285.6,180615,7.5,"
"##MN-00 00 11 0504 01634 6251 443605 204662 199"
"169.937361"
"$GPRMC,222945,A,2558.6428,N,07919.0072,W,2.5,285.1,180615,7.5,"
"##MN-00 00 11 0506 01632 6250 443530 204645 199"
"169.937407"
"$GPRMC,222949,A,2558.6436,N,07919.0098,W,2.5,285.4,180615,7.5,"
"##MN-00 00 11 0507 01627 6249 443444 204635 199"
"169.937454"
"$GPRMC,222953,A,2558.6443,N,07919.0127,W,2.6,285.3,180615,7.5,"
"##MN-00 00 48 0509 01622 6249 443391 204626 199"
"169.9375"
"$GPRMC,222957,A,2558.6451,N,07919.0156,W,2.6,285.0,180615,7.5,"
"##MN-00 00 50 0511 01618 6248 443304 204597 199"
"169.937546"
"$GPRMC,223001,A,2558.6456,N,07919.0184,W,2.6,284.9,180615,7.5,"
"##MN-00 00 48 0512 01614 6247 443147 204565 199"
"169.937593"
"$GPRMC,223005,A,2558.6461,N,07919.0213,W,2.6,284.6,180615,7.5,"
"##MN-00 00 50 0514 01611 6247 443000 204519 199"
"169.937639"
"$GPRMC,223009,A,2558.6467,N,07919.0243,W,2.6,284.2,180615,7.5,"
"##MN-00 00 51 0516 01605 6246 442423 204341 199"
"169.937685"
"$GPRMC,223013,A,2558.6471,N,07919.0275,W,2.6,284.2,180615,7.5,"
"##MN-00 00 52 0517 01604 6245 441703 204241 199"
"169.937732"
"$GPRMC,223017,A,2558.6479,N,07919.0309,W,2.6,284.4,180615,7.5,"
"##MN-00 00 50 0519 01599 6244 441033 204072 199"
"169.937778"
"$GPRMC,223021,A,2558.6487,N,07919.0340,W,2.6,284.5,180615,7.5,"
"##MN-00 00 15 0520 01597 6244 440654 204044 199"
"169.937824"
"$GPRMC,223025,A,2558.6496,N,07919.0373,W,2.6,284.4,180615,7.5,"
"##MN-00 00 52 0522 01593 6243 440850 204083 199"
"169.93787"
"$GPRMC,223029,A,2558.6505,N,07919.0406,W,2.6,284.8,180615,7.5,"
"##MN-00 00 10 0523 01589 6242 440999 204096 199"
"169.937917"
"$GPRMC,223033,A,2558.6515,N,07919.0437,W,2.6,285.2,180615,7.5,"
"##MN-00 00 49 0525 01589 6242 440841 204052 199"
"169.937963"
"$GPRMC,223037,A,2558.6522,N,07919.0460,W,2.6,285.3,180615,7.5,"
"##MN-00 00 48 0527 01585 6241 440608 204000 199"
"169.938009"
"$GPRMC,223041,A,2558.6534,N,07919.0499,W,2.7,285.7,180615,7.5,"
"##MN-00 00 09 0528 01582 6240 440305 203949 199"
"169.938056"
"$GPRMC,223045,A,2558.6544,N,07919.0531,W,2.6,285.6,180615,7.5,"
"##MN-00 00 10 0530 01580 6240 440115 203907 199"
"169.938102"
"$GPRMC,223049,A,2558.6552,N,07919.0556,W,2.7,285.4,180615,7.5,"
"##MN-00 00 51 0531 01574 6239 439903 203870 199"
"169.938148"
"$GPRMC,223053,A,2558.6563,N,07919.0596,W,2.7,286.1,180615,7.5,"
"##MN-00 00 51 0533 01573 6239 439985 203933 199"
"169.938194"
"$GPRMC,223057,A,2558.6574,N,07919.0629,W,2.8,286.7,180615,7.5,"
"##MN-00 00 52 0534 01569 6238 440470 203989 199"
"169.938241"
"$GPRMC,223101,A,2558.6584,N,07919.0662,W,2.8,286.8,180615,7.5,"
"##MN-00 00 52 0536 01571 6237 440347 203941 199"
"169.938287"
"$GPRMC,223105,A,2558.6594,N,07919.0697,W,2.8,286.6,180615,7.5,"
"##MN-00 00 50 0538 01566 6237 440007 203884 199"
"169.938333"
"$GPRMC,223109,A,2558.6605,N,07919.0731,W,2.8,285.9,180615,7.5,"
"##MN-00 00 51 0539 01566 6236 439847 203863 199"
"169.93838"
"$GPRMC,223113,A,2558.6609,N,07919.0762,W,2.7,285.3,180615,7.5,"
"##MN-00 00 51 0541 01561 6235 439729 203825 199"
"169.938426"
"$GPRMC,223117,A,2558.6612,N,07919.0798,W,2.7,284.8,180615,7.5,"
"##MN-00 00 52 0542 01557 6235 439600 203806 199"
"169.938472"
"$GPRMC,223121,A,2558.6620,N,07919.0831,W,2.6,284.7,180615,7.5,"
"##MN-00 00 50 0544 01554 6234 439560 203796 199"
"169.938519"
"$GPRMC,223125,A,2558.6630,N,07919.0864,W,2.7,284.2,180615,7.5,"
"##MN-00 00 51 0545 01551 6234 439489 203781 199"
"169.938565"
"$GPRMC,223129,A,2558.6637,N,07919.0896,W,2.7,283.4,180615,7.5,"
"##MN-00 00 49 0547 01547 6234 439400 203763 199"
"169.938623"
"$GPRMC,223133,A,2558.6640,N,07919.0925,W,2.6,283.5,180615,7.5,"
"##MN-00 00 52 0549 01543 6233 439344 203753 199"
"169.938669"
"$GPRMC,223137,A,2558.6646,N,07919.0957,W,2.6,282.9,180615,7.5,"
"##MN-00 00 11 0550 01540 6233 439301 203742 199"
"169.938715"
"$GPRMC,223141,A,2558.6652,N,07919.0987,W,2.6,282.7,180615,7.5,"
"##MN-00 00 09 0552 01537 6232 439249 203735 199"
"169.938762"
"$GPRMC,223145,A,2558.6656,N,07919.1019,W,2.6,282.5,180615,7.5,"
"##MN-00 00 10 0553 01535 6232 439240 203733 199"
"169.938808"
"$GPRMC,223149,A,2558.6662,N,07919.1048,W,2.6,282.4,180615,7.5,"
"##MN-00 00 50 0555 01533 6231 439305 203785 199"
"169.938854"
"$GPRMC,223153,A,2558.6667,N,07919.1080,W,2.6,282.2,180615,7.5,"
"##MN-00 00 10 0556 01534 6231 439376 203810 199"
"169.9389"
"$GPRMC,223157,A,2558.6673,N,07919.1110,W,2.6,282.2,180615,7.5,"
"##MN-00 00 27 0558 01532 6230 439442 224976 199"
"169.938947"
"$GPRMC,223201,A,2558.6678,N,07919.1142,W,2.6,281.7,180615,7.5,"
"##MN-00 00 49 0559 01533 6230 440037 381189 199"
"169.938993"
"$GPRMC,223205,A,2558.6685,N,07919.1174,W,2.6,281.9,180615,7.5,"
"##MN-00 00 50 0559 01532 6229 442643 820175 199"
"169.939039"
"$GPRMC,223209,A,2558.6691,N,07919.1203,W,2.6,282.0,180615,7.5,"
"##MN-00 00 51 0559 01534 6229 447961 827867 199"
"169.939086"
"$GPRMC,223213,A,2558.6698,N,07919.1237,W,2.6,282.2,180615,7.5,"
"##MN-00 00 46 0559 01533 6229 453007 827869 199"
"169.939132"
"$GPRMC,223217,A,2558.6709,N,07919.1272,W,2.6,282.9,180615,7.5,"
"##MN-00 00 47 0559 01534 6228 457561 827871 199"
"169.939178"
"$GPRMC,223221,A,2558.6718,N,07919.1308,W,2.6,282.7,180615,7.5,"
"##MN-00 00 47 0559 01535 6228 459573 827873 199"
"169.939225"
"$GPRMC,223225,A,2558.6729,N,07919.1342,W,2.7,282.9,180615,7.5,"
"##MN-00 00 46 0559 01533 6227 461519 827874 199"
"169.939271"
"$GPRMC,223229,A,2558.6735,N,07919.1376,W,2.7,283.3,180615,7.5,"
"##MN-00 00 46 0559 01533 6227 463306 827877 199"
"169.939317"
"$GPRMC,223233,A,2558.6742,N,07919.1409,W,2.7,283.6,180615,7.5,"
"##MN-00 00 46 0559 01534 6227 464696 827878 199"
"169.939363"
"$GPRMC,223237,A,2558.6750,N,07919.1441,W,2.8,284.1,180615,7.5,"
"##MN-00 00 37 0559 01532 6226 463226 751369 199"
"169.93941"
"$GPRMC,223241,A,2558.6758,N,07919.1474,W,2.8,284.2,180615,7.5,"
"##MN-00 00 37 0559 01534 6226 463681 827500 199"
"169.939456"
"$GPRMC,223245,A,2558.6767,N,07919.1508,W,2.9,283.6,180615,7.5,"
"##MN-00 00 38 0559 01532 6225 464319 827522 199"
"169.939502"
"$GPRMC,223250,A,2558.6776,N,07919.1553,W,2.9,283.4,180615,7.5,"
"##MN-00 00 41 0559 01535 6225 465283 827551 199"
"169.939549"
"$GPRMC,223254,A,2558.6785,N,07919.1589,W,3.0,282.3,180615,7.5,"
"##MN-00 00 43 0559 01534 6225 466432 827571 199"
"169.939595"
"$GPRMC,223258,A,2558.6792,N,07919.1624,W,3.0,282.0,180615,7.5,"
"##MN-00 00 43 0559 01535 6224 466755 810234 199"
"169.939641"
"$GPRMC,223302,A,2558.6801,N,07919.1663,W,3.0,281.3,180615,7.5,"
"##MN-00 00 43 0559 01533 6224 466604 696959 199"
"169.939687"
"$GPRMC,223306,A,2558.6808,N,07919.1701,W,3.1,280.8,180615,7.5,"
"##MN-00 00 43 0559 01534 6224 466561 691438 199"
"169.939734"
"$GPRMC,223309,A,2558.6812,N,07919.1727,W,3.1,280.3,180615,7.5,"
"##MN-00 00 43 0559 01531 6223 466550 710824 199"
"169.93978"
"$GPRMC,223314,A,2558.6816,N,07919.1775,W,3.1,279.3,180615,7.5,"
"##MN-00 00 43 0559 01534 6223 466639 694797 199"
"169.939826"
"$GPRMC,223318,A,2558.6817,N,07919.1810,W,3.1,278.7,180615,7.5,"
"##MN-00 00 43 0559 01534 6222 466515 669442 199"
"169.939873"
"$GPRMC,223322,A,2558.6823,N,07919.1848,W,3.1,277.4,180615,7.5,"
"##MN-00 00 43 0559 01534 6222 466113 752946 199"
"169.939919"
"$GPRMC,223326,A,2558.6826,N,07919.1890,W,3.1,276.3,180615,7.5,"
"##MN-00 00 43 0559 01532 6222 465383 827853 199"
"169.939965"
"$GPRMC,223330,A,2558.6826,N,07919.1931,W,3.1,275.8,180615,7.5,"
"##MN-00 00 52 0559 01533 6221 464323 795524 199"
"169.940012"
"$GPRMC,223334,A,2558.6829,N,07919.1970,W,3.1,275.0,180615,7.5,"
"##MN-00 00 52 0559 01533 6221 463473 821338 199"
"169.940058"
"$GPRMC,223338,A,2558.6830,N,07919.2010,W,3.1,274.3,180615,7.5,"
"##MN-00 00 52 0559 01533 6220 462303 827871 199"
"169.940104"
"$GPRMC,223342,A,2558.6833,N,07919.2050,W,3.1,274.4,180615,7.5,"
"##MN-00 00 52 0559 01535 6220 461843 827873 199"
"169.94015"
"$GPRMC,223346,A,2558.6836,N,07919.2092,W,3.2,274.5,180615,7.5,"
"##MN-00 00 53 0559 01534 6220 461388 827874 199"
"169.940197"
"$GPRMC,223350,A,2558.6840,N,07919.2132,W,3.2,274.4,180615,7.5,"
"##MN-00 00 53 0559 01534 6219 460750 827880 199"
"169.940243"
"$GPRMC,223354,A,2558.6840,N,07919.2169,W,3.2,274.0,180615,7.5,"
"##MN-00 00 53 0559 01534 6219 460620 827883 199"
"169.940289"
"$GPRMC,223358,A,2558.6841,N,07919.2207,W,3.2,274.2,180615,7.5,"
"##MN-00 00 53 0559 01533 6219 460364 827883 199"
"169.940336"
"$GPRMC,223402,A,2558.6847,N,07919.2244,W,3.2,274.4,180615,7.5,"
"##MN-00 00 53 0559 01533 6219 459986 827883 199"
"169.940382"
"$GPRMC,223406,A,2558.6851,N,07919.2284,W,3.2,274.7,180615,7.5,"
"##MN-00 00 53 0559 01534 6218 459275 827884 199"
"169.940428"
"$GPRMC,223410,A,2558.6856,N,07919.2324,W,3.3,275.9,180615,7.5,"
"##MN-00 00 53 0559 01533 6218 459002 827884 199"
"169.940475"
"$GPRMC,223414,A,2558.6863,N,07919.2366,W,3.4,277.8,180615,7.5,"
"##MN-00 00 53 0559 01533 6218 459007 827884 199"
"169.940521"
"$GPRMC,223418,A,2558.6873,N,07919.2406,W,3.4,279.9,180615,7.5,"
"##MN-00 00 53 0559 01532 6217 459246 827884 199"
"169.940567"
"$GPRMC,223422,A,2558.6880,N,07919.2447,W,3.4,280.4,180615,7.5,"
"##MN-00 00 53 0559 01531 6217 458765 827884 199"
"169.940613"
"$GPRMC,223426,A,2558.6887,N,07919.2489,W,3.3,280.4,180615,7.5,"
"##MN-00 00 53 0559 01534 6217 458212 827884 199"
"169.94066"
"$GPRMC,223430,A,2558.6891,N,07919.2527,W,3.3,280.2,180615,7.5,"
"##MN-00 00 53 0559 01533 6217 458051 827884 199"
"169.940706"
"$GPRMC,223434,A,2558.6899,N,07919.2569,W,3.3,279.9,180615,7.5,"
"##MN-00 00 53 0559 01532 6216 457589 827885 199"
"169.940752"
"$GPRMC,223438,A,2558.6906,N,07919.2606,W,3.3,280.9,180615,7.5,"
"##MN-00 00 54 0559 01534 6216 457387 827885 199"
"169.940799"
"$GPRMC,223442,A,2558.6913,N,07919.2645,W,3.3,282.0,180615,7.5,"
"##MN-00 00 54 0559 01532 6216 457365 827884 199"
"169.940845"
"$GPRMC,223446,A,2558.6924,N,07919.2675,W,3.3,283.1,180615,7.5,"
"##MN-00 00 54 0559 01532 6216 457399 827885 199"
"169.940891"
"$GPRMC,223450,A,2558.6941,N,07919.2727,W,3.3,285.3,180615,7.5,"
"##MN-00 00 54 0559 01533 6215 457374 827885 199"
"169.940938"
"$GPRMC,223454,A,2558.6958,N,07919.2762,W,3.3,286.6,180615,7.5,"
"##MN-00 00 54 0559 01534 6215 457918 827885 199"
"169.940984"
"$GPRMC,223458,A,2558.6971,N,07919.2803,W,3.5,287.5,180615,7.5,"
"##MN-00 00 54 0559 01533 6215 458364 827885 199"
"169.94103"
"$GPRMC,223502,A,2558.6982,N,07919.2843,W,3.5,288.9,180615,7.5,"
"##MN-00 00 54 0559 01533 6214 458836 827884 199"
"169.941076"
"$GPRMC,223506,A,2558.6995,N,07919.2883,W,3.5,290.0,180615,7.5,"
"##MN-00 00 54 0559 01532 6214 458937 827885 199"
"169.941123"
"$GPRMC,223510,A,2558.7007,N,07919.2924,W,3.6,290.9,180615,7.5,"
"##MN-00 00 54 0559 01533 6214 459126 827885 199"
"169.941169"
"$GPRMC,223514,A,2558.7023,N,07919.2967,W,3.6,290.6,180615,7.5,"
"##MN-00 00 54 0559 01534 6213 459711 827885 199"
"169.941215"
"$GPRMC,223518,A,2558.7039,N,07919.3011,W,3.6,290.4,180615,7.5,"
"##MN-00 00 54 0559 01532 6213 459439 827885 199"
"169.941262"
"$GPRMC,223522,A,2558.7054,N,07919.3056,W,3.6,290.2,180615,7.5,"
"##MN-00 00 54 0559 01533 6213 459339 827886 199"
"169.941308"
"$GPRMC,223526,A,2558.7068,N,07919.3097,W,3.6,289.9,180615,7.5,"
"##MN-00 00 54 0559 01532 6212 459424 827888 199"
"169.941354"
"$GPRMC,223530,A,2558.7079,N,07919.3136,W,3.6,289.3,180615,7.5,"
"##MN-00 00 54 0559 01534 6212 459482 827887 199"
"169.9414"
"$GPRMC,223534,A,2558.7092,N,07919.3177,W,3.6,288.6,180615,7.5,"
"##MN-00 00 54 0559 01534 6212 459113 827887 199"
"169.941447"
"$GPRMC,223538,A,2558.7105,N,07919.3217,W,3.6,288.4,180615,7.5,"
"##MN-00 00 54 0559 01533 6211 458516 827887 199"
"169.941493"
"$GPRMC,223542,A,2558.7117,N,07919.3258,W,3.5,287.7,180615,7.5,"
"##MN-00 00 54 0559 01532 6211 458134 827887 199"
"169.941539"
"$GPRMC,223546,A,2558.7126,N,07919.3298,W,3.5,287.5,180615,7.5,"
"##MN-00 00 54 0559 01532 6211 458001 827888 199"
"169.941586"
"$GPRMC,223550,A,2558.7137,N,07919.3340,W,3.5,286.1,180615,7.5,"
"##MN-00 00 54 0559 01533 6210 458186 827888 199"
"169.941632"
"$GPRMC,223554,A,2558.7148,N,07919.3382,W,3.5,285.7,180615,7.5,"
"##MN-00 00 54 0559 01534 6210 458603 827889 199"
"169.941678"
"$GPRMC,223558,A,2558.7155,N,07919.3423,W,3.4,285.2,180615,7.5,"
"##MN-00 00 54 0559 01533 6210 458980 827888 199"
"169.941725"
"$GPRMC,223602,A,2558.7164,N,07919.3465,W,3.4,284.1,180615,7.5,"
"##MN-00 00 54 0559 01534 6210 459069 827888 199"
"169.941771"
"$GPRMC,223606,A,2558.7169,N,07919.3504,W,3.4,283.3,180615,7.5,"
"##MN-00 00 54 0559 01533 6210 458702 827889 199"
"169.941817"
"$GPRMC,223610,A,2558.7177,N,07919.3544,W,3.3,282.9,180615,7.5,"
"##MN-00 00 54 0559 01534 6209 458475 827888 199"
"169.941875"
"$GPRMC,223614,A,2558.7182,N,07919.3584,W,3.2,281.9,180615,7.5,"
"##MN-00 00 54 0559 01532 6209 458495 827888 199"
"169.941921"
"$GPRMC,223618,A,2558.7188,N,07919.3625,W,3.3,281.0,180615,7.5,"
"##MN-00 00 54 0559 01533 6208 458443 827889 199"
"169.941968"
"$GPRMC,223622,A,2558.7195,N,07919.3665,W,3.2,279.7,180615,7.5,"
"##MN-00 00 54 0559 01532 6208 458150 827888 199"
"169.942014"
"$GPRMC,223626,A,2558.7202,N,07919.3706,W,3.2,278.6,180615,7.5,"
"##MN-00 00 54 0559 01530 6208 457141 827888 199"
"169.94206"
"$GPRMC,223630,A,2558.7208,N,07919.3744,W,3.1,277.9,180615,7.5,"
"##MN-00 00 54 0559 01532 6207 456955 827889 199"
"169.942106"
"$GPRMC,223634,A,2558.7211,N,07919.3783,W,3.1,277.1,180615,7.5,"
"##MN-00 00 54 0559 01532 6207 457049 827889 199"
"169.942153"
"$GPRMC,223638,A,2558.7214,N,07919.3819,W,3.0,276.2,180615,7.5,"
"##MN-00 00 54 0559 01534 6207 456462 827888 199"
"169.942199"
"$GPRMC,223642,A,2558.7217,N,07919.3855,W,3.0,275.3,180615,7.5,"
"##MN-00 00 54 0559 01535 6207 455922 827889 199"
"169.942245"
"$GPRMC,223646,A,2558.7220,N,07919.3892,W,3.0,274.4,180615,7.5,"
"##MN-00 00 54 0559 01532 6207 455673 827889 199"
"169.942292"
"$GPRMC,223650,A,2558.7220,N,07919.3927,W,2.9,273.9,180615,7.5,"
"##MN-00 00 54 0559 01533 6206 455919 827889 199"
"169.942338"
"$GPRMC,223654,A,2558.7220,N,07919.3963,W,2.9,273.0,180615,7.5,"
"##MN-00 00 54 0559 01534 6206 456120 827889 199"
"169.942384"
"$GPRMC,223658,A,2558.7220,N,07919.3996,W,2.8,272.2,180615,7.5,"
"##MN-00 00 54 0559 01533 6205 456163 827889 199"
"169.942431"
"$GPRMC,223702,A,2558.7220,N,07919.4030,W,2.8,271.4,180615,7.5,"
"##MN-00 00 54 0559 01533 6205 456602 827889 199"
"169.942477"
"$GPRMC,223706,A,2558.7220,N,07919.4064,W,2.8,270.4,180615,7.5,"
"##MN-00 00 54 0559 01535 6205 456896 827889 199"
"169.942523"
"$GPRMC,223710,A,2558.7219,N,07919.4098,W,2.7,269.6,180615,7.5,"
"##MN-00 00 54 0559 01534 6204 456654 827889 199"
"169.942569"
"$GPRMC,223715,A,2558.7220,N,07919.4142,W,2.6,268.2,180615,7.5,"
"##MN-00 00 54 0559 01534 6204 456193 827889 199"
"169.942616"
"$GPRMC,223718,A,2558.7216,N,07919.4165,W,2.6,267.5,180615,7.5,"
"##MN-00 00 54 0559 01534 6204 456085 827890 199"
"169.942662"
"$GPRMC,223722,A,2558.7211,N,07919.4196,W,2.6,266.0,180615,7.5,"
"##MN-00 00 54 0559 01532 6203 455790 827889 199"
"169.942708"
"$GPRMC,223726,A,2558.7206,N,07919.4225,W,2.5,264.9,180615,7.5,"
"##MN-00 00 54 0559 01532 6203 455557 827889 199"
"169.942755"
"$GPRMC,223730,A,2558.7202,N,07919.4256,W,2.5,262.8,180615,7.5,"
"##MN-00 00 54 0559 01531 6203 456123 827890 199"
"169.942801"
"$GPRMC,223734,A,2558.7197,N,07919.4285,W,2.4,261.9,180615,7.5,"
"##MN-00 00 54 0559 01534 6203 456565 827890 199"
"169.942847"
"$GPRMC,223739,A,2558.7191,N,07919.4321,W,2.4,260.3,180615,7.5,"
"##MN-00 00 54 0559 01533 6202 456371 827890 199"
"169.942894"
"$GPRMC,223742,A,2558.7186,N,07919.4340,W,2.4,259.6,180615,7.5,"
"##MN-00 00 54 0559 01532 6202 456170 827890 199"
"169.94294"
"$GPRMC,223746,A,2558.7178,N,07919.4368,W,2.3,258.1,180615,7.5,"
"##MN-00 00 54 0559 01535 6202 456213 827889 199"
"169.942986"
"$GPRMC,223751,A,2558.7170,N,07919.4400,W,2.2,257.0,180615,7.5,"
"##MN-00 00 54 0559 01534 6202 456406 827890 199"
"169.943032"
"$GPRMC,223755,A,2558.7166,N,07919.4429,W,2.2,255.9,180615,7.5,"
"##MN-00 00 54 0559 01534 6201 456820 827890 199"
"169.943079"
"$GPRMC,223759,A,2558.7159,N,07919.4454,W,2.2,254.3,180615,7.5,"
"##MN-00 00 54 0559 01533 6201 457512 827890 199"
"169.943125"
"$GPRMC,223803,A,2558.7151,N,07919.4480,W,2.1,252.8,180615,7.5,"
"##MN-00 00 54 0559 01533 6201 457286 827890 199"
"169.943171"
"$GPRMC,223807,A,2558.7141,N,07919.4501,W,2.1,250.6,180615,7.5,"
"##MN-00 00 54 0559 01532 6201 457052 827890 199"
"169.943218"
"$GPRMC,223811,A,2558.7135,N,07919.4524,W,2.0,248.6,180615,7.5,"
"##MN-00 00 54 0559 01532 6200 456486 827890 199"
"169.943264"
"$GPRMC,223815,A,2558.7132,N,07919.4552,W,2.0,246.7,180615,7.5,"
"##MN-00 00 54 0559 01532 6200 455608 827890 199"
"169.94331"
"$GPRMC,223819,A,2558.7121,N,07919.4574,W,2.0,245.3,180615,7.5,"
"##MN-00 00 54 0559 01533 6200 454759 827890 199"
"169.943357"
"$GPRMC,223823,A,2558.7112,N,07919.4595,W,1.9,243.9,180615,7.5,"
"##MN-00 00 54 0559 01533 6200 453905 827890 199"
"169.943403"
"$GPRMC,223827,A,2558.7103,N,07919.4610,W,1.9,242.4,180615,7.5,"
"##MN-00 00 54 0559 01533 6199 453681 827890 199"
"169.943449"
"$GPRMC,223831,A,2558.7092,N,07919.4629,W,1.9,240.3,180615,7.5,"
"##MN-00 00 54 0559 01534 6199 453065 827890 199"
"169.943495"
"$GPRMC,223835,A,2558.7080,N,07919.4649,W,1.8,238.5,180615,7.5,"
"##MN-00 00 54 0559 01532 6199 451666 827890 199"
"169.943542"
"$GPRMC,223839,A,2558.7063,N,07919.4669,W,1.8,236.5,180615,7.5,"
"##MN-00 00 54 0559 01532 6199 450190 827890 199"
"169.943588"
"$GPRMC,223843,A,2558.7054,N,07919.4682,W,1.8,234.8,180615,7.5,"
"##MN-00 00 54 0559 01533 6198 448683 827890 199"
"169.943634"
"$GPRMC,223847,A,2558.7041,N,07919.4698,W,1.7,233.2,180615,7.5,"
"##MN-00 00 54 0559 01533 6198 447860 827890 199"
"169.943681"
"$GPRMC,223851,A,2558.7025,N,07919.4718,W,1.7,231.7,180615,7.5,"
"##MN-00 00 54 0559 01535 6198 447281 827890 199"
"169.943727"
"$GPRMC,223855,A,2558.7012,N,07919.4732,W,1.7,229.4,180615,7.5,"
"##MN-00 00 54 0559 01533 6198 446895 827890 199"
"169.943773"
"$GPRMC,223859,A,2558.6998,N,07919.4747,W,1.6,227.0,180615,7.5,"
"##MN-00 00 54 0559 01534 6197 445914 827890 199"
"169.943819"
"$GPRMC,223903,A,2558.6985,N,07919.4759,W,1.6,224.7,180615,7.5,"
"##MN-00 00 54 0559 01531 6198 444921 827890 199"
"169.943866"
"$GPRMC,223907,A,2558.6973,N,07919.4772,W,1.6,222.7,180615,7.5,"
"##MN-00 00 54 0559 01533 6197 444151 827890 199"
"169.943912"
"$GPRMC,223911,A,2558.6960,N,07919.4783,W,1.5,220.4,180615,7.5,"
"##MN-00 00 54 0559 01533 6197 443834 827890 199"
"169.943958"
"$GPRMC,223915,A,2558.6945,N,07919.4794,W,1.5,218.3,180615,7.5,"
"##MN-00 00 54 0559 01535 6196 443331 827890 199"
"169.944005"
"$GPRMC,223919,A,2558.6932,N,07919.4801,W,1.5,216.4,180615,7.5,"
"##MN-00 00 54 0559 01531 6196 443202 827890 199"
"169.944051"
"$GPRMC,223923,A,2558.6918,N,07919.4810,W,1.5,214.1,180615,7.5,"
"##MN-00 00 54 0559 01533 6196 442605 827890 199"
"169.944097"
"$GPRMC,223927,A,2558.6904,N,07919.4819,W,1.5,211.5,180615,7.5,"
"##MN-00 00 54 0559 01534 6196 442192 827890 199"
"169.944144"
"$GPRMC,223931,A,2558.6892,N,07919.4824,W,1.3,209.8,180615,7.5,"
"##MN-00 00 54 0559 01534 6196 442204 827890 199"
"169.94419"
"$GPRMC,223935,A,2558.6881,N,07919.4830,W,1.2,209.3,180615,7.5,"
"##MN-00 00 54 0559 01532 6196 442026 827890 199"
"169.944236"
"$GPRMC,223939,A,2558.6870,N,07919.4835,W,1.1,209.1,180615,7.5,"
"##MN-00 00 54 0559 01532 6196 441522 827823 199"
"169.944282"
"$GPRMC,223943,A,2558.6862,N,07919.4842,W,1.0,210.9,180615,7.5,"
"##MN-00 00 54 0559 01534 6195 440824 827890 199"
"169.944329"
"$GPRMC,223947,A,2558.6852,N,07919.4852,W,1.0,213.9,180615,7.5,"
"##MN-00 00 50 0559 01532 6195 440676 827890 199"
"169.944375"
"$GPRMC,223951,A,2558.6842,N,07919.4863,W,1.1,218.4,180615,7.5,"
"##MN-00 00 45 0559 01533 6195 440132 827890 199"
"169.944421"
"$GPRMC,223955,A,2558.6830,N,07919.4881,W,1.3,224.2,180615,7.5,"
"##MN-00 00 51 0559 01532 6195 440962 827890 199"
"169.944468"
"$GPRMC,223959,A,2558.6823,N,07919.4904,W,1.6,231.4,180615,7.5,"
"##MN-00 00 50 0559 01534 6195 442745 827890 199"
"169.944514"
"$GPRMC,224003,A,2558.6813,N,07919.4931,W,1.9,238.6,180615,7.5,"
"##MN-00 00 50 0559 01533 6194 444056 827890 199"
"169.94456"
"$GPRMC,224007,A,2558.6806,N,07919.4960,W,2.2,246.3,180615,7.5,"
"##MN-00 00 50 0559 01532 6194 445195 827890 199"
"169.944606"
"$GPRMC,224011,A,2558.6799,N,07919.4993,W,2.5,253.5,180615,7.5,"
"##MN-00 00 50 0559 01532 6194 446041 827890 199"
"169.944653"
"$GPRMC,224015,A,2558.6795,N,07919.5027,W,2.8,260.7,180615,7.5,"
"##MN-00 00 53 0559 01534 6194 445894 827890 199"
"169.944699"
"$GPRMC,224019,A,2558.6803,N,07919.5069,W,3.0,268.0,180615,7.5,"
"##MN-00 00 48 0559 01532 6194 446673 827890 199"
"169.944745"
"$GPRMC,224023,A,2558.6815,N,07919.5112,W,3.3,274.6,180615,7.5,"
"##MN-00 00 49 0559 01532 6194 447203 827889 199"
"169.944792"
"$GPRMC,224027,A,2558.6830,N,07919.5152,W,3.6,281.1,180615,7.5,"
"##MN-00 00 49 0559 01533 6193 447644 827889 199"
"169.944838"
"$GPRMC,224031,A,2558.6847,N,07919.5197,W,3.8,287.1,180615,7.5,"
"##MN-00 00 50 0559 01533 6193 448975 827890 199"
"169.944884"
"$GPRMC,224035,A,2558.6870,N,07919.5246,W,4.0,292.7,180615,7.5,"
"##MN-00 00 50 0559 01533 6193 450117 827889 199"
"169.944931"
"$GPRMC,224039,A,2558.6898,N,07919.5294,W,4.4,297.8,180615,7.5,"
"##MN-00 00 50 0559 01534 6193 450668 827889 199"
"169.944977"
"$GPRMC,224043,A,2558.6928,N,07919.5344,W,4.7,301.3,180615,7.5,"
"##MN-00 00 50 0559 01533 6193 452014 827890 199"
"169.945023"
"$GPRMC,224047,A,2558.6964,N,07919.5397,W,5.0,304.3,180615,7.5,"
"##MN-00 00 50 0559 01534 6193 452702 827889 199"
"169.945069"
"$GPRMC,224051,A,2558.7002,N,07919.5452,W,5.3,306.0,180615,7.5,"
"##MN-00 00 50 0559 01533 6192 452660 827889 199"
"169.945127"
"$GPRMC,224055,A,2558.7043,N,07919.5509,W,5.5,307.4,180615,7.5,"
"##MN-00 00 50 0559 01533 6193 452799 827889 199"
"169.945174"
"$GPRMC,224059,A,2558.7083,N,07919.5563,W,5.7,308.5,180615,7.5,"
"##MN-00 00 50 0559 01534 6192 453643 827889 199"
"169.94522"
"$GPRMC,224103,A,2558.7129,N,07919.5623,W,6.0,309.4,180615,7.5,"
"##MN-00 00 54 0559 01533 6192 455450 827890 199"
"169.945266"
"$GPRMC,224107,A,2558.7175,N,07919.5687,W,6.3,309.3,180615,7.5,"
"##MN-00 00 54 0559 01532 6192 457471 827890 199"
"169.945313"
"$GPRMC,224111,A,2558.7220,N,07919.5759,W,6.7,307.7,180615,7.5,"
"##MN-00 00 54 0559 01532 6192 458272 827890 199"
"169.945359"
"$GPRMC,224115,A,2558.7264,N,07919.5838,W,7.1,305.3,180615,7.5,"
"##MN-00 00 54 0559 01534 6192 458327 827890 199"
"169.945405"
"$GPRMC,224119,A,2558.7305,N,07919.5921,W,7.3,302.0,180615,7.5,"
"##MN-00 00 54 0559 01532 6192 458389 827890 199"
"169.945451"
"$GPRMC,224123,A,2558.7341,N,07919.6004,W,7.5,298.9,180615,7.5,"
"##MN-00 00 54 0559 01533 6191 458177 827890 199"
"169.945498"
"$GPRMC,224127,A,2558.7372,N,07919.6092,W,7.5,295.8,180615,7.5,"
"##MN-00 00 54 0559 01535 6191 458049 827890 199"
"169.945544"
"$GPRMC,224131,A,2558.7399,N,07919.6181,W,7.5,292.7,180615,7.5,"
"##MN-00 00 54 0559 01533 6191 458339 827890 199"
"169.94559"
"$GPRMC,224135,A,2558.7419,N,07919.6270,W,7.5,289.4,180615,7.5,"
"##MN-00 00 54 0559 01532 6191 458233 827890 199"
"169.945637"
"$GPRMC,224139,A,2558.7436,N,07919.6360,W,7.4,285.9,180615,7.5,"
"##MN-00 00 54 0559 01534 6191 458218 827890 199"
"169.945683"
"$GPRMC,224143,A,2558.7447,N,07919.6449,W,7.3,282.2,180615,7.5,"
"##MN-00 00 54 0559 01534 6191 457932 827891 199"
"169.945729"
"$GPRMC,224148,A,2558.7464,N,07919.6554,W,7.2,279.3,180615,7.5,"
"##MN-00 00 54 0559 01532 6191 457447 827890 199"
"169.945775"
"$GPRMC,224151,A,2558.7476,N,07919.6620,W,7.2,279.4,180615,7.5,"
"##MN-00 00 54 0559 01533 6191 457002 827890 199"
"169.945822"
"$GPRMC,224155,A,2558.7495,N,07919.6712,W,7.3,280.9,180615,7.5,"
"##MN-00 00 54 0559 01534 6190 456876 827891 199"
"169.945868"
"$GPRMC,224159,A,2558.7519,N,07919.6804,W,7.6,284.2,180615,7.5,"
"##MN-00 00 54 0559 01534 6190 456820 827890 199"
"169.945914"
"$GPRMC,224203,A,2558.7549,N,07919.6897,W,7.7,287.8,180615,7.5,"
"##MN-00 00 54 0559 01533 6190 456665 827890 199"
"169.945961"
"$GPRMC,224207,A,2558.7587,N,07919.6988,W,7.9,291.3,180615,7.5,"
"##MN-00 00 54 0559 01532 6190 457059 827890 199"
"169.946007"
"$GPRMC,224211,A,2558.7631,N,07919.7079,W,8.1,295.1,180615,7.5,"
"##MN-00 00 54 0559 01533 6190 457266 827891 199"
"169.946053"
"$GPRMC,224215,A,2558.7681,N,07919.7171,W,8.3,298.5,180615,7.5,"
"##MN-00 00 54 0559 01533 6190 457318 827891 199"
"169.9461"
"$GPRMC,224220,A,2558.7746,N,07919.7273,W,8.5,303.1,180615,7.5,"
"##MN-00 00 54 0559 01532 6189 457013 827890 199"
"169.946146"
"$GPRMC,224224,A,2558.7805,N,07919.7353,W,8.6,306.7,180615,7.5,"
"##MN-00 00 54 0559 01535 6189 456507 827891 199"
"169.946192"
"$GPRMC,224228,A,2558.7873,N,07919.7433,W,8.8,310.6,180615,7.5,"
"##MN-00 00 54 0559 01534 6189 456419 827890 199"
