" Tow: 6EM-B   RVWS/WS15161"
" Date: 18/06/2015"
" Temperature Probe #  4762    Conductivity Probe #  710"
" Pressure Probe #  159"
" Flow Meter Calibration  4.71 (m/count)  "
"169.955764"
"$GPRMC,225614,A,2559.9929,N,07920.9917,W,2.6,303.6,180615,7.5,"
"##MN-00 00 54 0559 01534 6189 456419 827890 199"
"169.956262"
""
"##MN-00 00 09 0031 01554 6105 439048 203646 199"
"169.956308"
"$GPRMC,225702,A,2600.0098,N,07921.0213,W,2.2,300.0,180615,7.5,"
"##MN-00 00 09 0032 01554 6105 439092 203653 199"
"169.956354"
"$GPRMC,225706,A,2600.0110,N,07921.0236,W,2.2,299.9,180615,7.5,"
"##MN-00 00 09 0033 01553 6104 439096 203653 199"
"169.9564"
"$GPRMC,225710,A,2600.0121,N,07921.0260,W,2.2,299.8,180615,7.5,"
"##MN-00 00 09 0034 01553 6105 439030 203649 199"
"169.956447"
"$GPRMC,225714,A,2600.0135,N,07921.0283,W,2.2,300.0,180615,7.5,"
"##MN-00 00 09 0035 01553 6105 439039 203650 199"
"169.956505"
"$GPRMC,225718,A,2600.0146,N,07921.0307,W,2.2,300.0,180615,7.5,"
"##MN-00 00 09 0036 01553 6105 439155 203659 199"
"169.956551"
"$GPRMC,225722,A,2600.0160,N,07921.0330,W,2.2,300.0,180615,7.5,"
"##MN-00 00 09 0037 01552 6105 439183 203663 199"
"169.956597"
"$GPRMC,225726,A,2600.0172,N,07921.0354,W,2.2,299.7,180615,7.5,"
"##MN-00 00 09 0039 01552 6105 439174 203665 199"
"169.956644"
"$GPRMC,225730,A,2600.0185,N,07921.0379,W,2.2,299.8,180615,7.5,"
"##MN-00 00 09 0040 01556 6105 439177 203664 199"
"169.95669"
"$GPRMC,225734,A,2600.0196,N,07921.0401,W,2.2,300.0,180615,7.5,"
"##MN-00 00 08 0041 01555 6105 439292 203672 199"
"169.956736"
"$GPRMC,225738,A,2600.0207,N,07921.0424,W,2.2,299.3,180615,7.5,"
"##MN-00 00 08 0042 01560 6106 439301 203687 199"
"169.956782"
"$GPRMC,225742,A,2600.0221,N,07921.0448,W,2.2,299.4,180615,7.5,"
"##MN-00 00 50 0043 01564 6106 439338 203688 199"
"169.956829"
"$GPRMC,225746,A,2600.0237,N,07921.0473,W,2.1,299.3,180615,7.5,"
"##MN-00 00 08 0044 01566 6106 439685 203750 199"
"169.956875"
"$GPRMC,225750,A,2600.0247,N,07921.0495,W,2.1,298.6,180615,7.5,"
"##MN-00 00 08 0045 01571 6106 439975 203795 199"
"169.956921"
"$GPRMC,225754,A,2600.0258,N,07921.0518,W,2.0,297.4,180615,7.5,"
"##MN-00 00 07 0046 01573 6106 440047 203794 199"
"169.956968"
"$GPRMC,225758,A,2600.0269,N,07921.0540,W,1.9,296.9,180615,7.5,"
"##MN-00 00 08 0047 01572 6106 440063 203827 199"
"169.957014"
"$GPRMC,225802,A,2600.0276,N,07921.0560,W,1.9,296.4,180615,7.5,"
"##MN-00 00 08 0048 01574 6106 440275 203847 199"
"169.95706"
"$GPRMC,225806,A,2600.0277,N,07921.0576,W,1.9,296.2,180615,7.5,"
"##MN-00 00 08 0049 01581 6106 440242 203872 199"
"169.957107"
"$GPRMC,225810,A,2600.0284,N,07921.0597,W,1.9,295.9,180615,7.5,"
"##MN-00 00 08 0050 01583 6106 440121 203857 199"
"169.957153"
"$GPRMC,225814,A,2600.0291,N,07921.0615,W,1.9,295.7,180615,7.5,"
"##MN-00 00 08 0051 01585 6106 440504 203864 199"
"169.957199"
"$GPRMC,225818,A,2600.0294,N,07921.0633,W,1.9,294.9,180615,7.5,"
"##MN-00 00 08 0052 01589 6106 441093 203988 199"
"169.957245"
"$GPRMC,225822,A,2600.0304,N,07921.0657,W,1.9,294.4,180615,7.5,"
"##MN-00 00 08 0053 01592 6106 441461 204048 199"
"169.957292"
"$GPRMC,225826,A,2600.0316,N,07921.0680,W,1.9,294.1,180615,7.5,"
"##MN-00 00 08 0055 01595 6106 441676 204109 199"
"169.957338"
"$GPRMC,225830,A,2600.0326,N,07921.0704,W,1.9,294.0,180615,7.5,"
"##MN-00 00 08 0056 01596 6106 441829 204105 199"
"169.957384"
"$GPRMC,225834,A,2600.0336,N,07921.0726,W,1.9,294.1,180615,7.5,"
"##MN-00 00 05 0057 01601 6107 441892 204159 199"
"169.957431"
"$GPRMC,225838,A,2600.0345,N,07921.0748,W,2.0,294.1,180615,7.5,"
"##MN-00 00 08 0058 01602 6107 441991 204177 199"
"169.957477"
"$GPRMC,225842,A,2600.0356,N,07921.0771,W,2.0,294.1,180615,7.5,"
"##MN-00 00 07 0059 01606 6107 442021 204183 199"
"169.957523"
"$GPRMC,225846,A,2600.0366,N,07921.0795,W,2.0,294.7,180615,7.5,"
"##MN-00 00 08 0060 01611 6107 442104 204213 199"
"169.957569"
"$GPRMC,225851,A,2600.0377,N,07921.0821,W,2.1,295.3,180615,7.5,"
"##MN-00 00 49 0061 01611 6107 442205 204250 199"
"169.957616"
"$GPRMC,225855,A,2600.0385,N,07921.0845,W,2.0,295.2,180615,7.5,"
"##MN-00 00 07 0062 01614 6107 442334 204248 199"
"169.957662"
"$GPRMC,225859,A,2600.0394,N,07921.0868,W,2.1,294.5,180615,7.5,"
"##MN-00 00 49 0063 01617 6107 442478 204267 199"
"169.957708"
"$GPRMC,225903,A,2600.0402,N,07921.0892,W,2.1,294.4,180615,7.5,"
"##MN-00 00 10 0064 01620 6107 442580 204296 199"
"169.957755"
"$GPRMC,225907,A,2600.0410,N,07921.0914,W,2.1,294.8,180615,7.5,"
"##MN-00 00 08 0065 01625 6107 442722 204347 199"
"169.957801"
"$GPRMC,225911,A,2600.0419,N,07921.0939,W,2.1,293.6,180615,7.5,"
"##MN-00 00 09 0067 01626 6107 442783 204361 199"
"169.957847"
"$GPRMC,225915,A,2600.0428,N,07921.0964,W,2.1,294.0,180615,7.5,"
"##MN-00 00 07 0068 01630 6107 442851 204366 199"
"169.957894"
"$GPRMC,225919,A,2600.0438,N,07921.0988,W,2.2,294.3,180615,7.5,"
"##MN-00 00 14 0069 01632 6107 442964 204382 199"
"169.95794"
"$GPRMC,225923,A,2600.0446,N,07921.1012,W,2.2,294.4,180615,7.5,"
"##MN-00 00 07 0070 01634 6107 443118 204439 199"
"169.957986"
"$GPRMC,225927,A,2600.0456,N,07921.1035,W,2.1,294.2,180615,7.5,"
"##MN-00 00 08 0071 01638 6107 443250 204449 199"
"169.958032"
"$GPRMC,225931,A,2600.0466,N,07921.1059,W,2.1,294.5,180615,7.5,"
"##MN-00 00 07 0072 01641 6107 443357 204471 199"
"169.958079"
"$GPRMC,225935,A,2600.0475,N,07921.1082,W,2.1,294.4,180615,7.5,"
"##MN-00 00 07 0073 01646 6107 443710 204543 199"
"169.958125"
"$GPRMC,225939,A,2600.0485,N,07921.1106,W,2.1,294.4,180615,7.5,"
"##MN-00 00 08 0074 01647 6107 444394 204617 199"
"169.958171"
"$GPRMC,225943,A,2600.0495,N,07921.1131,W,2.1,294.5,180615,7.5,"
"##MN-00 00 07 0075 01652 6107 444719 204645 199"
"169.958218"
"$GPRMC,225947,A,2600.0504,N,07921.1153,W,2.1,294.1,180615,7.5,"
"##MN-00 00 07 0076 01658 6107 444910 204703 199"
"169.958264"
"$GPRMC,225951,A,2600.0514,N,07921.1176,W,2.1,294.4,180615,7.5,"
"##MN-00 00 07 0077 01658 6107 445076 204768 199"
"169.95831"
"$GPRMC,225955,A,2600.0524,N,07921.1199,W,2.1,294.1,180615,7.5,"
"##MN-00 00 07 0078 01664 6107 445153 204782 199"
"169.958356"
"$GPRMC,225959,A,2600.0533,N,07921.1222,W,2.1,293.9,180615,7.5,"
"##MN-00 00 07 0079 01666 6107 445177 204780 199"
"169.958403"
"$GPRMC,230003,A,2600.0542,N,07921.1246,W,2.0,293.7,180615,7.5,"
"##MN-00 00 06 0080 01671 6106 445204 204809 199"
"169.958449"
"$GPRMC,230007,A,2600.0551,N,07921.1269,W,2.0,293.2,180615,7.5,"
"##MN-00 00 07 0081 01675 6107 445225 204852 199"
"169.958495"
"$GPRMC,230011,A,2600.0561,N,07921.1293,W,2.0,293.2,180615,7.5,"
"##MN-00 00 07 0082 01678 6106 445251 204886 199"
"169.958542"
"$GPRMC,230015,A,2600.0569,N,07921.1318,W,1.9,292.7,180615,7.5,"
"##MN-00 00 08 0083 01681 6106 445279 204900 199"
"169.958588"
"$GPRMC,230019,A,2600.0578,N,07921.1340,W,2.0,291.7,180615,7.5,"
"##MN-00 00 07 0084 01682 6106 445299 204907 199"
"169.958634"
"$GPRMC,230023,A,2600.0586,N,07921.1363,W,2.0,291.3,180615,7.5,"
"##MN-00 00 07 0085 01686 6106 445316 204909 199"
"169.958681"
"$GPRMC,230027,A,2600.0594,N,07921.1387,W,2.0,291.5,180615,7.5,"
"##MN-00 00 07 0086 01689 6106 445334 204920 199"
"169.958727"
"$GPRMC,230031,A,2600.0602,N,07921.1409,W,2.0,291.8,180615,7.5,"
"##MN-00 00 08 0088 01693 6106 445355 204917 199"
"169.958773"
"$GPRMC,230035,A,2600.0611,N,07921.1432,W,2.0,291.7,180615,7.5,"
"##MN-00 00 07 0089 01695 6105 445400 204921 199"
"169.958819"
"$GPRMC,230039,A,2600.0620,N,07921.1456,W,2.0,292.1,180615,7.5,"
"##MN-00 00 05 0090 01700 6105 445489 204935 199"
"169.958866"
"$GPRMC,230043,A,2600.0627,N,07921.1481,W,2.0,291.7,180615,7.5,"
"##MN-00 00 49 0091 01701 6105 445549 204948 199"
"169.958912"
"$GPRMC,230047,A,2600.0636,N,07921.1504,W,2.1,291.7,180615,7.5,"
"##MN-00 00 07 0092 01703 6105 445594 204955 199"
"169.958958"
"$GPRMC,230051,A,2600.0644,N,07921.1528,W,2.1,291.7,180615,7.5,"
"##MN-00 00 08 0093 01708 6105 445633 204966 199"
"169.959005"
"$GPRMC,230055,A,2600.0652,N,07921.1551,W,2.1,291.9,180615,7.5,"
"##MN-00 00 11 0094 01710 6105 445667 204980 199"
"169.959051"
"$GPRMC,230059,A,2600.0662,N,07921.1576,W,2.1,291.9,180615,7.5,"
"##MN-00 00 49 0095 01711 6105 445684 204985 199"
"169.959097"
"$GPRMC,230103,A,2600.0670,N,07921.1600,W,2.1,291.9,180615,7.5,"
"##MN-00 00 07 0096 01715 6105 445706 204981 199"
"169.959143"
"$GPRMC,230107,A,2600.0680,N,07921.1624,W,2.1,292.5,180615,7.5,"
"##MN-00 00 04 0097 01718 6104 445737 204991 199"
"169.95919"
"$GPRMC,230111,A,2600.0688,N,07921.1649,W,2.1,292.8,180615,7.5,"
"##MN-00 00 07 0098 01719 6105 445757 205003 199"
"169.959236"
"$GPRMC,230115,A,2600.0698,N,07921.1673,W,2.1,293.0,180615,7.5,"
"##MN-00 00 07 0099 01722 6104 445773 205006 199"
"169.959282"
"$GPRMC,230119,A,2600.0706,N,07921.1698,W,2.1,292.6,180615,7.5,"
"##MN-00 00 48 0100 01725 6104 445793 205013 199"
"169.959329"
"$GPRMC,230123,A,2600.0714,N,07921.1721,W,2.1,292.0,180615,7.5,"
"##MN-00 00 06 0101 01727 6103 445816 205021 199"
"169.959375"
"$GPRMC,230127,A,2600.0723,N,07921.1745,W,2.1,292.2,180615,7.5,"
"##MN-00 00 07 0102 01731 6104 445847 205027 199"
"169.959421"
"$GPRMC,230131,A,2600.0732,N,07921.1767,W,2.1,292.5,180615,7.5,"
"##MN-00 00 07 0103 01734 6104 445877 205032 199"
"169.959468"
"$GPRMC,230135,A,2600.0742,N,07921.1792,W,2.1,292.4,180615,7.5,"
"##MN-00 00 09 0104 01738 6103 445921 205044 199"
"169.959514"
"$GPRMC,230139,A,2600.0753,N,07921.1815,W,2.0,292.6,180615,7.5,"
"##MN-00 00 06 0105 01739 6103 445974 205053 199"
"169.95956"
"$GPRMC,230143,A,2600.0764,N,07921.1840,W,2.1,292.7,180615,7.5,"
"##MN-00 00 29 0106 01745 6103 446042 205070 199"
"169.959606"
"$GPRMC,230147,A,2600.0775,N,07921.1865,W,2.1,292.8,180615,7.5,"
"##MN-00 00 08 0107 01745 6103 446126 205098 199"
"169.959653"
"$GPRMC,230151,A,2600.0785,N,07921.1889,W,2.1,292.5,180615,7.5,"
"##MN-00 00 34 0109 01749 6102 446170 205102 199"
"169.959699"
"$GPRMC,230155,A,2600.0795,N,07921.1913,W,2.1,292.6,180615,7.5,"
"##MN-00 00 49 0110 01753 6102 446184 205099 199"
"169.959757"
"$GPRMC,230159,A,2600.0803,N,07921.1936,W,2.1,292.0,180615,7.5,"
"##MN-00 00 07 0111 01756 6102 446202 205106 199"
"169.959803"
"$GPRMC,230203,A,2600.0811,N,07921.1960,W,2.0,291.4,180615,7.5,"
"##MN-00 00 06 0112 01758 6102 446235 205113 199"
"169.95985"
"$GPRMC,230207,A,2600.0818,N,07921.1983,W,2.0,291.6,180615,7.5,"
"##MN-00 00 12 0113 01762 6102 446254 205115 199"
"169.959896"
"$GPRMC,230211,A,2600.0824,N,07921.1999,W,2.0,291.5,180615,7.5,"
"##MN-00 00 05 0114 01764 6101 446279 205113 199"
"169.959942"
"$GPRMC,230215,A,2600.0833,N,07921.2027,W,2.0,292.2,180615,7.5,"
"##MN-00 00 51 0115 01768 6101 446332 205138 199"
"169.959988"
"$GPRMC,230219,A,2600.0842,N,07921.2048,W,1.9,292.1,180615,7.5,"
"##MN-00 00 06 0116 01771 6101 446468 205168 199"
"169.960035"
"$GPRMC,230223,A,2600.0850,N,07921.2070,W,2.0,291.9,180615,7.5,"
"##MN-00 00 48 0117 01774 6100 446567 205173 199"
"169.960081"
"$GPRMC,230227,A,2600.0858,N,07921.2093,W,2.0,292.3,180615,7.5,"
"##MN-00 00 06 0118 01776 6100 446671 205204 199"
"169.960127"
"$GPRMC,230231,A,2600.0864,N,07921.2117,W,2.0,291.6,180615,7.5,"
"##MN-00 00 51 0119 01775 6100 446711 205205 199"
"169.960174"
"$GPRMC,230235,A,2600.0872,N,07921.2139,W,2.0,291.3,180615,7.5,"
"##MN-00 00 06 0120 01773 6100 446729 205219 199"
"169.96022"
"$GPRMC,230239,A,2600.0880,N,07921.2164,W,2.0,291.1,180615,7.5,"
"##MN-00 00 50 0121 01775 6099 446736 205215 199"
"169.960266"
"$GPRMC,230243,A,2600.0889,N,07921.2186,W,2.0,292.0,180615,7.5,"
"##MN-00 00 49 0122 01775 6099 446735 205218 199"
"169.960313"
"$GPRMC,230247,A,2600.0898,N,07921.2211,W,2.0,292.9,180615,7.5,"
"##MN-00 00 05 0124 01775 6099 446735 205217 199"
"169.960359"
"$GPRMC,230251,A,2600.0908,N,07921.2233,W,2.1,293.7,180615,7.5,"
"##MN-00 00 50 0125 01775 6099 446735 205221 199"
"169.960405"
"$GPRMC,230255,A,2600.0916,N,07921.2255,W,2.1,294.6,180615,7.5,"
"##MN-00 00 07 0126 01775 6098 446732 205222 199"
"169.960451"
"$GPRMC,230259,A,2600.0927,N,07921.2280,W,2.1,295.0,180615,7.5,"
"##MN-00 00 49 0127 01774 6099 446725 205221 199"
"169.960498"
"$GPRMC,230304,A,2600.0934,N,07921.2305,W,2.1,295.3,180615,7.5,"
"##MN-00 00 06 0128 01775 6098 446718 205221 199"
"169.960544"
"$GPRMC,230307,A,2600.0941,N,07921.2323,W,2.1,295.1,180615,7.5,"
"##MN-00 00 07 0129 01777 6097 446713 205221 199"
"169.96059"
"$GPRMC,230311,A,2600.0952,N,07921.2345,W,2.1,294.7,180615,7.5,"
"##MN-00 00 07 0130 01778 6097 446713 205220 199"
"169.960637"
"$GPRMC,230315,A,2600.0963,N,07921.2370,W,2.1,294.9,180615,7.5,"
"##MN-00 00 46 0131 01781 6097 446721 205222 199"
"169.960683"
"$GPRMC,230319,A,2600.0979,N,07921.2395,W,2.1,295.0,180615,7.5,"
"##MN-00 00 48 0132 01780 6096 446733 205222 199"
"169.960729"
"$GPRMC,230323,A,2600.0984,N,07921.2417,W,2.1,294.2,180615,7.5,"
"##MN-00 00 07 0133 01779 6096 446745 205224 199"
"169.960775"
"$GPRMC,230327,A,2600.0990,N,07921.2439,W,2.0,293.8,180615,7.5,"
"##MN-00 00 49 0135 01780 6096 446756 205227 199"
"169.960822"
"$GPRMC,230331,A,2600.0999,N,07921.2462,W,2.0,293.8,180615,7.5,"
"##MN-00 00 08 0136 01780 6096 446761 205227 199"
"169.960868"
"$GPRMC,230336,A,2600.1012,N,07921.2493,W,2.1,293.9,180615,7.5,"
"##MN-00 00 49 0137 01780 6095 446759 205228 199"
"169.960914"
"$GPRMC,230340,A,2600.1018,N,07921.2514,W,2.1,293.8,180615,7.5,"
"##MN-00 00 44 0138 01779 6095 446752 205228 199"
"169.960961"
"$GPRMC,230344,A,2600.1037,N,07921.2541,W,2.1,293.6,180615,7.5,"
"##MN+00 00 10 0139 01780 6095 446740 205228 199"
"169.961007"
"$GPRMC,230348,A,2600.1042,N,07921.2563,W,2.1,294.1,180615,7.5,"
"##MN+00 00 08 0140 01782 6095 446735 205227 199"
"169.961053"
"$GPRMC,230352,A,2600.1049,N,07921.2587,W,2.1,293.7,180615,7.5,"
"##MN+00 00 46 0141 01782 6095 446729 205226 199"
"169.9611"
"$GPRMC,230356,A,2600.1059,N,07921.2608,W,2.1,294.1,180615,7.5,"
"##MN+00 00 07 0142 01779 6094 446722 205225 199"
"169.961146"
"$GPRMC,230400,A,2600.1071,N,07921.2634,W,2.1,294.4,180615,7.5,"
"##MN+00 00 07 0143 01781 6094 446717 205224 199"
"169.961192"
"$GPRMC,230404,A,2600.1089,N,07921.2659,W,2.0,294.2,180615,7.5,"
"##MN+00 00 07 0144 01784 6093 446720 205224 199"
"169.961238"
"$GPRMC,230408,A,2600.1099,N,07921.2684,W,2.1,294.0,180615,7.5,"
"##MN-00 00 52 0145 01783 6093 446731 205225 199"
"169.961285"
"$GPRMC,230412,A,2600.1104,N,07921.2704,W,2.0,293.6,180615,7.5,"
"##MN-00 00 51 0147 01782 6093 446736 205226 199"
"169.961331"
"#increment_net"
"$GPRMC,230416,A,2600.1115,N,07921.2728,W,2.0,293.7,180615,7.5,"
"##MN-00 00 49 0148 01785 6092 446736 205226 199"
"169.961377"
"$GPRMC,230420,A,2600.1125,N,07921.2751,W,2.1,293.4,180615,7.5,"
"##MN-00 00 03 0149 01785 6092 446735 205226 199"
"169.961424"
"$GPRMC,230424,A,2600.1133,N,07921.2775,W,2.0,293.2,180615,7.5,"
"##MN-00 00 50 0150 01783 6092 446734 205225 199"
"169.96147"
"$GPRMC,230428,A,2600.1141,N,07921.2797,W,2.0,293.0,180615,7.5,"
"##MN-00 00 50 0151 01785 6091 446734 205225 199"
"169.961516"
"$GPRMC,230432,A,2600.1147,N,07921.2818,W,2.0,293.1,180615,7.5,"
"##MN-00 00 50 0152 01785 6091 446737 205225 199"
"169.961562"
"$GPRMC,230436,A,2600.1151,N,07921.2840,W,2.0,293.2,180615,7.5,"
"##MN-00 00 50 0153 01785 6091 446744 205227 199"
"169.961609"
"$GPRMC,230440,A,2600.1161,N,07921.2863,W,2.0,293.0,180615,7.5,"
"##MN-00 00 49 0154 01787 6091 446749 205228 199"
"169.961655"
"$GPRMC,230444,A,2600.1169,N,07921.2887,W,2.1,293.2,180615,7.5,"
"##MN-00 00 50 0156 01785 6090 446748 205228 199"
"169.961701"
"$GPRMC,230448,A,2600.1178,N,07921.2909,W,2.1,293.6,180615,7.5,"
"##MN-00 00 50 0157 01785 6090 446745 205227 199"
"169.961748"
"$GPRMC,230452,A,2600.1187,N,07921.2934,W,2.1,293.3,180615,7.5,"
"##MN-00 00 50 0158 01786 6090 446741 205227 199"
"169.961794"
"$GPRMC,230456,A,2600.1203,N,07921.2959,W,2.1,293.7,180615,7.5,"
"##MN-00 00 49 0159 01784 6090 446737 205226 199"
"169.96184"
"$GPRMC,230500,A,2600.1208,N,07921.2980,W,2.1,294.0,180615,7.5,"
"##MN+00 00 51 0160 01784 6089 446734 205226 199"
"169.961887"
"$GPRMC,230504,A,2600.1216,N,07921.3002,W,2.1,294.1,180615,7.5,"
"##MN+00 00 51 0161 01784 6089 446732 205226 199"
"169.961933"
"$GPRMC,230508,A,2600.1225,N,07921.3027,W,2.1,293.8,180615,7.5,"
"##MN+00 00 50 0162 01783 6089 446732 205227 199"
"169.961979"
"$GPRMC,230512,A,2600.1237,N,07921.3050,W,2.1,293.8,180615,7.5,"
"##MN-00 00 50 0163 01782 6088 446733 205227 199"
"169.962025"
"$GPRMC,230516,A,2600.1245,N,07921.3074,W,2.1,293.9,180615,7.5,"
"##MN-00 00 50 0165 01784 6088 446735 205227 199"
"169.962072"
"$GPRMC,230520,A,2600.1261,N,07921.3100,W,2.1,294.4,180615,7.5,"
"##MN-00 00 50 0166 01785 6088 446737 205227 199"
"169.962118"
"$GPRMC,230524,A,2600.1270,N,07921.3122,W,2.1,294.7,180615,7.5,"
"##MN-00 00 50 0167 01783 6087 446737 205227 199"
"169.962164"
"$GPRMC,230528,A,2600.1276,N,07921.3144,W,2.1,294.4,180615,7.5,"
"##MN-00 00 50 0168 01783 6087 446739 205227 199"
"169.962211"
"$GPRMC,230532,A,2600.1281,N,07921.3165,W,2.1,294.7,180615,7.5,"
"##MN-00 00 51 0169 01783 6087 446742 205228 199"
"169.962257"
"$GPRMC,230536,A,2600.1292,N,07921.3190,W,2.1,294.6,180615,7.5,"
"##MN-00 00 51 0170 01784 6087 446742 205228 199"
"169.962303"
"$GPRMC,230540,A,2600.1303,N,07921.3213,W,2.1,294.5,180615,7.5,"
"##MN+00 00 51 0171 01783 6086 446740 205228 199"
"169.96235"
"$GPRMC,230544,A,2600.1320,N,07921.3240,W,2.1,294.2,180615,7.5,"
"##MN+00 00 07 0172 01787 6086 446734 205227 199"
"169.962396"
"$GPRMC,230548,A,2600.1331,N,07921.3263,W,2.1,294.4,180615,7.5,"
"##MN+00 00 51 0174 01787 6086 446730 205225 199"
"169.962442"
"$GPRMC,230552,A,2600.1335,N,07921.3285,W,2.1,294.0,180615,7.5,"
"##MN-00 00 51 0175 01787 6085 446728 205225 199"
"169.962488"
"#increment_net"
"$GPRMC,230556,A,2600.1345,N,07921.3309,W,2.1,294.2,180615,7.5,"
"##MN-00 00 48 0176 01786 6085 446715 205223 199"
"169.962535"
"$GPRMC,230600,A,2600.1356,N,07921.3334,W,2.0,294.0,180615,7.5,"
"##MN-00 00 07 0177 01783 6085 446691 205218 199"
"169.962581"
"$GPRMC,230604,A,2600.1360,N,07921.3356,W,2.0,293.4,180615,7.5,"
"##MN-00 00 07 0178 01784 6084 446658 205217 199"
"169.962627"
"$GPRMC,230608,A,2600.1367,N,07921.3378,W,2.0,293.8,180615,7.5,"
"##MN-00 00 06 0179 01783 6084 446643 205214 199"
"169.962674"
"$GPRMC,230612,A,2600.1381,N,07921.3403,W,2.0,293.7,180615,7.5,"
"##MN-00 00 06 0180 01783 6084 446609 205205 199"
"169.96272"
"$GPRMC,230616,A,2600.1388,N,07921.3425,W,2.0,293.3,180615,7.5,"
"##MN-00 00 05 0181 01782 6083 446551 205198 199"
"169.962766"
"$GPRMC,230620,A,2600.1395,N,07921.3447,W,2.0,294.2,180615,7.5,"
"##MN-00 00 06 0183 01781 6083 446466 205185 199"
"169.962813"
"$GPRMC,230624,A,2600.1409,N,07921.3470,W,2.0,295.0,180615,7.5,"
"##MN-00 00 07 0184 01780 6083 446417 205182 199"
"169.962859"
"$GPRMC,230628,A,2600.1414,N,07921.3493,W,2.0,295.3,180615,7.5,"
"##MN-00 00 07 0185 01780 6083 446373 205172 199"
"169.962917"
"$GPRMC,230632,A,2600.1429,N,07921.3517,W,2.0,295.6,180615,7.5,"
"##MN+00 00 07 0186 01781 6082 446355 205165 199"
"169.962963"
"$GPRMC,230636,A,2600.1436,N,07921.3540,W,2.0,295.1,180615,7.5,"
"##MN+00 00 07 0187 01779 6082 446353 205162 199"
"169.963009"
"$GPRMC,230640,A,2600.1447,N,07921.3563,W,2.1,295.0,180615,7.5,"
"##MN+00 00 06 0188 01778 6081 446356 205159 199"
"169.963056"
"$GPRMC,230644,A,2600.1458,N,07921.3587,W,2.1,295.1,180615,7.5,"
"##MN+00 00 48 0189 01778 6081 446350 205161 199"
"169.963102"
"$GPRMC,230648,A,2600.1472,N,07921.3611,W,2.1,295.7,180615,7.5,"
"##MN+00 00 07 0191 01780 6081 446344 205158 199"
"169.963148"
"$GPRMC,230652,A,2600.1483,N,07921.3636,W,2.1,295.8,180615,7.5,"
"##MN+00 00 07 0192 01782 6081 446339 205154 199"
"169.963194"
"#increment_net"
"$GPRMC,230656,A,2600.1496,N,07921.3661,W,2.1,296.0,180615,7.5,"
"##MN-00 00 07 0193 01779 6080 446359 205157 199"
"169.963241"
"$GPRMC,230700,A,2600.1508,N,07921.3686,W,2.2,295.8,180615,7.5,"
"##MN-00 00 50 0194 01778 6080 446362 205157 199"
"169.963287"
"$GPRMC,230704,A,2600.1516,N,07921.3710,W,2.1,295.9,180615,7.5,"
"##MN-00 00 06 0195 01778 6080 446345 205155 199"
"169.963333"
"$GPRMC,230708,A,2600.1526,N,07921.3735,W,2.1,295.6,180615,7.5,"
"##MN-00 00 07 0196 01777 6080 446327 205152 199"
"169.96338"
"$GPRMC,230712,A,2600.1537,N,07921.3757,W,2.1,296.0,180615,7.5,"
"##MN-00 00 48 0198 01778 6079 446318 205151 199"
"169.963426"
"$GPRMC,230716,A,2600.1548,N,07921.3782,W,2.1,295.8,180615,7.5,"
"##MN-00 00 06 0199 01776 6079 446315 205149 199"
"169.963472"
"$GPRMC,230720,A,2600.1559,N,07921.3805,W,2.1,295.1,180615,7.5,"
"##MN-00 00 07 0200 01777 6078 446308 205148 199"
"169.963519"
"$GPRMC,230724,A,2600.1568,N,07921.3827,W,2.1,295.5,180615,7.5,"
"##MN-00 00 06 0201 01775 6078 446295 205145 199"
"169.963565"
"$GPRMC,230728,A,2600.1574,N,07921.3848,W,2.1,295.2,180615,7.5,"
"##MN+00 00 08 0202 01776 6078 446269 205138 199"
"169.963611"
"$GPRMC,230732,A,2600.1584,N,07921.3870,W,2.0,295.5,180615,7.5,"
"##MN+00 00 47 0203 01776 6078 446250 205134 199"
"169.963657"
"$GPRMC,230736,A,2600.1594,N,07921.3894,W,2.0,295.5,180615,7.5,"
"##MN+00 00 06 0205 01777 6077 446230 205129 199"
"169.963704"
"$GPRMC,230740,A,2600.1596,N,07921.3913,W,2.1,295.5,180615,7.5,"
"##MN-00 00 07 0206 01778 6077 446223 205128 199"
"169.96375"
"$GPRMC,230744,A,2600.1606,N,07921.3935,W,2.0,295.0,180615,7.5,"
"##MN-00 00 06 0207 01779 6077 446228 205129 199"
"169.963796"
"$GPRMC,230748,A,2600.1620,N,07921.3961,W,2.1,295.1,180615,7.5,"
"##MN+00 00 07 0208 01780 6076 446233 205131 199"
"169.963843"
"$GPRMC,230752,A,2600.1628,N,07921.3983,W,2.1,295.1,180615,7.5,"
"##MN+00 00 47 0209 01781 6076 446237 205132 199"
"169.963889"
"$GPRMC,230756,A,2600.1638,N,07921.4007,W,2.1,295.0,180615,7.5,"
"##MN+00 00 05 0210 01786 6076 446249 205134 199"
"169.963935"
"#increment_net"
"$GPRMC,230800,A,2600.1648,N,07921.4030,W,2.1,294.7,180615,7.5,"
"##MN-00 00 09 0211 01783 6076 446265 205139 199"
"169.963981"
"$GPRMC,230804,A,2600.1656,N,07921.4053,W,2.1,294.6,180615,7.5,"
"##MN-00 00 49 0213 01781 6075 446270 205139 199"
"169.964028"
"$GPRMC,230808,A,2600.1663,N,07921.4075,W,2.1,294.2,180615,7.5,"
"##MN-00 00 50 0214 01780 6075 446259 205135 199"
"169.964074"
"$GPRMC,230812,A,2600.1673,N,07921.4100,W,2.1,293.9,180615,7.5,"
"##MN-00 00 49 0215 01780 6075 446244 205130 199"
"169.96412"
"$GPRMC,230817,A,2600.1689,N,07921.4129,W,2.1,294.3,180615,7.5,"
"##MN-00 00 42 0216 01779 6074 446222 205127 199"
"169.964167"
"$GPRMC,230821,A,2600.1696,N,07921.4152,W,2.1,294.3,180615,7.5,"
"##MN-00 00 06 0217 01778 6074 446178 205118 199"
"169.964213"
"$GPRMC,230825,A,2600.1704,N,07921.4174,W,2.1,294.0,180615,7.5,"
"##MN-00 00 44 0219 01777 6074 446150 205112 199"
"169.964259"
"$GPRMC,230829,A,2600.1714,N,07921.4198,W,2.1,294.5,180615,7.5,"
"##MN-00 00 50 0220 01779 6073 446135 205108 199"
"169.964306"
"$GPRMC,230832,A,2600.1721,N,07921.4216,W,2.1,294.7,180615,7.5,"
"##MN-00 00 03 0221 01779 6073 446120 205103 199"
"169.964352"
"$GPRMC,230837,A,2600.1735,N,07921.4243,W,2.1,294.8,180615,7.5,"
"##MN-00 00 06 0222 01779 6073 446109 205101 199"
"169.964398"
"$GPRMC,230841,A,2600.1746,N,07921.4267,W,2.1,295.2,180615,7.5,"
"##MN+00 00 47 0223 01776 6073 446089 205096 199"
"169.964444"
"$GPRMC,230844,A,2600.1754,N,07921.4285,W,2.1,295.6,180615,7.5,"
"##MN+00 00 07 0225 01778 6072 446057 205091 199"
"169.964491"
"$GPRMC,230849,A,2600.1767,N,07921.4315,W,2.1,295.6,180615,7.5,"
"##MN+00 00 06 0226 01778 6072 446014 205081 199"
"169.964537"
"$GPRMC,230853,A,2600.1778,N,07921.4339,W,2.1,295.5,180615,7.5,"
"##MN-00 00 06 0227 01775 6072 445984 205068 199"
"169.964583"
"$GPRMC,230857,A,2600.1787,N,07921.4361,W,2.1,295.4,180615,7.5,"
"##MN-00 00 44 0228 01776 6072 445949 205065 199"
"169.96463"
"$GPRMC,230901,A,2600.1796,N,07921.4384,W,2.1,295.0,180615,7.5,"
"##MN+00 00 47 0229 01776 6071 445925 205057 199"
"169.964676"
"$GPRMC,230905,A,2600.1807,N,07921.4408,W,2.1,295.2,180615,7.5,"
"##MN+00 00 10 0231 01775 6071 445909 205051 199"
"169.964722"
"$GPRMC,230909,A,2600.1815,N,07921.4429,W,2.1,295.1,180615,7.5,"
"##MN+00 00 07 0232 01778 6071 445905 205049 199"
"169.964768"
"#increment_net"
"$GPRMC,230913,A,2600.1826,N,07921.4451,W,2.1,294.9,180615,7.5,"
"##MN-00 00 07 0233 01781 6071 445916 205051 199"
"169.964815"
"$GPRMC,230917,A,2600.1836,N,07921.4474,W,2.1,294.9,180615,7.5,"
"##MN-00 00 07 0234 01787 6070 445929 205053 199"
"169.964861"
"$GPRMC,230921,A,2600.1844,N,07921.4498,W,2.1,294.6,180615,7.5,"
"##MN-00 00 52 0236 01793 6070 445958 205059 199"
"169.964907"
"$GPRMC,230925,A,2600.1854,N,07921.4521,W,2.1,293.5,180615,7.5,"
"##MN-00 00 49 0237 01801 6070 446013 205073 199"
"169.964954"
"$GPRMC,230929,A,2600.1857,N,07921.4542,W,2.1,292.2,180615,7.5,"
"##MN-00 00 50 0239 01807 6070 446100 205093 199"
"169.965"
"$GPRMC,230933,A,2600.1866,N,07921.4566,W,2.1,290.7,180615,7.5,"
"##MN-00 00 50 0240 01810 6070 446174 205105 199"
"169.965046"
"$GPRMC,230937,A,2600.1879,N,07921.4593,W,2.1,289.1,180615,7.5,"
"##MN-00 00 51 0242 01809 6069 446226 205124 199"
"169.965093"
"$GPRMC,230941,A,2600.1886,N,07921.4618,W,2.1,288.0,180615,7.5,"
"##MN-00 00 48 0243 01813 6069 446263 205133 199"
"169.965139"
"$GPRMC,230945,A,2600.1888,N,07921.4642,W,2.1,287.4,180615,7.5,"
"##MN-00 00 05 0245 01811 6069 446267 205133 199"
"169.965185"
"$GPRMC,230949,A,2600.1895,N,07921.4667,W,2.1,287.5,180615,7.5,"
"##MN-00 00 48 0246 01811 6068 446265 205133 199"
"169.965231"
"$GPRMC,230953,A,2600.1901,N,07921.4686,W,2.1,287.6,180615,7.5,"
"##MN-00 00 48 0248 01811 6068 446259 205132 199"
"169.965278"
"$GPRMC,230957,A,2600.1905,N,07921.4715,W,2.1,287.4,180615,7.5,"
"##MN-00 00 44 0249 01809 6068 446249 205130 199"
"169.965324"
"$GPRMC,231001,A,2600.1913,N,07921.4740,W,2.1,287.5,180615,7.5,"
"##MN-00 00 48 0251 01808 6068 446244 205130 199"
"169.96537"
"$GPRMC,231005,A,2600.1924,N,07921.4766,W,2.2,287.7,180615,7.5,"
"##MN-00 00 50 0253 01806 6068 446243 205130 199"
"169.965417"
"$GPRMC,231009,A,2600.1935,N,07921.4794,W,2.2,287.3,180615,7.5,"
"##MN-00 00 49 0254 01804 6067 446227 205125 199"
"169.965463"
"$GPRMC,231013,A,2600.1944,N,07921.4820,W,2.2,287.5,180615,7.5,"
"##MN-00 00 47 0256 01800 6067 446193 205118 199"
"169.965509"
"$GPRMC,231017,A,2600.1949,N,07921.4841,W,2.2,287.6,180615,7.5,"
"##MN-00 00 47 0257 01797 6066 446166 205112 199"
"169.965556"
"$GPRMC,231021,A,2600.1960,N,07921.4874,W,2.2,287.5,180615,7.5,"
"##MN-00 00 50 0259 01796 6066 446142 205106 199"
"169.965602"
"$GPRMC,231025,A,2600.1964,N,07921.4893,W,2.3,287.8,180615,7.5,"
"##MN-00 00 49 0261 01795 6066 446109 205098 199"
"169.965648"
"$GPRMC,231029,A,2600.1974,N,07921.4928,W,2.3,288.3,180615,7.5,"
"##MN-00 00 49 0262 01791 6066 446062 205086 199"
"169.965694"
"$GPRMC,231033,A,2600.1981,N,07921.4954,W,2.3,288.2,180615,7.5,"
"##MN-00 00 49 0264 01787 6066 446025 205080 199"
"169.965741"
"$GPRMC,231037,A,2600.1988,N,07921.4982,W,2.3,287.9,180615,7.5,"
"##MN-00 00 49 0265 01784 6066 445985 205066 199"
"169.965787"
"$GPRMC,231041,A,2600.1995,N,07921.5009,W,2.3,288.1,180615,7.5,"
"##MN-00 00 50 0267 01780 6065 445927 205052 199"
"169.965833"
"$GPRMC,231045,A,2600.2002,N,07921.5036,W,2.3,287.8,180615,7.5,"
"##MN-00 00 50 0268 01779 6065 445888 205042 199"
"169.96588"
"$GPRMC,231049,A,2600.2009,N,07921.5065,W,2.3,287.9,180615,7.5,"
"##MN-00 00 49 0270 01775 6065 445847 205032 199"
"169.965926"
"$GPRMC,231053,A,2600.2016,N,07921.5091,W,2.3,287.3,180615,7.5,"
"##MN-00 00 50 0271 01772 6064 445810 205025 199"
"169.965972"
"$GPRMC,231057,A,2600.2024,N,07921.5119,W,2.3,287.9,180615,7.5,"
"##MN-00 00 50 0273 01768 6064 445786 205022 199"
"169.96603"
"$GPRMC,231101,A,2600.2031,N,07921.5145,W,2.3,287.3,180615,7.5,"
"##MN-00 00 48 0274 01766 6064 445765 205015 199"
"169.966076"
"$GPRMC,231105,A,2600.2038,N,07921.5171,W,2.3,287.7,180615,7.5,"
"##MN-00 00 50 0276 01763 6063 445750 205014 199"
"169.966123"
"$GPRMC,231109,A,2600.2045,N,07921.5199,W,2.3,287.9,180615,7.5,"
"##MN-00 00 49 0277 01761 6064 445742 205012 199"
"169.966169"
"$GPRMC,231113,A,2600.2054,N,07921.5225,W,2.2,287.3,180615,7.5,"
"##MN-00 00 49 0279 01757 6063 445732 205009 199"
"169.966215"
"$GPRMC,231117,A,2600.2065,N,07921.5253,W,2.2,287.0,180615,7.5,"
"##MN-00 00 49 0281 01753 6063 445713 205005 199"
"169.966262"
"$GPRMC,231121,A,2600.2072,N,07921.5276,W,2.2,286.4,180615,7.5,"
"##MN-00 00 49 0282 01751 6062 445695 205002 199"
"169.966308"
"$GPRMC,231125,A,2600.2079,N,07921.5303,W,2.2,286.6,180615,7.5,"
"##MN-00 00 48 0284 01748 6063 445674 204997 199"
"169.966354"
"$GPRMC,231129,A,2600.2081,N,07921.5332,W,2.2,287.0,180615,7.5,"
"##MN-00 00 47 0285 01747 6062 445651 204992 199"
"169.9664"
"$GPRMC,231133,A,2600.2083,N,07921.5361,W,2.2,287.0,180615,7.5,"
"##MN-00 00 48 0287 01742 6062 445635 204989 199"
"169.966447"
"$GPRMC,231137,A,2600.2087,N,07921.5384,W,2.2,286.3,180615,7.5,"
"##MN-00 00 48 0288 01738 6062 445607 204983 199"
"169.966493"
"$GPRMC,231141,A,2600.2093,N,07921.5406,W,2.2,286.5,180615,7.5,"
"##MN-00 00 48 0290 01737 6062 445547 204972 199"
"169.966539"
"$GPRMC,231145,A,2600.2101,N,07921.5426,W,2.1,285.7,180615,7.5,"
"##MN-00 00 46 0291 01732 6061 445478 204955 199"
"169.966586"
"$GPRMC,231149,A,2600.2121,N,07921.5455,W,2.1,285.4,180615,7.5,"
"##MN-00 00 48 0293 01730 6061 445443 204949 199"
"169.966632"
"$GPRMC,231153,A,2600.2126,N,07921.5478,W,2.1,285.5,180615,7.5,"
"##MN-00 00 47 0294 01727 6061 445426 204946 199"
"169.966678"
"$GPRMC,231157,A,2600.2127,N,07921.5502,W,2.1,285.3,180615,7.5,"
"##MN-00 00 46 0296 01723 6061 445393 204940 199"
"169.966725"
"$GPRMC,231201,A,2600.2132,N,07921.5529,W,2.2,285.7,180615,7.5,"
"##MN-00 00 48 0298 01721 6061 445368 204935 199"
"169.966771"
"$GPRMC,231205,A,2600.2144,N,07921.5560,W,2.2,286.1,180615,7.5,"
"##MN-00 00 47 0299 01717 6060 445348 204929 199"
"169.966817"
"$GPRMC,231209,A,2600.2154,N,07921.5589,W,2.2,285.7,180615,7.5,"
"##MN-00 00 50 0301 01713 6060 445322 204927 199"
"169.966863"
"$GPRMC,231213,A,2600.2159,N,07921.5618,W,2.2,286.3,180615,7.5,"
"##MN-00 00 46 0302 01709 6060 445307 204927 199"
"169.96691"
"$GPRMC,231217,A,2600.2168,N,07921.5643,W,2.2,286.5,180615,7.5,"
"##MN-00 00 49 0304 01708 6059 445277 204920 199"
"169.966956"
"$GPRMC,231221,A,2600.2175,N,07921.5666,W,2.2,287.3,180615,7.5,"
"##MN-00 00 06 0305 01700 6060 445218 204907 199"
"169.967002"
"$GPRMC,231225,A,2600.2183,N,07921.5694,W,2.2,287.7,180615,7.5,"
"##MN-00 00 49 0307 01697 6059 445103 204896 199"
"169.967049"
"$GPRMC,231229,A,2600.2188,N,07921.5726,W,2.3,288.3,180615,7.5,"
"##MN-00 00 49 0308 01693 6059 445015 204882 199"
"169.967095"
"$GPRMC,231233,A,2600.2195,N,07921.5753,W,2.2,288.2,180615,7.5,"
"##MN-00 00 49 0310 01692 6059 444971 204874 199"
"169.967141"
"$GPRMC,231237,A,2600.2202,N,07921.5781,W,2.3,288.6,180615,7.5,"
"##MN-00 00 48 0311 01687 6059 444926 204861 199"
"169.967187"
"$GPRMC,231241,A,2600.2209,N,07921.5807,W,2.3,288.0,180615,7.5,"
"##MN-00 00 47 0313 01684 6059 444837 204849 199"
"169.967234"
"$GPRMC,231245,A,2600.2216,N,07921.5834,W,2.3,287.8,180615,7.5,"
"##MN-00 00 51 0315 01680 6058 444771 204830 199"
"169.96728"
"$GPRMC,231250,A,2600.2226,N,07921.5867,W,2.3,287.6,180615,7.5,"
"##MN-00 00 49 0316 01677 6058 444692 204815 199"
"169.967326"
"$GPRMC,231254,A,2600.2233,N,07921.5892,W,2.3,287.6,180615,7.5,"
"##MN-00 00 49 0318 01672 6058 444680 204813 199"
"169.967373"
"$GPRMC,231258,A,2600.2242,N,07921.5919,W,2.2,287.6,180615,7.5,"
"##MN-00 00 48 0319 01668 6058 444654 204801 199"
"169.967419"
"$GPRMC,231302,A,2600.2248,N,07921.5944,W,2.2,287.3,180615,7.5,"
"##MN-00 00 47 0321 01665 6058 444602 204794 199"
"169.967465"
"$GPRMC,231306,A,2600.2255,N,07921.5970,W,2.2,287.5,180615,7.5,"
"##MN-00 00 49 0322 01661 6057 444492 204778 199"
"169.967512"
"$GPRMC,231310,A,2600.2260,N,07921.5995,W,2.2,287.3,180615,7.5,"
"##MN-00 00 48 0324 01659 6057 444332 204743 199"
"169.967558"
"$GPRMC,231314,A,2600.2269,N,07921.6022,W,2.2,287.4,180615,7.5,"
"##MN-00 00 47 0325 01656 6057 444154 204696 199"
"169.967604"
"$GPRMC,231318,A,2600.2278,N,07921.6046,W,2.2,286.7,180615,7.5,"
"##MN-00 00 46 0327 01654 6057 443945 204663 199"
"169.96765"
"$GPRMC,231322,A,2600.2285,N,07921.6074,W,2.1,285.9,180615,7.5,"
"##MN-00 00 47 0328 01647 6057 443757 204606 199"
"169.967697"
"$GPRMC,231326,A,2600.2289,N,07921.6103,W,2.1,285.3,180615,7.5,"
"##MN-00 00 47 0330 01643 6056 443444 204585 199"
"169.967743"
"$GPRMC,231330,A,2600.2298,N,07921.6127,W,2.2,285.4,180615,7.5,"
"##MN-00 00 48 0332 01641 6057 443262 204510 199"
"169.967789"
"$GPRMC,231334,A,2600.2307,N,07921.6154,W,2.2,285.7,180615,7.5,"
"##MN-00 00 47 0333 01637 6056 443176 204491 199"
"169.967836"
"$GPRMC,231338,A,2600.2316,N,07921.6185,W,2.2,286.4,180615,7.5,"
"##MN-00 00 46 0335 01634 6056 443010 204460 199"
"169.967882"
"$GPRMC,231342,A,2600.2321,N,07921.6210,W,2.2,287.1,180615,7.5,"
"##MN-00 00 48 0336 01626 6056 442828 204420 199"
"169.967928"
"$GPRMC,231346,A,2600.2334,N,07921.6236,W,2.2,287.0,180615,7.5,"
"##MN-00 00 46 0338 01624 6056 442683 204382 199"
"169.967975"
"$GPRMC,231350,A,2600.2345,N,07921.6261,W,2.2,286.8,180615,7.5,"
"##MN-00 00 48 0340 01622 6056 442564 204354 199"
"169.968021"
"$GPRMC,231354,A,2600.2352,N,07921.6286,W,2.2,286.7,180615,7.5,"
"##MN-00 00 49 0341 01617 6056 442409 204307 199"
"169.968067"
"$GPRMC,231358,A,2600.2360,N,07921.6311,W,2.2,287.2,180615,7.5,"
"##MN-00 00 50 0343 01612 6056 442028 204240 199"
"169.968113"
"$GPRMC,231402,A,2600.2367,N,07921.6335,W,2.2,287.4,180615,7.5,"
"##MN-00 00 49 0345 01609 6055 441469 204116 199"
"169.96816"
"$GPRMC,231406,A,2600.2374,N,07921.6360,W,2.2,287.6,180615,7.5,"
"##MN-00 00 49 0346 01605 6055 440966 204020 198"
"169.968206"
"$GPRMC,231410,A,2600.2379,N,07921.6385,W,2.2,287.0,180615,7.5,"
"##MN-00 00 50 0348 01600 6055 440444 203918 199"
"169.968252"
"$GPRMC,231414,A,2600.2386,N,07921.6413,W,2.3,287.4,180615,7.5,"
"##MN-00 00 50 0349 01598 6055 440094 203871 199"
"169.968299"
"$GPRMC,231418,A,2600.2393,N,07921.6438,W,2.2,287.4,180615,7.5,"
"##MN-00 00 50 0351 01596 6055 439987 203843 199"
"169.968345"
"$GPRMC,231422,A,2600.2401,N,07921.6465,W,2.2,287.9,180615,7.5,"
"##MN-00 00 51 0352 01591 6055 439867 203796 199"
"169.968391"
"$GPRMC,231426,A,2600.2408,N,07921.6492,W,2.2,287.5,180615,7.5,"
"##MN-00 00 52 0354 01587 6055 439710 203759 199"
"169.968438"
"$GPRMC,231430,A,2600.2415,N,07921.6517,W,2.2,287.4,180615,7.5,"
"##MN-00 00 50 0356 01584 6055 439510 203725 198"
"169.968484"
"$GPRMC,231434,A,2600.2422,N,07921.6543,W,2.3,287.8,180615,7.5,"
"##MN-00 00 51 0357 01578 6056 439463 203720 199"
"169.96853"
"$GPRMC,231438,A,2600.2429,N,07921.6568,W,2.2,288.2,180615,7.5,"
"##MN-00 00 50 0359 01576 6055 439351 203685 199"
"169.968576"
"$GPRMC,231442,A,2600.2437,N,07921.6594,W,2.2,288.2,180615,7.5,"
"##MN-00 00 49 0360 01572 6056 439219 203675 198"
"169.968623"
"$GPRMC,231446,A,2600.2444,N,07921.6619,W,2.2,288.8,180615,7.5,"
"##MN-00 00 07 0362 01568 6055 439099 203649 198"
"169.968669"
"$GPRMC,231450,A,2600.2451,N,07921.6645,W,2.2,288.8,180615,7.5,"
"##MN-00 00 52 0363 01565 6055 439064 203630 198"
"169.968715"
"$GPRMC,231454,A,2600.2458,N,07921.6670,W,2.2,289.1,180615,7.5,"
"##MN-00 00 51 0365 01561 6055 439004 203607 198"
"169.968762"
"$GPRMC,231458,A,2600.2466,N,07921.6698,W,2.2,288.6,180615,7.5,"
"##MN-00 00 51 0366 01559 6055 438878 203592 198"
"169.968808"
"$GPRMC,231502,A,2600.2473,N,07921.6723,W,2.3,288.6,180615,7.5,"
"##MN-00 00 08 0368 01554 6055 438915 203603 198"
"169.968854"
"$GPRMC,231506,A,2600.2480,N,07921.6749,W,2.3,288.5,180615,7.5,"
"##MN-00 00 49 0370 01551 6056 438916 203595 198"
"169.9689"
"$GPRMC,231510,A,2600.2487,N,07921.6774,W,2.2,288.6,180615,7.5,"
"##MN-00 00 52 0371 01547 6056 438871 203580 199"
"169.968947"
"$GPRMC,231514,A,2600.2495,N,07921.6799,W,2.2,288.9,180615,7.5,"
"##MN-00 00 08 0373 01544 6056 438765 203562 198"
"169.968993"
"$GPRMC,231518,A,2600.2502,N,07921.6825,W,2.2,289.0,180615,7.5,"
"##MN-00 00 07 0374 01540 6056 438706 203552 198"
"169.969039"
"$GPRMC,231522,A,2600.2511,N,07921.6850,W,2.2,288.7,180615,7.5,"
"##MN-00 00 49 0376 01539 6056 438738 203560 199"
"169.969086"
"$GPRMC,231526,A,2600.2519,N,07921.6875,W,2.2,288.4,180615,7.5,"
"##MN-00 00 49 0377 01540 6056 438767 203564 199"
"169.969132"
"$GPRMC,231530,A,2600.2526,N,07921.6900,W,2.1,288.4,180615,7.5,"
"##MN-00 00 48 0379 01541 6056 438794 203567 199"
"169.969178"
"$GPRMC,231534,A,2600.2533,N,07921.6925,W,2.1,287.9,180615,7.5,"
"##MN-00 00 45 0380 01541 6056 438803 203570 199"
"169.969225"
"$GPRMC,231538,A,2600.2540,N,07921.6949,W,2.1,287.8,180615,7.5,"
"##MN-00 00 07 0382 01537 6056 438806 203569 198"
"169.969282"
"$GPRMC,231542,A,2600.2545,N,07921.6976,W,2.1,287.3,180615,7.5,"
"##MN-00 00 45 0383 01534 6056 438957 272773 199"
"169.969329"
"$GPRMC,231546,A,2600.2553,N,07921.7001,W,2.1,287.5,180615,7.5,"
"##MN-00 00 49 0383 01535 6057 443761 783565 199"
"169.969375"
"$GPRMC,231550,A,2600.2560,N,07921.7025,W,2.1,288.0,180615,7.5,"
"##MN-00 00 47 0383 01536 6057 450624 827869 198"
