" Tow: 6ES-A   RVWS/WS15161"
" Date: 18/06/2015"
" Temperature Probe #  4762    Conductivity Probe #  710"
" Pressure Probe #  159"
" Flow Meter Calibration  4.71 (m/count)  "
"169.868993"
"$GPRMC,205116,A,2554.7148,N,07924.4328,W,3.6,59.3,180615,7.4,W"
""
"169.869444"
""
"##MN-00 00 80 0000 01516 6840 410528 826817 201"
"169.869491"
"$GPRMC,205201,A,2554.7419,N,07924.3895,W,3.8,54.1,180615,7.4,W"
"##MN-00 00 80 0000 01516 6837 422761 826773 201"
"169.869537"
"$GPRMC,205205,A,2554.7443,N,07924.3856,W,3.7,54.4,180615,7.4,W"
"##MN-00 00 80 0000 01518 6835 423981 826582 201"
"169.869583"
"$GPRMC,205209,A,2554.7468,N,07924.3818,W,3.7,54.3,180615,7.4,W"
"##MN-00 00 80 0000 01518 6832 424654 826569 201"
"169.86963"
"$GPRMC,205213,A,2554.7493,N,07924.3782,W,3.7,54.1,180615,7.4,W"
"##MN-00 00 69 0000 01515 6829 434064 237678 201"
"169.869676"
"$GPRMC,205217,A,2554.7515,N,07924.3748,W,3.6,53.9,180615,7.4,W"
"##MN-00 00 75 0000 01518 6827 437144 203123 201"
"169.869734"
"$GPRMC,205221,A,2554.7538,N,07924.3715,W,3.6,53.6,180615,7.4,W"
"##MN-00 00 54 0001 01518 6824 437158 202965 201"
"169.86978"
"$GPRMC,205225,A,2554.7560,N,07924.3682,W,3.5,53.4,180615,7.4,W"
"##MN-00 00 28 0002 01519 6821 437350 204750 201"
"169.869826"
"$GPRMC,205229,A,2554.7583,N,07924.3651,W,3.3,52.9,180615,7.4,W"
"##MN-00 00 27 0003 01519 6819 437484 204222 201"
"169.869873"
"$GPRMC,205233,A,2554.7603,N,07924.3620,W,3.3,52.7,180615,7.4,W"
"##MN-00 00 26 0004 01518 6816 437626 205096 201"
"169.869919"
"$GPRMC,205237,A,2554.7625,N,07924.3594,W,3.2,52.1,180615,7.4,W"
"##MN-00 00 25 0005 01520 6814 437624 203586 201"
"169.869965"
"$GPRMC,205241,A,2554.7642,N,07924.3568,W,3.1,52.1,180615,7.4,W"
"##MN-00 00 24 0006 01520 6811 437621 203614 201"
"169.870012"
"$GPRMC,205245,A,2554.7657,N,07924.3542,W,2.9,51.9,180615,7.4,W"
"##MN-00 00 24 0006 01519 6809 437647 203619 201"
"169.870058"
"$GPRMC,205249,A,2554.7677,N,07924.3513,W,2.9,52.2,180615,7.4,W"
"##MN-00 00 24 0007 01520 6807 437670 203626 201"
"169.870104"
"$GPRMC,205253,A,2554.7695,N,07924.3485,W,2.8,52.6,180615,7.4,W"
"##MN-00 00 22 0008 01521 6804 437711 203558 201"
"169.87015"
"$GPRMC,205257,A,2554.7712,N,07924.3458,W,2.7,52.9,180615,7.4,W"
"##MN-00 00 21 0009 01524 6802 437719 203482 201"
"169.870197"
"$GPRMC,205301,A,2554.7730,N,07924.3431,W,2.6,52.9,180615,7.4,W"
"##MN-00 00 20 0010 01527 6800 437679 203473 201"
"169.870243"
"$GPRMC,205305,A,2554.7747,N,07924.3405,W,2.5,53.4,180615,7.4,W"
"##MN-00 00 19 0011 01528 6797 437651 203433 201"
"169.870289"
"$GPRMC,205309,A,2554.7766,N,07924.3379,W,2.5,53.7,180615,7.4,W"
"##MN-00 00 19 0012 01532 6795 437635 203428 201"
"169.870336"
"$GPRMC,205313,A,2554.7783,N,07924.3354,W,2.5,53.4,180615,7.4,W"
"##MN-00 00 19 0013 01536 6793 437651 203546 201"
"169.870382"
"$GPRMC,205317,A,2554.7801,N,07924.3328,W,2.5,53.7,180615,7.4,W"
"##MN-00 00 19 0014 01539 6790 437826 203493 201"
"169.870428"
"$GPRMC,205321,A,2554.7818,N,07924.3301,W,2.5,53.9,180615,7.4,W"
"##MN-00 00 19 0015 01544 6788 437822 203474 201"
"169.870474"
"$GPRMC,205326,A,2554.7838,N,07924.3268,W,2.6,53.4,180615,7.4,W"
"##MN-00 00 19 0016 01548 6786 437846 203494 201"
"169.870521"
"$GPRMC,205330,A,2554.7856,N,07924.3242,W,2.5,53.6,180615,7.4,W"
"##MN-00 00 19 0017 01552 6784 437957 203466 201"
"169.870567"
"$GPRMC,205334,A,2554.7876,N,07924.3215,W,2.6,53.4,180615,7.4,W"
"##MN-00 00 18 0018 01558 6781 438144 203501 201"
"169.870613"
"$GPRMC,205338,A,2554.7896,N,07924.3192,W,2.6,52.2,180615,7.4,W"
"##MN-00 00 18 0019 01563 6779 438519 203614 201"
"169.87066"
"$GPRMC,205342,A,2554.7914,N,07924.3166,W,2.7,52.3,180615,7.4,W"
"##MN-00 00 18 0019 01569 6777 439011 203643 201"
"169.870706"
"$GPRMC,205346,A,2554.7934,N,07924.3135,W,2.8,51.6,180615,7.4,W"
"##MN-00 00 18 0020 01574 6775 439594 203724 201"
"169.870752"
"$GPRMC,205350,A,2554.7953,N,07924.3107,W,2.8,51.6,180615,7.4,W"
"##MN-00 00 18 0021 01579 6773 440283 203862 201"
"169.870799"
"$GPRMC,205354,A,2554.7974,N,07924.3080,W,2.8,51.3,180615,7.4,W"
"##MN-00 00 18 0022 01585 6771 440896 203959 201"
"169.870845"
"$GPRMC,205358,A,2554.7995,N,07924.3055,W,2.9,51.3,180615,7.4,W"
"##MN-00 00 18 0023 01591 6769 441232 204004 201"
"169.870891"
"$GPRMC,205402,A,2554.8015,N,07924.3030,W,2.9,50.9,180615,7.4,W"
"##MN-00 00 18 0024 01596 6767 441671 204158 201"
"169.870938"
"$GPRMC,205406,A,2554.8033,N,07924.3003,W,2.9,51.2,180615,7.4,W"
"##MN-00 00 18 0025 01603 6764 441994 204279 201"
"169.870984"
"$GPRMC,205410,A,2554.8055,N,07924.2974,W,2.9,50.8,180615,7.4,W"
"##MN-00 00 18 0026 01602 6762 442072 204242 201"
"169.87103"
"$GPRMC,205414,A,2554.8075,N,07924.2944,W,2.9,51.6,180615,7.4,W"
"##MN-00 00 18 0027 01610 6760 442156 204293 201"
"169.871076"
"$GPRMC,205418,A,2554.8094,N,07924.2919,W,2.9,52.4,180615,7.4,W"
"##MN-00 00 18 0027 01613 6758 442240 204298 201"
"169.871123"
"$GPRMC,205422,A,2554.8112,N,07924.2888,W,2.9,52.7,180615,7.4,W"
"##MN-00 00 18 0028 01615 6756 442299 204342 201"
"169.871169"
"$GPRMC,205426,A,2554.8130,N,07924.2859,W,2.9,52.9,180615,7.4,W"
"##MN-00 00 18 0029 01620 6754 442404 204340 201"
"169.871215"
"$GPRMC,205430,A,2554.8149,N,07924.2831,W,2.9,52.7,180615,7.4,W"
"##MN-00 00 18 0030 01625 6752 442472 204347 201"
"169.871262"
"$GPRMC,205434,A,2554.8170,N,07924.2802,W,2.9,52.9,180615,7.4,W"
"##MN-00 00 18 0031 01628 6749 442591 204402 201"
"169.871308"
"$GPRMC,205438,A,2554.8188,N,07924.2772,W,2.9,53.6,180615,7.4,W"
"##MN-00 00 18 0032 01631 6747 442676 204426 201"
"169.871354"
"$GPRMC,205442,A,2554.8208,N,07924.2744,W,2.9,53.8,180615,7.4,W"
"##MN-00 00 17 0033 01637 6745 442726 204437 201"
"169.8714"
"$GPRMC,205446,A,2554.8225,N,07924.2713,W,2.9,53.9,180615,7.4,W"
"##MN-00 00 17 0034 01640 6743 442744 204427 201"
"169.871447"
"$GPRMC,205450,A,2554.8242,N,07924.2684,W,2.9,54.5,180615,7.4,W"
"##MN-00 00 17 0035 01643 6741 442798 204432 201"
"169.871493"
"$GPRMC,205454,A,2554.8260,N,07924.2655,W,2.9,54.9,180615,7.4,W"
"##MN-00 00 17 0036 01648 6739 442845 204445 201"
"169.871539"
"$GPRMC,205458,A,2554.8279,N,07924.2626,W,2.9,55.2,180615,7.4,W"
"##MN-00 00 18 0036 01654 6737 442948 204469 201"
"169.871586"
"$GPRMC,205502,A,2554.8297,N,07924.2597,W,2.8,55.3,180615,7.4,W"
"##MN-00 00 17 0037 01655 6735 443126 204502 201"
"169.871632"
"$GPRMC,205506,A,2554.8314,N,07924.2568,W,2.8,55.4,180615,7.4,W"
"##MN-00 00 18 0038 01659 6733 443268 204539 201"
"169.871678"
"$GPRMC,205510,A,2554.8333,N,07924.2540,W,2.8,55.1,180615,7.4,W"
"##MN-00 00 18 0039 01656 6730 443601 204588 201"
"169.871725"
"$GPRMC,205514,A,2554.8347,N,07924.2519,W,2.8,55.1,180615,7.4,W"
"##MN-00 00 18 0040 01658 6729 443607 204584 201"
"169.871771"
"$GPRMC,205518,A,2554.8371,N,07924.2484,W,2.8,54.6,180615,7.4,W"
"##MN-00 00 18 0041 01656 6726 443464 204576 201"
"169.871817"
"$GPRMC,205522,A,2554.8390,N,07924.2457,W,2.8,54.2,180615,7.4,W"
"##MN-00 00 17 0042 01656 6724 443296 204549 201"
"169.871863"
"$GPRMC,205526,A,2554.8409,N,07924.2430,W,2.8,53.8,180615,7.4,W"
"##MN-00 00 18 0043 01656 6722 443121 204531 201"
"169.87191"
"$GPRMC,205530,A,2554.8423,N,07924.2412,W,2.7,53.5,180615,7.4,W"
"##MN-00 00 18 0044 01653 6720 442960 204488 201"
"169.871956"
"$GPRMC,205534,A,2554.8447,N,07924.2375,W,2.7,52.8,180615,7.4,W"
"##MN-00 00 17 0045 01653 6718 442864 204475 201"
"169.872002"
"$GPRMC,205538,A,2554.8459,N,07924.2352,W,2.7,51.8,180615,7.4,W"
"##MN-00 00 17 0046 01651 6716 442792 204466 201"
"169.872049"
"$GPRMC,205542,A,2554.8483,N,07924.2314,W,2.7,51.5,180615,7.4,W"
"##MN-00 00 17 0047 01650 6714 442753 204454 201"
"169.872095"
"$GPRMC,205546,A,2554.8501,N,07924.2286,W,2.7,51.3,180615,7.4,W"
"##MN-00 00 17 0048 01646 6712 442711 204446 201"
"169.872141"
"$GPRMC,205550,A,2554.8517,N,07924.2260,W,2.7,51.2,180615,7.4,W"
"##MN-00 00 17 0049 01643 6710 442685 204432 201"
"169.872188"
"$GPRMC,205554,A,2554.8535,N,07924.2233,W,2.7,50.6,180615,7.4,W"
"##MN-00 00 18 0050 01642 6708 442675 204433 201"
"169.872234"
"$GPRMC,205558,A,2554.8553,N,07924.2207,W,2.7,51.0,180615,7.4,W"
"##MN-00 00 17 0051 01639 6706 442669 204425 201"
"169.87228"
"$GPRMC,205602,A,2554.8575,N,07924.2179,W,2.7,50.8,180615,7.4,W"
"##MN-00 00 17 0052 01638 6703 442664 204419 201"
"169.872326"
"$GPRMC,205606,A,2554.8596,N,07924.2155,W,2.7,50.8,180615,7.4,W"
"##MN-00 00 17 0053 01636 6701 442650 204414 201"
"169.872373"
"$GPRMC,205610,A,2554.8615,N,07924.2127,W,2.7,50.5,180615,7.4,W"
"##MN-00 00 18 0054 01633 6699 442648 204413 201"
"169.872419"
"$GPRMC,205614,A,2554.8636,N,07924.2099,W,2.8,50.4,180615,7.4,W"
"##MN-00 00 18 0055 01631 6697 442630 204411 201"
"169.872465"
"$GPRMC,205618,A,2554.8656,N,07924.2074,W,2.8,50.3,180615,7.4,W"
"##MN-00 00 18 0056 01631 6695 442624 204412 201"
"169.872512"
"$GPRMC,205622,A,2554.8675,N,07924.2049,W,2.7,49.9,180615,7.4,W"
"##MN-00 00 18 0057 01633 6693 442618 204410 201"
"169.872558"
"$GPRMC,205626,A,2554.8696,N,07924.2024,W,2.7,50.1,180615,7.4,W"
"##MN+00 00 18 0058 01632 6691 442602 204408 201"
"169.872604"
"$GPRMC,205630,A,2554.8714,N,07924.1999,W,2.7,50.5,180615,7.4,W"
"##MN+00 00 18 0059 01632 6689 442636 204410 201"
"169.87265"
"$GPRMC,205634,A,2554.8732,N,07924.1971,W,2.8,50.8,180615,7.4,W"
"##MN+00 00 18 0060 01633 6687 442667 204413 201"
"169.872697"
"$GPRMC,205638,A,2554.8751,N,07924.1943,W,2.8,51.0,180615,7.4,W"
"##MN+00 00 18 0061 01633 6685 442667 204416 201"
"169.872743"
"$GPRMC,205642,A,2554.8770,N,07924.1916,W,2.8,51.6,180615,7.4,W"
"##MN+00 00 18 0062 01630 6683 442666 204415 201"
"169.872789"
"$GPRMC,205646,A,2554.8791,N,07924.1889,W,2.8,51.9,180615,7.4,W"
"##MN+00 00 18 0063 01630 6681 442635 204410 201"
"169.872836"
"$GPRMC,205650,A,2554.8810,N,07924.1860,W,2.8,51.7,180615,7.4,W"
"##MN-00 00 18 0064 01633 6679 442597 204401 201"
"169.872882"
"$GPRMC,205654,A,2554.8828,N,07924.1832,W,2.8,51.2,180615,7.4,W"
"##MN-00 00 18 0064 01633 6677 442567 204393 201"
"169.872928"
"#increment_net"
"$GPRMC,205658,A,2554.8846,N,07924.1799,W,2.9,52.0,180615,7.4,W"
"##MN-00 00 18 0065 01629 6675 442545 204391 201"
"169.872986"
"$GPRMC,205702,A,2554.8867,N,07924.1771,W,2.9,52.0,180615,7.4,W"
"##MN-00 00 18 0066 01627 6673 442534 204388 201"
"169.873032"
"$GPRMC,205706,A,2554.8888,N,07924.1746,W,2.9,52.3,180615,7.4,W"
"##MN-00 00 18 0067 01628 6671 442527 204388 201"
"169.873079"
"$GPRMC,205710,A,2554.8910,N,07924.1720,W,2.9,52.3,180615,7.4,W"
"##MN-00 00 18 0068 01627 6669 442526 204386 201"
"169.873125"
"$GPRMC,205714,A,2554.8929,N,07924.1694,W,2.9,52.6,180615,7.4,W"
"##MN-00 00 18 0069 01627 6667 442523 204386 201"
"169.873171"
"$GPRMC,205718,A,2554.8947,N,07924.1666,W,2.8,53.0,180615,7.4,W"
"##MN-00 00 18 0070 01626 6665 442530 204386 201"
"169.873218"
"$GPRMC,205722,A,2554.8965,N,07924.1640,W,2.8,53.0,180615,7.4,W"
"##MN-00 00 18 0071 01627 6663 442549 204388 201"
"169.873264"
"$GPRMC,205726,A,2554.8987,N,07924.1613,W,2.8,53.7,180615,7.4,W"
"##MN-00 00 18 0072 01625 6661 442545 204388 201"
"169.87331"
"$GPRMC,205730,A,2554.9004,N,07924.1582,W,2.8,53.7,180615,7.4,W"
"##MN-00 00 18 0073 01627 6660 442543 204389 201"
"169.873357"
"$GPRMC,205734,A,2554.9023,N,07924.1558,W,2.8,53.8,180615,7.4,W"
"##MN-00 00 18 0074 01627 6657 442566 204390 201"
"169.873403"
"$GPRMC,205738,A,2554.9043,N,07924.1531,W,2.8,53.6,180615,7.4,W"
"##MN-00 00 18 0075 01631 6656 442577 204392 201"
"169.873449"
"$GPRMC,205742,A,2554.9059,N,07924.1498,W,2.8,53.6,180615,7.4,W"
"##MN-00 00 18 0076 01631 6653 442585 204392 201"
"169.873495"
"$GPRMC,205746,A,2554.9077,N,07924.1467,W,2.8,53.8,180615,7.4,W"
"##MN-00 00 18 0077 01631 6652 442586 204392 201"
"169.873542"
"$GPRMC,205751,A,2554.9095,N,07924.1431,W,2.8,54.2,180615,7.4,W"
"##MN-00 00 18 0078 01631 6649 442593 204394 201"
"169.873588"
"$GPRMC,205755,A,2554.9115,N,07924.1404,W,2.8,54.0,180615,7.4,W"
"##MN-00 00 18 0079 01632 6648 442543 204383 201"
"169.873634"
"$GPRMC,205758,A,2554.9128,N,07924.1382,W,2.8,53.8,180615,7.4,W"
"##MN-00 00 18 0080 01629 6646 442553 204386 201"
"169.873681"
"$GPRMC,205802,A,2554.9146,N,07924.1351,W,2.8,53.1,180615,7.4,W"
"##MN-00 00 18 0081 01628 6644 442570 204391 201"
"169.873727"
"$GPRMC,205806,A,2554.9164,N,07924.1320,W,2.8,53.0,180615,7.4,W"
"##MN-00 00 18 0082 01632 6642 442573 204390 201"
"169.873773"
"$GPRMC,205811,A,2554.9184,N,07924.1285,W,2.8,52.7,180615,7.4,W"
"##MN+00 00 18 0083 01633 6640 442580 204391 201"
"169.873819"
"$GPRMC,205815,A,2554.9203,N,07924.1257,W,2.8,52.8,180615,7.4,W"
"##MN+00 00 18 0084 01632 6638 442565 204388 201"
"169.873866"
"$GPRMC,205819,A,2554.9221,N,07924.1230,W,2.8,52.7,180615,7.4,W"
"##MN+00 00 18 0085 01632 6636 442604 204397 201"
"169.873912"
"$GPRMC,205823,A,2554.9240,N,07924.1204,W,2.8,52.4,180615,7.4,W"
"##MN+00 00 18 0086 01634 6635 442655 204406 201"
"169.873958"
"$GPRMC,205827,A,2554.9260,N,07924.1178,W,2.8,52.3,180615,7.4,W"
"##MN+00 00 18 0087 01634 6633 442659 204406 201"
"169.874005"
"$GPRMC,205831,A,2554.9281,N,07924.1154,W,2.8,52.2,180615,7.4,W"
"##MN+00 00 18 0088 01631 6631 442659 204406 201"
"169.874051"
"#increment_net"
"$GPRMC,205835,A,2554.9303,N,07924.1129,W,2.8,52.3,180615,7.4,W"
"##MN-00 00 18 0089 01634 6629 442655 204406 201"
"169.874097"
"$GPRMC,205839,A,2554.9326,N,07924.1102,W,2.8,52.7,180615,7.4,W"
"##MN-00 00 18 0090 01636 6627 442656 204405 201"
"169.874144"
"$GPRMC,205843,A,2554.9344,N,07924.1071,W,2.9,53.0,180615,7.4,W"
"##MN-00 00 18 0091 01635 6626 442682 204411 201"
"169.87419"
"$GPRMC,205847,A,2554.9366,N,07924.1048,W,2.9,53.0,180615,7.4,W"
"##MN-00 00 18 0092 01633 6624 442721 204422 201"
"169.874236"
"$GPRMC,205851,A,2554.9384,N,07924.1019,W,2.9,53.0,180615,7.4,W"
"##MN-00 00 18 0093 01629 6622 442750 204428 201"
"169.874282"
"$GPRMC,205855,A,2554.9402,N,07924.0990,W,2.9,52.9,180615,7.4,W"
"##MN-00 00 18 0094 01626 6620 442759 204432 201"
"169.874329"
"$GPRMC,205859,A,2554.9422,N,07924.0963,W,2.9,52.9,180615,7.4,W"
"##MN-00 00 18 0095 01627 6619 442760 204431 201"
"169.874375"
"$GPRMC,205903,A,2554.9441,N,07924.0934,W,2.9,53.2,180615,7.4,W"
"##MN-00 00 18 0096 01625 6617 442735 204429 201"
"169.874421"
"$GPRMC,205907,A,2554.9460,N,07924.0907,W,2.9,52.9,180615,7.4,W"
"##MN-00 00 18 0097 01624 6615 442699 204420 201"
"169.874468"
"$GPRMC,205911,A,2554.9480,N,07924.0879,W,2.9,53.0,180615,7.4,W"
"##MN-00 00 18 0098 01625 6613 442663 204414 201"
"169.874514"
"$GPRMC,205915,A,2554.9500,N,07924.0852,W,2.9,52.8,180615,7.4,W"
"##MN-00 00 18 0099 01627 6611 442621 204403 201"
"169.87456"
"$GPRMC,205919,A,2554.9518,N,07924.0824,W,2.8,52.6,180615,7.4,W"
"##MN-00 00 18 0100 01627 6610 442614 204401 201"
"169.874606"
"$GPRMC,205923,A,2554.9538,N,07924.0798,W,2.8,52.9,180615,7.4,W"
"##MN-00 00 18 0101 01626 6608 442630 204404 201"
"169.874653"
"$GPRMC,205927,A,2554.9557,N,07924.0768,W,2.8,52.7,180615,7.4,W"
"##MN-00 00 18 0102 01627 6606 442655 204409 201"
"169.874699"
"$GPRMC,205931,A,2554.9575,N,07924.0740,W,2.8,52.9,180615,7.4,W"
"##MN-00 00 18 0103 01626 6604 442708 204419 201"
"169.874745"
"$GPRMC,205935,A,2554.9594,N,07924.0714,W,2.8,53.1,180615,7.4,W"
"##MN+00 00 18 0104 01627 6603 442729 204423 201"
"169.874792"
"$GPRMC,205939,A,2554.9612,N,07924.0687,W,2.8,53.1,180615,7.4,W"
"##MN+00 00 18 0105 01626 6601 442724 204422 201"
"169.874838"
"$GPRMC,205943,A,2554.9630,N,07924.0656,W,2.8,52.8,180615,7.4,W"
"##MN+00 00 18 0106 01626 6599 442725 204423 201"
"169.874884"
"$GPRMC,205947,A,2554.9648,N,07924.0627,W,2.8,53.0,180615,7.4,W"
"##MN+00 00 18 0107 01626 6598 442731 204426 201"
"169.874931"
"$GPRMC,205951,A,2554.9662,N,07924.0606,W,2.8,53.0,180615,7.4,W"
"##MN+00 00 18 0108 01626 6596 442742 204426 201"
"169.874977"
"$GPRMC,205955,A,2554.9683,N,07924.0569,W,2.8,53.1,180615,7.4,W"
"##MN+00 00 18 0109 01626 6594 442741 204426 201"
"169.875023"
"#increment_net"
"$GPRMC,205959,A,2554.9698,N,07924.0537,W,2.8,53.7,180615,7.4,W"
"##MN-00 00 18 0110 01627 6592 442749 204427 201"
"169.875069"
"$GPRMC,210003,A,2554.9713,N,07924.0506,W,2.8,54.1,180615,7.4,W"
"##MN-00 00 18 0111 01626 6591 442761 204430 201"
"169.875116"
"$GPRMC,210007,A,2554.9734,N,07924.0479,W,2.8,53.7,180615,7.4,W"
"##MN-00 00 19 0112 01625 6589 442780 204433 201"
"169.875162"
"$GPRMC,210011,A,2554.9753,N,07924.0448,W,2.9,53.6,180615,7.4,W"
"##MN-00 00 18 0113 01625 6588 442787 204436 201"
"169.875208"
"$GPRMC,210015,A,2554.9771,N,07924.0417,W,2.8,53.4,180615,7.4,W"
"##MN-00 00 18 0114 01625 6586 442798 204438 201"
"169.875255"
"$GPRMC,210019,A,2554.9791,N,07924.0388,W,2.9,53.9,180615,7.4,W"
"##MN-00 00 18 0115 01625 6584 442816 204443 201"
"169.875301"
"$GPRMC,210023,A,2554.9811,N,07924.0358,W,2.9,53.7,180615,7.4,W"
"##MN-00 00 18 0116 01625 6582 442839 204447 201"
"169.875347"
"$GPRMC,210027,A,2554.9828,N,07924.0332,W,2.9,54.0,180615,7.4,W"
"##MN-00 00 18 0117 01627 6581 442855 204450 201"
"169.875394"
"$GPRMC,210031,A,2554.9850,N,07924.0302,W,2.9,54.1,180615,7.4,W"
"##MN-00 00 18 0118 01626 6579 442858 204453 201"
"169.87544"
"$GPRMC,210035,A,2554.9870,N,07924.0274,W,2.9,54.2,180615,7.4,W"
"##MN-00 00 18 0119 01627 6577 442846 204451 201"
"169.875486"
"$GPRMC,210039,A,2554.9890,N,07924.0243,W,3.0,53.9,180615,7.4,W"
"##MN-00 00 18 0120 01624 6576 442859 204453 201"
"169.875532"
"$GPRMC,210043,A,2554.9908,N,07924.0212,W,3.0,53.6,180615,7.4,W"
"##MN-00 00 18 0121 01626 6574 442868 204454 201"
"169.875579"
"$GPRMC,210047,A,2554.9928,N,07924.0184,W,2.9,53.4,180615,7.4,W"
"##MN-00 00 18 0122 01627 6572 442883 204456 201"
"169.875625"
"$GPRMC,210051,A,2554.9951,N,07924.0164,W,2.9,53.1,180615,7.4,W"
"##MN-00 00 18 0123 01625 6570 442893 204459 201"
"169.875671"
"$GPRMC,210055,A,2554.9972,N,07924.0132,W,2.9,53.1,180615,7.4,W"
"##MN-00 00 18 0124 01627 6569 442902 204461 201"
"169.875718"
"$GPRMC,210059,A,2554.9991,N,07924.0102,W,3.0,53.5,180615,7.4,W"
"##MN+00 00 18 0125 01625 6568 442905 204461 201"
"169.875764"
"$GPRMC,210103,A,2555.0012,N,07924.0077,W,3.0,53.4,180615,7.4,W"
"##MN+00 00 18 0127 01629 6566 442898 204461 201"
"169.87581"
"$GPRMC,210107,A,2555.0033,N,07924.0051,W,2.9,53.8,180615,7.4,W"
"##MN+00 00 18 0128 01627 6565 442893 204460 201"
"169.875856"
"$GPRMC,210111,A,2555.0049,N,07924.0020,W,2.9,53.6,180615,7.4,W"
"##MN-00 00 18 0129 01627 6563 442894 204458 201"
"169.875903"
"$GPRMC,210115,A,2555.0066,N,07923.9990,W,2.9,53.9,180615,7.4,W"
"##MN+00 00 18 0130 01629 6561 442879 204457 201"
"169.875949"
"$GPRMC,210119,A,2555.0085,N,07923.9961,W,2.9,53.9,180615,7.4,W"
"##MN+00 00 18 0131 01632 6560 442874 204454 201"
"169.875995"
"$GPRMC,210123,A,2555.0103,N,07923.9932,W,2.9,54.0,180615,7.4,W"
"##MN+00 00 18 0132 01631 6558 442860 204451 201"
"169.876042"
"#increment_net"
"$GPRMC,210127,A,2555.0121,N,07923.9898,W,2.9,53.9,180615,7.4,W"
"##MN-00 00 18 0133 01634 6556 442786 204432 201"
"169.8761"
"$GPRMC,210131,A,2555.0138,N,07923.9868,W,2.9,54.1,180615,7.4,W"
"##MN-00 00 19 0134 01634 6555 442752 204428 201"
"169.876146"
"$GPRMC,210135,A,2555.0157,N,07923.9840,W,2.9,54.3,180615,7.4,W"
"##MN-00 00 19 0135 01634 6553 442748 204429 201"
"169.876192"
"$GPRMC,210139,A,2555.0178,N,07923.9813,W,2.8,54.1,180615,7.4,W"
"##MN-00 00 18 0136 01632 6552 442730 204424 201"
"169.876238"
"$GPRMC,210143,A,2555.0197,N,07923.9786,W,2.8,54.2,180615,7.4,W"
"##MN-00 00 19 0137 01631 6550 442714 204417 201"
"169.876285"
"$GPRMC,210147,A,2555.0217,N,07923.9759,W,2.8,54.5,180615,7.4,W"
"##MN-00 00 18 0138 01630 6548 442670 204409 201"
"169.876331"
"$GPRMC,210151,A,2555.0235,N,07923.9730,W,2.8,54.2,180615,7.4,W"
"##MN-00 00 18 0139 01631 6547 442649 204404 201"
"169.876377"
"$GPRMC,210155,A,2555.0253,N,07923.9696,W,2.8,54.9,180615,7.4,W"
"##MN-00 00 18 0140 01632 6545 442631 204401 201"
"169.876424"
"$GPRMC,210159,A,2555.0272,N,07923.9669,W,2.8,54.8,180615,7.4,W"
"##MN-00 00 18 0141 01631 6544 442619 204397 201"
"169.87647"
"$GPRMC,210203,A,2555.0290,N,07923.9641,W,2.8,54.4,180615,7.4,W"
"##MN-00 00 18 0142 01630 6542 442610 204395 201"
"169.876516"
"$GPRMC,210207,A,2555.0307,N,07923.9611,W,2.8,54.4,180615,7.4,W"
"##MN-00 00 18 0143 01631 6541 442608 204396 201"
"169.876563"
"$GPRMC,210211,A,2555.0327,N,07923.9581,W,2.8,54.1,180615,7.4,W"
"##MN-00 00 18 0144 01632 6539 442629 204398 201"
"169.876609"
"$GPRMC,210215,A,2555.0345,N,07923.9552,W,2.8,54.3,180615,7.4,W"
"##MN-00 00 18 0146 01631 6538 442675 204405 201"
"169.876655"
"$GPRMC,210219,A,2555.0363,N,07923.9524,W,2.8,54.1,180615,7.4,W"
"##MN-00 00 18 0147 01631 6536 442710 204412 201"
"169.876701"
"$GPRMC,210223,A,2555.0383,N,07923.9495,W,2.8,54.0,180615,7.4,W"
"##MN-00 00 18 0148 01631 6535 442730 204418 201"
"169.876748"
"$GPRMC,210227,A,2555.0402,N,07923.9467,W,2.8,53.5,180615,7.4,W"
"##MN-00 00 18 0149 01632 6533 442742 204420 201"
"169.876794"
"$GPRMC,210232,A,2555.0424,N,07923.9434,W,2.8,53.3,180615,7.4,W"
"##MN+00 00 18 0150 01628 6532 442760 204424 201"
"169.87684"
"$GPRMC,210236,A,2555.0443,N,07923.9409,W,2.8,53.2,180615,7.4,W"
"##MN+00 00 18 0151 01632 6530 442785 204429 201"
"169.876887"
"$GPRMC,210240,A,2555.0464,N,07923.9378,W,2.9,52.7,180615,7.4,W"
"##MN+00 00 18 0152 01633 6529 442800 204430 201"
"169.876933"
"$GPRMC,210244,A,2555.0484,N,07923.9346,W,2.9,52.5,180615,7.4,W"
"##MN+00 00 18 0153 01633 6527 442813 204436 201"
"169.876979"
"$GPRMC,210248,A,2555.0503,N,07923.9316,W,2.9,52.3,180615,7.4,W"
"##MN+00 00 18 0154 01633 6526 442817 204437 201"
"169.877025"
"$GPRMC,210252,A,2555.0522,N,07923.9286,W,2.9,52.5,180615,7.4,W"
"##MN+00 00 18 0155 01633 6524 442832 204439 201"
"169.877072"
"$GPRMC,210256,A,2555.0544,N,07923.9259,W,2.9,52.0,180615,7.4,W"
"##MN-00 00 19 0156 01637 6523 442835 204438 201"
"169.877118"
"#increment_net"
"$GPRMC,210300,A,2555.0561,N,07923.9228,W,2.9,52.1,180615,7.4,W"
"##MN-00 00 19 0157 01638 6521 442848 204439 201"
"169.877164"
"$GPRMC,210304,A,2555.0580,N,07923.9197,W,2.9,52.1,180615,7.4,W"
"##MN-00 00 19 0159 01642 6520 442895 204450 201"
"169.877211"
"$GPRMC,210308,A,2555.0601,N,07923.9167,W,2.9,52.5,180615,7.4,W"
"##MN-00 00 19 0160 01650 6518 442937 204457 201"
"169.877257"
"$GPRMC,210312,A,2555.0619,N,07923.9137,W,3.0,53.5,180615,7.4,W"
"##MN-00 00 19 0161 01655 6517 443015 204473 201"
"169.877303"
"$GPRMC,210316,A,2555.0638,N,07923.9108,W,2.9,54.1,180615,7.4,W"
"##MN-00 00 19 0163 01651 6516 443059 204482 201"
"169.87735"
"$GPRMC,210320,A,2555.0661,N,07923.9080,W,2.9,54.1,180615,7.4,W"
"##MN-00 00 19 0164 01650 6514 443061 204500 201"
"169.877396"
"$GPRMC,210324,A,2555.0681,N,07923.9051,W,2.9,54.2,180615,7.4,W"
"##MN-00 00 20 0165 01646 6513 443003 204506 201"
"169.877442"
"$GPRMC,210328,A,2555.0699,N,07923.9023,W,2.9,54.5,180615,7.4,W"
"##MN-00 00 19 0167 01642 6511 442918 204477 201"
"169.877488"
"$GPRMC,210332,A,2555.0720,N,07923.8994,W,2.9,55.0,180615,7.4,W"
"##MN-00 00 19 0168 01635 6510 442802 204459 201"
"169.877535"
"$GPRMC,210336,A,2555.0738,N,07923.8964,W,3.0,54.8,180615,7.4,W"
"##MN-00 00 20 0169 01633 6508 442735 204444 201"
"169.877581"
"$GPRMC,210340,A,2555.0757,N,07923.8934,W,2.9,55.5,180615,7.4,W"
"##MN-00 00 20 0171 01630 6507 442700 204439 201"
"169.877627"
"$GPRMC,210344,A,2555.0778,N,07923.8904,W,2.9,55.5,180615,7.4,W"
"##MN-00 00 20 0172 01626 6506 442664 204434 201"
"169.877674"
"$GPRMC,210348,A,2555.0797,N,07923.8874,W,2.9,55.9,180615,7.4,W"
"##MN-00 00 20 0173 01622 6504 442653 204433 201"
"169.87772"
"$GPRMC,210352,A,2555.0815,N,07923.8843,W,3.0,56.4,180615,7.4,W"
"##MN-00 00 20 0175 01614 6503 442633 204434 201"
"169.877766"
"$GPRMC,210356,A,2555.0832,N,07923.8812,W,3.0,56.7,180615,7.4,W"
"##MN-00 00 20 0176 01611 6501 442609 204431 201"
"169.877812"
"$GPRMC,210400,A,2555.0850,N,07923.8782,W,3.0,57.3,180615,7.4,W"
"##MN-00 00 20 0178 01606 6500 442540 204420 201"
"169.877859"
"$GPRMC,210404,A,2555.0868,N,07923.8751,W,3.0,57.2,180615,7.4,W"
"##MN-00 00 20 0179 01601 6499 442453 204401 201"
"169.877905"
"$GPRMC,210408,A,2555.0885,N,07923.8721,W,3.0,56.7,180615,7.4,W"
"##MN-00 00 20 0180 01596 6497 442355 204385 201"
"169.877951"
"$GPRMC,210412,A,2555.0902,N,07923.8689,W,2.9,57.0,180615,7.4,W"
"##MN-00 00 20 0182 01591 6496 442298 204375 201"
"169.877998"
"$GPRMC,210416,A,2555.0920,N,07923.8658,W,3.0,57.5,180615,7.4,W"
"##MN-00 00 20 0183 01587 6494 442228 204358 201"
"169.878044"
"$GPRMC,210420,A,2555.0937,N,07923.8627,W,3.0,57.4,180615,7.4,W"
"##MN-00 00 20 0185 01586 6493 442061 204336 201"
"169.87809"
"$GPRMC,210424,A,2555.0956,N,07923.8595,W,3.0,57.4,180615,7.4,W"
"##MN-00 00 20 0186 01579 6492 441765 204255 201"
"169.878137"
"$GPRMC,210428,A,2555.0974,N,07923.8563,W,3.0,57.7,180615,7.4,W"
"##MN-00 00 20 0187 01573 6490 441060 204121 201"
"169.878183"
"$GPRMC,210432,A,2555.0992,N,07923.8532,W,3.0,57.5,180615,7.4,W"
"##MN-00 00 20 0189 01568 6489 440435 203957 201"
"169.878229"
"$GPRMC,210436,A,2555.1013,N,07923.8504,W,3.0,56.7,180615,7.4,W"
"##MN-00 00 20 0190 01566 6488 439779 203849 201"
"169.878275"
"$GPRMC,210440,A,2555.1032,N,07923.8473,W,3.0,56.5,180615,7.4,W"
"##MN-00 00 20 0192 01557 6486 439110 203698 201"
"169.878322"
"$GPRMC,210444,A,2555.1055,N,07923.8442,W,3.0,56.4,180615,7.4,W"
"##MN-00 00 20 0193 01553 6485 438504 203632 201"
"169.878368"
"$GPRMC,210448,A,2555.1075,N,07923.8410,W,3.0,56.1,180615,7.4,W"
"##MN-00 00 20 0195 01546 6484 438255 203558 201"
"169.878414"
"$GPRMC,210452,A,2555.1093,N,07923.8378,W,3.1,56.4,180615,7.4,W"
"##MN-00 00 20 0196 01540 6482 438231 203545 201"
"169.878461"
"$GPRMC,210456,A,2555.1114,N,07923.8345,W,3.1,56.1,180615,7.4,W"
"##MN-00 00 20 0198 01534 6481 438179 203530 201"
"169.878507"
"$GPRMC,210500,A,2555.1133,N,07923.8319,W,3.1,56.2,180615,7.4,W"
"##MN-00 00 20 0199 01528 6480 438095 203521 201"
"169.878553"
"$GPRMC,210504,A,2555.1156,N,07923.8292,W,3.1,56.2,180615,7.4,W"
"##MN-00 00 20 0201 01526 6479 438083 203523 201"
