" Tow: 6ES-B   RVWS/WS15161"
" Date: 18/06/2015"
" Temperature Probe #  4762    Conductivity Probe #  710"
" Pressure Probe #  159"
" Flow Meter Calibration  4.71 (m/count)  "
"169.902025"
"$GPRMC,213851,A,2556.7513,N,07920.1959,W,2.8,61.7,180615,7.4,W"
"##MN-00 00 20 0201 01526 6479 438083 203523 201"
"169.902488"
""
"##MN-00 00 10 0026 01555 6733 441340 204130 201"
"169.902535"
"$GPRMC,213936,A,2556.7668,N,07920.1614,W,2.6,64.4,180615,7.4,W"
"##MN-00 00 10 0028 01554 6733 441843 204269 201"
"169.902569"
"$GPRMC,213940,A,2556.7677,N,07920.1584,W,2.6,64.4,180615,7.4,W"
"##MN-00 00 10 0028 01555 6733 441361 204195 201"
"169.902616"
"$GPRMC,213943,A,2556.7684,N,07920.1562,W,2.6,64.2,180615,7.4,W"
"##MN-00 00 10 0029 01553 6732 441127 204150 201"
"169.902662"
"$GPRMC,213947,A,2556.7697,N,07920.1532,W,2.7,64.3,180615,7.4,W"
"##MN-00 00 10 0030 01556 6732 440640 204055 201"
"169.902708"
"$GPRMC,213951,A,2556.7711,N,07920.1503,W,2.6,64.7,180615,7.4,W"
"##MN-00 00 10 0031 01556 6732 440447 204017 201"
"169.902755"
"$GPRMC,213955,A,2556.7725,N,07920.1473,W,2.6,64.2,180615,7.4,W"
"##MN-00 00 09 0032 01559 6731 440422 203983 201"
"169.902801"
"$GPRMC,213959,A,2556.7737,N,07920.1444,W,2.6,64.6,180615,7.4,W"
"##MN-00 00 09 0033 01564 6731 440436 203987 201"
"169.902847"
"$GPRMC,214003,A,2556.7751,N,07920.1413,W,2.7,64.5,180615,7.4,W"
"##MN-00 00 09 0034 01568 6730 440604 204005 201"
"169.902894"
"$GPRMC,214007,A,2556.7766,N,07920.1382,W,2.6,64.6,180615,7.4,W"
"##MN-00 00 09 0035 01573 6730 441101 204061 201"
"169.90294"
"$GPRMC,214011,A,2556.7780,N,07920.1351,W,2.7,64.6,180615,7.4,W"
"##MN-00 00 09 0036 01578 6729 441301 204077 201"
"169.902986"
"$GPRMC,214015,A,2556.7794,N,07920.1321,W,2.7,64.0,180615,7.4,W"
"##MN-00 00 09 0037 01578 6729 441559 204125 201"
"169.903032"
"$GPRMC,214019,A,2556.7809,N,07920.1291,W,2.8,63.7,180615,7.4,W"
"##MN-00 00 09 0038 01583 6728 442127 204224 201"
"169.903079"
"$GPRMC,214023,A,2556.7822,N,07920.1259,W,2.8,63.7,180615,7.4,W"
"##MN-00 00 09 0039 01586 6727 442562 204355 201"
"169.903125"
"$GPRMC,214027,A,2556.7836,N,07920.1228,W,2.8,63.1,180615,7.4,W"
"##MN-00 00 09 0040 01588 6726 442783 204463 201"
"169.903171"
"$GPRMC,214031,A,2556.7849,N,07920.1197,W,2.8,63.5,180615,7.4,W"
"##MN-00 00 09 0041 01593 6725 442839 204470 201"
"169.903218"
"$GPRMC,214035,A,2556.7863,N,07920.1164,W,2.8,63.6,180615,7.4,W"
"##MN-00 00 09 0042 01598 6724 442881 204453 201"
"169.903264"
"$GPRMC,214039,A,2556.7878,N,07920.1133,W,2.8,63.7,180615,7.4,W"
"##MN-00 00 09 0043 01600 6724 443010 204469 201"
"169.90331"
"$GPRMC,214043,A,2556.7892,N,07920.1101,W,2.8,63.9,180615,7.4,W"
"##MN-00 00 09 0044 01602 6723 443116 204514 201"
"169.903356"
"$GPRMC,214047,A,2556.7906,N,07920.1071,W,2.8,63.4,180615,7.4,W"
"##MN-00 00 09 0045 01605 6721 443135 204492 201"
"169.903403"
"$GPRMC,214051,A,2556.7921,N,07920.1040,W,2.8,63.5,180615,7.4,W"
"##MN-00 00 09 0045 01610 6720 443158 204543 201"
"169.903449"
"$GPRMC,214055,A,2556.7935,N,07920.1008,W,2.8,63.4,180615,7.4,W"
"##MN-00 00 09 0046 01614 6719 443215 204552 201"
"169.903495"
"$GPRMC,214059,A,2556.7949,N,07920.0977,W,2.8,63.4,180615,7.4,W"
"##MN-00 00 09 0047 01617 6718 443270 204566 201"
"169.903542"
"$GPRMC,214103,A,2556.7964,N,07920.0945,W,2.8,63.2,180615,7.4,W"
"##MN-00 00 09 0048 01621 6717 443306 204573 201"
"169.903588"
"$GPRMC,214107,A,2556.7977,N,07920.0913,W,2.8,63.7,180615,7.4,W"
"##MN-00 00 09 0049 01623 6716 443354 204569 201"
"169.903634"
"$GPRMC,214111,A,2556.7992,N,07920.0881,W,2.8,63.8,180615,7.4,W"
"##MN-00 00 09 0050 01628 6715 443385 204584 201"
"169.903681"
"$GPRMC,214115,A,2556.8006,N,07920.0851,W,2.8,64.3,180615,7.4,W"
"##MN-00 00 09 0051 01630 6714 443432 204586 201"
"169.903727"
"$GPRMC,214119,A,2556.8018,N,07920.0820,W,2.8,64.7,180615,7.4,W"
"##MN-00 00 09 0052 01630 6712 443537 204628 201"
"169.903773"
"$GPRMC,214123,A,2556.8033,N,07920.0788,W,2.8,65.3,180615,7.4,W"
"##MN-00 00 09 0053 01632 6711 443559 204633 201"
"169.903819"
"$GPRMC,214127,A,2556.8047,N,07920.0757,W,2.8,65.7,180615,7.4,W"
"##MN-00 00 09 0054 01629 6710 443612 204648 201"
"169.903866"
"$GPRMC,214131,A,2556.8058,N,07920.0727,W,2.7,65.7,180615,7.4,W"
"##MN-00 00 09 0055 01629 6709 443747 204676 201"
"169.903912"
"$GPRMC,214135,A,2556.8066,N,07920.0697,W,2.7,66.2,180615,7.4,W"
"##MN+00 00 09 0056 01628 6707 443845 204690 201"
"169.903958"
"$GPRMC,214139,A,2556.8079,N,07920.0667,W,2.7,66.2,180615,7.4,W"
"##MN+00 00 09 0057 01630 6706 443903 204685 201"
"169.904005"
"$GPRMC,214143,A,2556.8091,N,07920.0636,W,2.7,66.2,180615,7.4,W"
"##MN+00 00 09 0058 01629 6705 443929 204702 201"
"169.904051"
"$GPRMC,214147,A,2556.8105,N,07920.0606,W,2.6,65.6,180615,7.4,W"
"##MN+00 00 09 0059 01631 6703 443961 204707 201"
"169.904097"
"$GPRMC,214151,A,2556.8118,N,07920.0576,W,2.6,65.3,180615,7.4,W"
"##MN+00 00 09 0060 01629 6702 443966 204710 201"
"169.904143"
"$GPRMC,214155,A,2556.8130,N,07920.0546,W,2.6,65.7,180615,7.4,W"
"##MN+00 00 09 0061 01633 6701 443966 204710 201"
"169.90419"
"#increment_net"
"$GPRMC,214159,A,2556.8144,N,07920.0517,W,2.6,64.8,180615,7.4,W"
"##MN-00 00 09 0062 01631 6699 443970 204710 201"
"169.904236"
"$GPRMC,214203,A,2556.8156,N,07920.0487,W,2.6,64.5,180615,7.4,W"
"##MN-00 00 09 0063 01633 6697 443975 204711 201"
"169.904282"
"$GPRMC,214207,A,2556.8169,N,07920.0457,W,2.6,64.4,180615,7.4,W"
"##MN-00 00 09 0064 01632 6696 443984 204712 201"
"169.904329"
"$GPRMC,214211,A,2556.8181,N,07920.0427,W,2.7,64.3,180615,7.4,W"
"##MN-00 00 09 0065 01633 6695 443991 204714 201"
"169.904387"
"$GPRMC,214215,A,2556.8196,N,07920.0397,W,2.7,63.8,180615,7.4,W"
"##MN-00 00 09 0066 01633 6694 443998 204717 201"
"169.904433"
"$GPRMC,214219,A,2556.8212,N,07920.0368,W,2.7,63.1,180615,7.4,W"
"##MN-00 00 09 0067 01631 6692 443997 204716 201"
"169.904479"
"$GPRMC,214223,A,2556.8223,N,07920.0338,W,2.7,63.2,180615,7.4,W"
"##MN-00 00 09 0068 01634 6690 444002 204717 201"
"169.904525"
"$GPRMC,214227,A,2556.8235,N,07920.0309,W,2.7,63.6,180615,7.4,W"
"##MN-00 00 09 0069 01632 6689 444002 204717 201"
"169.904572"
"$GPRMC,214231,A,2556.8249,N,07920.0280,W,2.7,63.1,180615,7.4,W"
"##MN-00 00 09 0070 01634 6687 444004 204717 201"
"169.904618"
"$GPRMC,214235,A,2556.8264,N,07920.0250,W,2.8,62.7,180615,7.4,W"
"##MN-00 00 09 0071 01633 6686 444007 204717 201"
"169.904664"
"$GPRMC,214239,A,2556.8279,N,07920.0221,W,2.8,62.4,180615,7.4,W"
"##MN-00 00 09 0072 01634 6684 444009 204715 201"
"169.904711"
"$GPRMC,214243,A,2556.8293,N,07920.0192,W,2.8,62.0,180615,7.4,W"
"##MN-00 00 09 0073 01632 6683 444008 204712 201"
"169.904757"
"$GPRMC,214247,A,2556.8308,N,07920.0162,W,2.8,62.5,180615,7.4,W"
"##MN-00 00 09 0074 01634 6681 444005 204710 201"
"169.904803"
"$GPRMC,214251,A,2556.8322,N,07920.0131,W,2.8,63.0,180615,7.4,W"
"##MN-00 00 09 0075 01633 6680 444003 204709 201"
"169.90485"
"$GPRMC,214255,A,2556.8337,N,07920.0101,W,2.7,62.9,180615,7.4,W"
"##MN+00 00 09 0076 01632 6678 444010 204712 200"
"169.904896"
"$GPRMC,214259,A,2556.8351,N,07920.0070,W,2.7,62.9,180615,7.4,W"
"##MN+00 00 09 0077 01633 6677 444017 204715 201"
"169.904942"
"$GPRMC,214303,A,2556.8365,N,07920.0040,W,2.7,63.3,180615,7.4,W"
"##MN+00 00 09 0078 01632 6675 444019 204716 200"
"169.904988"
"$GPRMC,214307,A,2556.8376,N,07920.0009,W,2.8,63.6,180615,7.4,W"
"##MN+00 00 09 0079 01634 6673 444023 204716 200"
"169.905035"
"$GPRMC,214311,A,2556.8391,N,07919.9978,W,2.8,63.7,180615,7.4,W"
"##MN+00 00 09 0080 01633 6672 444027 204717 201"
"169.905081"
"$GPRMC,214315,A,2556.8405,N,07919.9947,W,2.8,63.4,180615,7.4,W"
"##MN+00 00 09 0081 01636 6670 444039 204720 200"
"169.905127"
"#increment_net"
"$GPRMC,214320,A,2556.8423,N,07919.9908,W,2.8,64.0,180615,7.4,W"
"##MN-00 00 09 0082 01635 6668 444059 204722 200"
"169.905174"
"$GPRMC,214324,A,2556.8438,N,07919.9876,W,2.8,63.7,180615,7.4,W"
"##MN-00 00 09 0083 01634 6667 444062 204724 201"
"169.90522"
"$GPRMC,214328,A,2556.8452,N,07919.9844,W,2.8,63.7,180615,7.4,W"
"##MN-00 00 09 0084 01633 6665 444056 204726 201"
"169.905266"
"$GPRMC,214332,A,2556.8467,N,07919.9813,W,2.8,63.6,180615,7.4,W"
"##MN-00 00 09 0085 01633 6663 444048 204727 201"
"169.905313"
"$GPRMC,214336,A,2556.8481,N,07919.9780,W,2.8,63.4,180615,7.4,W"
"##MN-00 00 09 0086 01633 6662 444047 204728 200"
"169.905359"
"$GPRMC,214340,A,2556.8495,N,07919.9749,W,2.8,63.7,180615,7.4,W"
"##MN-00 00 10 0087 01632 6660 444043 204728 201"
"169.905405"
"$GPRMC,214344,A,2556.8510,N,07919.9717,W,2.8,63.8,180615,7.4,W"
"##MN-00 00 09 0088 01629 6659 444039 204727 201"
"169.905451"
"$GPRMC,214348,A,2556.8521,N,07919.9685,W,2.8,64.1,180615,7.4,W"
"##MN-00 00 10 0089 01631 6657 444031 204726 201"
"169.905498"
"$GPRMC,214352,A,2556.8537,N,07919.9653,W,2.8,64.2,180615,7.4,W"
"##MN-00 00 10 0090 01631 6655 444025 204726 201"
"169.905544"
"$GPRMC,214356,A,2556.8550,N,07919.9623,W,2.8,63.6,180615,7.4,W"
"##MN-00 00 10 0091 01632 6654 444021 204726 200"
"169.90559"
"$GPRMC,214400,A,2556.8563,N,07919.9591,W,2.8,63.0,180615,7.4,W"
"##MN-00 00 10 0092 01630 6652 444033 204727 200"
"169.905637"
"$GPRMC,214404,A,2556.8574,N,07919.9561,W,2.8,63.5,180615,7.4,W"
"##MN+00 00 10 0093 01632 6650 444031 204727 200"
"169.905683"
"$GPRMC,214408,A,2556.8586,N,07919.9530,W,2.8,64.2,180615,7.4,W"
"##MN+00 00 10 0094 01632 6649 444013 204726 200"
"169.905729"
"$GPRMC,214412,A,2556.8600,N,07919.9499,W,2.8,64.0,180615,7.4,W"
"##MN+00 00 10 0095 01630 6647 444006 204725 200"
"169.905775"
"$GPRMC,214416,A,2556.8613,N,07919.9470,W,2.8,63.5,180615,7.4,W"
"##MN-00 00 09 0096 01632 6646 444034 204728 201"
"169.905822"
"$GPRMC,214420,A,2556.8626,N,07919.9439,W,2.7,63.6,180615,7.4,W"
"##MN+00 00 10 0097 01630 6644 444052 204731 201"
"169.905868"
"$GPRMC,214424,A,2556.8640,N,07919.9407,W,2.6,63.3,180615,7.4,W"
"##MN+00 00 10 0098 01629 6642 444045 204730 200"
"169.905914"
"$GPRMC,214428,A,2556.8654,N,07919.9377,W,2.7,63.0,180615,7.4,W"
"##MN+00 00 09 0099 01634 6640 444036 204728 200"
"169.905961"
"#increment_net"
"$GPRMC,214432,A,2556.8668,N,07919.9347,W,2.7,62.5,180615,7.4,W"
"##MN-00 00 09 0100 01633 6639 444037 204728 200"
"169.906007"
"$GPRMC,214436,A,2556.8682,N,07919.9316,W,2.7,62.4,180615,7.4,W"
"##MN-00 00 09 0101 01632 6636 444030 204728 200"
"169.906053"
"$GPRMC,214440,A,2556.8694,N,07919.9285,W,2.8,63.0,180615,7.4,W"
"##MN-00 00 09 0102 01630 6635 444024 204726 201"
"169.9061"
"$GPRMC,214444,A,2556.8708,N,07919.9255,W,2.7,63.2,180615,7.4,W"
"##MN-00 00 09 0103 01628 6633 444055 204731 200"
"169.906146"
"$GPRMC,214448,A,2556.8723,N,07919.9224,W,2.8,63.3,180615,7.4,W"
"##MN-00 00 09 0104 01631 6631 444070 204733 200"
"169.906192"
"$GPRMC,214452,A,2556.8737,N,07919.9193,W,2.7,63.2,180615,7.4,W"
"##MN-00 00 09 0105 01629 6630 444060 204732 200"
"169.906238"
"$GPRMC,214456,A,2556.8751,N,07919.9163,W,2.8,62.9,180615,7.4,W"
"##MN-00 00 09 0106 01630 6628 444054 204731 200"
"169.906285"
"$GPRMC,214500,A,2556.8766,N,07919.9132,W,2.7,62.6,180615,7.4,W"
"##MN-00 00 09 0107 01632 6627 444057 204731 200"
"169.906331"
"$GPRMC,214504,A,2556.8781,N,07919.9102,W,2.8,62.9,180615,7.4,W"
"##MN-00 00 09 0108 01630 6625 444065 204731 200"
"169.906377"
"$GPRMC,214508,A,2556.8795,N,07919.9071,W,2.7,62.6,180615,7.4,W"
"##MN-00 00 09 0110 01627 6623 444048 204728 200"
"169.906424"
"$GPRMC,214512,A,2556.8809,N,07919.9041,W,2.7,62.7,180615,7.4,W"
"##MN+00 00 09 0111 01629 6621 444014 204724 200"
"169.90647"
"$GPRMC,214516,A,2556.8823,N,07919.9011,W,2.7,63.0,180615,7.4,W"
"##MN+00 00 09 0112 01631 6619 443951 204717 200"
"169.906516"
"$GPRMC,214520,A,2556.8837,N,07919.8981,W,2.7,62.8,180615,7.4,W"
"##MN+00 00 09 0113 01630 6618 443876 204701 200"
"169.906562"
"$GPRMC,214524,A,2556.8850,N,07919.8952,W,2.7,62.6,180615,7.4,W"
"##MN+00 00 09 0114 01630 6616 443801 204691 200"
"169.906609"
"$GPRMC,214528,A,2556.8864,N,07919.8918,W,2.8,62.5,180615,7.4,W"
"##MN+00 00 09 0115 01631 6615 443738 204678 200"
"169.906655"
"$GPRMC,214532,A,2556.8875,N,07919.8880,W,2.7,62.6,180615,7.4,W"
"##MN+00 00 09 0116 01633 6613 443670 204665 200"
"169.906701"
"#increment_net"
"$GPRMC,214536,A,2556.8889,N,07919.8847,W,2.7,62.9,180615,7.4,W"
"##MN-00 00 09 0117 01631 6611 443644 204666 200"
"169.906748"
"$GPRMC,214540,A,2556.8899,N,07919.8816,W,2.6,62.6,180615,7.4,W"
"##MN-00 00 09 0118 01631 6610 443610 204653 200"
"169.906794"
"$GPRMC,214544,A,2556.8914,N,07919.8785,W,2.7,62.3,180615,7.4,W"
"##MN-00 00 09 0119 01631 6608 443564 204643 200"
"169.90684"
"$GPRMC,214548,A,2556.8929,N,07919.8755,W,2.6,62.3,180615,7.4,W"
"##MN-00 00 09 0120 01632 6606 443545 204641 200"
"169.906887"
"$GPRMC,214552,A,2556.8942,N,07919.8725,W,2.7,62.5,180615,7.4,W"
"##MN-00 00 09 0121 01630 6604 443527 204634 200"
"169.906933"
"$GPRMC,214556,A,2556.8957,N,07919.8696,W,2.6,62.3,180615,7.4,W"
"##MN-00 00 09 0122 01630 6602 443503 204630 200"
"169.906979"
"$GPRMC,214600,A,2556.8969,N,07919.8669,W,2.6,62.1,180615,7.4,W"
"##MN-00 00 09 0123 01630 6601 443488 204627 200"
"169.907025"
"$GPRMC,214604,A,2556.8983,N,07919.8640,W,2.6,62.2,180615,7.4,W"
"##MN-00 00 09 0124 01630 6599 443475 204625 200"
"169.907072"
"$GPRMC,214608,A,2556.8997,N,07919.8612,W,2.6,61.9,180615,7.4,W"
"##MN-00 00 09 0126 01628 6598 443469 204623 200"
"169.907118"
"$GPRMC,214612,A,2556.9012,N,07919.8583,W,2.7,61.4,180615,7.4,W"
"##MN-00 00 09 0127 01630 6596 443466 204622 200"
"169.907164"
"$GPRMC,214616,A,2556.9026,N,07919.8555,W,2.6,61.2,180615,7.4,W"
"##MN+00 00 09 0128 01630 6594 443473 204623 200"
"169.907211"
"$GPRMC,214620,A,2556.9041,N,07919.8526,W,2.6,61.3,180615,7.4,W"
"##MN+00 00 09 0129 01631 6593 443482 204625 200"
"169.907257"
"$GPRMC,214624,A,2556.9057,N,07919.8498,W,2.6,61.7,180615,7.4,W"
"##MN+00 00 09 0130 01629 6591 443487 204624 200"
"169.907303"
"$GPRMC,214628,A,2556.9072,N,07919.8470,W,2.6,61.6,180615,7.4,W"
"##MN+00 00 09 0131 01629 6589 443485 204625 200"
"169.90735"
"$GPRMC,214632,A,2556.9087,N,07919.8441,W,2.7,61.8,180615,7.4,W"
"##MN+00 00 09 0132 01629 6587 443491 204626 200"
"169.907396"
"$GPRMC,214636,A,2556.9101,N,07919.8412,W,2.7,62.2,180615,7.4,W"
"##MN+00 00 09 0133 01633 6586 443520 204631 200"
"169.907442"
"#increment_net"
"$GPRMC,214640,A,2556.9116,N,07919.8382,W,2.7,62.6,180615,7.4,W"
"##MN-00 00 09 0134 01632 6584 443605 204648 200"
"169.9075"
"$GPRMC,214644,A,2556.9130,N,07919.8352,W,2.7,62.8,180615,7.4,W"
"##MN-00 00 09 0136 01638 6583 443698 204670 200"
"169.907546"
"$GPRMC,214648,A,2556.9142,N,07919.8322,W,2.7,63.3,180615,7.4,W"
"##MN-00 00 09 0137 01644 6581 443869 204698 200"
"169.907593"
"$GPRMC,214652,A,2556.9156,N,07919.8292,W,2.8,63.6,180615,7.4,W"
"##MN-00 00 09 0138 01648 6579 444073 204720 200"
"169.907639"
"$GPRMC,214656,A,2556.9170,N,07919.8260,W,2.8,63.8,180615,7.4,W"
"##MN-00 00 09 0140 01651 6578 444173 204730 200"
"169.907685"
"$GPRMC,214700,A,2556.9182,N,07919.8229,W,2.8,64.3,180615,7.4,W"
"##MN-00 00 09 0141 01651 6576 444264 204740 200"
"169.907731"
"$GPRMC,214704,A,2556.9196,N,07919.8200,W,2.8,65.0,180615,7.4,W"
"##MN-00 00 08 0142 01646 6574 444250 204742 200"
"169.907778"
"$GPRMC,214708,A,2556.9210,N,07919.8166,W,2.8,65.3,180615,7.4,W"
"##MN-00 00 09 0144 01643 6572 444222 204740 200"
"169.907824"
"$GPRMC,214712,A,2556.9224,N,07919.8133,W,2.9,65.5,180615,7.4,W"
"##MN-00 00 09 0145 01641 6571 444198 204741 200"
"169.90787"
"$GPRMC,214716,A,2556.9236,N,07919.8098,W,2.9,65.2,180615,7.4,W"
"##MN-00 00 09 0147 01636 6569 444148 204740 200"
"169.907917"
"$GPRMC,214720,A,2556.9250,N,07919.8066,W,2.9,65.7,180615,7.4,W"
"##MN-00 00 09 0148 01634 6568 444078 204735 200"
"169.907963"
"$GPRMC,214724,A,2556.9265,N,07919.8036,W,2.9,65.6,180615,7.4,W"
"##MN-00 00 09 0149 01631 6566 444027 204731 200"
"169.908009"
"$GPRMC,214728,A,2556.9276,N,07919.8004,W,2.9,66.1,180615,7.4,W"
"##MN-00 00 09 0151 01626 6564 443953 204717 200"
"169.908056"
"$GPRMC,214732,A,2556.9289,N,07919.7968,W,2.9,66.5,180615,7.4,W"
"##MN-00 00 09 0152 01623 6563 443774 204691 200"
"169.908102"
"$GPRMC,214736,A,2556.9301,N,07919.7932,W,2.9,67.0,180615,7.4,W"
"##MN-00 00 09 0154 01619 6561 443643 204666 200"
"169.908148"
"$GPRMC,214740,A,2556.9314,N,07919.7898,W,2.9,67.0,180615,7.4,W"
"##MN-00 00 09 0155 01613 6559 443585 204656 200"
"169.908194"
"$GPRMC,214744,A,2556.9326,N,07919.7864,W,2.9,67.5,180615,7.4,W"
"##MN-00 00 09 0156 01609 6558 443549 204647 200"
"169.908241"
"$GPRMC,214748,A,2556.9340,N,07919.7831,W,2.9,67.6,180615,7.4,W"
"##MN-00 00 09 0158 01604 6556 443512 204634 200"
"169.908287"
"$GPRMC,214752,A,2556.9352,N,07919.7799,W,2.9,67.3,180615,7.4,W"
"##MN-00 00 09 0159 01600 6554 443465 204625 200"
"169.908333"
"$GPRMC,214756,A,2556.9366,N,07919.7766,W,2.9,67.5,180615,7.4,W"
"##MN-00 00 09 0160 01598 6552 443445 204624 200"
"169.90838"
"$GPRMC,214800,A,2556.9377,N,07919.7732,W,2.9,67.7,180615,7.4,W"
"##MN-00 00 09 0162 01594 6551 443427 204626 200"
"169.908426"
"$GPRMC,214804,A,2556.9393,N,07919.7705,W,2.9,68.1,180615,7.4,W"
"##MN-00 00 09 0163 01589 6549 443406 204620 200"
"169.908472"
"$GPRMC,214808,A,2556.9406,N,07919.7672,W,2.9,67.7,180615,7.4,W"
"##MN-00 00 09 0164 01586 6548 443326 204593 200"
"169.908519"
"$GPRMC,214813,A,2556.9420,N,07919.7632,W,2.9,67.5,180615,7.4,W"
"##MN-00 00 09 0166 01578 6546 443216 204568 200"
"169.908565"
"$GPRMC,214817,A,2556.9431,N,07919.7598,W,2.9,67.4,180615,7.4,W"
"##MN-00 00 09 0167 01575 6544 443119 204548 200"
"169.908611"
"$GPRMC,214821,A,2556.9444,N,07919.7563,W,3.0,68.1,180615,7.4,W"
"##MN-00 00 09 0169 01571 6542 443055 204536 200"
"169.908657"
"$GPRMC,214825,A,2556.9456,N,07919.7528,W,3.0,68.2,180615,7.4,W"
"##MN-00 00 09 0170 01565 6541 442983 204520 200"
"169.908704"
"$GPRMC,214828,A,2556.9466,N,07919.7504,W,3.0,68.2,180615,7.4,W"
"##MN-00 00 09 0171 01561 6539 442891 204499 200"
"169.90875"
"$GPRMC,214832,A,2556.9478,N,07919.7470,W,3.0,67.7,180615,7.4,W"
"##MN-00 00 09 0173 01558 6538 442716 204449 200"
"169.908796"
"$GPRMC,214837,A,2556.9496,N,07919.7427,W,3.0,67.6,180615,7.4,W"
"##MN-00 00 09 0174 01550 6536 442055 204294 200"
"169.908843"
"$GPRMC,214841,A,2556.9509,N,07919.7393,W,3.0,66.8,180615,7.4,W"
"##MN-00 00 09 0176 01546 6534 441047 204126 200"
"169.908889"
"$GPRMC,214845,A,2556.9521,N,07919.7359,W,3.0,66.8,180615,7.4,W"
"##MN-00 00 09 0177 01541 6533 440445 204009 200"
"169.908935"
"$GPRMC,214849,A,2556.9535,N,07919.7325,W,3.0,66.7,180615,7.4,W"
"##MN-00 00 09 0179 01538 6531 439897 203859 200"
"169.908981"
"$GPRMC,214853,A,2556.9547,N,07919.7292,W,3.0,66.6,180615,7.4,W"
"##MN-00 00 09 0180 01534 6530 439489 203776 200"
"169.909028"
"$GPRMC,214857,A,2556.9561,N,07919.7257,W,3.0,66.8,180615,7.4,W"
"##MN-00 00 09 0182 01530 6528 439353 203749 200"
"169.909074"
"$GPRMC,214901,A,2556.9576,N,07919.7223,W,3.0,66.6,180615,7.4,W"
"##MN-00 00 09 0183 01529 6526 439299 203739 200"
"169.90912"
"$GPRMC,214905,A,2556.9589,N,07919.7188,W,3.0,66.4,180615,7.4,W"
"##MN-00 00 10 0185 01529 6525 439249 203746 200"
"169.909167"
"$GPRMC,214909,A,2556.9603,N,07919.7152,W,3.0,66.4,180615,7.4,W"
"##MN-00 00 10 0186 01526 6524 439236 205067 200"
"169.909213"
"$GPRMC,214913,A,2556.9617,N,07919.7118,W,3.0,66.4,180615,7.4,W"
"##MN-00 00 33 0187 01526 6522 439233 205186 200"
"169.909259"
"$GPRMC,214917,A,2556.9629,N,07919.7083,W,3.0,66.3,180615,7.4,W"
"##MN-00 00 51 0188 01528 6520 440137 317422 200"
"169.909306"
"$GPRMC,214921,A,2556.9641,N,07919.7052,W,3.0,66.6,180615,7.4,W"
"##MN-00 00 51 0189 01527 6519 446090 777992 200"
"169.909352"
"$GPRMC,214925,A,2556.9652,N,07919.7020,W,3.0,66.4,180615,7.4,W"
"##MN-00 00 51 0189 01528 6517 450721 827859 200"
"169.909398"
"$GPRMC,214929,A,2556.9668,N,07919.6995,W,3.0,66.8,180615,7.4,W"
"##MN-00 00 51 0189 01528 6516 453988 827862 200"
"169.909444"
"$GPRMC,214933,A,2556.9680,N,07919.6965,W,3.0,67.0,180615,7.4,W"
"##MN-00 00 51 0189 01528 6515 456226 827864 200"
"169.909491"
"$GPRMC,214937,A,2556.9694,N,07919.6928,W,3.0,67.3,180615,7.4,W"
"##MN-00 00 52 0189 01528 6513 457354 827865 200"
"169.909537"
"$GPRMC,214941,A,2556.9708,N,07919.6892,W,3.0,67.6,180615,7.4,W"
"##MN-00 00 52 0189 01529 6512 457521 827865 200"
"169.909583"
"$GPRMC,214945,A,2556.9720,N,07919.6856,W,3.1,67.7,180615,7.4,W"
"##MN-00 00 44 0189 01528 6511 457125 703537 200"
"169.90963"
"$GPRMC,214949,A,2556.9733,N,07919.6818,W,3.1,68.0,180615,7.4,W"
"##MN-00 00 42 0189 01529 6509 456464 640546 200"
"169.909676"
"$GPRMC,214953,A,2556.9745,N,07919.6779,W,3.1,68.5,180615,7.4,W"
"##MN-00 00 42 0189 01528 6508 454904 827862 200"
"169.909722"
"$GPRMC,214957,A,2556.9756,N,07919.6741,W,3.1,68.6,180615,7.4,W"
"##MN-00 00 42 0189 01528 6507 453805 827863 200"
"169.909769"
"$GPRMC,215001,A,2556.9769,N,07919.6701,W,3.2,69.0,180615,7.4,W"
"##MN-00 00 43 0189 01529 6505 453694 827869 200"
"169.909815"
"$GPRMC,215005,A,2556.9780,N,07919.6661,W,3.2,70.4,180615,7.4,W"
"##MN-00 00 47 0189 01530 6504 453775 827868 200"
"169.909861"
"$GPRMC,215009,A,2556.9794,N,07919.6622,W,3.2,71.4,180615,7.4,W"
"##MN-00 00 47 0189 01529 6503 453808 827868 200"
"169.909907"
"$GPRMC,215013,A,2556.9806,N,07919.6583,W,3.2,72.1,180615,7.4,W"
"##MN-00 00 47 0189 01526 6502 453534 827868 200"
"169.909954"
"$GPRMC,215017,A,2556.9817,N,07919.6543,W,3.3,72.7,180615,7.4,W"
"##MN-00 00 47 0189 01526 6500 453014 827868 200"
"169.91"
"$GPRMC,215021,A,2556.9825,N,07919.6503,W,3.3,73.9,180615,7.4,W"
"##MN-00 00 47 0189 01526 6499 452411 827868 200"
"169.910046"
"$GPRMC,215025,A,2556.9836,N,07919.6462,W,3.3,74.1,180615,7.4,W"
"##MN-00 00 47 0189 01526 6498 452199 827868 200"
"169.910093"
"$GPRMC,215029,A,2556.9846,N,07919.6421,W,3.3,74.5,180615,7.4,W"
"##MN-00 00 47 0189 01528 6496 451744 827868 200"
"169.910139"
"$GPRMC,215033,A,2556.9856,N,07919.6381,W,3.3,74.5,180615,7.4,W"
"##MN-00 00 47 0189 01529 6495 451233 827869 200"
"169.910185"
"$GPRMC,215037,A,2556.9865,N,07919.6342,W,3.3,74.5,180615,7.4,W"
"##MN-00 00 47 0189 01527 6494 450423 827868 200"
"169.910232"
"$GPRMC,215041,A,2556.9874,N,07919.6311,W,3.4,74.1,180615,7.4,W"
"##MN-00 00 48 0189 01528 6493 449245 827866 200"
"169.910278"
"$GPRMC,215045,A,2556.9886,N,07919.6259,W,3.4,74.5,180615,7.4,W"
"##MN-00 00 48 0189 01528 6492 448757 826930 200"
"169.910324"
"$GPRMC,215049,A,2556.9893,N,07919.6228,W,3.4,74.7,180615,7.4,W"
"##MN-00 00 48 0189 01530 6490 449021 802058 200"
"169.91037"
"$GPRMC,215053,A,2556.9901,N,07919.6186,W,3.4,75.0,180615,7.4,W"
"##MN-00 00 48 0189 01531 6489 449665 813489 200"
"169.910417"
"$GPRMC,215057,A,2556.9912,N,07919.6147,W,3.4,74.8,180615,7.4,W"
"##MN-00 00 48 0189 01529 6488 449219 827866 200"
"169.910463"
"$GPRMC,215101,A,2556.9925,N,07919.6094,W,3.4,75.1,180615,7.4,W"
"##MN-00 00 48 0189 01528 6487 449113 827866 200"
"169.910509"
"$GPRMC,215105,A,2556.9932,N,07919.6061,W,3.5,74.8,180615,7.4,W"
"##MN-00 00 48 0189 01527 6486 449838 827867 200"
"169.910556"
"$GPRMC,215109,A,2556.9941,N,07919.6001,W,3.4,74.3,180615,7.4,W"
"##MN-00 00 48 0189 01530 6485 449566 827867 200"
"169.910602"
"$GPRMC,215113,A,2556.9951,N,07919.5958,W,3.5,74.6,180615,7.4,W"
"##MN-00 00 48 0189 01527 6484 449937 827868 200"
"169.910648"
"$GPRMC,215117,A,2556.9961,N,07919.5915,W,3.5,74.1,180615,7.4,W"
"##MN-00 00 48 0189 01526 6483 450069 827867 200"
"169.910706"
"$GPRMC,215121,A,2556.9973,N,07919.5878,W,3.4,74.0,180615,7.4,W"
"##MN-00 00 48 0189 01528 6482 450167 827868 200"
"169.910752"
"$GPRMC,215125,A,2556.9980,N,07919.5831,W,3.5,74.2,180615,7.4,W"
"##MN-00 00 48 0189 01527 6481 450043 827867 200"
"169.910799"
"$GPRMC,215129,A,2556.9990,N,07919.5786,W,3.4,74.6,180615,7.4,W"
"##MN-00 00 48 0189 01529 6480 450359 827868 200"
"169.910845"
"$GPRMC,215133,A,2557.0000,N,07919.5746,W,3.5,75.3,180615,7.4,W"
"##MN-00 00 48 0189 01528 6479 450000 827868 200"
"169.910891"
"$GPRMC,215137,A,2557.0009,N,07919.5712,W,3.5,75.4,180615,7.4,W"
"##MN-00 00 48 0189 01529 6478 449705 827868 200"
"169.910937"
"$GPRMC,215141,A,2557.0016,N,07919.5666,W,3.5,76.0,180615,7.4,W"
"##MN-00 00 48 0189 01527 6477 449344 827868 200"
"169.910984"
"$GPRMC,215145,A,2557.0022,N,07919.5624,W,3.5,76.1,180615,7.4,W"
"##MN-00 00 48 0189 01528 6477 448685 827867 200"
"169.91103"
"$GPRMC,215149,A,2557.0031,N,07919.5583,W,3.4,76.1,180615,7.4,W"
"##MN-00 00 48 0189 01530 6475 448466 827868 200"
"169.911076"
"$GPRMC,215153,A,2557.0045,N,07919.5552,W,3.5,75.4,180615,7.4,W"
"##MN-00 00 48 0189 01527 6474 448217 827868 200"
"169.911123"
"$GPRMC,215157,A,2557.0059,N,07919.5515,W,3.4,76.0,180615,7.4,W"
"##MN-00 00 48 0189 01530 6474 447285 827869 200"
"169.911169"
"$GPRMC,215201,A,2557.0070,N,07919.5474,W,3.4,75.9,180615,7.4,W"
"##MN-00 00 48 0189 01527 6473 446458 827869 200"
"169.911215"
"$GPRMC,215205,A,2557.0081,N,07919.5436,W,3.4,76.0,180615,7.4,W"
"##MN-00 00 48 0189 01528 6472 446237 827869 200"
"169.911262"
"$GPRMC,215209,A,2557.0091,N,07919.5394,W,3.4,75.8,180615,7.4,W"
"##MN-00 00 48 0189 01528 6471 446260 827870 200"
"169.911308"
"$GPRMC,215213,A,2557.0099,N,07919.5353,W,3.3,75.9,180615,7.4,W"
"##MN-00 00 48 0189 01529 6471 446426 827868 200"
"169.911354"
"$GPRMC,215217,A,2557.0109,N,07919.5311,W,3.3,76.3,180615,7.4,W"
"##MN-00 00 48 0189 01529 6470 446714 827869 200"
"169.9114"
"$GPRMC,215222,A,2557.0117,N,07919.5256,W,3.3,76.4,180615,7.4,W"
"##MN-00 00 48 0189 01527 6469 446489 827869 200"
"169.911447"
"$GPRMC,215225,A,2557.0125,N,07919.5225,W,3.3,76.5,180615,7.4,W"
"##MN-00 00 48 0189 01530 6468 445859 827869 200"
"169.911493"
"$GPRMC,215229,A,2557.0132,N,07919.5182,W,3.3,76.9,180615,7.4,W"
"##MN-00 00 48 0189 01530 6467 445721 827869 200"
"169.911539"
"$GPRMC,215233,A,2557.0142,N,07919.5141,W,3.3,76.7,180615,7.4,W"
"##MN-00 00 48 0189 01529 6466 445678 827869 200"
"169.911586"
"$GPRMC,215237,A,2557.0150,N,07919.5100,W,3.3,76.8,180615,7.4,W"
"##MN-00 00 48 0189 01531 6466 446274 827869 200"
"169.911632"
"$GPRMC,215241,A,2557.0157,N,07919.5058,W,3.3,76.3,180615,7.4,W"
"##MN-00 00 48 0189 01530 6465 446333 827869 200"
"169.911678"
"$GPRMC,215245,A,2557.0168,N,07919.5023,W,3.3,76.1,180615,7.4,W"
"##MN-00 00 48 0189 01528 6465 446019 827870 200"
"169.911725"
"$GPRMC,215250,A,2557.0179,N,07919.4979,W,3.3,76.1,180615,7.4,W"
"##MN-00 00 48 0189 01528 6463 445286 827869 200"
"169.911771"
"$GPRMC,215254,A,2557.0188,N,07919.4939,W,3.3,75.9,180615,7.4,W"
"##MN-00 00 48 0189 01529 6463 444429 827869 200"
"169.911817"
"$GPRMC,215258,A,2557.0196,N,07919.4897,W,3.3,76.0,180615,7.4,W"
"##MN-00 00 48 0189 01527 6462 444734 827869 200"
"169.911863"
"$GPRMC,215302,A,2557.0204,N,07919.4852,W,3.3,75.7,180615,7.4,W"
"##MN-00 00 48 0189 01529 6461 445154 827869 200"
"169.91191"
"$GPRMC,215306,A,2557.0211,N,07919.4806,W,3.3,75.5,180615,7.4,W"
"##MN-00 00 48 0189 01528 6461 444190 827870 200"
"169.911956"
"$GPRMC,215310,A,2557.0219,N,07919.4762,W,3.3,75.7,180615,7.4,W"
"##MN-00 00 48 0189 01529 6460 444200 827869 200"
"169.912002"
"$GPRMC,215314,A,2557.0226,N,07919.4717,W,3.3,75.6,180615,7.4,W"
"##MN-00 00 48 0189 01530 6459 443470 827869 200"
"169.912049"
"$GPRMC,215318,A,2557.0235,N,07919.4673,W,3.3,75.0,180615,7.4,W"
"##MN-00 00 48 0189 01531 6459 443144 827869 200"
"169.912095"
"$GPRMC,215322,A,2557.0244,N,07919.4636,W,3.3,74.9,180615,7.4,W"
"##MN-00 00 48 0189 01529 6458 443198 827870 200"
"169.912141"
"$GPRMC,215326,A,2557.0254,N,07919.4595,W,3.3,74.8,180615,7.4,W"
"##MN-00 00 48 0189 01530 6457 443340 827869 200"
"169.912187"
"$GPRMC,215330,A,2557.0264,N,07919.4558,W,3.3,74.6,180615,7.4,W"
"##MN-00 00 48 0189 01529 6457 443314 827869 200"
"169.912234"
"$GPRMC,215334,A,2557.0273,N,07919.4519,W,3.3,74.7,180615,7.4,W"
"##MN-00 00 48 0189 01528 6456 442926 827869 200"
"169.91228"
"$GPRMC,215338,A,2557.0284,N,07919.4480,W,3.3,75.0,180615,7.4,W"
"##MN-00 00 48 0189 01528 6456 442943 827869 200"
"169.912326"
"$GPRMC,215342,A,2557.0294,N,07919.4442,W,3.3,75.1,180615,7.4,W"
"##MN-00 00 48 0189 01528 6455 442866 827870 200"
"169.912373"
"$GPRMC,215346,A,2557.0304,N,07919.4401,W,3.3,74.8,180615,7.4,W"
"##MN-00 00 48 0189 01530 6455 442692 827869 200"
"169.912419"
"$GPRMC,215350,A,2557.0313,N,07919.4359,W,3.3,74.9,180615,7.4,W"
"##MN-00 00 48 0189 01528 6454 442723 827869 200"
"169.912465"
"$GPRMC,215354,A,2557.0322,N,07919.4319,W,3.3,75.6,180615,7.4,W"
"##MN-00 00 48 0189 01529 6453 443663 827869 200"
"169.912512"
"$GPRMC,215358,A,2557.0331,N,07919.4278,W,3.3,75.4,180615,7.4,W"
"##MN-00 00 48 0189 01529 6453 445068 827869 200"
"169.912558"
"$GPRMC,215402,A,2557.0341,N,07919.4239,W,3.3,75.8,180615,7.4,W"
"##MN-00 00 48 0189 01530 6452 445088 827869 200"
"169.912604"
"$GPRMC,215406,A,2557.0351,N,07919.4200,W,3.3,76.1,180615,7.4,W"
"##MN-00 00 48 0189 01528 6452 445185 827869 200"
"169.91265"
"$GPRMC,215410,A,2557.0359,N,07919.4161,W,3.3,76.5,180615,7.4,W"
"##MN-00 00 48 0189 01529 6451 445172 827869 200"
"169.912697"
"$GPRMC,215414,A,2557.0367,N,07919.4122,W,3.3,76.4,180615,7.4,W"
"##MN-00 00 48 0189 01530 6450 444329 827869 200"
"169.912743"
"$GPRMC,215418,A,2557.0376,N,07919.4083,W,3.3,77.0,180615,7.4,W"
"##MN-00 00 48 0189 01530 6450 444344 827869 200"
"169.912789"
"$GPRMC,215422,A,2557.0384,N,07919.4042,W,3.3,76.9,180615,7.4,W"
"##MN-00 00 48 0189 01529 6449 443538 827869 200"
"169.912836"
"$GPRMC,215426,A,2557.0391,N,07919.4003,W,3.2,77.5,180615,7.4,W"
"##MN-00 00 48 0189 01526 6449 443815 827868 200"
"169.912882"
"$GPRMC,215430,A,2557.0399,N,07919.3962,W,3.3,77.7,180615,7.4,W"
"##MN-00 00 48 0189 01527 6448 444476 827869 200"
"169.912928"
"$GPRMC,215434,A,2557.0410,N,07919.3923,W,3.2,77.3,180615,7.4,W"
"##MN-00 00 48 0189 01529 6448 444580 827869 200"
"169.912975"
"$GPRMC,215438,A,2557.0417,N,07919.3883,W,3.2,77.4,180615,7.4,W"
"##MN-00 00 48 0189 01528 6447 444297 827869 200"
"169.913021"
"$GPRMC,215442,A,2557.0425,N,07919.3843,W,3.2,77.2,180615,7.4,W"
"##MN-00 00 48 0189 01528 6447 443970 827869 200"
"169.913067"
"$GPRMC,215446,A,2557.0434,N,07919.3801,W,3.3,77.4,180615,7.4,W"
"##MN-00 00 48 0189 01529 6446 443754 827869 200"
"169.913113"
"$GPRMC,215450,A,2557.0439,N,07919.3756,W,3.5,79.3,180615,7.4,W"
"##MN-00 00 48 0189 01528 6446 443216 827869 200"
"169.91316"
"$GPRMC,215454,A,2557.0445,N,07919.3707,W,3.7,81.0,180615,7.4,W"
"##MN-00 00 48 0189 01530 6445 442171 827868 200"
"169.913206"
"$GPRMC,215458,A,2557.0450,N,07919.3655,W,3.9,81.4,180615,7.4,W"
"##MN-00 00 48 0189 01528 6445 442287 827869 200"
"169.913252"
"$GPRMC,215502,A,2557.0456,N,07919.3598,W,4.2,82.3,180615,7.4,W"
"##MN-00 00 48 0189 01529 6444 442091 827868 200"
"169.913299"
"$GPRMC,215506,A,2557.0463,N,07919.3537,W,4.6,81.9,180615,7.4,W"
"##MN-00 00 48 0189 01529 6444 442118 827868 200"
"169.913345"
"$GPRMC,215510,A,2557.0471,N,07919.3474,W,4.9,81.3,180615,7.4,W"
"##MN-00 00 48 0189 01528 6443 442410 827868 200"
"169.913391"
"$GPRMC,215514,A,2557.0485,N,07919.3410,W,5.1,80.7,180615,7.4,W"
"##MN-00 00 48 0189 01529 6443 442272 827868 200"
"169.913438"
"$GPRMC,215518,A,2557.0499,N,07919.3342,W,5.3,79.6,180615,7.4,W"
"##MN-00 00 48 0189 01529 6443 441919 827868 200"
"169.913484"
"$GPRMC,215522,A,2557.0514,N,07919.3271,W,5.6,77.7,180615,7.4,W"
"##MN-00 00 48 0189 01529 6442 441295 827869 200"
"169.91353"
"$GPRMC,215526,A,2557.0533,N,07919.3200,W,5.8,76.1,180615,7.4,W"
"##MN-00 00 48 0189 01528 6442 440837 827868 200"
"169.913576"
"$GPRMC,215530,A,2557.0555,N,07919.3128,W,5.9,73.8,180615,7.4,W"
"##MN-00 00 48 0189 01528 6441 440756 827868 200"
"169.913623"
"$GPRMC,215534,A,2557.0582,N,07919.3056,W,6.2,71.1,180615,7.4,W"
"##MN-00 00 48 0189 01529 6441 440629 827869 200"
"169.913669"
"$GPRMC,215538,A,2557.0609,N,07919.2984,W,6.3,68.7,180615,7.4,W"
"##MN-00 00 48 0189 01530 6441 440282 827868 200"
"169.913715"
"$GPRMC,215542,A,2557.0640,N,07919.2912,W,6.4,66.7,180615,7.4,W"
"##MN-00 00 48 0189 01531 6440 439869 827868 200"
"169.913762"
"$GPRMC,215546,A,2557.0667,N,07919.2837,W,6.6,65.4,180615,7.4,W"
"##MN-00 00 48 0189 01529 6440 439738 827868 200"
"169.913808"
"$GPRMC,215550,A,2557.0696,N,07919.2763,W,6.6,64.5,180615,7.4,W"
"##MN-00 00 48 0189 01529 6439 438998 827868 200"
"169.913854"
"$GPRMC,215554,A,2557.0735,N,07919.2687,W,6.7,63.5,180615,7.4,W"
"##MN-00 00 48 0189 01529 6439 438519 827867 200"
"169.9139"
"$GPRMC,215558,A,2557.0771,N,07919.2614,W,6.9,62.8,180615,7.4,W"
"##MN-00 00 48 0189 01528 6439 437930 827868 200"
"169.913958"
"$GPRMC,215602,A,2557.0811,N,07919.2537,W,7.0,61.1,180615,7.4,W"
"##MN-00 00 48 0189 01530 6438 437816 827868 200"
"169.914005"
"$GPRMC,215606,A,2557.0857,N,07919.2461,W,7.0,59.7,180615,7.4,W"
"##MN-00 00 48 0189 01528 6438 437654 827867 200"
"169.914051"
"$GPRMC,215610,A,2557.0901,N,07919.2387,W,7.1,57.9,180615,7.4,W"
"##MN-00 00 48 0189 01530 6438 437593 827867 200"
"169.914097"
"$GPRMC,215614,A,2557.0949,N,07919.2313,W,7.2,56.3,180615,7.4,W"
"##MN-00 00 48 0189 01529 6437 437387 827868 200"
"169.914143"
"$GPRMC,215618,A,2557.1002,N,07919.2237,W,7.2,54.8,180615,7.4,W"
"##MN-00 00 48 0189 01531 6437 437637 827867 200"
"169.91419"
"$GPRMC,215622,A,2557.1053,N,07919.2164,W,7.3,52.8,180615,7.4,W"
"##MN-00 00 48 0189 01528 6437 438294 827867 200"
"169.914236"
"$GPRMC,215626,A,2557.1107,N,07919.2092,W,7.3,51.7,180615,7.4,W"
"##MN-00 00 48 0189 01530 6436 438847 827867 200"
"169.914282"
"$GPRMC,215630,A,2557.1160,N,07919.2019,W,7.4,50.7,180615,7.4,W"
"##MN-00 00 48 0189 01530 6436 439495 827867 200"
"169.914329"
"$GPRMC,215634,A,2557.1214,N,07919.1950,W,7.3,49.9,180615,7.4,W"
"##MN-00 00 48 0189 01531 6436 439710 827867 200"
"169.914375"
"$GPRMC,215638,A,2557.1268,N,07919.1880,W,7.4,49.4,180615,7.4,W"
"##MN-00 00 48 0189 01528 6435 439993 827866 200"
"169.914421"
"$GPRMC,215642,A,2557.1320,N,07919.1812,W,7.4,49.2,180615,7.4,W"
"##MN-00 00 48 0189 01531 6435 440115 827867 200"
"169.914468"
"$GPRMC,215646,A,2557.1375,N,07919.1742,W,7.4,49.0,180615,7.4,W"
"##MN-00 00 48 0189 01531 6435 439927 827866 200"
"169.914514"
"$GPRMC,215650,A,2557.1431,N,07919.1672,W,7.4,49.2,180615,7.4,W"
"##MN-00 00 48 0189 01528 6435 439949 827866 200"
"169.91456"
"$GPRMC,215654,A,2557.1486,N,07919.1601,W,7.4,49.1,180615,7.4,W"
"##MN-00 00 48 0189 01530 6434 440074 827867 200"
"169.914606"
"$GPRMC,215658,A,2557.1539,N,07919.1530,W,7.4,49.6,180615,7.4,W"
"##MN-00 00 48 0189 01528 6434 440194 827866 200"
"169.914653"
"$GPRMC,215702,A,2557.1591,N,07919.1456,W,7.4,49.8,180615,7.4,W"
"##MN-00 00 48 0189 01528 6434 440184 827866 200"
"169.914699"
"$GPRMC,215706,A,2557.1644,N,07919.1386,W,7.4,50.2,180615,7.4,W"
"##MN-00 00 48 0189 01528 6434 440039 827866 200"
"169.914745"
"$GPRMC,215710,A,2557.1696,N,07919.1319,W,7.4,50.6,180615,7.4,W"
"##MN-00 00 48 0189 01530 6433 439941 827866 200"
"169.914792"
"$GPRMC,215714,A,2557.1749,N,07919.1250,W,7.4,51.1,180615,7.4,W"
"##MN-00 00 48 0189 01532 6433 439780 827866 200"
"169.914838"
"$GPRMC,215718,A,2557.1800,N,07919.1179,W,7.4,51.4,180615,7.4,W"
"##MN-00 00 48 0189 01530 6433 439902 827866 200"
"169.914884"
"$GPRMC,215722,A,2557.1848,N,07919.1106,W,7.3,51.6,180615,7.4,W"
"##MN-00 00 48 0189 01531 6433 440038 827865 200"
"169.914931"
"$GPRMC,215726,A,2557.1897,N,07919.1033,W,7.3,51.7,180615,7.4,W"
"##MN-00 00 48 0189 01529 6432 439722 827865 200"
"169.914977"
"$GPRMC,215730,A,2557.1945,N,07919.0958,W,7.3,51.8,180615,7.4,W"
"##MN-00 00 48 0189 01529 6432 439583 827866 200"
"169.915023"
"$GPRMC,215734,A,2557.1996,N,07919.0887,W,7.3,51.5,180615,7.4,W"
"##MN-00 00 48 0189 01529 6432 439721 827866 200"
"169.915069"
"$GPRMC,215738,A,2557.2047,N,07919.0816,W,7.3,51.0,180615,7.4,W"
"##MN-00 00 48 0189 01533 6431 439484 827865 200"
"169.915116"
"$GPRMC,215742,A,2557.2100,N,07919.0751,W,7.3,50.7,180615,7.4,W"
"##MN-00 00 48 0189 01529 6432 438979 827865 200"
"169.915162"
"$GPRMC,215747,A,2557.2166,N,07919.0665,W,7.3,50.1,180615,7.4,W"
"##MN-00 00 48 0189 01531 6431 438650 827865 200"
"169.915208"
"$GPRMC,215751,A,2557.2220,N,07919.0592,W,7.3,49.8,180615,7.4,W"
"##MN-00 00 48 0189 01530 6431 438526 827865 200"
"169.915255"
"$GPRMC,215755,A,2557.2274,N,07919.0522,W,7.4,49.4,180615,7.4,W"
"##MN-00 00 48 0189 01528 6431 438043 827865 200"
"169.915301"
"$GPRMC,215759,A,2557.2329,N,07919.0453,W,7.4,49.0,180615,7.4,W"
"##MN-00 00 48 0189 01531 6431 438152 827866 200"
"169.915347"
"$GPRMC,215803,A,2557.2386,N,07919.0384,W,7.4,48.8,180615,7.4,W"
"##MN-00 00 48 0189 01530 6431 438178 827797 200"
"169.915394"
"$GPRMC,215807,A,2557.2441,N,07919.0316,W,7.4,48.8,180615,7.4,W"
"##MN-00 00 48 0189 01529 6430 437031 827865 200"
"169.91544"
"$GPRMC,215811,A,2557.2491,N,07919.0248,W,7.4,49.1,180615,7.4,W"
"##MN-00 00 48 0189 01529 6430 436429 827865 200"
"169.915486"
"$GPRMC,215815,A,2557.2542,N,07919.0179,W,7.4,49.4,180615,7.4,W"
"##MN-00 00 48 0189 01530 6430 436620 827864 200"
"169.915532"
"$GPRMC,215819,A,2557.2599,N,07919.0108,W,7.4,49.9,180615,7.4,W"
"##MN-00 00 48 0189 01530 6430 436444 827864 200"
"169.915579"
"$GPRMC,215823,A,2557.2649,N,07919.0038,W,7.4,50.4,180615,7.4,W"
"##MN-00 00 48 0189 01529 6430 436638 827864 200"
"169.915625"
"$GPRMC,215827,A,2557.2701,N,07918.9968,W,7.3,51.0,180615,7.4,W"
"##MN-00 00 48 0189 01529 6430 436233 827864 200"
"169.915671"
"$GPRMC,215831,A,2557.2740,N,07918.9914,W,7.3,51.4,180615,7.4,W"
"##MN-00 00 48 0189 01530 6430 436035 827864 200"
"169.915718"
"$GPRMC,215835,A,2557.2805,N,07918.9824,W,7.3,51.7,180615,7.4,W"
"##MN-00 00 49 0189 01528 6430 435657 827863 200"
"169.915764"
"$GPRMC,215839,A,2557.2856,N,07918.9752,W,7.3,52.2,180615,7.4,W"
"##MN-00 00 49 0189 01529 6430 435472 827796 200"
"169.91581"
"$GPRMC,215843,A,2557.2906,N,07918.9680,W,7.3,52.3,180615,7.4,W"
"##MN-00 00 49 0189 01530 6429 435519 827864 200"
"169.915857"
"$GPRMC,215847,A,2557.2954,N,07918.9610,W,7.3,52.1,180615,7.4,W"
"##MN-00 00 49 0189 01529 6429 435427 827864 200"
"169.915903"
"$GPRMC,215851,A,2557.3004,N,07918.9538,W,7.3,52.1,180615,7.4,W"
"##MN-00 00 49 0189 01531 6429 435726 827863 200"
"169.915949"
"$GPRMC,215855,A,2557.3055,N,07918.9467,W,7.3,51.6,180615,7.4,W"
"##MN-00 00 49 0189 01530 6429 435815 827863 200"
"169.915995"
"$GPRMC,215859,A,2557.3108,N,07918.9400,W,7.3,51.5,180615,7.4,W"
"##MN-00 00 49 0189 01531 6429 436068 827863 200"
"169.916042"
"$GPRMC,215903,A,2557.3159,N,07918.9327,W,7.3,50.8,180615,7.4,W"
"##MN-00 00 49 0189 01530 6429 436177 827863 200"
"169.916088"
"$GPRMC,215907,A,2557.3212,N,07918.9257,W,7.3,50.2,180615,7.4,W"
"##MN-00 00 49 0189 01529 6429 436163 827863 200"
"169.916134"
"$GPRMC,215911,A,2557.3267,N,07918.9185,W,7.3,49.5,180615,7.4,W"
"##MN-00 00 49 0189 01531 6429 436108 827863 200"
"169.916181"
"$GPRMC,215915,A,2557.3318,N,07918.9119,W,7.3,49.3,180615,7.4,W"
"##MN-00 00 49 0189 01529 6429 436426 827862 200"
"169.916227"
"$GPRMC,215919,A,2557.3369,N,07918.9050,W,7.3,49.0,180615,7.4,W"
"##MN-00 00 49 0189 01530 6429 436663 827795 200"
"169.916273"
"$GPRMC,215923,A,2557.3422,N,07918.8983,W,7.3,49.4,180615,7.4,W"
"##MN-00 00 49 0189 01530 6429 436579 827863 200"
"169.916319"
"$GPRMC,215927,A,2557.3474,N,07918.8915,W,7.3,49.4,180615,7.4,W"
"##MN-00 00 49 0189 01529 6429 436745 827863 200"
"169.916366"
"$GPRMC,215931,A,2557.3527,N,07918.8849,W,7.2,49.9,180615,7.4,W"
"##MN-00 00 49 0189 01529 6429 436921 827863 200"
"169.916412"
"$GPRMC,215935,A,2557.3578,N,07918.8779,W,7.2,49.9,180615,7.4,W"
"##MN-00 00 49 0189 01531 6429 436862 827863 200"
"169.916458"
"$GPRMC,215939,A,2557.3626,N,07918.8708,W,7.2,50.2,180615,7.4,W"
"##MN-00 00 49 0189 01531 6428 436948 827863 200"
"169.916505"
"$GPRMC,215943,A,2557.3676,N,07918.8642,W,7.2,50.8,180615,7.4,W"
"##MN-00 00 49 0189 01530 6429 437007 827863 200"
"169.916551"
"$GPRMC,215947,A,2557.3725,N,07918.8569,W,7.1,51.5,180615,7.4,W"
"##MN-00 00 49 0189 01529 6429 436664 827862 200"
"169.916597"
"$GPRMC,215951,A,2557.3776,N,07918.8497,W,7.2,51.9,180615,7.4,W"
"##MN-00 00 49 0189 01531 6428 436652 827863 200"
"169.916644"
"$GPRMC,215955,A,2557.3824,N,07918.8427,W,7.2,52.3,180615,7.4,W"
"##MN-00 00 49 0189 01530 6428 436614 827862 200"
"169.91669"
"$GPRMC,215959,A,2557.3875,N,07918.8358,W,7.2,52.4,180615,7.4,W"
"##MN-00 00 49 0189 01530 6429 436564 827794 200"
"169.916736"
"$GPRMC,220003,A,2557.3924,N,07918.8288,W,7.2,52.5,180615,7.4,W"
"##MN-00 00 49 0189 01529 6429 436586 827862 200"
"169.916782"
"$GPRMC,220007,A,2557.3974,N,07918.8218,W,7.2,52.6,180615,7.4,W"
"##MN-00 00 49 0189 01530 6429 436071 827862 200"
"169.916829"
"$GPRMC,220011,A,2557.4023,N,07918.8148,W,7.2,52.5,180615,7.4,W"
"##MN-00 00 49 0189 01530 6429 435935 827794 200"
"169.916875"
"$GPRMC,220015,A,2557.4076,N,07918.8077,W,7.2,52.1,180615,7.4,W"
"##MN-00 00 49 0189 01529 6429 435694 827862 200"
"169.916921"
"$GPRMC,220019,A,2557.4128,N,07918.8008,W,7.2,51.7,180615,7.4,W"
"##MN-00 00 49 0189 01528 6428 435720 827794 200"
"169.916968"
"$GPRMC,220023,A,2557.4178,N,07918.7938,W,7.2,51.3,180615,7.4,W"
"##MN-00 00 49 0189 01531 6428 436040 827862 200"
"169.917014"
"$GPRMC,220027,A,2557.4231,N,07918.7868,W,7.2,50.8,180615,7.4,W"
"##MN-00 00 49 0189 01528 6428 436025 827862 200"
"169.91706"
"$GPRMC,220031,A,2557.4281,N,07918.7799,W,7.2,50.4,180615,7.4,W"
"##MN-00 00 49 0189 01531 6428 436097 827862 200"
"169.917106"
"$GPRMC,220035,A,2557.4328,N,07918.7731,W,7.2,50.0,180615,7.4,W"
"##MN-00 00 49 0189 01530 6428 435995 827862 200"
"169.917153"
"$GPRMC,220039,A,2557.4381,N,07918.7662,W,7.2,49.9,180615,7.4,W"
"##MN-00 00 49 0189 01532 6428 435895 827861 200"
"169.917211"
"$GPRMC,220043,A,2557.4438,N,07918.7595,W,7.2,49.9,180615,7.4,W"
"##MN-00 00 49 0189 01528 6428 435919 827794 200"
"169.917257"
"$GPRMC,220047,A,2557.4493,N,07918.7527,W,7.2,49.8,180615,7.4,W"
"##MN-00 00 49 0189 01528 6428 436169 827862 200"
"169.917303"
"$GPRMC,220051,A,2557.4545,N,07918.7460,W,7.2,49.9,180615,7.4,W"
"##MN-00 00 49 0189 01529 6429 435882 827861 200"
"169.917349"
"$GPRMC,220055,A,2557.4596,N,07918.7393,W,7.2,50.0,180615,7.4,W"
"##MN-00 00 49 0189 01529 6428 435854 827861 200"
"169.917396"
"$GPRMC,220059,A,2557.4644,N,07918.7324,W,7.1,50.8,180615,7.4,W"
"##MN-00 00 49 0189 01529 6428 435983 827861 200"
