" Tow: 6WGELZO   RVWS/WS15161"
" Date: 26/06/2015"
" Temperature Probe #  4762    Conductivity Probe #  710"
" Pressure Probe #  159"
" Flow Meter Calibration  4.71 (m/count)  "
"178.027442"
"$GPRMC,003926,A,2622.5866,N,07958.8782,W,0.5,130.2,270615,7.1,"
"##MN-00 00 21 案1015/,鬃$幼.l&S鳢鲜蒿"
"178.027512"
"$GPRMC,003933,A,2622.5862,N,07958.8774,W,0.4,128.4,270615,7.1,"
"##MN-00 00 21 案1015/,鬃$幼.l&S鳢鲜蒿"
"178.027963"
"$GPRMC,004015,A,2622.5887,N,07958.8757,W,0.5,31.7,270615,7.1,W"
"##MN-00 00 07 0013 01532 6349 436673 203744 194"
"178.027986"
"$GPRMC,004016,A,2622.5889,N,07958.8757,W,0.5,28.8,270615,7.1,W"
"##MN-00 00 07 0014 01531 6349 436733 203738 194"
"178.028032"
"$GPRMC,004019,A,2622.5893,N,07958.8755,W,0.5,24.2,270615,7.1,W"
"##MN-00 00 07 0015 01533 6348 436700 203715 194"
"178.028079"
"$GPRMC,004023,A,2622.5898,N,07958.8754,W,0.5,20.3,270615,7.1,W"
"##MN-00 00 07 0016 01532 6348 436706 203712 194"
"178.028137"
"$GPRMC,004027,A,2622.5904,N,07958.8754,W,0.5,17.3,270615,7.1,W"
"##MN-00 00 07 0017 01532 6347 436699 203709 194"
"178.028183"
"$GPRMC,004031,A,2622.5909,N,07958.8751,W,0.5,16.5,270615,7.1,W"
"##MN-00 00 07 0018 01534 6347 436711 203709 194"
"178.028229"
"$GPRMC,004035,A,2622.5916,N,07958.8748,W,0.6,16.3,270615,7.1,W"
"##MN-00 00 07 0020 01535 6347 436735 203711 194"
"178.028275"
"$GPRMC,004039,A,2622.5923,N,07958.8745,W,0.6,17.4,270615,7.1,W"
"##MN-00 00 06 0021 01536 6346 436832 203716 194"
"178.028322"
"$GPRMC,004043,A,2622.5930,N,07958.8741,W,0.6,19.3,270615,7.1,W"
"##MN-00 00 06 0022 01540 6346 436864 203726 194"
"178.028368"
"$GPRMC,004047,A,2622.5937,N,07958.8737,W,0.6,21.2,270615,7.1,W"
"##MN-00 00 06 0023 01542 6346 436952 203731 194"
"178.028414"
"$GPRMC,004051,A,2622.5943,N,07958.8733,W,0.6,22.6,270615,7.1,W"
"##MN-00 00 05 0024 01547 6345 437330 203808 194"
"178.028461"
"$GPRMC,004055,A,2622.5949,N,07958.8727,W,0.6,25.3,270615,7.1,W"
"##MN-00 00 05 0025 01551 6345 438229 203858 194"
"178.028507"
"$GPRMC,004059,A,2622.5956,N,07958.8723,W,0.6,28.4,270615,7.1,W"
"##MN-00 00 05 0026 01554 6345 439086 204058 194"
"178.028553"
"$GPRMC,004103,A,2622.5963,N,07958.8719,W,0.6,30.3,270615,7.1,W"
"##MN-00 00 05 0027 01559 6344 439527 204040 194"
"178.0286"
"$GPRMC,004107,A,2622.5969,N,07958.8714,W,0.6,31.7,270615,7.1,W"
"##MN-00 00 05 0028 01560 6344 439811 204184 194"
"178.028646"
"$GPRMC,004111,A,2622.5974,N,07958.8709,W,0.6,32.8,270615,7.1,W"
"##MN-00 00 05 0029 01564 6343 440008 204234 194"
"178.028692"
"$GPRMC,004115,A,2622.5981,N,07958.8705,W,0.6,33.1,270615,7.1,W"
"##MN-00 00 05 0030 01567 6343 440136 204281 194"
"178.028738"
"$GPRMC,004119,A,2622.5987,N,07958.8701,W,0.6,32.5,270615,7.1,W"
"##MN-00 00 05 0032 01570 6343 440267 204349 194"
"178.028785"
"$GPRMC,004123,A,2622.5992,N,07958.8697,W,0.6,32.3,270615,7.1,W"
"##MN-00 00 05 0033 01572 6342 440362 204343 194"
"178.028831"
"$GPRMC,004127,A,2622.5998,N,07958.8694,W,0.6,32.0,270615,7.1,W"
"##MN-00 00 05 0034 01574 6342 440440 204371 194"
"178.028877"
"$GPRMC,004131,A,2622.6003,N,07958.8690,W,0.5,31.7,270615,7.1,W"
"##MN-00 00 05 0035 01579 6341 440574 204413 194"
"178.028924"
"$GPRMC,004135,A,2622.6009,N,07958.8688,W,0.5,31.2,270615,7.1,W"
"##MN-00 00 05 0036 01583 6341 440702 204439 194"
"178.02897"
"$GPRMC,004139,A,2622.6013,N,07958.8685,W,0.5,29.9,270615,7.1,W"
"##MN-00 00 05 0037 01585 6340 440792 204443 194"
"178.029016"
"$GPRMC,004143,A,2622.6020,N,07958.8682,W,0.5,29.1,270615,7.1,W"
"##MN-00 00 05 0038 01588 6340 440894 204458 194"
"178.029062"
"$GPRMC,004147,A,2622.6026,N,07958.8680,W,0.5,27.1,270615,7.1,W"
"##MN-00 00 05 0039 01591 6340 440960 204477 194"
"178.029109"
"$GPRMC,004151,A,2622.6031,N,07958.8678,W,0.5,25.7,270615,7.1,W"
"##MN-00 00 05 0040 01595 6339 441011 204476 194"
"178.029155"
"$GPRMC,004155,A,2622.6035,N,07958.8677,W,0.5,23.7,270615,7.1,W"
"##MN-00 00 05 0042 01599 6338 441076 204509 194"
"178.029201"
"$GPRMC,004159,A,2622.6041,N,07958.8676,W,0.5,21.8,270615,7.1,W"
"##MN-00 00 05 0043 01600 6338 441156 204530 194"
"178.029248"
"$GPRMC,004203,A,2622.6046,N,07958.8674,W,0.5,19.7,270615,7.1,W"
"##MN-00 00 05 0044 01601 6338 441248 204572 194"
"178.029294"
"$GPRMC,004207,A,2622.6052,N,07958.8674,W,0.5,18.8,270615,7.1,W"
"##MN-00 00 05 0045 01605 6337 441329 204601 194"
"178.02934"
"$GPRMC,004211,A,2622.6057,N,07958.8671,W,0.5,17.3,270615,7.1,W"
"##MN-00 00 05 0046 01609 6336 441441 204603 194"
"178.029387"
"$GPRMC,004215,A,2622.6064,N,07958.8668,W,0.5,17.1,270615,7.1,W"
"##MN-00 00 05 0047 01612 6336 441561 204624 194"
"178.029433"
"$GPRMC,004219,A,2622.6068,N,07958.8666,W,0.5,17.0,270615,7.1,W"
"##MN-00 00 05 0048 01614 6335 441656 204640 194"
"178.029479"
"$GPRMC,004223,A,2622.6075,N,07958.8664,W,0.5,17.8,270615,7.1,W"
"##MN-00 00 05 0049 01617 6335 441706 204653 194"
"178.029525"
"$GPRMC,004227,A,2622.6082,N,07958.8662,W,0.5,18.6,270615,7.1,W"
"##MN-00 00 05 0051 01618 6334 441731 204658 194"
"178.029572"
"$GPRMC,004231,A,2622.6086,N,07958.8660,W,0.5,18.7,270615,7.1,W"
"##MN-00 00 05 0052 01623 6333 441774 204654 194"
"178.029618"
"$GPRMC,004235,A,2622.6093,N,07958.8657,W,0.6,19.2,270615,7.1,W"
"##MN-00 00 05 0053 01626 6333 441823 204654 194"
"178.029664"
"$GPRMC,004239,A,2622.6097,N,07958.8655,W,0.5,20.2,270615,7.1,W"
"##MN-00 00 05 0054 01631 6332 441872 204655 194"
"178.029711"
"$GPRMC,004243,A,2622.6104,N,07958.8652,W,0.5,21.4,270615,7.1,W"
"##MN-00 00 05 0055 01633 6332 441946 204667 194"
"178.029757"
"$GPRMC,004247,A,2622.6110,N,07958.8648,W,0.5,22.2,270615,7.1,W"
"##MN-00 00 05 0056 01633 6331 441992 204658 194"
"178.029803"
"$GPRMC,004251,A,2622.6115,N,07958.8644,W,0.5,22.9,270615,7.1,W"
"##MN-00 00 05 0057 01637 6331 441970 204650 194"
"178.02985"
"$GPRMC,004255,A,2622.6122,N,07958.8640,W,0.5,24.3,270615,7.1,W"
"##MN-00 00 04 0058 01641 6330 441799 204627 194"
"178.029896"
"$GPRMC,004259,A,2622.6126,N,07958.8637,W,0.6,25.8,270615,7.1,W"
"##MN-00 00 05 0060 01644 6329 441663 204554 194"
"178.029942"
"$GPRMC,004303,A,2622.6132,N,07958.8633,W,0.6,26.8,270615,7.1,W"
"##MN-00 00 05 0061 01647 6329 441634 204526 194"
"178.029988"
"$GPRMC,004307,A,2622.6138,N,07958.8629,W,0.6,27.5,270615,7.1,W"
"##MN-00 00 05 0062 01649 6328 441636 204505 194"
"178.030035"
"$GPRMC,004311,A,2622.6143,N,07958.8625,W,0.5,27.6,270615,7.1,W"
"##MN-00 00 05 0063 01652 6328 441662 204495 194"
"178.030081"
"$GPRMC,004315,A,2622.6150,N,07958.8621,W,0.6,27.9,270615,7.1,W"
"##MN-00 00 05 0064 01655 6327 441679 204489 194"
"178.030127"
"$GPRMC,004319,A,2622.6154,N,07958.8618,W,0.6,28.6,270615,7.1,W"
"##MN-00 00 05 0065 01659 6327 441709 204483 194"
"178.030174"
"$GPRMC,004323,A,2622.6161,N,07958.8614,W,0.5,29.0,270615,7.1,W"
"##MN-00 00 05 0066 01660 6326 441730 204480 194"
"178.03022"
"$GPRMC,004327,A,2622.6165,N,07958.8613,W,0.5,28.6,270615,7.1,W"
"##MN-00 00 05 0068 01661 6325 441704 204471 194"
"178.030266"
"$GPRMC,004331,A,2622.6172,N,07958.8609,W,0.5,28.0,270615,7.1,W"
"##MN-00 00 05 0069 01666 6324 441671 204464 194"
"178.030313"
"$GPRMC,004335,A,2622.6178,N,07958.8607,W,0.5,26.8,270615,7.1,W"
"##MN-00 00 05 0070 01669 6324 441660 204450 194"
"178.030359"
"$GPRMC,004339,A,2622.6183,N,07958.8603,W,0.6,26.9,270615,7.1,W"
"##MN-00 00 05 0071 01672 6323 441662 204443 194"
"178.030405"
"$GPRMC,004343,A,2622.6190,N,07958.8600,W,0.6,25.9,270615,7.1,W"
"##MN-00 00 05 0072 01675 6323 441662 204435 194"
"178.030451"
"$GPRMC,004347,A,2622.6198,N,07958.8596,W,0.6,26.1,270615,7.1,W"
"##MN-00 00 05 0073 01679 6322 441631 204431 194"
"178.030498"
"$GPRMC,004351,A,2622.6204,N,07958.8594,W,0.6,26.3,270615,7.1,W"
"##MN-00 00 04 0074 01681 6322 441591 204417 194"
"178.030544"
"$GPRMC,004355,A,2622.6209,N,07958.8589,W,0.6,26.2,270615,7.1,W"
"##MN-00 00 04 0076 01684 6321 441682 204413 194"
"178.03059"
"$GPRMC,004359,A,2622.6216,N,07958.8586,W,0.6,26.4,270615,7.1,W"
"##MN-00 00 04 0077 01688 6320 441913 204425 194"
"178.030637"
"$GPRMC,004404,A,2622.6220,N,07958.8584,W,0.5,26.3,270615,7.1,W"
"##MN-00 00 05 0078 01692 6319 442193 204436 194"
"178.030683"
"$GPRMC,004408,A,2622.6226,N,07958.8580,W,0.5,26.5,270615,7.1,W"
"##MN-00 00 04 0079 01697 6319 442608 204474 194"
"178.030729"
"$GPRMC,004412,A,2622.6230,N,07958.8576,W,0.6,27.2,270615,7.1,W"
"##MN-00 00 04 0080 01700 6318 443241 204505 194"
"178.030775"
"$GPRMC,004416,A,2622.6237,N,07958.8572,W,0.6,27.7,270615,7.1,W"
"##MN-00 00 04 0081 01703 6317 443870 204589 194"
"178.030822"
"$GPRMC,004420,A,2622.6241,N,07958.8570,W,0.6,27.9,270615,7.1,W"
"##MN-00 00 04 0082 01708 6317 444226 204646 194"
"178.030868"
"$GPRMC,004423,A,2622.6247,N,07958.8567,W,0.6,28.2,270615,7.1,W"
"##MN-00 00 04 0083 01711 6316 444455 204708 194"
"178.030914"
"$GPRMC,004428,A,2622.6254,N,07958.8563,W,0.6,27.2,270615,7.1,W"
"##MN-00 00 04 0085 01712 6316 444590 204790 194"
"178.030961"
"$GPRMC,004432,A,2622.6259,N,07958.8561,W,0.5,27.2,270615,7.1,W"
"##MN-00 00 04 0086 01718 6315 444733 204808 194"
"178.031007"
"$GPRMC,004436,A,2622.6265,N,07958.8559,W,0.5,26.9,270615,7.1,W"
"##MN-00 00 04 0087 01721 6314 444836 204914 194"
"178.031053"
"$GPRMC,004440,A,2622.6270,N,07958.8554,W,0.5,27.0,270615,7.1,W"
"##MN-00 00 04 0088 01722 6314 444906 204910 194"
"178.0311"
"$GPRMC,004444,A,2622.6276,N,07958.8551,W,0.5,26.7,270615,7.1,W"
"##MN-00 00 05 0089 01726 6313 444988 204954 194"
"178.031146"
"$GPRMC,004448,A,2622.6281,N,07958.8549,W,0.5,26.9,270615,7.1,W"
"##MN-00 00 04 0090 01729 6312 445159 204971 194"
"178.031192"
"$GPRMC,004452,A,2622.6287,N,07958.8546,W,0.5,26.6,270615,7.1,W"
"##MN-00 00 44 0091 01731 6312 445396 205041 194"
"178.031238"
"$GPRMC,004456,A,2622.6292,N,07958.8542,W,0.5,25.5,270615,7.1,W"
"##MN-00 00 04 0092 01735 6311 445550 205055 194"
"178.031285"
"$GPRMC,004500,A,2622.6299,N,07958.8538,W,0.6,24.9,270615,7.1,W"
"##MN-00 00 04 0093 01738 6310 445689 205061 194"
"178.031331"
"$GPRMC,004504,A,2622.6306,N,07958.8535,W,0.6,25.1,270615,7.1,W"
"##MN-00 00 05 0094 01743 6310 445802 205065 194"
"178.031377"
"$GPRMC,004508,A,2622.6310,N,07958.8531,W,0.6,26.1,270615,7.1,W"
"##MN-00 00 04 0096 01745 6309 445891 205071 194"
"178.031424"
"$GPRMC,004512,A,2622.6317,N,07958.8528,W,0.6,27.0,270615,7.1,W"
"##MN-00 00 04 0097 01750 6308 446041 205101 194"
"178.03147"
"$GPRMC,004516,A,2622.6321,N,07958.8524,W,0.6,28.6,270615,7.1,W"
"##MN-00 00 04 0098 01753 6308 446223 205123 194"
"178.031516"
"$GPRMC,004520,A,2622.6328,N,07958.8519,W,0.6,30.3,270615,7.1,W"
"##MN-00 00 04 0099 01757 6307 446338 205164 194"
"178.031562"
"$GPRMC,004524,A,2622.6333,N,07958.8515,W,0.6,31.1,270615,7.1,W"
"##MN-00 00 42 0100 01760 6306 446457 205168 194"
"178.03162"
"$GPRMC,004528,A,2622.6339,N,07958.8510,W,0.6,31.4,270615,7.1,W"
"##MN-00 00 04 0101 01761 6305 446610 205189 194"
"178.031667"
"$GPRMC,004532,A,2622.6345,N,07958.8505,W,0.6,31.9,270615,7.1,W"
"##MN-00 00 04 0102 01767 6304 446749 205203 194"
"178.031713"
"$GPRMC,004536,A,2622.6349,N,07958.8500,W,0.6,33.0,270615,7.1,W"
"##MN-00 00 04 0103 01770 6303 446956 205248 194"
"178.031759"
"$GPRMC,004540,A,2622.6355,N,07958.8495,W,0.6,33.8,270615,7.1,W"
"##MN-00 00 04 0104 01772 6303 447063 205270 194"
"178.031806"
"$GPRMC,004544,A,2622.6360,N,07958.8491,W,0.6,34.3,270615,7.1,W"
"##MN+00 00 04 0105 01775 6302 447190 205295 194"
"178.031852"
"$GPRMC,004548,A,2622.6364,N,07958.8487,W,0.6,35.1,270615,7.1,W"
"##MN+00 00 04 0107 01779 6301 447346 205336 194"
"178.031898"
"$GPRMC,004552,A,2622.6370,N,07958.8483,W,0.6,35.2,270615,7.1,W"
"##MN+00 00 04 0108 01781 6300 447438 205336 194"
"178.031944"
"$GPRMC,004556,A,2622.6375,N,07958.8479,W,0.5,35.2,270615,7.1,W"
"##MN-00 00 04 0109 01786 6300 447584 205375 194"
"178.031991"
"$GPRMC,004600,A,2622.6380,N,07958.8476,W,0.5,35.2,270615,7.1,W"
"##MN-00 00 04 0110 01784 6299 447749 205415 194"
"178.032037"
"$GPRMC,004604,A,2622.6385,N,07958.8472,W,0.5,34.6,270615,7.1,W"
"##MN+00 00 04 0111 01786 6298 447874 205429 194"
"178.032083"
"$GPRMC,004608,A,2622.6391,N,07958.8469,W,0.5,32.6,270615,7.1,W"
"##MN+00 00 04 0112 01785 6297 447936 205426 194"
"178.03213"
"$GPRMC,004612,A,2622.6396,N,07958.8466,W,0.5,30.5,270615,7.1,W"
"##MN+00 00 04 0114 01785 6297 447958 205442 194"
"178.032176"
"$GPRMC,004616,A,2622.6403,N,07958.8463,W,0.5,27.6,270615,7.1,W"
"##MN-00 00 04 0115 01792 6296 447971 205474 194"
"178.032222"
"#increment_net"
"$GPRMC,004620,A,2622.6409,N,07958.8461,W,0.5,25.4,270615,7.1,W"
"##MN-00 00 04 0116 01790 6295 448029 205490 194"
"178.032269"
"$GPRMC,004624,A,2622.6414,N,07958.8458,W,0.5,23.3,270615,7.1,W"
"##MN-00 00 05 0117 01790 6294 448050 205494 194"
"178.032315"
"$GPRMC,004628,A,2622.6421,N,07958.8456,W,0.6,21.8,270615,7.1,W"
"##MN-00 00 05 0118 01791 6293 448058 205490 194"
"178.032361"
"$GPRMC,004632,A,2622.6427,N,07958.8453,W,0.6,20.8,270615,7.1,W"
"##MN-00 00 04 0119 01788 6292 448057 205500 194"
"178.032407"
"$GPRMC,004636,A,2622.6433,N,07958.8451,W,0.5,20.5,270615,7.1,W"
"##MN-00 00 04 0120 01790 6292 448060 205506 194"
"178.032454"
"$GPRMC,004640,A,2622.6440,N,07958.8448,W,0.5,20.5,270615,7.1,W"
"##MN-00 00 04 0122 01787 6291 448053 205505 194"
"178.0325"
"$GPRMC,004644,A,2622.6447,N,07958.8445,W,0.6,20.6,270615,7.1,W"
"##MN-00 00 04 0123 01784 6290 448031 205502 194"
"178.032546"
"$GPRMC,004648,A,2622.6456,N,07958.8441,W,0.6,21.4,270615,7.1,W"
"##MN-00 00 04 0124 01783 6289 447994 205499 194"
"178.032593"
"$GPRMC,004652,A,2622.6461,N,07958.8436,W,0.6,21.7,270615,7.1,W"
"##MN-00 00 04 0125 01782 6288 447947 205492 194"
"178.032639"
"$GPRMC,004656,A,2622.6469,N,07958.8433,W,0.7,22.4,270615,7.1,W"
"##MN-00 00 04 0127 01779 6287 447879 205487 194"
"178.032685"
"$GPRMC,004700,A,2622.6478,N,07958.8430,W,0.7,22.2,270615,7.1,W"
"##MN-00 00 04 0128 01778 6286 447806 205476 194"
"178.032731"
"$GPRMC,004704,A,2622.6486,N,07958.8427,W,0.8,21.9,270615,7.1,W"
"##MN-00 00 05 0129 01776 6285 447725 205464 194"
"178.032778"
"$GPRMC,004708,A,2622.6493,N,07958.8424,W,0.7,21.7,270615,7.1,W"
"##MN-00 00 04 0130 01774 6284 447643 205464 194"
"178.032824"
"$GPRMC,004712,A,2622.6497,N,07958.8419,W,0.7,21.7,270615,7.1,W"
"##MN-00 00 04 0131 01772 6283 447583 205457 194"
"178.03287"
"$GPRMC,004716,A,2622.6507,N,07958.8417,W,0.7,21.6,270615,7.1,W"
"##MN-00 00 04 0133 01771 6282 447510 205427 194"
"178.032917"
"$GPRMC,004720,A,2622.6518,N,07958.8416,W,0.7,21.2,270615,7.1,W"
"##MN-00 00 04 0134 01766 6282 447401 205408 194"
"178.032963"
"$GPRMC,004724,A,2622.6525,N,07958.8412,W,0.7,21.2,270615,7.1,W"
"##MN-00 00 04 0135 01766 6281 447280 205394 194"
"178.033009"
"$GPRMC,004728,A,2622.6533,N,07958.8410,W,0.8,21.7,270615,7.1,W"
"##MN-00 00 04 0136 01766 6280 447210 205379 194"
"178.033056"
"$GPRMC,004732,A,2622.6544,N,07958.8407,W,0.7,21.2,270615,7.1,W"
"##MN-00 00 04 0138 01763 6279 447162 205358 194"
"178.033102"
"$GPRMC,004736,A,2622.6552,N,07958.8404,W,0.7,21.1,270615,7.1,W"
"##MN-00 00 05 0139 01760 6278 447104 205350 194"
"178.033148"
"$GPRMC,004740,A,2622.6559,N,07958.8401,W,0.7,20.4,270615,7.1,W"
"##MN-00 00 04 0140 01758 6277 447031 205339 194"
"178.033194"
"$GPRMC,004744,A,2622.6568,N,07958.8398,W,0.7,20.0,270615,7.1,W"
"##MN-00 00 04 0141 01756 6276 446866 205328 194"
"178.033241"
"$GPRMC,004748,A,2622.6574,N,07958.8395,W,0.7,18.9,270615,7.1,W"
"##MN-00 00 04 0142 01752 6275 446772 205291 194"
"178.033287"
"$GPRMC,004752,A,2622.6584,N,07958.8393,W,0.7,18.0,270615,7.1,W"
"##MN-00 00 04 0144 01752 6274 446650 205272 194"
"178.033333"
"$GPRMC,004756,A,2622.6592,N,07958.8390,W,0.7,17.4,270615,7.1,W"
"##MN-00 00 04 0145 01748 6274 446474 205232 194"
"178.03338"
"$GPRMC,004800,A,2622.6597,N,07958.8385,W,0.7,17.5,270615,7.1,W"
"##MN-00 00 04 0146 01747 6273 446351 205204 194"
"178.033426"
"$GPRMC,004804,A,2622.6606,N,07958.8383,W,0.8,16.9,270615,7.1,W"
"##MN-00 00 05 0147 01744 6272 446233 205176 194"
"178.033472"
"$GPRMC,004808,A,2622.6616,N,07958.8382,W,0.8,16.2,270615,7.1,W"
"##MN-00 00 04 0149 01740 6271 446149 205170 194"
"178.033519"
"$GPRMC,004812,A,2622.6627,N,07958.8379,W,0.8,16.5,270615,7.1,W"
"##MN-00 00 04 0150 01738 6270 446058 205160 194"
"178.033565"
"$GPRMC,004816,A,2622.6635,N,07958.8376,W,0.8,16.8,270615,7.1,W"
"##MN-00 00 04 0151 01735 6269 445957 205168 194"
"178.033611"
"$GPRMC,004820,A,2622.6644,N,07958.8373,W,0.8,17.0,270615,7.1,W"
"##MN-00 00 04 0152 01733 6268 445829 205136 194"
"178.033657"
"$GPRMC,004824,A,2622.6645,N,07958.8367,W,0.8,16.8,270615,7.1,W"
"##MN-00 00 05 0153 01731 6267 445658 205130 194"
"178.033704"
"$GPRMC,004828,A,2622.6659,N,07958.8366,W,0.8,16.7,270615,7.1,W"
"##MN-00 00 43 0155 01729 6266 445514 205113 194"
"178.03375"
"$GPRMC,004832,A,2622.6667,N,07958.8364,W,0.8,17.0,270615,7.1,W"
"##MN-00 00 05 0156 01727 6265 445420 205106 194"
"178.033796"
"$GPRMC,004836,A,2622.6678,N,07958.8360,W,0.8,17.5,270615,7.1,W"
"##MN-00 00 04 0157 01726 6264 445340 205087 194"
"178.033843"
"$GPRMC,004840,A,2622.6692,N,07958.8360,W,0.8,17.6,270615,7.1,W"
"##MN-00 00 05 0158 01725 6264 445237 205055 194"
"178.033889"
"$GPRMC,004844,A,2622.6699,N,07958.8355,W,0.8,17.8,270615,7.1,W"
"##MN-00 00 05 0159 01722 6263 445101 205045 194"
"178.033935"
"$GPRMC,004848,A,2622.6710,N,07958.8353,W,0.8,19.1,270615,7.1,W"
"##MN-00 00 42 0161 01718 6262 444940 205023 194"
"178.033981"
"$GPRMC,004852,A,2622.6720,N,07958.8351,W,0.8,20.0,270615,7.1,W"
"##MN-00 00 04 0162 01719 6261 444874 205011 194"
"178.034028"
"$GPRMC,004856,A,2622.6725,N,07958.8344,W,0.8,20.1,270615,7.1,W"
"##MN-00 00 04 0163 01714 6260 444855 205006 194"
"178.034074"
"$GPRMC,004901,A,2622.6732,N,07958.8339,W,0.8,19.4,270615,7.1,W"
"##MN-00 00 05 0164 01711 6260 444825 205001 194"
"178.03412"
"$GPRMC,004904,A,2622.6742,N,07958.8339,W,0.8,19.5,270615,7.1,W"
"##MN-00 00 05 0165 01710 6259 444788 204997 194"
"178.034167"
"$GPRMC,004908,A,2622.6751,N,07958.8336,W,0.8,21.2,270615,7.1,W"
"##MN-00 00 04 0167 01707 6258 444742 204979 194"
"178.034213"
"$GPRMC,004913,A,2622.6758,N,07958.8330,W,0.8,22.3,270615,7.1,W"
"##MN-00 00 05 0168 01702 6257 444683 204967 194"
"178.034259"
"$GPRMC,004917,A,2622.6771,N,07958.8327,W,0.8,22.2,270615,7.1,W"
"##MN-00 00 04 0169 01700 6256 444643 204966 194"
"178.034306"
"$GPRMC,004921,A,2622.6778,N,07958.8323,W,0.8,21.9,270615,7.1,W"
"##MN-00 00 05 0170 01696 6255 444581 204952 194"
"178.034352"
"$GPRMC,004925,A,2622.6786,N,07958.8321,W,0.8,21.0,270615,7.1,W"
"##MN-00 00 05 0172 01693 6254 444537 204941 194"
"178.034398"
"$GPRMC,004929,A,2622.6793,N,07958.8317,W,0.8,20.3,270615,7.1,W"
"##MN+00 00 04 0173 01690 6254 444355 204931 194"
"178.034444"
"$GPRMC,004933,A,2622.6801,N,07958.8315,W,0.8,19.4,270615,7.1,W"
"##MN+00 00 04 0174 01685 6253 443903 204916 194"
"178.034491"
"$GPRMC,004937,A,2622.6808,N,07958.8311,W,0.8,19.6,270615,7.1,W"
"##MN+00 00 05 0175 01686 6252 443224 204722 194"
"178.034537"
"$GPRMC,004941,A,2622.6819,N,07958.8310,W,0.8,19.5,270615,7.1,W"
"##MN-00 00 04 0177 01681 6251 442314 204632 194"
"178.034583"
"$GPRMC,004945,A,2622.6828,N,07958.8306,W,0.8,19.3,270615,7.1,W"
"##MN-00 00 04 0178 01679 6251 441913 204514 194"
"178.03463"
"$GPRMC,004949,A,2622.6832,N,07958.8303,W,0.8,18.7,270615,7.1,W"
"##MN-00 00 05 0179 01674 6250 441639 204482 194"
"178.034676"
"$GPRMC,004953,A,2622.6837,N,07958.8297,W,0.8,18.2,270615,7.1,W"
"##MN-00 00 04 0180 01670 6249 441526 204421 194"
"178.034734"
"$GPRMC,004957,A,2622.6844,N,07958.8293,W,0.8,18.7,270615,7.1,W"
"##MN-00 00 04 0182 01667 6248 441431 204394 194"
"178.03478"
"$GPRMC,005001,A,2622.6852,N,07958.8290,W,0.8,19.4,270615,7.1,W"
"##MN-00 00 04 0183 01665 6247 441396 204390 194"
"178.034826"
"$GPRMC,005005,A,2622.6861,N,07958.8288,W,0.8,19.3,270615,7.1,W"
"##MN-00 00 05 0184 01662 6247 441378 204374 194"
"178.034873"
"$GPRMC,005009,A,2622.6870,N,07958.8286,W,0.8,18.5,270615,7.1,W"
"##MN-00 00 05 0185 01658 6246 441355 204367 194"
"178.034919"
"$GPRMC,005013,A,2622.6876,N,07958.8281,W,0.8,18.1,270615,7.1,W"
"##MN-00 00 04 0187 01658 6246 441333 204362 194"
"178.034965"
"$GPRMC,005017,A,2622.6884,N,07958.8279,W,0.8,18.0,270615,7.1,W"
"##MN-00 00 05 0188 01654 6245 441295 204353 194"
"178.035012"
"$GPRMC,005021,A,2622.6891,N,07958.8274,W,0.8,17.5,270615,7.1,W"
"##MN+00 00 05 0189 01651 6244 441285 204349 194"
"178.035058"
"$GPRMC,005025,A,2622.6901,N,07958.8271,W,0.8,17.8,270615,7.1,W"
"##MN+00 00 05 0190 01648 6243 441311 204357 194"
"178.035104"
"$GPRMC,005029,A,2622.6909,N,07958.8267,W,0.8,18.3,270615,7.1,W"
"##MN+00 00 05 0192 01650 6243 441343 204365 194"
"178.03515"
"#increment_net"
"$GPRMC,005033,A,2622.6926,N,07958.8267,W,0.8,18.3,270615,7.1,W"
"##MN-00 00 05 0193 01647 6242 441350 204360 194"
"178.035197"
"$GPRMC,005037,A,2622.6933,N,07958.8263,W,0.8,19.1,270615,7.1,W"
"##MN-00 00 05 0194 01643 6241 441347 204374 194"
"178.035243"
"$GPRMC,005041,A,2622.6942,N,07958.8260,W,0.8,19.8,270615,7.1,W"
"##MN-00 00 05 0195 01637 6241 441414 204399 194"
"178.035289"
"$GPRMC,005045,A,2622.6951,N,07958.8258,W,0.8,20.7,270615,7.1,W"
"##MN-00 00 05 0196 01636 6240 441441 204408 194"
"178.035336"
"$GPRMC,005049,A,2622.6962,N,07958.8256,W,0.8,22.0,270615,7.1,W"
"##MN-00 00 05 0198 01634 6239 441453 204418 194"
"178.035382"
"$GPRMC,005053,A,2622.6974,N,07958.8255,W,0.8,22.6,270615,7.1,W"
"##MN-00 00 05 0199 01628 6239 441520 204466 194"
"178.035428"
"$GPRMC,005057,A,2622.6989,N,07958.8251,W,0.8,22.6,270615,7.1,W"
"##MN-00 00 05 0200 01629 6238 441653 204513 194"
"178.035475"
"$GPRMC,005101,A,2622.7002,N,07958.8249,W,0.8,22.1,270615,7.1,W"
"##MN-00 00 05 0201 01624 6238 441751 204552 194"
"178.035521"
"$GPRMC,005105,A,2622.7011,N,07958.8245,W,0.8,21.7,270615,7.1,W"
"##MN-00 00 05 0203 01624 6237 441826 204583 194"
"178.035567"
"$GPRMC,005109,A,2622.7018,N,07958.8238,W,0.8,21.4,270615,7.1,W"
"##MN-00 00 05 0204 01618 6236 441874 204603 194"
"178.035613"
"$GPRMC,005113,A,2622.7028,N,07958.8235,W,0.8,21.1,270615,7.1,W"
"##MN-00 00 05 0205 01617 6236 441920 204631 194"
"178.03566"
"$GPRMC,005117,A,2622.7036,N,07958.8230,W,0.8,20.9,270615,7.1,W"
"##MN-00 00 05 0206 01615 6235 441934 204650 194"
"178.035706"
"$GPRMC,005121,A,2622.7043,N,07958.8225,W,0.8,20.6,270615,7.1,W"
"##MN-00 00 05 0207 01613 6235 441945 204662 194"
"178.035752"
"$GPRMC,005125,A,2622.7053,N,07958.8222,W,0.8,20.4,270615,7.1,W"
"##MN-00 00 05 0209 01611 6234 441913 204670 194"
"178.035799"
"$GPRMC,005129,A,2622.7060,N,07958.8217,W,0.8,20.3,270615,7.1,W"
"##MN-00 00 05 0210 01608 6234 441822 204660 194"
"178.035845"
"$GPRMC,005133,A,2622.7068,N,07958.8215,W,0.8,19.3,270615,7.1,W"
"##MN-00 00 06 0211 01606 6233 441677 204640 194"
"178.035891"
"$GPRMC,005137,A,2622.7076,N,07958.8212,W,0.8,18.4,270615,7.1,W"
"##MN-00 00 05 0212 01603 6232 441578 204636 194"
"178.035938"
"$GPRMC,005141,A,2622.7086,N,07958.8212,W,0.8,17.2,270615,7.1,W"
"##MN-00 00 06 0213 01602 6232 441515 204632 194"
"178.035984"
"$GPRMC,005145,A,2622.7096,N,07958.8209,W,0.8,17.0,270615,7.1,W"
"##MN-00 00 05 0215 01599 6231 441445 204619 194"
"178.03603"
"$GPRMC,005149,A,2622.7103,N,07958.8208,W,0.8,17.3,270615,7.1,W"
"##MN-00 00 05 0216 01597 6231 441367 204613 194"
"178.036076"
"$GPRMC,005153,A,2622.7112,N,07958.8205,W,0.8,16.6,270615,7.1,W"
"##MN-00 00 05 0217 01596 6230 441298 204604 194"
"178.036123"
"$GPRMC,005157,A,2622.7121,N,07958.8201,W,0.8,16.3,270615,7.1,W"
"##MN-00 00 05 0218 01595 6230 441254 204595 193"
"178.036169"
"$GPRMC,005201,A,2622.7128,N,07958.8199,W,0.8,16.5,270615,7.1,W"
"##MN-00 00 05 0220 01593 6229 441226 204586 193"
"178.036215"
"$GPRMC,005205,A,2622.7139,N,07958.8197,W,0.8,17.4,270615,7.1,W"
"##MN-00 00 05 0221 01588 6229 441194 204581 194"
"178.036262"
"$GPRMC,005209,A,2622.7144,N,07958.8194,W,0.8,17.0,270615,7.1,W"
"##MN-00 00 05 0222 01587 6228 441162 204580 194"
"178.036308"
"$GPRMC,005213,A,2622.7151,N,07958.8189,W,0.8,17.1,270615,7.1,W"
"##MN-00 00 05 0223 01585 6228 441121 204573 193"
"178.036354"
"$GPRMC,005217,A,2622.7159,N,07958.8181,W,0.8,17.5,270615,7.1,W"
"##MN-00 00 05 0224 01582 6227 441077 204566 193"
"178.0364"
"$GPRMC,005221,A,2622.7169,N,07958.8177,W,0.8,18.0,270615,7.1,W"
"##MN-00 00 05 0226 01581 6227 441034 204562 193"
"178.036447"
"$GPRMC,005225,A,2622.7179,N,07958.8174,W,0.8,18.3,270615,7.1,W"
"##MN-00 00 05 0227 01580 6226 441013 204562 194"
"178.036493"
"$GPRMC,005229,A,2622.7188,N,07958.8172,W,0.8,18.7,270615,7.1,W"
"##MN-00 00 05 0228 01577 6226 440970 204559 194"
"178.036539"
"$GPRMC,005233,A,2622.7197,N,07958.8170,W,0.8,18.6,270615,7.1,W"
"##MN-00 00 05 0229 01574 6225 440904 204549 193"
"178.036586"
"$GPRMC,005237,A,2622.7206,N,07958.8166,W,0.8,18.2,270615,7.1,W"
"##MN-00 00 05 0230 01569 6224 440809 204532 193"
"178.036632"
"$GPRMC,005241,A,2622.7215,N,07958.8165,W,0.9,18.5,270615,7.1,W"
"##MN-00 00 05 0232 01568 6224 440723 204507 193"
"178.036678"
"$GPRMC,005245,A,2622.7224,N,07958.8161,W,0.9,18.8,270615,7.1,W"
"##MN-00 00 05 0233 01568 6223 440615 204503 194"
"178.036725"
"$GPRMC,005249,A,2622.7231,N,07958.8158,W,0.9,18.8,270615,7.1,W"
"##MN-00 00 05 0234 01564 6223 440540 204481 193"
"178.036771"
"$GPRMC,005253,A,2622.7242,N,07958.8154,W,0.9,18.5,270615,7.1,W"
"##MN+00 00 06 0235 01561 6223 440446 204472 193"
"178.036817"
"$GPRMC,005257,A,2622.7251,N,07958.8151,W,0.9,18.0,270615,7.1,W"
"##MN+00 00 06 0236 01560 6222 440328 204452 193"
"178.036863"
"$GPRMC,005301,A,2622.7258,N,07958.8147,W,0.8,17.7,270615,7.1,W"
"##MN+00 00 06 0238 01557 6222 439966 204454 194"
"178.03691"
"$GPRMC,005305,A,2622.7269,N,07958.8148,W,0.8,17.2,270615,7.1,W"
"##MN-00 00 06 0239 01556 6221 439727 204384 194"
"178.036956"
"$GPRMC,005309,A,2622.7278,N,07958.8147,W,0.8,16.4,270615,7.1,W"
"##MN-00 00 06 0240 01553 6221 439584 204299 194"
"178.037002"
"$GPRMC,005313,A,2622.7288,N,07958.8145,W,0.8,16.0,270615,7.1,W"
"##MN-00 00 06 0241 01548 6220 439093 204258 194"
"178.037049"
"$GPRMC,005317,A,2622.7295,N,07958.8141,W,0.8,15.5,270615,7.1,W"
"##MN-00 00 06 0242 01548 6220 438348 204040 194"
"178.037095"
"$GPRMC,005322,A,2622.7307,N,07958.8137,W,0.8,14.5,270615,7.1,W"
"##MN+00 00 06 0243 01544 6219 437798 203944 193"
"178.037141"
"$GPRMC,005325,A,2622.7316,N,07958.8136,W,0.8,14.0,270615,7.1,W"
"##MN+00 00 06 0245 01539 6219 437503 203848 194"
"178.037187"
"$GPRMC,005330,A,2622.7325,N,07958.8134,W,0.8,13.0,270615,7.1,W"
"##MN+00 00 06 0246 01541 6219 437361 203826 193"
"178.037234"
"$GPRMC,005334,A,2622.7332,N,07958.8132,W,0.8,12.7,270615,7.1,W"
"##MN-00 00 06 0247 01545 6218 437262 203788 194"
"178.03728"
"#increment_net"
"$GPRMC,005337,A,2622.7339,N,07958.8132,W,0.8,12.9,270615,7.1,W"
"##MN-00 00 06 0248 01542 6218 437209 203764 194"
"178.037326"
"$GPRMC,005342,A,2622.7352,N,07958.8127,W,0.8,13.0,270615,7.1,W"
"##MN+00 00 06 0249 01540 6217 437171 203766 194"
"178.037373"
"$GPRMC,005346,A,2622.7359,N,07958.8123,W,0.8,14.1,270615,7.1,W"
"##MN+00 00 06 0250 01540 6217 437178 203758 193"
"178.037419"
"$GPRMC,005350,A,2622.7367,N,07958.8119,W,0.8,15.8,270615,7.1,W"
"##MN+00 00 06 0251 01540 6217 437140 203751 193"
"178.037465"
"$GPRMC,005354,A,2622.7375,N,07958.8116,W,0.8,17.6,270615,7.1,W"
"##MN+00 00 06 0253 01538 6216 437151 203757 194"
"178.037512"
"$GPRMC,005358,A,2622.7382,N,07958.8112,W,0.8,19.4,270615,7.1,W"
"##MN+00 00 06 0254 01539 6216 437142 203751 193"
"178.037558"
"$GPRMC,005402,A,2622.7389,N,07958.8108,W,0.8,20.8,270615,7.1,W"
"##MN+00 00 06 0255 01538 6216 437114 203733 193"
"178.037604"
"#increment_net"
"$GPRMC,005406,A,2622.7396,N,07958.8103,W,0.8,21.8,270615,7.1,W"
"##MN-00 00 06 0256 01542 6216 437146 203733 194"
"178.03765"
"$GPRMC,005410,A,2622.7404,N,07958.8098,W,0.8,22.4,270615,7.1,W"
"##MN-00 00 06 0257 01540 6215 437178 203738 193"
"178.037697"
"$GPRMC,005414,A,2622.7411,N,07958.8095,W,0.8,23.2,270615,7.1,W"
"##MN-00 00 06 0258 01539 6215 437173 203735 193"
"178.037743"
"$GPRMC,005418,A,2622.7419,N,07958.8090,W,0.7,23.7,270615,7.1,W"
"##MN+00 00 06 0260 01538 6215 437114 203725 194"
"178.037789"
"$GPRMC,005422,A,2622.7426,N,07958.8086,W,0.7,24.4,270615,7.1,W"
"##MN+00 00 06 0261 01539 6214 437113 203722 193"
"178.037836"
"$GPRMC,005426,A,2622.7435,N,07958.8082,W,0.6,24.8,270615,7.1,W"
"##MN+00 00 06 0262 01537 6214 437096 203721 193"
"178.037894"
"$GPRMC,005430,A,2622.7440,N,07958.8078,W,0.6,24.6,270615,7.1,W"
"##MN+00 00 06 0263 01538 6214 437086 203718 193"
"178.03794"
"$GPRMC,005434,A,2622.7448,N,07958.8074,W,0.6,24.0,270615,7.1,W"
"##MN+00 00 06 0265 01537 6214 437098 203723 193"
"178.037986"
"$GPRMC,005438,A,2622.7454,N,07958.8071,W,0.6,23.6,270615,7.1,W"
"##MN+00 00 06 0266 01536 6213 437120 203723 193"
"178.038032"
"#increment_net"
"$GPRMC,005442,A,2622.7462,N,07958.8067,W,0.7,22.9,270615,7.1,W"
"##MN-00 00 06 0267 01539 6213 437080 203713 193"
"178.038079"
"$GPRMC,005446,A,2622.7468,N,07958.8064,W,0.7,22.3,270615,7.1,W"
"##MN-00 00 06 0269 01540 6213 437079 203715 193"
"178.038125"
"$GPRMC,005450,A,2622.7475,N,07958.8061,W,0.7,22.3,270615,7.1,W"
"##MN-00 00 06 0270 01548 6213 437109 203727 193"
"178.038171"
"$GPRMC,005454,A,2622.7480,N,07958.8058,W,0.6,21.8,270615,7.1,W"
"##MN-00 00 06 0271 01549 6212 437337 203780 193"
"178.038218"
"$GPRMC,005458,A,2622.7484,N,07958.8055,W,0.6,21.6,270615,7.1,W"
"##MN-00 00 05 0273 01551 6212 437823 203882 193"
