" Tow: 6WM-B   RVWS/WS15161"
" Date: 26/06/2015"
" Temperature Probe #  4762    Conductivity Probe #  710"
" Pressure Probe #  159"
" Flow Meter Calibration  4.71 (m/count)  "
"177.794086"
"$GPRMC,190324,A,2606.7805,N,08000.0361,W,2.4,69.6,260615,7.1,W"
"##MN-00 00 75 0569 01555 5003 048571 799499 193"
"177.794132"
"$GPRMC,190329,A,2606.7816,N,08000.0327,W,2.4,69.7,260615,7.1,W"
"##MN-00 00 73 0569 01553 5003 427927 827781 193"
"177.794178"
"$GPRMC,190333,A,2606.7824,N,08000.0299,W,2.4,69.4,260615,7.1,W"
"##MN-00 00 64 0569 01554 5004 428312 827782 193"
"177.794225"
"$GPRMC,190337,A,2606.7834,N,08000.0276,W,2.4,69.7,260615,7.1,W"
"##MN-00 00 65 0569 01555 5004 429149 827784 193"
"177.794271"
"$GPRMC,190341,A,2606.7844,N,08000.0250,W,2.3,70.0,260615,7.1,W"
"##MN-00 00 49 0569 01554 5005 429991 827717 193"
"177.794317"
"$GPRMC,190345,A,2606.7852,N,08000.0223,W,2.3,70.1,260615,7.1,W"
"##MN-00 00 49 0569 01552 5006 429794 827722 193"
"177.794363"
"$GPRMC,190349,A,2606.7859,N,08000.0197,W,2.3,70.0,260615,7.1,W"
"##MN-00 00 50 0569 01555 5006 429421 827721 193"
"177.79441"
"$GPRMC,190353,A,2606.7867,N,08000.0170,W,2.2,69.4,260615,7.1,W"
"##MN-00 00 50 0569 01554 5007 429326 827788 193"
"177.794456"
"$GPRMC,190357,A,2606.7876,N,08000.0145,W,2.2,68.8,260615,7.1,W"
"##MN-00 00 50 0569 01553 5007 429579 827654 193"
"177.794502"
"$GPRMC,190401,A,2606.7884,N,08000.0119,W,2.2,68.2,260615,7.1,W"
"##MN-00 00 50 0569 01554 5008 428470 827789 193"
"177.794549"
"$GPRMC,190405,A,2606.7894,N,08000.0096,W,2.2,67.2,260615,7.1,W"
"##MN-00 00 50 0569 01554 5009 427433 375268 193"
"177.794595"
"$GPRMC,190409,A,2606.7903,N,08000.0073,W,2.2,65.9,260615,7.1,W"
"##MN-00 00 14 0570 01553 5010 430357 220869 193"
"177.794641"
"$GPRMC,190413,A,2606.7913,N,08000.0048,W,2.2,64.1,260615,7.1,W"
"##MN-00 00 06 0571 01556 5010 429124 202073 193"
"177.794688"
"$GPRMC,190417,A,2606.7924,N,08000.0028,W,2.1,62.4,260615,7.1,W"
"##MN-00 00 05 0572 01555 5011 429428 202191 193"
"177.794734"
"$GPRMC,190421,A,2606.7935,N,08000.0013,W,2.1,60.7,260615,7.1,W"
"##MN-00 00 06 0573 01554 5012 430737 202449 193"
"177.79478"
"$GPRMC,190425,A,2606.7942,N,07959.9997,W,2.1,58.0,260615,7.1,W"
"##MN-00 00 05 0574 01556 5013 431431 202533 193"
"177.794826"
"$GPRMC,190430,A,2606.7956,N,07959.9977,W,2.0,55.0,260615,7.1,W"
"##MN-00 00 05 0575 01559 5014 433578 202865 193"
"177.794873"
"$GPRMC,190434,A,2606.7970,N,07959.9960,W,2.0,53.4,260615,7.1,W"
"##MN-00 00 04 0576 01561 5015 436068 203409 193"
"177.794919"
"$GPRMC,190438,A,2606.7984,N,07959.9939,W,1.9,52.1,260615,7.1,W"
"##MN-00 00 04 0577 01563 5016 437540 203752 193"
"177.794965"
"$GPRMC,190442,A,2606.8000,N,07959.9919,W,1.9,51.0,260615,7.1,W"
"##MN-00 00 05 0578 01564 5017 437923 203927 193"
"177.795012"
"$GPRMC,190446,A,2606.8015,N,07959.9900,W,1.9,50.6,260615,7.1,W"
"##MN-00 00 05 0579 01568 5019 438438 204037 193"
"177.795058"
"$GPRMC,190450,A,2606.8029,N,07959.9881,W,1.8,48.7,260615,7.1,W"
"##MN-00 00 05 0580 01571 5020 438712 204036 193"
"177.795104"
"$GPRMC,190454,A,2606.8046,N,07959.9863,W,1.9,47.6,260615,7.1,W"
"##MN-00 00 05 0581 01575 5022 438933 204116 193"
"177.79515"
"$GPRMC,190458,A,2606.8065,N,07959.9849,W,1.8,47.0,260615,7.1,W"
"##MN-00 00 05 0582 01577 5024 439262 204190 193"
"177.795197"
"$GPRMC,190502,A,2606.8082,N,07959.9834,W,1.8,46.4,260615,7.1,W"
"##MN-00 00 05 0583 01580 5026 439319 204201 193"
"177.795243"
"$GPRMC,190506,A,2606.8096,N,07959.9818,W,1.8,46.0,260615,7.1,W"
"##MN-00 00 05 0584 01584 5028 439558 204197 193"
"177.795289"
"$GPRMC,190510,A,2606.8108,N,07959.9802,W,1.7,45.5,260615,7.1,W"
"##MN-00 00 05 0585 01588 5030 439774 204286 193"
"177.795336"
"$GPRMC,190514,A,2606.8120,N,07959.9785,W,1.7,44.9,260615,7.1,W"
"##MN-00 00 05 0586 01592 5032 439866 204336 193"
"177.795382"
"$GPRMC,190518,A,2606.8134,N,07959.9768,W,1.7,44.9,260615,7.1,W"
"##MN-00 00 05 0587 01594 5034 440000 204355 193"
"177.795428"
"$GPRMC,190522,A,2606.8148,N,07959.9752,W,1.7,44.6,260615,7.1,W"
"##MN-00 00 05 0588 01598 5037 440126 204386 193"
"177.795475"
"$GPRMC,190526,A,2606.8163,N,07959.9736,W,1.7,43.9,260615,7.1,W"
"##MN-00 00 05 0589 01599 5039 440270 204420 193"
"177.795521"
"$GPRMC,190530,A,2606.8177,N,07959.9721,W,1.7,43.6,260615,7.1,W"
"##MN-00 00 05 0590 01603 5042 440324 204433 193"
"177.795567"
"$GPRMC,190534,A,2606.8192,N,07959.9707,W,1.7,42.8,260615,7.1,W"
"##MN-00 00 05 0591 01605 5045 440387 204453 193"
"177.795613"
"$GPRMC,190538,A,2606.8208,N,07959.9692,W,1.7,42.0,260615,7.1,W"
"##MN-00 00 05 0592 01608 5047 440444 204468 193"
"177.79566"
"$GPRMC,190542,A,2606.8224,N,07959.9679,W,1.7,41.9,260615,7.1,W"
"##MN-00 00 05 0593 01612 5050 440508 204475 193"
"177.795706"
"$GPRMC,190546,A,2606.8239,N,07959.9664,W,1.6,42.1,260615,7.1,W"
"##MN-00 00 05 0595 01614 5052 440570 204470 193"
"177.795752"
"$GPRMC,190550,A,2606.8253,N,07959.9649,W,1.6,42.1,260615,7.1,W"
"##MN-00 00 05 0596 01618 5055 440664 204497 193"
"177.795799"
"$GPRMC,190554,A,2606.8266,N,07959.9634,W,1.7,42.3,260615,7.1,W"
"##MN-00 00 05 0597 01620 5058 440756 204523 193"
"177.795845"
"$GPRMC,190558,A,2606.8279,N,07959.9621,W,1.6,41.9,260615,7.1,W"
"##MN-00 00 05 0598 01624 5061 440913 204557 193"
"177.795891"
"$GPRMC,190602,A,2606.8290,N,07959.9607,W,1.6,41.0,260615,7.1,W"
"##MN-00 00 05 0599 01627 5064 441053 204577 193"
"177.795938"
"$GPRMC,190606,A,2606.8303,N,07959.9595,W,1.6,40.6,260615,7.1,W"
"##MN-00 00 05 0600 01634 5066 441130 204586 193"
"177.795984"
"$GPRMC,190610,A,2606.8317,N,07959.9583,W,1.5,40.2,260615,7.1,W"
"##MN-00 00 05 0601 01634 5069 441231 204602 193"
"177.79603"
"$GPRMC,190614,A,2606.8329,N,07959.9571,W,1.5,39.5,260615,7.1,W"
"##MN-00 00 05 0602 01637 5072 441321 204615 193"
"177.796076"
"$GPRMC,190618,A,2606.8342,N,07959.9557,W,1.5,39.7,260615,7.1,W"
"##MN-00 00 05 0603 01643 5075 441393 204626 193"
"177.796123"
"$GPRMC,190622,A,2606.8354,N,07959.9545,W,1.5,39.9,260615,7.1,W"
"##MN-00 00 05 0604 01647 5078 441477 204627 193"
"177.796169"
"$GPRMC,190626,A,2606.8368,N,07959.9533,W,1.5,40.5,260615,7.1,W"
"##MN-00 00 05 0605 01652 5081 441516 204623 193"
"177.796215"
"$GPRMC,190630,A,2606.8382,N,07959.9520,W,1.5,40.9,260615,7.1,W"
"##MN-00 00 45 0606 01652 5084 441564 204628 193"
"177.796262"
"$GPRMC,190634,A,2606.8394,N,07959.9505,W,1.5,41.8,260615,7.1,W"
"##MN-00 00 04 0607 01658 5087 441601 204632 193"
"177.796308"
"$GPRMC,190638,A,2606.8405,N,07959.9489,W,1.6,42.9,260615,7.1,W"
"##MN-00 00 05 0608 01660 5090 441625 204634 193"
"177.796354"
"$GPRMC,190642,A,2606.8420,N,07959.9474,W,1.6,44.1,260615,7.1,W"
"##MN-00 00 05 0609 01664 5093 441657 204646 193"
"177.7964"
"$GPRMC,190646,A,2606.8433,N,07959.9457,W,1.7,44.8,260615,7.1,W"
"##MN-00 00 05 0609 01669 5096 441694 204655 193"
"177.796447"
"$GPRMC,190650,A,2606.8449,N,07959.9445,W,1.7,45.5,260615,7.1,W"
"##MN-00 00 05 0610 01674 5099 441729 204662 193"
"177.796493"
"$GPRMC,190654,A,2606.8463,N,07959.9430,W,1.8,45.6,260615,7.1,W"
"##MN-00 00 05 0611 01676 5102 441757 204665 193"
"177.796539"
"$GPRMC,190658,A,2606.8474,N,07959.9417,W,1.8,45.3,260615,7.1,W"
"##MN-00 00 07 0612 01679 5105 441782 204668 193"
"177.796586"
"$GPRMC,190702,A,2606.8488,N,07959.9400,W,1.9,45.2,260615,7.1,W"
"##MN-00 00 05 0613 01683 5108 441810 204671 193"
"177.796632"
"$GPRMC,190706,A,2606.8499,N,07959.9387,W,1.9,45.1,260615,7.1,W"
"##MN-00 00 04 0614 01687 5111 441839 204670 193"
"177.796678"
"$GPRMC,190710,A,2606.8516,N,07959.9369,W,1.9,45.5,260615,7.1,W"
"##MN-00 00 05 0615 01692 5114 441878 204678 193"
"177.796725"
"$GPRMC,190714,A,2606.8531,N,07959.9351,W,2.0,46.5,260615,7.1,W"
"##MN-00 00 05 0616 01694 5117 441975 204696 193"
"177.796771"
"$GPRMC,190718,A,2606.8542,N,07959.9331,W,2.0,46.9,260615,7.1,W"
"##MN-00 00 06 0617 01697 5120 442106 204711 193"
"177.796817"
"$GPRMC,190722,A,2606.8556,N,07959.9307,W,2.0,46.7,260615,7.1,W"
"##MN-00 00 05 0618 01702 5123 442303 204711 193"
"177.796863"
"$GPRMC,190726,A,2606.8570,N,07959.9286,W,2.0,47.2,260615,7.1,W"
"##MN-00 00 05 0619 01705 5127 442529 204732 193"
"177.796921"
"$GPRMC,190730,A,2606.8586,N,07959.9267,W,2.0,47.4,260615,7.1,W"
"##MN-00 00 05 0620 01710 5129 442833 204776 193"
"177.796968"
"$GPRMC,190734,A,2606.8604,N,07959.9247,W,2.1,47.9,260615,7.1,W"
"##MN-00 00 05 0621 01711 5132 443216 204791 193"
"177.797014"
"$GPRMC,190738,A,2606.8622,N,07959.9227,W,2.1,48.1,260615,7.1,W"
"##MN-00 00 05 0622 01714 5135 443619 204803 193"
"177.79706"
"$GPRMC,190742,A,2606.8642,N,07959.9206,W,2.1,48.2,260615,7.1,W"
"##MN-00 00 05 0623 01717 5138 443989 204869 193"
"177.797107"
"$GPRMC,190746,A,2606.8660,N,07959.9185,W,2.2,48.4,260615,7.1,W"
"##MN-00 00 45 0624 01721 5142 444291 204908 193"
"177.797153"
"$GPRMC,190750,A,2606.8678,N,07959.9162,W,2.2,48.6,260615,7.1,W"
"##MN-00 00 05 0625 01723 5144 444665 204927 193"
"177.797199"
"$GPRMC,190754,A,2606.8696,N,07959.9142,W,2.2,48.5,260615,7.1,W"
"##MN-00 00 04 0626 01728 5147 445006 204979 193"
"177.797245"
"$GPRMC,190758,A,2606.8712,N,07959.9121,W,2.3,48.9,260615,7.1,W"
"##MN-00 00 05 0627 01730 5150 445266 205042 193"
"177.797292"
"$GPRMC,190802,A,2606.8730,N,07959.9099,W,2.3,49.4,260615,7.1,W"
"##MN-00 00 04 0628 01731 5153 445381 205064 193"
"177.797338"
"$GPRMC,190806,A,2606.8747,N,07959.9079,W,2.3,49.6,260615,7.1,W"
"##MN-00 00 04 0629 01731 5156 445436 205043 193"
"177.797384"
"$GPRMC,190810,A,2606.8765,N,07959.9056,W,2.3,49.2,260615,7.1,W"
"##MN-00 00 44 0630 01735 5159 445472 205078 193"
"177.797431"
"$GPRMC,190814,A,2606.8781,N,07959.9033,W,2.4,48.4,260615,7.1,W"
"##MN-00 00 06 0631 01737 5162 445521 205080 193"
"177.797477"
"$GPRMC,190818,A,2606.8802,N,07959.9011,W,2.4,47.9,260615,7.1,W"
"##MN-00 00 05 0631 01742 5165 445573 205080 193"
"177.797523"
"$GPRMC,190822,A,2606.8824,N,07959.8990,W,2.4,47.7,260615,7.1,W"
"##MN-00 00 04 0632 01744 5168 445658 205079 193"
"177.797569"
"$GPRMC,190826,A,2606.8846,N,07959.8969,W,2.4,47.3,260615,7.1,W"
"##MN-00 00 04 0633 01745 5171 445736 205084 193"
"177.797616"
"$GPRMC,190830,A,2606.8864,N,07959.8943,W,2.5,47.6,260615,7.1,W"
"##MN-00 00 47 0634 01746 5174 445755 205082 193"
"177.797662"
"$GPRMC,190834,A,2606.8882,N,07959.8919,W,2.4,47.8,260615,7.1,W"
"##MN-00 00 04 0635 01747 5177 445831 205095 193"
"177.797708"
"$GPRMC,190838,A,2606.8900,N,07959.8896,W,2.5,48.7,260615,7.1,W"
"##MN-00 00 45 0637 01752 5179 445910 205096 193"
"177.797755"
"$GPRMC,190842,A,2606.8920,N,07959.8873,W,2.5,48.6,260615,7.1,W"
"##MN-00 00 06 0638 01754 5182 445950 205102 193"
"177.797801"
"$GPRMC,190846,A,2606.8938,N,07959.8851,W,2.5,48.6,260615,7.1,W"
"##MN-00 00 06 0639 01758 5185 446000 205111 193"
"177.797847"
"$GPRMC,190850,A,2606.8954,N,07959.8830,W,2.5,48.5,260615,7.1,W"
"##MN-00 00 05 0640 01759 5188 446114 205126 193"
"177.797894"
"$GPRMC,190854,A,2606.8972,N,07959.8809,W,2.5,48.5,260615,7.1,W"
"##MN-00 00 05 0641 01761 5191 446162 205135 193"
"177.79794"
"$GPRMC,190858,A,2606.8990,N,07959.8788,W,2.4,48.3,260615,7.1,W"
"##MN-00 00 05 0642 01762 5193 446214 205133 193"
"177.797986"
"$GPRMC,190902,A,2606.9007,N,07959.8766,W,2.4,48.3,260615,7.1,W"
"##MN-00 00 05 0643 01763 5196 446242 205138 193"
"177.798032"
"$GPRMC,190906,A,2606.9023,N,07959.8744,W,2.3,48.4,260615,7.1,W"
"##MN-00 00 05 0644 01767 5199 446282 205150 193"
"177.798079"
"$GPRMC,190910,A,2606.9041,N,07959.8721,W,2.4,48.2,260615,7.1,W"
"##MN-00 00 05 0645 01768 5202 446313 205151 193"
"177.798125"
"$GPRMC,190915,A,2606.9063,N,07959.8693,W,2.4,48.3,260615,7.1,W"
"##MN-00 00 05 0646 01772 5204 446350 205154 193"
"177.798171"
"$GPRMC,190919,A,2606.9080,N,07959.8671,W,2.4,48.3,260615,7.1,W"
"##MN-00 00 05 0647 01774 5207 446374 205163 193"
"177.798218"
"$GPRMC,190922,A,2606.9094,N,07959.8654,W,2.3,48.3,260615,7.1,W"
"##MN-00 00 04 0648 01777 5210 446408 205171 193"
"177.798264"
"$GPRMC,190927,A,2606.9115,N,07959.8626,W,2.3,48.3,260615,7.1,W"
"##MN-00 00 06 0649 01776 5212 446435 205176 193"
"177.79831"
"$GPRMC,190931,A,2606.9131,N,07959.8603,W,2.3,48.2,260615,7.1,W"
"##MN-00 00 04 0650 01780 5215 446464 205179 193"
"177.798356"
"$GPRMC,190935,A,2606.9148,N,07959.8580,W,2.3,48.4,260615,7.1,W"
"##MN-00 00 06 0651 01783 5218 446471 205178 193"
"177.798403"
"$GPRMC,190939,A,2606.9164,N,07959.8557,W,2.4,48.4,260615,7.1,W"
"##MN-00 00 05 0652 01787 5221 446486 205183 193"
"177.798449"
"$GPRMC,190943,A,2606.9182,N,07959.8534,W,2.4,48.2,260615,7.1,W"
"##MN-00 00 05 0653 01788 5223 446504 205190 193"
"177.798495"
"$GPRMC,190947,A,2606.9204,N,07959.8510,W,2.4,48.4,260615,7.1,W"
"##MN-00 00 05 0654 01791 5226 446538 205194 193"
"177.798542"
"$GPRMC,190951,A,2606.9220,N,07959.8487,W,2.4,48.3,260615,7.1,W"
"##MN-00 00 05 0655 01793 5228 446571 205199 193"
"177.798588"
"$GPRMC,190955,A,2606.9240,N,07959.8466,W,2.5,48.6,260615,7.1,W"
"##MN-00 00 03 0656 01795 5231 446598 205202 193"
"177.798634"
"$GPRMC,190959,A,2606.9256,N,07959.8443,W,2.4,49.1,260615,7.1,W"
"##MN-00 00 05 0657 01797 5234 446633 205209 193"
"177.798681"
"$GPRMC,191003,A,2606.9274,N,07959.8421,W,2.4,48.8,260615,7.1,W"
"##MN-00 00 06 0658 01800 5236 446660 205208 193"
"177.798727"
"$GPRMC,191007,A,2606.9287,N,07959.8398,W,2.4,49.0,260615,7.1,W"
"##MN-00 00 05 0659 01801 5239 446745 205221 193"
"177.798773"
"$GPRMC,191011,A,2606.9305,N,07959.8376,W,2.4,48.7,260615,7.1,W"
"##MN-00 00 05 0660 01803 5241 446833 205249 193"
"177.798819"
"$GPRMC,191015,A,2606.9321,N,07959.8354,W,2.4,48.5,260615,7.1,W"
"##MN-00 00 04 0661 01804 5244 446955 205268 193"
"177.798866"
"$GPRMC,191019,A,2606.9333,N,07959.8332,W,2.5,48.4,260615,7.1,W"
"##MN-00 00 05 0662 01807 5247 447085 205285 193"
"177.798912"
"$GPRMC,191023,A,2606.9354,N,07959.8310,W,2.4,48.2,260615,7.1,W"
"##MN+00 00 06 0664 01806 5249 447175 205305 193"
"177.798958"
"$GPRMC,191027,A,2606.9375,N,07959.8289,W,2.4,47.9,260615,7.1,W"
"##MN+00 00 05 0665 01805 5251 447205 205313 193"
"177.799005"
"$GPRMC,191031,A,2606.9397,N,07959.8268,W,2.4,47.1,260615,7.1,W"
"##MN+00 00 05 0666 01804 5255 447194 205319 193"
"177.799051"
"$GPRMC,191035,A,2606.9419,N,07959.8248,W,2.4,46.4,260615,7.1,W"
"##MN+00 00 04 0667 01805 5257 447237 205332 193"
"177.799097"
"$GPRMC,191039,A,2606.9437,N,07959.8227,W,2.4,46.0,260615,7.1,W"
"##MN+00 00 04 0668 01805 5259 447283 205341 193"
"177.799144"
"$GPRMC,191043,A,2606.9455,N,07959.8205,W,2.4,45.6,260615,7.1,W"
"##MN+00 00 06 0669 01805 5262 447316 205345 193"
"177.79919"
"$GPRMC,191047,A,2606.9474,N,07959.8189,W,2.4,45.3,260615,7.1,W"
"##MN-00 00 42 0670 01809 5264 447331 205351 193"
"177.799236"
"#increment_net"
"$GPRMC,191051,A,2606.9492,N,07959.8168,W,2.4,44.6,260615,7.1,W"
"##MN-00 00 06 0671 01808 5266 447420 205369 193"
"177.799282"
"$GPRMC,191055,A,2606.9511,N,07959.8148,W,2.4,44.3,260615,7.1,W"
"##MN-00 00 06 0673 01808 5269 447553 205396 193"
"177.799329"
"$GPRMC,191059,A,2606.9531,N,07959.8127,W,2.3,44.2,260615,7.1,W"
"##MN-00 00 05 0674 01809 5272 447580 205396 193"
"177.799375"
"$GPRMC,191103,A,2606.9554,N,07959.8109,W,2.3,44.1,260615,7.1,W"
"##MN-00 00 05 0675 01809 5274 447585 205403 193"
"177.799421"
"$GPRMC,191107,A,2606.9575,N,07959.8089,W,2.4,43.5,260615,7.1,W"
"##MN-00 00 05 0676 01809 5276 447629 205411 193"
"177.799468"
"$GPRMC,191111,A,2606.9593,N,07959.8068,W,2.4,43.6,260615,7.1,W"
"##MN-00 00 06 0677 01809 5278 447666 205410 193"
"177.799514"
"$GPRMC,191115,A,2606.9612,N,07959.8049,W,2.4,43.7,260615,7.1,W"
"##MN-00 00 05 0678 01811 5281 447693 205414 193"
"177.79956"
"$GPRMC,191119,A,2606.9630,N,07959.8029,W,2.4,43.9,260615,7.1,W"
"##MN-00 00 05 0680 01808 5283 447688 205400 193"
"177.799606"
"$GPRMC,191123,A,2606.9650,N,07959.8007,W,2.4,44.0,260615,7.1,W"
"##MN+00 00 06 0681 01812 5286 447662 205384 193"
"177.799653"
"$GPRMC,191127,A,2606.9669,N,07959.7985,W,2.4,44.1,260615,7.1,W"
"##MN+00 00 05 0682 01812 5288 447636 205369 193"
"177.799699"
"$GPRMC,191131,A,2606.9690,N,07959.7964,W,2.4,43.8,260615,7.1,W"
"##MN+00 00 06 0683 01811 5290 447613 205362 193"
"177.799745"
"$GPRMC,191135,A,2606.9709,N,07959.7941,W,2.4,43.6,260615,7.1,W"
"##MN+00 00 05 0684 01812 5292 447592 205350 193"
"177.799792"
"$GPRMC,191139,A,2606.9730,N,07959.7918,W,2.4,43.9,260615,7.1,W"
"##MN+00 00 06 0685 01810 5295 447565 205340 193"
"177.799838"
"$GPRMC,191143,A,2606.9749,N,07959.7895,W,2.5,44.3,260615,7.1,W"
"##MN+00 00 06 0686 01813 5297 447538 205330 193"
"177.799884"
"#increment_net"
"$GPRMC,191147,A,2606.9769,N,07959.7873,W,2.5,44.4,260615,7.1,W"
"##MN-00 00 06 0687 01815 5299 447496 205316 193"
"177.799931"
"$GPRMC,191151,A,2606.9789,N,07959.7850,W,2.5,44.2,260615,7.1,W"
"##MN-00 00 03 0689 01813 5302 447437 205302 193"
"177.799977"
"$GPRMC,191155,A,2606.9810,N,07959.7828,W,2.5,44.3,260615,7.1,W"
"##MN-00 00 45 0690 01812 5304 447432 205300 193"
"177.800035"
"$GPRMC,191159,A,2606.9828,N,07959.7805,W,2.5,45.2,260615,7.1,W"
"##MN-00 00 05 0691 01809 5306 447471 205319 193"
"177.800081"
"$GPRMC,191203,A,2606.9850,N,07959.7782,W,2.5,45.2,260615,7.1,W"
"##MN-00 00 05 0692 01808 5309 447510 205342 193"
"177.800127"
"$GPRMC,191207,A,2606.9874,N,07959.7760,W,2.5,45.4,260615,7.1,W"
"##MN-00 00 05 0693 01807 5311 447522 205364 193"
"177.800174"
"$GPRMC,191211,A,2606.9896,N,07959.7740,W,2.5,44.9,260615,7.1,W"
"##MN+00 00 05 0694 01808 5313 447526 205369 193"
"177.80022"
"$GPRMC,191215,A,2606.9915,N,07959.7720,W,2.5,44.6,260615,7.1,W"
"##MN+00 00 05 0695 01806 5316 447515 205373 193"
"177.800266"
"$GPRMC,191219,A,2606.9935,N,07959.7699,W,2.5,44.7,260615,7.1,W"
"##MN+00 00 05 0697 01807 5318 447495 205372 193"
"177.800313"
"$GPRMC,191223,A,2606.9955,N,07959.7677,W,2.4,44.6,260615,7.1,W"
"##MN-00 00 05 0698 01806 5320 447474 205364 193"
"177.800359"
"$GPRMC,191227,A,2606.9973,N,07959.7655,W,2.4,44.4,260615,7.1,W"
"##MN-00 00 05 0699 01803 5322 447453 205346 193"
"177.800405"
"$GPRMC,191231,A,2606.9994,N,07959.7635,W,2.4,44.5,260615,7.1,W"
"##MN+00 00 05 0700 01803 5324 447418 205336 193"
"177.800451"
"$GPRMC,191235,A,2607.0013,N,07959.7614,W,2.4,44.6,260615,7.1,W"
"##MN+00 00 05 0701 01803 5326 447388 205329 193"
"177.800498"
"$GPRMC,191239,A,2607.0033,N,07959.7592,W,2.4,44.6,260615,7.1,W"
"##MN+00 00 05 0702 01802 5328 447359 205322 193"
"177.800544"
"#increment_net"
"$GPRMC,191243,A,2607.0049,N,07959.7568,W,2.4,44.5,260615,7.1,W"
"##MN-00 00 06 0703 01805 5331 447309 205306 193"
"177.80059"
"$GPRMC,191247,A,2607.0070,N,07959.7546,W,2.5,44.3,260615,7.1,W"
"##MN-00 00 06 0704 01801 5333 447245 205265 193"
"177.800637"
"$GPRMC,191251,A,2607.0089,N,07959.7525,W,2.5,44.3,260615,7.1,W"
"##MN-00 00 05 0706 01803 5335 447216 205253 193"
"177.800683"
"$GPRMC,191255,A,2607.0107,N,07959.7505,W,2.4,44.3,260615,7.1,W"
"##MN-00 00 05 0707 01801 5337 447200 205247 193"
"177.800729"
"$GPRMC,191259,A,2607.0128,N,07959.7485,W,2.5,44.1,260615,7.1,W"
"##MN-00 00 05 0708 01800 5339 447188 205247 193"
"177.800775"
"$GPRMC,191303,A,2607.0146,N,07959.7463,W,2.4,44.0,260615,7.1,W"
"##MN-00 00 05 0709 01800 5342 447170 205243 193"
"177.800822"
"$GPRMC,191307,A,2607.0167,N,07959.7440,W,2.5,43.8,260615,7.1,W"
"##MN+00 00 06 0710 01799 5344 447133 205237 193"
"177.800868"
"$GPRMC,191311,A,2607.0186,N,07959.7423,W,2.4,43.7,260615,7.1,W"
"##MN+00 00 05 0711 01797 5346 447113 205234 193"
"177.800914"
"$GPRMC,191315,A,2607.0210,N,07959.7403,W,2.4,43.6,260615,7.1,W"
"##MN+00 00 05 0713 01800 5348 447100 205226 193"
"177.800961"
"$GPRMC,191319,A,2607.0229,N,07959.7383,W,2.5,43.6,260615,7.1,W"
"##MN-00 00 05 0714 01800 5350 447082 205222 193"
"177.801007"
"$GPRMC,191323,A,2607.0254,N,07959.7362,W,2.5,43.7,260615,7.1,W"
"##MN-00 00 05 0715 01800 5352 447073 205226 193"
"177.801053"
"$GPRMC,191327,A,2607.0273,N,07959.7340,W,2.5,43.6,260615,7.1,W"
"##MN+00 00 05 0716 01799 5354 447070 205228 193"
"177.8011"
"$GPRMC,191331,A,2607.0294,N,07959.7317,W,2.5,43.5,260615,7.1,W"
"##MN+00 00 05 0717 01798 5356 447061 205224 193"
"177.801146"
"$GPRMC,191336,A,2607.0318,N,07959.7287,W,2.5,43.2,260615,7.1,W"
"##MN+00 00 05 0718 01799 5358 447040 205212 193"
"177.801192"
"#increment_net"
"$GPRMC,191339,A,2607.0331,N,07959.7270,W,2.5,43.3,260615,7.1,W"
"##MN-00 00 06 0720 01802 5360 447013 205196 193"
"177.801238"
"$GPRMC,191344,A,2607.0356,N,07959.7241,W,2.5,44.0,260615,7.1,W"
"##MN-00 00 06 0721 01801 5363 446986 205178 193"
"177.801285"
"$GPRMC,191347,A,2607.0370,N,07959.7223,W,2.5,44.3,260615,7.1,W"
"##MN-00 00 06 0722 01800 5364 446964 205178 193"
"177.801331"
"$GPRMC,191351,A,2607.0388,N,07959.7201,W,2.5,44.2,260615,7.1,W"
"##MN-00 00 05 0723 01797 5367 446962 205180 193"
"177.801377"
"$GPRMC,191355,A,2607.0409,N,07959.7180,W,2.5,44.5,260615,7.1,W"
"##MN-00 00 05 0724 01796 5368 446960 205182 193"
"177.801424"
"$GPRMC,191359,A,2607.0430,N,07959.7161,W,2.5,43.9,260615,7.1,W"
"##MN-00 00 05 0726 01797 5370 446960 205191 193"
"177.80147"
"$GPRMC,191404,A,2607.0453,N,07959.7135,W,2.5,44.1,260615,7.1,W"
"##MN+00 00 05 0727 01799 5372 446952 205185 193"
"177.801516"
"$GPRMC,191408,A,2607.0471,N,07959.7115,W,2.5,44.2,260615,7.1,W"
"##MN+00 00 05 0728 01796 5375 446939 205182 193"
"177.801562"
"$GPRMC,191412,A,2607.0486,N,07959.7090,W,2.4,43.9,260615,7.1,W"
"##MN+00 00 05 0729 01796 5377 446932 205179 193"
"177.801609"
"$GPRMC,191416,A,2607.0504,N,07959.7068,W,2.4,44.0,260615,7.1,W"
"##MN-00 00 05 0730 01794 5379 446928 205179 193"
"177.801655"
"$GPRMC,191420,A,2607.0521,N,07959.7047,W,2.3,44.4,260615,7.1,W"
"##MN-00 00 05 0732 01797 5381 446926 205179 193"
"177.801701"
"$GPRMC,191424,A,2607.0540,N,07959.7024,W,2.3,44.2,260615,7.1,W"
"##MN+00 00 05 0733 01795 5383 446920 205178 193"
"177.801748"
"$GPRMC,191428,A,2607.0558,N,07959.7005,W,2.3,43.7,260615,7.1,W"
"##MN+00 00 05 0734 01796 5385 446916 205178 193"
"177.801794"
"$GPRMC,191432,A,2607.0576,N,07959.6985,W,2.3,43.8,260615,7.1,W"
"##MN+00 00 05 0735 01797 5387 446910 205176 193"
"177.80184"
"#increment_net"
"$GPRMC,191436,A,2607.0596,N,07959.6966,W,2.4,43.4,260615,7.1,W"
"##MN-00 00 06 0736 01798 5389 446902 205168 193"
"177.801887"
"$GPRMC,191440,A,2607.0615,N,07959.6945,W,2.4,43.2,260615,7.1,W"
"##MN-00 00 52 0738 01805 5391 446870 205146 193"
"177.801933"
"$GPRMC,191444,A,2607.0636,N,07959.6924,W,2.4,43.0,260615,7.1,W"
"##MN-00 00 06 0739 01809 5393 446872 205140 193"
"177.801979"
"$GPRMC,191448,A,2607.0656,N,07959.6903,W,2.4,43.5,260615,7.1,W"
"##MN-00 00 06 0741 01817 5395 447031 205174 193"
"177.802025"
"$GPRMC,191452,A,2607.0677,N,07959.6881,W,2.4,44.4,260615,7.1,W"
"##MN-00 00 05 0742 01819 5397 447550 205263 193"
"177.802072"
"$GPRMC,191456,A,2607.0696,N,07959.6857,W,2.5,45.6,260615,7.1,W"
"##MN-00 00 05 0744 01823 5399 448779 205572 193"
"177.802118"
"$GPRMC,191500,A,2607.0717,N,07959.6833,W,2.5,46.4,260615,7.1,W"
"##MN-00 00 49 0746 01824 5400 449487 205713 193"
"177.802164"
"$GPRMC,191504,A,2607.0741,N,07959.6810,W,2.5,47.2,260615,7.1,W"
"##MN-00 00 05 0747 01826 5403 449763 205802 193"
"177.802211"
"$GPRMC,191508,A,2607.0756,N,07959.6784,W,2.5,48.2,260615,7.1,W"
"##MN-00 00 06 0749 01826 5405 449924 205815 193"
"177.802257"
"$GPRMC,191512,A,2607.0774,N,07959.6759,W,2.5,49.2,260615,7.1,W"
"##MN-00 00 46 0750 01826 5407 449971 205818 193"
"177.802303"
"$GPRMC,191516,A,2607.0795,N,07959.6735,W,2.5,50.0,260615,7.1,W"
"##MN-00 00 05 0752 01824 5408 449985 205843 193"
"177.80235"
"$GPRMC,191520,A,2607.0813,N,07959.6711,W,2.6,50.6,260615,7.1,W"
"##MN-00 00 05 0753 01822 5410 449912 205825 193"
"177.802396"
"$GPRMC,191524,A,2607.0829,N,07959.6688,W,2.5,50.3,260615,7.1,W"
"##MN-00 00 47 0755 01821 5413 449754 205793 193"
"177.802442"
"$GPRMC,191528,A,2607.0850,N,07959.6664,W,2.5,50.1,260615,7.1,W"
"##MN-00 00 06 0757 01819 5414 449643 205775 193"
"177.802488"
"$GPRMC,191532,A,2607.0869,N,07959.6642,W,2.5,50.2,260615,7.1,W"
"##MN-00 00 05 0758 01818 5416 449325 205694 193"
"177.802535"
"$GPRMC,191536,A,2607.0887,N,07959.6620,W,2.4,50.2,260615,7.1,W"
"##MN-00 00 05 0760 01812 5418 448360 205487 193"
"177.802581"
"$GPRMC,191540,A,2607.0905,N,07959.6597,W,2.4,50.1,260615,7.1,W"
"##MN-00 00 05 0761 01811 5419 447625 205302 193"
"177.802627"
"$GPRMC,191544,A,2607.0923,N,07959.6574,W,2.4,50.3,260615,7.1,W"
"##MN-00 00 05 0763 01807 5421 447306 205255 193"
"177.802674"
"$GPRMC,191548,A,2607.0938,N,07959.6551,W,2.3,51.3,260615,7.1,W"
"##MN-00 00 05 0765 01805 5423 447164 205224 193"
"177.80272"
"$GPRMC,191552,A,2607.0952,N,07959.6528,W,2.3,51.7,260615,7.1,W"
"##MN-00 00 06 0766 01801 5425 447029 205204 193"
"177.802766"
"$GPRMC,191556,A,2607.0966,N,07959.6504,W,2.3,52.0,260615,7.1,W"
"##MN-00 00 05 0768 01800 5427 446869 205152 193"
"177.802812"
"$GPRMC,191600,A,2607.0979,N,07959.6480,W,2.3,52.2,260615,7.1,W"
"##MN-00 00 05 0770 01796 5429 446763 205139 193"
"177.802859"
"$GPRMC,191604,A,2607.0995,N,07959.6456,W,2.3,52.0,260615,7.1,W"
"##MN-00 00 05 0771 01792 5430 446753 205146 193"
"177.802905"
"$GPRMC,191608,A,2607.1012,N,07959.6434,W,2.3,51.7,260615,7.1,W"
"##MN-00 00 44 0773 01792 5432 446847 205193 193"
"177.802951"
"$GPRMC,191612,A,2607.1030,N,07959.6411,W,2.3,52.0,260615,7.1,W"
"##MN-00 00 05 0774 01784 5434 446889 205228 193"
"177.802998"
"$GPRMC,191616,A,2607.1046,N,07959.6390,W,2.3,51.7,260615,7.1,W"
"##MN-00 00 05 0776 01780 5435 446838 205230 193"
"177.803044"
"$GPRMC,191620,A,2607.1061,N,07959.6370,W,2.3,51.8,260615,7.1,W"
"##MN-00 00 04 0777 01778 5437 446713 205218 193"
"177.80309"
"$GPRMC,191624,A,2607.1078,N,07959.6351,W,2.1,51.7,260615,7.1,W"
"##MN-00 00 07 0779 01778 5439 446620 205213 193"
"177.803137"
"$GPRMC,191628,A,2607.1092,N,07959.6333,W,2.1,51.4,260615,7.1,W"
"##MN-00 00 05 0781 01773 5441 446500 205192 193"
"177.803194"
"$GPRMC,191632,A,2607.1104,N,07959.6313,W,1.9,51.2,260615,7.1,W"
"##MN-00 00 45 0782 01769 5442 446339 205164 193"
"177.803241"
"$GPRMC,191636,A,2607.1118,N,07959.6295,W,1.9,50.7,260615,7.1,W"
"##MN-00 00 05 0784 01766 5444 446209 205145 193"
"177.803287"
"$GPRMC,191640,A,2607.1129,N,07959.6277,W,1.8,50.5,260615,7.1,W"
"##MN-00 00 05 0785 01764 5446 446131 205134 193"
"177.803333"
"$GPRMC,191644,A,2607.1142,N,07959.6260,W,1.8,50.4,260615,7.1,W"
"##MN-00 00 05 0787 01764 5448 446100 205131 193"
"177.80338"
"$GPRMC,191648,A,2607.1154,N,07959.6245,W,1.8,49.8,260615,7.1,W"
"##MN-00 00 05 0788 01760 5450 446057 205126 193"
"177.803426"
"$GPRMC,191652,A,2607.1169,N,07959.6231,W,1.7,48.5,260615,7.1,W"
"##MN-00 00 05 0790 01758 5451 446004 205115 193"
"177.803472"
"$GPRMC,191656,A,2607.1180,N,07959.6218,W,1.7,46.8,260615,7.1,W"
"##MN-00 00 05 0791 01757 5453 445959 205109 193"
"177.803519"
"$GPRMC,191700,A,2607.1194,N,07959.6205,W,1.6,43.8,260615,7.1,W"
"##MN-00 00 46 0793 01756 5455 445920 205103 193"
"177.803565"
"$GPRMC,191704,A,2607.1208,N,07959.6194,W,1.6,40.5,260615,7.1,W"
"##MN-00 00 05 0794 01754 5457 445892 205100 193"
"177.803611"
"$GPRMC,191708,A,2607.1223,N,07959.6185,W,1.5,36.7,260615,7.1,W"
"##MN-00 00 04 0796 01753 5458 445869 205095 193"
"177.803657"
"$GPRMC,191712,A,2607.1237,N,07959.6177,W,1.4,33.1,260615,7.1,W"
"##MN-00 00 48 0797 01751 5460 445856 205093 193"
"177.803704"
"$GPRMC,191716,A,2607.1251,N,07959.6173,W,1.4,28.8,260615,7.1,W"
"##MN-00 00 05 0799 01749 5462 445846 205091 193"
"177.80375"
"$GPRMC,191720,A,2607.1263,N,07959.6168,W,1.3,24.9,260615,7.1,W"
"##MN-00 00 05 0800 01747 5464 445833 205090 193"
"177.803796"
"$GPRMC,191724,A,2607.1274,N,07959.6167,W,1.3,20.4,260615,7.1,W"
"##MN-00 00 05 0801 01747 5465 445820 205088 193"
"177.803843"
"$GPRMC,191728,A,2607.1290,N,07959.6167,W,1.3,15.1,260615,7.1,W"
"##MN-00 00 05 0803 01744 5467 445795 205085 193"
"177.803889"
"$GPRMC,191732,A,2607.1303,N,07959.6168,W,1.3,9.6,260615,7.1,W*"
"##MN-00 00 05 0804 01740 5469 445789 205085 193"
"177.803935"
"$GPRMC,191736,A,2607.1319,N,07959.6170,W,1.3,4.5,260615,7.1,W*"
"##MN-00 00 05 0806 01740 5470 445780 205083 193"
"177.803981"
"$GPRMC,191740,A,2607.1333,N,07959.6172,W,1.3,359.4,260615,7.1,"
"##MN-00 00 05 0807 01736 5472 445739 205078 193"
"177.804028"
"$GPRMC,191744,A,2607.1344,N,07959.6178,W,1.3,354.6,260615,7.1,"
"##MN-00 00 05 0808 01733 5474 445692 205072 193"
"177.804074"
"$GPRMC,191748,A,2607.1353,N,07959.6183,W,1.4,349.8,260615,7.1,"
"##MN-00 00 05 0810 01731 5476 445613 205065 193"
"177.80412"
"$GPRMC,191752,A,2607.1371,N,07959.6190,W,1.5,345.3,260615,7.1,"
"##MN-00 00 05 0811 01727 5477 445503 205051 193"
"177.804167"
"$GPRMC,191756,A,2607.1389,N,07959.6199,W,1.5,341.7,260615,7.1,"
"##MN-00 00 05 0812 01724 5479 445392 205038 193"
"177.804213"
"$GPRMC,191800,A,2607.1406,N,07959.6207,W,1.6,337.9,260615,7.1,"
"##MN-00 00 05 0814 01724 5481 445294 205031 193"
"177.804259"
"$GPRMC,191804,A,2607.1422,N,07959.6217,W,1.6,335.2,260615,7.1,"
"##MN-00 00 05 0815 01721 5483 445173 205029 193"
"177.804306"
"$GPRMC,191808,A,2607.1439,N,07959.6228,W,1.7,332.8,260615,7.1,"
"##MN-00 00 06 0816 01718 5484 444925 205026 193"
"177.804352"
"$GPRMC,191812,A,2607.1456,N,07959.6239,W,1.8,330.9,260615,7.1,"
"##MN-00 00 05 0818 01715 5486 444553 205013 193"
"177.804398"
"$GPRMC,191817,A,2607.1478,N,07959.6257,W,1.8,328.9,260615,7.1,"
"##MN-00 00 05 0819 01711 5488 444050 204989 193"
"177.804444"
"$GPRMC,191820,A,2607.1490,N,07959.6265,W,1.9,327.9,260615,7.1,"
"##MN-00 00 05 0820 01709 5489 443683 204963 193"
"177.804491"
"$GPRMC,191824,A,2607.1508,N,07959.6279,W,2.0,327.0,260615,7.1,"
"##MN-00 00 05 0821 01704 5491 443404 204923 193"
"177.804537"
"$GPRMC,191828,A,2607.1527,N,07959.6295,W,2.1,325.9,260615,7.1,"
"##MN-00 00 05 0823 01701 5493 443178 204887 193"
"177.804583"
"$GPRMC,191832,A,2607.1548,N,07959.6311,W,2.2,325.3,260615,7.1,"
"##MN-00 00 06 0824 01696 5495 443005 204862 193"
"177.80463"
"$GPRMC,191836,A,2607.1569,N,07959.6326,W,2.3,325.2,260615,7.1,"
"##MN-00 00 06 0826 01690 5496 442783 204845 193"
"177.804676"
"$GPRMC,191841,A,2607.1595,N,07959.6349,W,2.4,324.4,260615,7.1,"
"##MN-00 00 05 0827 01686 5498 442615 204824 193"
"177.804722"
"$GPRMC,191845,A,2607.1619,N,07959.6369,W,2.5,323.8,260615,7.1,"
"##MN-00 00 05 0828 01681 5499 442450 204808 193"
"177.804768"
"$GPRMC,191849,A,2607.1646,N,07959.6391,W,2.5,323.5,260615,7.1,"
"##MN-00 00 05 0830 01680 5501 442328 204791 193"
"177.804815"
"$GPRMC,191853,A,2607.1670,N,07959.6410,W,2.7,323.3,260615,7.1,"
"##MN-00 00 05 0831 01677 5503 442236 204776 193"
"177.804861"
"$GPRMC,191857,A,2607.1696,N,07959.6434,W,2.8,322.5,260615,7.1,"
"##MN-00 00 05 0832 01671 5505 442142 204762 193"
"177.804907"
"$GPRMC,191901,A,2607.1724,N,07959.6456,W,2.9,320.9,260615,7.1,"
"##MN-00 00 05 0834 01663 5506 442045 204742 193"
"177.804954"
"$GPRMC,191905,A,2607.1747,N,07959.6481,W,2.9,319.8,260615,7.1,"
"##MN-00 00 05 0835 01656 5508 441929 204736 193"
"177.805"
"$GPRMC,191909,A,2607.1768,N,07959.6503,W,3.0,318.5,260615,7.1,"
"##MN-00 00 06 0836 01650 5510 441853 204722 193"
"177.805046"
"$GPRMC,191913,A,2607.1790,N,07959.6528,W,3.0,317.7,260615,7.1,"
"##MN-00 00 05 0838 01645 5512 441769 204711 193"
"177.805093"
"$GPRMC,191917,A,2607.1816,N,07959.6553,W,3.0,317.2,260615,7.1,"
"##MN-00 00 05 0839 01638 5513 441640 204687 193"
"177.805139"
"$GPRMC,191921,A,2607.1844,N,07959.6580,W,3.0,316.8,260615,7.1,"
"##MN-00 00 06 0841 01635 5515 441510 204668 193"
"177.805185"
"$GPRMC,191925,A,2607.1870,N,07959.6607,W,3.0,316.4,260615,7.1,"
"##MN-00 00 06 0842 01625 5517 441443 204656 193"
"177.805231"
"$GPRMC,191929,A,2607.1897,N,07959.6633,W,3.0,316.3,260615,7.1,"
"##MN-00 00 05 0844 01621 5518 441280 204650 193"
"177.805278"
"$GPRMC,191933,A,2607.1920,N,07959.6658,W,3.0,316.1,260615,7.1,"
"##MN-00 00 05 0846 01617 5520 441110 204584 193"
"177.805324"
"$GPRMC,191937,A,2607.1945,N,07959.6684,W,2.9,315.9,260615,7.1,"
"##MN-00 00 06 0847 01612 5522 441013 204591 193"
"177.80537"
"$GPRMC,191941,A,2607.1970,N,07959.6710,W,2.9,315.6,260615,7.1,"
"##MN-00 00 06 0849 01607 5523 441062 204617 193"
"177.805417"
"$GPRMC,191945,A,2607.1995,N,07959.6736,W,2.9,315.7,260615,7.1,"
"##MN-00 00 06 0850 01602 5525 440982 204594 193"
"177.805463"
"$GPRMC,191949,A,2607.2014,N,07959.6760,W,3.0,315.9,260615,7.1,"
"##MN-00 00 06 0852 01596 5527 440755 204546 193"
"177.805509"
"$GPRMC,191953,A,2607.2036,N,07959.6785,W,3.0,315.7,260615,7.1,"
"##MN-00 00 06 0853 01595 5529 440560 204519 193"
"177.805556"
"$GPRMC,191957,A,2607.2064,N,07959.6814,W,3.0,316.0,260615,7.1,"
"##MN-00 00 06 0855 01592 5531 440482 204489 193"
"177.805602"
"$GPRMC,192001,A,2607.2099,N,07959.6844,W,3.0,316.0,260615,7.1,"
"##MN-00 00 06 0856 01588 5532 440440 204488 193"
"177.805648"
"$GPRMC,192005,A,2607.2126,N,07959.6871,W,3.0,315.8,260615,7.1,"
"##MN-00 00 06 0858 01582 5534 440383 204469 193"
"177.805694"
"$GPRMC,192009,A,2607.2151,N,07959.6898,W,3.0,315.9,260615,7.1,"
"##MN-00 00 06 0859 01577 5536 440322 204450 193"
"177.805741"
"$GPRMC,192013,A,2607.2176,N,07959.6925,W,3.0,315.8,260615,7.1,"
"##MN-00 00 06 0861 01575 5538 440242 204438 193"
"177.805787"
"$GPRMC,192017,A,2607.2198,N,07959.6954,W,3.0,315.7,260615,7.1,"
"##MN-00 00 06 0862 01570 5539 440158 204417 193"
"177.805833"
"$GPRMC,192021,A,2607.2219,N,07959.6980,W,3.0,315.6,260615,7.1,"
"##MN-00 00 06 0864 01567 5541 439981 204367 193"
"177.80588"
"$GPRMC,192025,A,2607.2240,N,07959.7003,W,3.1,315.9,260615,7.1,"
"##MN-00 00 06 0865 01563 5543 439726 204317 193"
"177.805926"
"$GPRMC,192029,A,2607.2262,N,07959.7030,W,3.1,315.7,260615,7.1,"
"##MN-00 00 06 0867 01558 5545 439093 204236 193"
"177.805972"
"$GPRMC,192033,A,2607.2289,N,07959.7056,W,3.1,315.7,260615,7.1,"
"##MN-00 00 06 0868 01553 5546 437776 203863 193"
