" Tow: 6WM-A   RVWS/WS15161"
" Date: 26/06/2015"
" Temperature Probe #  4762    Conductivity Probe #  710"
" Pressure Probe #  159"
" Flow Meter Calibration  4.71 (m/count)  "
"177.759792"
"$GPRMC,181401,A,2604.1005,N,07957.6962,W,4.6,315.4,260615,7.1,"
"##MN-00 00 46 0243 01568 3672 955332 826735 194"
"177.759838"
"$GPRMC,181406,A,2604.1049,N,07957.7010,W,4.6,316.3,260615,7.1,"
"##MN-00 00 46 0244 01568 3671 422192 576598 194"
"177.759884"
"$GPRMC,181410,A,2604.1089,N,07957.7046,W,4.6,317.3,260615,7.1,"
"##MN-00 00 44 0245 01566 3672 425185 218786 194"
"177.759931"
"$GPRMC,181414,A,2604.1125,N,07957.7082,W,4.5,318.6,260615,7.1,"
"##MN-00 00 08 0246 01566 3672 424751 214112 193"
"177.759977"
"$GPRMC,181418,A,2604.1165,N,07957.7115,W,4.5,319.4,260615,7.1,"
"##MN-00 00 06 0247 01567 3672 424653 200469 194"
"177.760023"
"$GPRMC,181422,A,2604.1204,N,07957.7150,W,4.5,320.3,260615,7.1,"
"##MN-00 00 06 0248 01569 3672 424014 200709 194"
"177.760069"
"$GPRMC,181426,A,2604.1243,N,07957.7183,W,4.5,321.6,260615,7.1,"
"##MN-00 00 06 0249 01572 3672 425056 200446 193"
"177.760116"
"$GPRMC,181430,A,2604.1281,N,07957.7216,W,4.4,322.4,260615,7.1,"
"##MN-00 00 06 0250 01574 3673 426493 200803 193"
"177.760162"
"$GPRMC,181435,A,2604.1333,N,07957.7258,W,4.4,323.1,260615,7.1,"
"##MN-00 00 05 0251 01578 3674 427780 200917 194"
"177.760208"
"$GPRMC,181438,A,2604.1363,N,07957.7281,W,4.4,323.5,260615,7.1,"
"##MN-00 00 05 0252 01577 3676 429630 201383 194"
"177.760255"
"$GPRMC,181442,A,2604.1406,N,07957.7312,W,4.4,323.7,260615,7.1,"
"##MN-00 00 05 0253 01581 3678 430770 201723 193"
"177.760301"
"$GPRMC,181446,A,2604.1446,N,07957.7344,W,4.4,324.3,260615,7.1,"
"##MN-00 00 05 0254 01585 3681 432736 201886 194"
"177.760347"
"$GPRMC,181450,A,2604.1486,N,07957.7374,W,4.4,324.8,260615,7.1,"
"##MN-00 00 05 0255 01587 3684 433851 202021 194"
"177.760394"
"$GPRMC,181455,A,2604.1536,N,07957.7413,W,4.4,325.0,260615,7.1,"
"##MN-00 00 05 0256 01591 3688 435378 202611 194"
"177.76044"
"$GPRMC,181459,A,2604.1577,N,07957.7443,W,4.4,325.2,260615,7.1,"
"##MN-00 00 05 0257 01595 3692 436904 202959 193"
"177.760486"
"$GPRMC,181503,A,2604.1617,N,07957.7475,W,4.3,325.3,260615,7.1,"
"##MN-00 00 05 0258 01597 3696 437647 203222 194"
"177.760532"
"$GPRMC,181507,A,2604.1657,N,07957.7504,W,4.3,325.4,260615,7.1,"
"##MN-00 00 05 0259 01600 3701 438021 203225 194"
"177.760579"
"$GPRMC,181510,A,2604.1689,N,07957.7526,W,4.3,325.6,260615,7.1,"
"##MN-00 00 04 0260 01603 3706 438254 203288 193"
"177.760625"
"$GPRMC,181515,A,2604.1739,N,07957.7563,W,4.3,326.1,260615,7.1,"
"##MN-00 00 04 0261 01609 3711 438484 203312 193"
"177.760671"
"$GPRMC,181519,A,2604.1778,N,07957.7592,W,4.3,326.2,260615,7.1,"
"##MN-00 00 05 0262 01613 3717 438586 203368 194"
"177.760718"
"$GPRMC,181523,A,2604.1815,N,07957.7623,W,4.3,326.3,260615,7.1,"
"##MN-00 00 04 0264 01618 3722 438701 203403 194"
"177.760764"
"$GPRMC,181527,A,2604.1854,N,07957.7652,W,4.2,326.1,260615,7.1,"
"##MN-00 00 05 0265 01621 3728 438771 203434 194"
"177.76081"
"$GPRMC,181531,A,2604.1891,N,07957.7682,W,4.2,325.8,260615,7.1,"
"##MN-00 00 04 0266 01624 3734 438844 203466 194"
"177.760856"
"$GPRMC,181535,A,2604.1930,N,07957.7713,W,4.2,325.5,260615,7.1,"
"##MN-00 00 04 0267 01628 3740 438896 203516 194"
"177.760903"
"$GPRMC,181539,A,2604.1969,N,07957.7742,W,4.2,325.3,260615,7.1,"
"##MN-00 00 04 0268 01631 3746 438927 203488 193"
"177.760949"
"$GPRMC,181543,A,2604.2006,N,07957.7771,W,4.1,325.1,260615,7.1,"
"##MN-00 00 04 0269 01635 3752 438930 203500 193"
"177.760995"
"$GPRMC,181547,A,2604.2043,N,07957.7800,W,4.1,324.8,260615,7.1,"
"##MN-00 00 04 0270 01639 3758 438936 203486 194"
"177.761042"
"$GPRMC,181551,A,2604.2079,N,07957.7829,W,4.1,324.7,260615,7.1,"
"##MN-00 00 04 0271 01640 3765 438906 203461 193"
"177.761088"
"$GPRMC,181555,A,2604.2115,N,07957.7858,W,4.0,324.6,260615,7.1,"
"##MN-00 00 04 0272 01643 3771 438856 203458 194"
"177.761134"
"$GPRMC,181559,A,2604.2154,N,07957.7887,W,4.0,324.5,260615,7.1,"
"##MN-00 00 04 0273 01649 3778 438830 203439 193"
"177.761181"
"$GPRMC,181603,A,2604.2191,N,07957.7915,W,4.0,324.5,260615,7.1,"
"##MN-00 00 04 0274 01653 3784 438816 203425 194"
"177.761227"
"$GPRMC,181607,A,2604.2227,N,07957.7942,W,4.0,324.3,260615,7.1,"
"##MN-00 00 04 0275 01656 3791 438834 203426 194"
"177.761273"
"$GPRMC,181611,A,2604.2262,N,07957.7970,W,3.9,324.1,260615,7.1,"
"##MN-00 00 04 0276 01659 3798 438880 203429 193"
"177.761319"
"$GPRMC,181615,A,2604.2296,N,07957.7998,W,3.9,323.9,260615,7.1,"
"##MN-00 00 04 0277 01662 3804 438904 203432 193"
"177.761366"
"$GPRMC,181619,A,2604.2332,N,07957.8025,W,3.9,323.4,260615,7.1,"
"##MN-00 00 04 0278 01665 3811 438925 203433 194"
"177.761412"
"$GPRMC,181623,A,2604.2367,N,07957.8053,W,3.8,323.1,260615,7.1,"
"##MN-00 00 04 0279 01670 3818 438983 203439 194"
"177.761458"
"$GPRMC,181627,A,2604.2393,N,07957.8074,W,3.8,323.0,260615,7.1,"
"##MN-00 00 04 0280 01671 3825 439071 203466 194"
"177.761505"
"$GPRMC,181631,A,2604.2426,N,07957.8101,W,3.8,322.7,260615,7.1,"
"##MN-00 00 04 0281 01675 3832 439155 203485 194"
"177.761551"
"$GPRMC,181635,A,2604.2469,N,07957.8136,W,3.8,322.7,260615,7.1,"
"##MN-00 00 04 0282 01677 3839 439194 203496 194"
"177.761597"
"$GPRMC,181639,A,2604.2495,N,07957.8158,W,3.8,322.7,260615,7.1,"
"##MN-00 00 04 0283 01683 3846 439224 203499 193"
"177.761643"
"$GPRMC,181643,A,2604.2538,N,07957.8193,W,3.8,322.6,260615,7.1,"
"##MN-00 00 04 0284 01686 3853 439255 203496 194"
"177.76169"
"$GPRMC,181647,A,2604.2563,N,07957.8216,W,3.7,322.3,260615,7.1,"
"##MN-00 00 04 0285 01687 3859 439285 203503 194"
"177.761736"
"$GPRMC,181651,A,2604.2605,N,07957.8253,W,3.7,321.9,260615,7.1,"
"##MN-00 00 04 0286 01690 3866 439303 203504 193"
"177.761782"
"$GPRMC,181655,A,2604.2635,N,07957.8284,W,3.7,322.0,260615,7.1,"
"##MN-00 00 04 0287 01693 3873 439313 203511 193"
"177.761829"
"$GPRMC,181659,A,2604.2670,N,07957.8309,W,3.7,321.7,260615,7.1,"
"##MN-00 00 04 0288 01698 3880 439362 203514 193"
"177.761875"
"$GPRMC,181703,A,2604.2701,N,07957.8336,W,3.7,321.7,260615,7.1,"
"##MN-00 00 04 0289 01699 3888 439418 203531 194"
"177.761921"
"$GPRMC,181707,A,2604.2732,N,07957.8363,W,3.6,321.4,260615,7.1,"
"##MN-00 00 04 0290 01704 3895 439456 203543 193"
"177.761968"
"$GPRMC,181711,A,2604.2762,N,07957.8394,W,3.7,321.5,260615,7.1,"
"##MN-00 00 04 0291 01703 3901 439493 203544 193"
"177.762014"
"$GPRMC,181715,A,2604.2793,N,07957.8423,W,3.7,321.6,260615,7.1,"
"##MN-00 00 04 0292 01706 3909 439525 203559 194"
"177.76206"
"$GPRMC,181719,A,2604.2823,N,07957.8454,W,3.7,321.3,260615,7.1,"
"##MN-00 00 04 0293 01710 3916 439613 203585 194"
"177.762106"
"$GPRMC,181723,A,2604.2855,N,07957.8483,W,3.7,321.2,260615,7.1,"
"##MN-00 00 04 0294 01711 3923 439738 203603 194"
"177.762153"
"$GPRMC,181727,A,2604.2888,N,07957.8512,W,3.7,321.2,260615,7.1,"
"##MN-00 00 04 0295 01714 3930 439869 203619 193"
"177.762199"
"$GPRMC,181731,A,2604.2919,N,07957.8541,W,3.7,321.3,260615,7.1,"
"##MN-00 00 04 0296 01717 3937 439947 203650 193"
"177.762245"
"$GPRMC,181735,A,2604.2950,N,07957.8570,W,3.7,321.2,260615,7.1,"
"##MN-00 00 04 0297 01720 3944 440129 203659 193"
"177.762292"
"$GPRMC,181739,A,2604.2982,N,07957.8602,W,3.7,321.1,260615,7.1,"
"##MN-00 00 04 0299 01722 3951 440331 203695 194"
"177.762338"
"$GPRMC,181743,A,2604.3014,N,07957.8631,W,3.7,320.9,260615,7.1,"
"##MN-00 00 04 0300 01722 3958 440497 203803 194"
"177.762384"
"$GPRMC,181747,A,2604.3046,N,07957.8661,W,3.7,321.0,260615,7.1,"
"##MN-00 00 05 0301 01724 3965 440543 203826 194"
"177.762431"
"$GPRMC,181751,A,2604.3079,N,07957.8690,W,3.7,321.2,260615,7.1,"
"##MN-00 00 04 0302 01728 3972 440557 203836 194"
"177.762477"
"$GPRMC,181755,A,2604.3111,N,07957.8719,W,3.8,321.5,260615,7.1,"
"##MN-00 00 04 0303 01731 3979 440556 203827 194"
"177.762523"
"$GPRMC,181759,A,2604.3145,N,07957.8748,W,3.8,321.4,260615,7.1,"
"##MN-00 00 04 0304 01733 3987 440557 203825 194"
"177.762581"
"$GPRMC,181803,A,2604.3178,N,07957.8777,W,3.8,321.5,260615,7.1,"
"##MN-00 00 04 0305 01734 3993 440552 203827 193"
"177.762627"
"$GPRMC,181807,A,2604.3213,N,07957.8805,W,3.8,321.9,260615,7.1,"
"##MN-00 00 04 0306 01736 4001 440545 203824 194"
"177.762674"
"$GPRMC,181811,A,2604.3246,N,07957.8835,W,3.8,321.8,260615,7.1,"
"##MN-00 00 04 0307 01737 4008 440556 203827 193"
"177.76272"
"$GPRMC,181815,A,2604.3279,N,07957.8865,W,3.8,322.0,260615,7.1,"
"##MN-00 00 45 0308 01738 4014 440582 203834 194"
"177.762766"
"$GPRMC,181819,A,2604.3314,N,07957.8892,W,3.8,321.7,260615,7.1,"
"##MN-00 00 04 0309 01742 4022 440603 203835 194"
"177.762813"
"$GPRMC,181823,A,2604.3347,N,07957.8923,W,3.8,321.3,260615,7.1,"
"##MN-00 00 04 0310 01746 4028 440630 203838 193"
"177.762859"
"$GPRMC,181827,A,2604.3380,N,07957.8952,W,3.8,321.5,260615,7.1,"
"##MN-00 00 04 0311 01747 4036 440658 203838 193"
"177.762905"
"$GPRMC,181831,A,2604.3412,N,07957.8983,W,3.8,321.3,260615,7.1,"
"##MN-00 00 04 0312 01750 4043 440677 203843 194"
"177.762951"
"$GPRMC,181835,A,2604.3445,N,07957.9011,W,3.8,321.0,260615,7.1,"
"##MN-00 00 04 0313 01754 4050 440698 203850 194"
"177.762998"
"$GPRMC,181839,A,2604.3477,N,07957.9039,W,3.7,320.8,260615,7.1,"
"##MN-00 00 04 0314 01755 4056 440727 203852 194"
"177.763044"
"$GPRMC,181843,A,2604.3506,N,07957.9073,W,3.7,320.9,260615,7.1,"
"##MN-00 00 04 0315 01757 4064 440790 203864 194"
"177.76309"
"$GPRMC,181847,A,2604.3535,N,07957.9102,W,3.7,320.7,260615,7.1,"
"##MN-00 00 04 0317 01759 4071 440898 203891 194"
"177.763137"
"$GPRMC,181851,A,2604.3567,N,07957.9131,W,3.7,321.1,260615,7.1,"
"##MN-00 00 04 0318 01762 4077 440992 203913 194"
"177.763183"
"$GPRMC,181855,A,2604.3599,N,07957.9158,W,3.7,320.6,260615,7.1,"
"##MN-00 00 04 0319 01765 4085 441150 203924 194"
"177.763229"
"$GPRMC,181859,A,2604.3628,N,07957.9191,W,3.7,320.6,260615,7.1,"
"##MN-00 00 04 0320 01769 4091 441264 203943 194"
"177.763275"
"$GPRMC,181903,A,2604.3658,N,07957.9220,W,3.7,320.8,260615,7.1,"
"##MN-00 00 04 0321 01772 4099 441418 203937 194"
"177.763322"
"$GPRMC,181907,A,2604.3690,N,07957.9249,W,3.7,320.9,260615,7.1,"
"##MN-00 00 04 0322 01775 4105 441907 204009 194"
"177.763368"
"$GPRMC,181911,A,2604.3723,N,07957.9275,W,3.7,321.0,260615,7.1,"
"##MN-00 00 04 0323 01778 4112 442398 204139 194"
"177.763414"
"$GPRMC,181915,A,2604.3755,N,07957.9303,W,3.7,321.2,260615,7.1,"
"##MN-00 00 04 0324 01782 4120 442592 204213 194"
"177.763461"
"$GPRMC,181919,A,2604.3787,N,07957.9332,W,3.7,321.0,260615,7.1,"
"##MN-00 00 04 0325 01783 4126 442788 204246 193"
"177.763507"
"$GPRMC,181924,A,2604.3828,N,07957.9368,W,3.7,321.3,260615,7.1,"
"##MN-00 00 04 0326 01791 4133 442928 204299 194"
"177.763553"
"$GPRMC,181928,A,2604.3859,N,07957.9398,W,3.7,321.1,260615,7.1,"
"##MN-00 00 04 0327 01792 4140 443056 204333 194"
"177.7636"
"$GPRMC,181932,A,2604.3891,N,07957.9429,W,3.7,321.1,260615,7.1,"
"##MN-00 00 03 0328 01797 4147 443111 204377 194"
"177.763646"
"$GPRMC,181936,A,2604.3924,N,07957.9459,W,3.7,321.1,260615,7.1,"
"##MN-00 00 04 0329 01800 4153 443136 204377 193"
"177.763692"
"$GPRMC,181940,A,2604.3957,N,07957.9490,W,3.8,321.0,260615,7.1,"
"##MN-00 00 03 0330 01801 4160 443162 204373 194"
"177.763738"
"$GPRMC,181944,A,2604.3990,N,07957.9520,W,3.8,320.8,260615,7.1,"
"##MN-00 00 04 0331 01806 4167 443198 204387 194"
"177.763785"
"$GPRMC,181948,A,2604.4023,N,07957.9549,W,3.8,320.8,260615,7.1,"
"##MN-00 00 04 0333 01808 4173 443294 204421 194"
"177.763831"
"$GPRMC,181952,A,2604.4055,N,07957.9581,W,3.8,320.7,260615,7.1,"
"##MN-00 00 04 0334 01815 4180 443435 204437 194"
"177.763877"
"$GPRMC,181956,A,2604.4088,N,07957.9610,W,3.8,320.6,260615,7.1,"
"##MN-00 00 04 0335 01817 4187 443578 204457 194"
"177.763924"
"$GPRMC,182000,A,2604.4122,N,07957.9639,W,3.8,320.5,260615,7.1,"
"##MN-00 00 04 0336 01822 4193 443727 204466 194"
"177.76397"
"$GPRMC,182004,A,2604.4153,N,07957.9669,W,3.8,320.0,260615,7.1,"
"##MN+00 00 39 0337 01825 4200 443925 204471 194"
"177.764016"
"$GPRMC,182008,A,2604.4188,N,07957.9700,W,3.8,320.0,260615,7.1,"
"##MN+00 00 04 0338 01828 4206 444298 204597 194"
"177.764062"
"$GPRMC,182012,A,2604.4221,N,07957.9729,W,3.8,319.9,260615,7.1,"
"##MN+00 00 04 0339 01826 4213 445251 204771 194"
"177.764109"
"$GPRMC,182016,A,2604.4253,N,07957.9758,W,3.8,319.7,260615,7.1,"
"##MN-00 00 04 0340 01827 4220 445558 204804 194"
"177.764155"
"$GPRMC,182020,A,2604.4285,N,07957.9790,W,3.7,319.9,260615,7.1,"
"##MN+00 00 04 0341 01828 4226 445680 204838 194"
"177.764201"
"$GPRMC,182024,A,2604.4318,N,07957.9819,W,3.7,320.0,260615,7.1,"
"##MN+00 00 04 0342 01827 4233 445791 204884 194"
"177.764248"
"$GPRMC,182028,A,2604.4350,N,07957.9849,W,3.7,320.2,260615,7.1,"
"##MN+00 00 04 0343 01829 4239 445801 204937 193"
"177.764294"
"$GPRMC,182032,A,2604.4381,N,07957.9878,W,3.7,320.3,260615,7.1,"
"##MN-00 00 04 0344 01832 4245 445617 204933 194"
"177.76434"
"#increment_net"
"$GPRMC,182036,A,2604.4413,N,07957.9907,W,3.7,320.4,260615,7.1,"
"##MN-00 00 05 0345 01834 4252 445726 204955 194"
"177.764387"
"$GPRMC,182040,A,2604.4445,N,07957.9936,W,3.7,320.3,260615,7.1,"
"##MN-00 00 04 0346 01834 4258 445952 205001 194"
"177.764433"
"$GPRMC,182044,A,2604.4477,N,07957.9965,W,3.7,320.4,260615,7.1,"
"##MN-00 00 04 0348 01833 4264 445977 205023 194"
"177.764479"
"$GPRMC,182048,A,2604.4510,N,07957.9991,W,3.7,320.3,260615,7.1,"
"##MN-00 00 05 0349 01834 4270 445982 205025 194"
"177.764525"
"$GPRMC,182052,A,2604.4542,N,07958.0019,W,3.7,320.1,260615,7.1,"
"##MN-00 00 04 0350 01834 4277 445981 205024 194"
"177.764572"
"$GPRMC,182056,A,2604.4574,N,07958.0047,W,3.7,320.3,260615,7.1,"
"##MN-00 00 36 0351 01836 4282 445991 205026 194"
"177.764618"
"$GPRMC,182100,A,2604.4605,N,07958.0073,W,3.7,320.4,260615,7.1,"
"##MN-00 00 04 0352 01834 4289 445953 205021 194"
"177.764664"
"$GPRMC,182104,A,2604.4637,N,07958.0105,W,3.7,320.2,260615,7.1,"
"##MN+00 00 04 0353 01834 4295 445775 204993 194"
"177.764711"
"$GPRMC,182108,A,2604.4669,N,07958.0133,W,3.7,320.4,260615,7.1,"
"##MN+00 00 05 0354 01836 4301 445670 204983 194"
"177.764757"
"$GPRMC,182112,A,2604.4702,N,07958.0162,W,3.7,320.4,260615,7.1,"
"##MN+00 00 04 0355 01836 4307 445830 205021 194"
"177.764803"
"$GPRMC,182116,A,2604.4731,N,07958.0195,W,3.7,320.5,260615,7.1,"
"##MN-00 00 04 0356 01835 4313 446013 205039 194"
"177.76485"
"$GPRMC,182120,A,2604.4763,N,07958.0225,W,3.7,320.5,260615,7.1,"
"##MN+00 00 04 0357 01836 4319 446138 205075 194"
"177.764896"
"$GPRMC,182124,A,2604.4794,N,07958.0257,W,3.7,320.5,260615,7.1,"
"##MN+00 00 04 0359 01836 4325 446249 205089 194"
"177.764942"
"$GPRMC,182128,A,2604.4825,N,07958.0286,W,3.7,320.6,260615,7.1,"
"##MN+00 00 04 0360 01836 4331 446357 205109 194"
"177.764988"
"#increment_net"
"$GPRMC,182132,A,2604.4859,N,07958.0316,W,3.7,320.5,260615,7.1,"
"##MN-00 00 04 0361 01839 4337 446528 205142 194"
"177.765035"
"$GPRMC,182136,A,2604.4890,N,07958.0345,W,3.8,320.3,260615,7.1,"
"##MN-00 00 04 0362 01839 4343 446663 205183 194"
"177.765081"
"$GPRMC,182140,A,2604.4924,N,07958.0373,W,3.8,320.5,260615,7.1,"
"##MN-00 00 04 0363 01837 4348 446758 205195 194"
"177.765127"
"$GPRMC,182144,A,2604.4958,N,07958.0401,W,3.8,320.5,260615,7.1,"
"##MN-00 00 04 0364 01838 4354 446784 205204 194"
"177.765174"
"$GPRMC,182148,A,2604.4991,N,07958.0427,W,3.8,320.6,260615,7.1,"
"##MN-00 00 04 0365 01837 4360 446763 205198 194"
"177.76522"
"$GPRMC,182152,A,2604.5023,N,07958.0459,W,3.7,320.6,260615,7.1,"
"##MN-00 00 04 0366 01836 4366 446722 205193 194"
"177.765266"
"$GPRMC,182156,A,2604.5056,N,07958.0485,W,3.7,320.9,260615,7.1,"
"##MN-00 00 04 0367 01836 4372 446638 205176 194"
"177.765313"
"$GPRMC,182200,A,2604.5089,N,07958.0513,W,3.7,320.9,260615,7.1,"
"##MN-00 00 44 0368 01836 4377 446545 205162 194"
"177.765359"
"$GPRMC,182204,A,2604.5120,N,07958.0546,W,3.7,320.7,260615,7.1,"
"##MN+00 00 04 0370 01835 4382 446415 205154 194"
"177.765405"
"$GPRMC,182208,A,2604.5150,N,07958.0575,W,3.7,320.7,260615,7.1,"
"##MN+00 00 04 0371 01836 4388 446310 205116 194"
"177.765451"
"$GPRMC,182212,A,2604.5181,N,07958.0607,W,3.7,320.4,260615,7.1,"
"##MN+00 00 05 0372 01835 4393 446235 205105 194"
"177.765498"
"$GPRMC,182216,A,2604.5211,N,07958.0636,W,3.7,320.4,260615,7.1,"
"##MN+00 00 04 0373 01835 4399 446239 205105 194"
"177.765544"
"$GPRMC,182220,A,2604.5242,N,07958.0666,W,3.7,320.3,260615,7.1,"
"##MN+00 00 08 0374 01835 4405 446244 205103 194"
"177.76559"
"$GPRMC,182224,A,2604.5273,N,07958.0697,W,3.6,319.9,260615,7.1,"
"##MN+00 00 03 0375 01835 4410 446264 205104 194"
"177.765637"
"#increment_net"
"$GPRMC,182228,A,2604.5305,N,07958.0726,W,3.6,320.2,260615,7.1,"
"##MN-00 00 05 0376 01836 4416 446338 205115 194"
"177.765694"
"$GPRMC,182232,A,2604.5336,N,07958.0753,W,3.6,320.6,260615,7.1,"
"##MN-00 00 44 0377 01834 4422 446498 205142 194"
"177.765741"
"$GPRMC,182236,A,2604.5367,N,07958.0784,W,3.7,319.7,260615,7.1,"
"##MN-00 00 05 0378 01831 4427 446498 205141 194"
"177.765787"
"$GPRMC,182240,A,2604.5398,N,07958.0813,W,3.6,319.9,260615,7.1,"
"##MN-00 00 45 0380 01829 4432 446362 205116 194"
"177.765833"
"$GPRMC,182244,A,2604.5428,N,07958.0842,W,3.7,319.9,260615,7.1,"
"##MN-00 00 05 0381 01830 4438 446146 205083 194"
"177.76588"
"$GPRMC,182248,A,2604.5459,N,07958.0870,W,3.6,320.0,260615,7.1,"
"##MN-00 00 04 0382 01827 4443 445969 205053 194"
"177.765926"
"$GPRMC,182252,A,2604.5490,N,07958.0897,W,3.6,320.0,260615,7.1,"
"##MN-00 00 06 0383 01827 4448 445741 205006 194"
"177.765972"
"$GPRMC,182256,A,2604.5519,N,07958.0925,W,3.7,320.4,260615,7.1,"
"##MN-00 00 04 0384 01824 4454 445388 204947 194"
"177.766019"
"$GPRMC,182300,A,2604.5551,N,07958.0954,W,3.6,320.5,260615,7.1,"
"##MN+00 00 04 0385 01824 4459 445086 204855 194"
"177.766065"
"$GPRMC,182304,A,2604.5583,N,07958.0983,W,3.6,320.6,260615,7.1,"
"##MN+00 00 04 0386 01823 4464 444843 204812 194"
"177.766111"
"$GPRMC,182308,A,2604.5613,N,07958.1011,W,3.6,320.7,260615,7.1,"
"##MN+00 00 45 0388 01824 4469 444825 204830 194"
"177.766157"
"$GPRMC,182312,A,2604.5645,N,07958.1038,W,3.6,320.3,260615,7.1,"
"##MN-00 00 04 0389 01823 4474 445098 204869 194"
"177.766204"
"$GPRMC,182316,A,2604.5676,N,07958.1066,W,3.6,320.7,260615,7.1,"
"##MN-00 00 04 0390 01822 4480 445262 204889 194"
"177.76625"
"$GPRMC,182320,A,2604.5709,N,07958.1095,W,3.7,320.8,260615,7.1,"
"##MN+00 00 04 0391 01823 4485 445213 204864 194"
"177.766296"
"$GPRMC,182324,A,2604.5739,N,07958.1124,W,3.6,320.4,260615,7.1,"
"##MN+00 00 04 0392 01819 4490 444845 204789 194"
"177.766343"
"$GPRMC,182328,A,2604.5771,N,07958.1152,W,3.7,320.6,260615,7.1,"
"##MN+00 00 44 0393 01821 4495 444555 204735 194"
"177.766389"
"#increment_net"
"$GPRMC,182332,A,2604.5804,N,07958.1181,W,3.7,320.5,260615,7.1,"
"##MN-00 00 04 0395 01826 4500 444375 204712 194"
"177.766435"
"$GPRMC,182336,A,2604.5835,N,07958.1211,W,3.7,320.2,260615,7.1,"
"##MN-00 00 05 0396 01821 4505 444629 204774 194"
"177.766481"
"$GPRMC,182340,A,2604.5867,N,07958.1239,W,3.7,320.3,260615,7.1,"
"##MN-00 00 06 0397 01820 4510 444915 204790 194"
"177.766528"
"$GPRMC,182344,A,2604.5898,N,07958.1268,W,3.7,320.3,260615,7.1,"
"##MN-00 00 04 0398 01822 4516 444642 204724 194"
"177.766574"
"$GPRMC,182348,A,2604.5929,N,07958.1297,W,3.7,320.2,260615,7.1,"
"##MN-00 00 04 0399 01821 4521 444448 204688 194"
"177.76662"
"$GPRMC,182352,A,2604.5963,N,07958.1322,W,3.7,320.4,260615,7.1,"
"##MN-00 00 05 0401 01818 4526 444290 204676 194"
"177.766667"
"$GPRMC,182356,A,2604.5988,N,07958.1344,W,3.7,320.8,260615,7.1,"
"##MN-00 00 05 0402 01818 4531 444200 204654 194"
"177.766713"
"$GPRMC,182400,A,2604.6031,N,07958.1376,W,3.7,320.1,260615,7.1,"
"##MN+00 00 04 0403 01819 4536 444123 204647 194"
"177.766759"
"$GPRMC,182404,A,2604.6060,N,07958.1409,W,3.7,320.1,260615,7.1,"
"##MN+00 00 45 0404 01816 4541 444070 204632 194"
"177.766806"
"$GPRMC,182408,A,2604.6091,N,07958.1438,W,3.7,320.4,260615,7.1,"
"##MN+00 00 45 0405 01815 4547 444043 204605 194"
"177.766852"
"$GPRMC,182412,A,2604.6122,N,07958.1468,W,3.6,320.2,260615,7.1,"
"##MN-00 00 04 0406 01818 4552 444005 204608 194"
"177.766898"
"$GPRMC,182417,A,2604.6167,N,07958.1503,W,3.6,320.1,260615,7.1,"
"##MN-00 00 05 0408 01815 4556 443981 204595 194"
"177.766944"
"$GPRMC,182421,A,2604.6204,N,07958.1529,W,3.6,320.2,260615,7.1,"
"##MN+00 00 04 0409 01815 4561 443939 204582 194"
"177.766991"
"$GPRMC,182425,A,2604.6234,N,07958.1559,W,3.6,320.1,260615,7.1,"
"##MN+00 00 45 0410 01817 4566 443917 204583 194"
"177.767037"
"$GPRMC,182429,A,2604.6262,N,07958.1590,W,3.6,319.9,260615,7.1,"
"##MN+00 00 43 0411 01813 4571 443918 204580 194"
"177.767083"
"#increment_net"
"$GPRMC,182433,A,2604.6297,N,07958.1616,W,3.6,319.7,260615,7.1,"
"##MN-00 00 04 0412 01817 4576 443911 204580 194"
"177.76713"
"$GPRMC,182437,A,2604.6328,N,07958.1644,W,3.6,319.8,260615,7.1,"
"##MN-00 00 04 0414 01821 4581 444003 204603 194"
"177.767176"
"$GPRMC,182441,A,2604.6357,N,07958.1674,W,3.7,319.5,260615,7.1,"
"##MN-00 00 04 0415 01827 4586 444233 204666 194"
"177.767222"
"$GPRMC,182445,A,2604.6389,N,07958.1703,W,3.6,319.5,260615,7.1,"
"##MN-00 00 05 0417 01833 4591 445225 204869 194"
"177.767268"
"$GPRMC,182449,A,2604.6418,N,07958.1735,W,3.7,318.7,260615,7.1,"
"##MN-00 00 05 0418 01836 4596 446340 205046 194"
"177.767315"
"$GPRMC,182453,A,2604.6449,N,07958.1767,W,3.7,318.1,260615,7.1,"
"##MN-00 00 04 0420 01839 4600 446807 205187 194"
"177.767361"
"$GPRMC,182457,A,2604.6483,N,07958.1793,W,3.7,317.5,260615,7.1,"
"##MN-00 00 04 0422 01838 4605 446978 205212 194"
"177.767407"
"$GPRMC,182501,A,2604.6512,N,07958.1826,W,3.7,317.3,260615,7.1,"
"##MN-00 00 04 0423 01837 4610 447003 205227 194"
"177.767454"
"$GPRMC,182505,A,2604.6544,N,07958.1857,W,3.7,316.9,260615,7.1,"
"##MN-00 00 05 0425 01840 4615 447012 205229 194"
"177.7675"
"$GPRMC,182509,A,2604.6577,N,07958.1886,W,3.8,317.2,260615,7.1,"
"##MN-00 00 04 0426 01839 4620 447017 205240 194"
"177.767546"
"$GPRMC,182513,A,2604.6609,N,07958.1918,W,3.8,317.3,260615,7.1,"
"##MN-00 00 04 0428 01835 4625 446999 205238 194"
"177.767593"
"$GPRMC,182517,A,2604.6638,N,07958.1951,W,3.8,317.8,260615,7.1,"
"##MN-00 00 04 0429 01833 4629 446959 205231 194"
"177.767639"
"$GPRMC,182521,A,2604.6669,N,07958.1983,W,3.7,317.6,260615,7.1,"
"##MN-00 00 04 0431 01834 4634 446924 205226 194"
"177.767685"
"$GPRMC,182525,A,2604.6699,N,07958.2016,W,3.7,317.2,260615,7.1,"
"##MN-00 00 04 0433 01830 4639 446903 205220 194"
"177.767732"
"$GPRMC,182529,A,2604.6732,N,07958.2046,W,3.8,317.7,260615,7.1,"
"##MN-00 00 45 0434 01831 4643 446834 205204 194"
"177.767778"
"$GPRMC,182533,A,2604.6763,N,07958.2078,W,3.8,317.7,260615,7.1,"
"##MN-00 00 04 0436 01828 4648 446712 205188 194"
"177.767824"
"$GPRMC,182537,A,2604.6793,N,07958.2111,W,3.8,317.5,260615,7.1,"
"##MN-00 00 04 0437 01824 4653 446657 205176 194"
"177.76787"
"$GPRMC,182541,A,2604.6823,N,07958.2143,W,3.8,317.2,260615,7.1,"
"##MN-00 00 04 0439 01824 4657 446513 205132 194"
"177.767917"
"$GPRMC,182545,A,2604.6854,N,07958.2175,W,3.8,316.8,260615,7.1,"
"##MN-00 00 04 0440 01822 4662 446046 205020 194"
"177.767963"
"$GPRMC,182549,A,2604.6884,N,07958.2205,W,3.7,316.4,260615,7.1,"
"##MN-00 00 04 0442 01820 4666 445588 204936 194"
"177.768009"
"$GPRMC,182553,A,2604.6913,N,07958.2240,W,3.7,316.0,260615,7.1,"
"##MN-00 00 05 0443 01818 4671 445065 204817 194"
"177.768056"
"$GPRMC,182557,A,2604.6945,N,07958.2272,W,3.7,316.0,260615,7.1,"
"##MN-00 00 05 0445 01814 4675 444523 204726 194"
"177.768102"
"$GPRMC,182601,A,2604.6973,N,07958.2302,W,3.7,316.5,260615,7.1,"
"##MN-00 00 04 0447 01812 4680 444216 204671 194"
"177.768148"
"$GPRMC,182605,A,2604.7000,N,07958.2334,W,3.7,316.3,260615,7.1,"
"##MN-00 00 04 0448 01809 4684 444004 204616 194"
"177.768194"
"$GPRMC,182609,A,2604.7031,N,07958.2366,W,3.7,316.3,260615,7.1,"
"##MN-00 00 04 0450 01805 4688 443859 204579 194"
"177.768241"
"$GPRMC,182613,A,2604.7065,N,07958.2397,W,3.7,316.4,260615,7.1,"
"##MN-00 00 04 0451 01804 4693 443778 204587 194"
"177.768287"
"$GPRMC,182617,A,2604.7094,N,07958.2431,W,3.7,316.3,260615,7.1,"
"##MN-00 00 04 0453 01799 4698 443718 204540 193"
"177.768333"
"$GPRMC,182621,A,2604.7126,N,07958.2461,W,3.7,316.1,260615,7.1,"
"##MN-00 00 39 0455 01795 4702 443674 204535 194"
"177.76838"
"$GPRMC,182625,A,2604.7155,N,07958.2493,W,3.7,316.3,260615,7.1,"
"##MN-00 00 04 0456 01792 4707 443640 204524 194"
"177.768426"
"$GPRMC,182629,A,2604.7187,N,07958.2523,W,3.7,316.4,260615,7.1,"
"##MN-00 00 04 0458 01790 4711 443583 204505 194"
"177.768472"
"$GPRMC,182633,A,2604.7217,N,07958.2554,W,3.7,316.4,260615,7.1,"
"##MN-00 00 41 0459 01783 4715 443472 204483 194"
"177.768519"
"$GPRMC,182637,A,2604.7248,N,07958.2587,W,3.7,316.7,260615,7.1,"
"##MN-00 00 04 0461 01779 4720 443306 204445 194"
"177.768565"
"$GPRMC,182641,A,2604.7280,N,07958.2617,W,3.8,316.6,260615,7.1,"
"##MN-00 00 04 0462 01777 4724 443154 204436 194"
"177.768611"
"$GPRMC,182645,A,2604.7316,N,07958.2648,W,3.7,316.7,260615,7.1,"
"##MN-00 00 04 0464 01773 4729 442971 204377 194"
"177.768657"
"$GPRMC,182649,A,2604.7349,N,07958.2678,W,3.8,317.0,260615,7.1,"
"##MN-00 00 04 0466 01768 4733 442767 204354 194"
"177.768704"
"$GPRMC,182653,A,2604.7379,N,07958.2711,W,3.8,317.1,260615,7.1,"
"##MN-00 00 04 0467 01766 4737 442648 204314 194"
"177.76875"
"$GPRMC,182657,A,2604.7410,N,07958.2746,W,3.9,316.9,260615,7.1,"
"##MN-00 00 04 0469 01762 4742 442380 204253 194"
"177.768796"
"$GPRMC,182701,A,2604.7440,N,07958.2776,W,3.8,317.4,260615,7.1,"
"##MN-00 00 04 0471 01760 4746 442180 204222 194"
"177.768843"
"$GPRMC,182705,A,2604.7472,N,07958.2808,W,3.8,317.4,260615,7.1,"
"##MN-00 00 04 0472 01756 4750 442146 204218 194"
"177.768889"
"$GPRMC,182709,A,2604.7502,N,07958.2840,W,3.8,317.6,260615,7.1,"
"##MN-00 00 04 0474 01752 4754 442148 204218 194"
"177.768947"
"$GPRMC,182713,A,2604.7531,N,07958.2876,W,3.8,317.6,260615,7.1,"
"##MN-00 00 04 0475 01748 4759 442158 204221 194"
"177.768993"
"$GPRMC,182717,A,2604.7560,N,07958.2908,W,3.8,317.6,260615,7.1,"
"##MN-00 00 04 0477 01744 4763 442085 204210 194"
"177.769039"
"$GPRMC,182721,A,2604.7589,N,07958.2941,W,3.8,317.8,260615,7.1,"
"##MN-00 00 05 0478 01740 4767 441942 204192 194"
"177.769086"
"$GPRMC,182725,A,2604.7618,N,07958.2973,W,3.8,317.3,260615,7.1,"
"##MN-00 00 38 0480 01739 4772 441763 204151 194"
"177.769132"
"$GPRMC,182729,A,2604.7650,N,07958.3004,W,3.8,318.3,260615,7.1,"
"##MN-00 00 04 0482 01735 4776 441716 204145 194"
"177.769178"
"$GPRMC,182733,A,2604.7681,N,07958.3035,W,3.8,318.1,260615,7.1,"
"##MN-00 00 05 0483 01730 4781 441685 204134 194"
"177.769225"
"$GPRMC,182737,A,2604.7711,N,07958.3067,W,3.8,318.0,260615,7.1,"
"##MN-00 00 04 0485 01728 4785 441638 204132 194"
"177.769271"
"$GPRMC,182741,A,2604.7740,N,07958.3097,W,3.7,317.7,260615,7.1,"
"##MN-00 00 04 0486 01726 4789 441636 204124 194"
"177.769317"
"$GPRMC,182745,A,2604.7772,N,07958.3129,W,3.7,317.7,260615,7.1,"
"##MN-00 00 04 0488 01721 4793 441617 204121 193"
"177.769363"
"$GPRMC,182749,A,2604.7802,N,07958.3161,W,3.7,317.5,260615,7.1,"
"##MN-00 00 04 0489 01719 4798 441603 204118 194"
"177.76941"
"$GPRMC,182753,A,2604.7834,N,07958.3194,W,3.7,317.5,260615,7.1,"
"##MN-00 00 04 0491 01715 4802 441595 204113 194"
"177.769456"
"$GPRMC,182757,A,2604.7865,N,07958.3226,W,3.7,317.2,260615,7.1,"
"##MN-00 00 43 0493 01712 4806 441598 204116 194"
"177.769502"
"$GPRMC,182801,A,2604.7896,N,07958.3256,W,3.7,317.3,260615,7.1,"
"##MN-00 00 05 0494 01710 4810 441602 204117 193"
"177.769549"
"$GPRMC,182805,A,2604.7927,N,07958.3288,W,3.7,317.2,260615,7.1,"
"##MN-00 00 44 0496 01706 4815 441609 204122 194"
"177.769595"
"$GPRMC,182809,A,2604.7957,N,07958.3320,W,3.7,316.8,260615,7.1,"
"##MN-00 00 04 0497 01703 4819 441629 204133 194"
"177.769641"
"$GPRMC,182813,A,2604.7981,N,07958.3343,W,3.7,316.9,260615,7.1,"
"##MN-00 00 05 0499 01700 4823 441665 204151 194"
"177.769687"
"$GPRMC,182817,A,2604.8018,N,07958.3382,W,3.7,317.5,260615,7.1,"
"##MN-00 00 43 0501 01696 4827 441678 204160 194"
"177.769734"
"$GPRMC,182821,A,2604.8051,N,07958.3414,W,3.8,317.7,260615,7.1,"
"##MN-00 00 05 0502 01693 4832 441654 204165 194"
"177.76978"
"$GPRMC,182825,A,2604.8082,N,07958.3446,W,3.8,317.3,260615,7.1,"
"##MN-00 00 05 0504 01689 4836 441630 204172 194"
"177.769826"
"$GPRMC,182829,A,2604.8112,N,07958.3476,W,3.8,317.4,260615,7.1,"
"##MN-00 00 06 0505 01685 4840 441510 204150 194"
"177.769873"
"$GPRMC,182833,A,2604.8143,N,07958.3508,W,3.8,317.3,260615,7.1,"
"##MN-00 00 39 0507 01683 4845 441162 204073 194"
"177.769919"
"$GPRMC,182838,A,2604.8183,N,07958.3545,W,3.8,317.6,260615,7.1,"
"##MN-00 00 05 0508 01678 4849 440928 204049 194"
"177.769965"
"$GPRMC,182841,A,2604.8206,N,07958.3569,W,3.8,317.8,260615,7.1,"
"##MN-00 00 41 0510 01675 4853 440813 204025 194"
"177.770012"
"$GPRMC,182846,A,2604.8245,N,07958.3607,W,3.8,317.9,260615,7.1,"
"##MN-00 00 06 0511 01672 4857 440778 204004 194"
"177.770058"
"$GPRMC,182850,A,2604.8277,N,07958.3641,W,3.8,317.9,260615,7.1,"
"##MN-00 00 05 0513 01667 4861 440746 203991 194"
"177.770104"
"$GPRMC,182853,A,2604.8300,N,07958.3663,W,3.8,317.9,260615,7.1,"
"##MN-00 00 04 0515 01662 4865 440711 203984 194"
"177.770151"
"$GPRMC,182857,A,2604.8332,N,07958.3696,W,3.8,317.9,260615,7.1,"
"##MN-00 00 05 0516 01659 4869 440694 203974 194"
"177.770197"
"$GPRMC,182901,A,2604.8364,N,07958.3728,W,3.9,317.6,260615,7.1,"
"##MN-00 00 05 0518 01655 4874 440658 203969 194"
"177.770243"
"$GPRMC,182906,A,2604.8402,N,07958.3768,W,3.8,317.4,260615,7.1,"
"##MN-00 00 03 0519 01649 4878 440590 203944 194"
"177.770289"
"$GPRMC,182910,A,2604.8434,N,07958.3800,W,3.8,317.4,260615,7.1,"
"##MN-00 00 05 0521 01647 4882 440528 203933 194"
"177.770336"
"$GPRMC,182914,A,2604.8465,N,07958.3831,W,3.8,317.8,260615,7.1,"
"##MN-00 00 05 0523 01645 4886 440497 203925 194"
"177.770382"
"$GPRMC,182918,A,2604.8495,N,07958.3863,W,3.8,317.5,260615,7.1,"
"##MN-00 00 05 0524 01641 4890 440468 203916 194"
"177.770428"
"$GPRMC,182922,A,2604.8526,N,07958.3895,W,3.8,317.5,260615,7.1,"
"##MN-00 00 05 0526 01638 4894 440373 203896 194"
"177.770475"
"$GPRMC,182926,A,2604.8557,N,07958.3927,W,3.8,317.6,260615,7.1,"
"##MN-00 00 05 0527 01633 4898 440323 203882 193"
"177.770521"
"$GPRMC,182930,A,2604.8588,N,07958.3959,W,3.8,317.5,260615,7.1,"
"##MN-00 00 05 0529 01631 4902 440239 203861 194"
"177.770567"
"$GPRMC,182934,A,2604.8620,N,07958.3990,W,3.8,317.5,260615,7.1,"
"##MN-00 00 05 0530 01629 4906 440136 203831 193"
"177.770613"
"$GPRMC,182938,A,2604.8651,N,07958.4022,W,3.8,317.2,260615,7.1,"
"##MN-00 00 05 0532 01624 4910 440068 203814 194"
"177.77066"
"$GPRMC,182942,A,2604.8682,N,07958.4054,W,3.8,317.2,260615,7.1,"
"##MN-00 00 05 0533 01622 4914 440004 203803 194"
"177.770706"
"$GPRMC,182946,A,2604.8712,N,07958.4086,W,3.8,316.9,260615,7.1,"
"##MN-00 00 43 0535 01618 4919 439909 203780 194"
"177.770752"
"$GPRMC,182950,A,2604.8745,N,07958.4118,W,3.8,316.7,260615,7.1,"
"##MN-00 00 05 0537 01614 4922 439781 203753 194"
"177.770799"
"$GPRMC,182954,A,2604.8777,N,07958.4151,W,3.8,316.7,260615,7.1,"
"##MN-00 00 05 0538 01611 4926 439722 203742 194"
"177.770845"
"$GPRMC,182958,A,2604.8810,N,07958.4184,W,3.7,316.6,260615,7.1,"
"##MN-00 00 05 0540 01608 4931 439692 203742 194"
"177.770891"
"$GPRMC,183002,A,2604.8841,N,07958.4216,W,3.7,316.7,260615,7.1,"
"##MN-00 00 05 0541 01604 4935 439686 203752 194"
"177.770938"
"$GPRMC,183006,A,2604.8871,N,07958.4249,W,3.8,316.6,260615,7.1,"
"##MN-00 00 05 0543 01600 4939 439740 203805 194"
"177.770984"
"$GPRMC,183010,A,2604.8902,N,07958.4282,W,3.8,316.4,260615,7.1,"
"##MN-00 00 06 0544 01596 4942 439949 203894 194"
"177.77103"
"$GPRMC,183014,A,2604.8932,N,07958.4317,W,3.8,316.3,260615,7.1,"
"##MN-00 00 05 0546 01594 4947 440184 204018 194"
"177.771076"
"$GPRMC,183018,A,2604.8962,N,07958.4348,W,3.8,316.6,260615,7.1,"
"##MN-00 00 06 0548 01590 4951 440577 204231 194"
"177.771123"
"$GPRMC,183022,A,2604.8994,N,07958.4382,W,3.8,316.8,260615,7.1,"
"##MN-00 00 06 0549 01587 4954 441068 204426 194"
"177.771169"
"$GPRMC,183026,A,2604.9023,N,07958.4415,W,3.8,316.6,260615,7.1,"
"##MN-00 00 06 0551 01583 4959 441220 204495 194"
"177.771215"
"$GPRMC,183030,A,2604.9055,N,07958.4447,W,3.8,316.4,260615,7.1,"
"##MN-00 00 06 0552 01581 4963 441197 204513 194"
"177.771262"
"$GPRMC,183034,A,2604.9086,N,07958.4478,W,3.8,316.5,260615,7.1,"
"##MN-00 00 06 0554 01576 4967 441050 204473 194"
"177.771308"
"$GPRMC,183038,A,2604.9115,N,07958.4510,W,3.8,316.5,260615,7.1,"
"##MN-00 00 06 0555 01571 4970 440716 204447 194"
"177.771354"
"$GPRMC,183042,A,2604.9146,N,07958.4542,W,3.8,316.9,260615,7.1,"
"##MN-00 00 05 0557 01571 4974 440648 204433 194"
"177.7714"
"$GPRMC,183046,A,2604.9177,N,07958.4574,W,3.8,317.0,260615,7.1,"
"##MN-00 00 06 0558 01568 4978 439509 204197 194"
"177.771447"
"$GPRMC,183050,A,2604.9207,N,07958.4607,W,3.8,317.0,260615,7.1,"
"##MN-00 00 05 0560 01562 4982 439140 204175 194"
