" Tow: 6WM   RVWS/WS15161"
" Date: 26/06/2015"
" Temperature Probe #  4762    Conductivity Probe #  710"
" Pressure Probe #  188"
" Flow Meter Calibration  4.71 (m/count)  "
"177.895521"
"$GPRMC,212928,A,2614.5224,N,07958.8307,W,3.1,291.0,260615,7.1,"
"##MN-00 00 80 0000 02731 7985 593425 718026 198"
"177.895949"
""
"##MN-00 00 44 0000 02729 8047 406977 023599 197"
"177.895995"
"$GPRMC,213010,A,2614.5330,N,07958.8685,W,2.9,288.7,260615,7.1,"
"##MN-00 00 49 0000 02731 8047 061136 023597 197"
"177.896042"
"$GPRMC,213014,A,2614.5342,N,07958.8721,W,2.9,288.5,260615,7.1,"
"##MN-00 00 49 0000 02733 8046 478680 023587 197"
"177.896088"
"$GPRMC,213018,A,2614.5356,N,07958.8755,W,2.9,289.0,260615,7.1,"
"##MN-00 00 52 0000 02731 8046 894496 023601 197"
"177.896134"
"$GPRMC,213022,A,2614.5367,N,07958.8791,W,2.9,289.6,260615,7.1,"
"##MN-00 00 51 0000 02731 8047 160040 023594 197"
"177.896181"
"$GPRMC,213026,A,2614.5381,N,07958.8824,W,2.9,290.4,260615,7.1,"
"##MN-00 00 55 0001 02730 8046 050080 023576 197"
"177.896227"
"$GPRMC,213030,A,2614.5394,N,07958.8858,W,2.8,291.0,260615,7.1,"
"##MN-00 00 54 0001 02729 8046 252320 023593 197"
"177.896273"
"$GPRMC,213034,A,2614.5407,N,07958.8891,W,2.8,291.9,260615,7.1,"
"##MN-00 00 52 0001 02729 8046 649120 023602 197"
"177.896319"
"$GPRMC,213038,A,2614.5421,N,07958.8924,W,2.8,293.1,260615,7.1,"
"##MN-00 00 53 0001 02728 8046 426248 023597 197"
"177.896366"
"$GPRMC,213042,A,2614.5435,N,07958.8957,W,2.8,293.7,260615,7.1,"
"##MN-00 00 54 0002 02729 8045 843504 023569 197"
"177.896412"
"$GPRMC,213046,A,2614.5449,N,07958.8989,W,2.8,294.4,260615,7.1,"
"##MN-00 00 55 0003 02728 8045 518048 023592 197"
"177.896458"
"$GPRMC,213050,A,2614.5464,N,07958.9021,W,2.8,295.4,260615,7.1,"
"##MN-00 00 57 0004 02728 8045 802736 023584 197"
"177.896505"
"$GPRMC,213054,A,2614.5478,N,07958.9051,W,2.8,296.2,260615,7.1,"
"##MN-00 00 54 0005 02729 8045 595976 023586 197"
"177.896551"
"$GPRMC,213058,A,2614.5493,N,07958.9082,W,2.8,296.7,260615,7.1,"
"##MN-00 00 56 0006 02728 8044 013376 023547 197"
"177.896597"
"$GPRMC,213102,A,2614.5508,N,07958.9112,W,2.9,297.3,260615,7.1,"
"##MN-00 00 54 0007 02728 8043 776680 023562 197"
"177.896643"
"$GPRMC,213106,A,2614.5522,N,07958.9142,W,2.9,297.9,260615,7.1,"
"##MN-00 00 55 0008 02726 8043 761296 023591 197"
"177.89669"
"$GPRMC,213110,A,2614.5536,N,07958.9173,W,2.9,298.0,260615,7.1,"
"##MN-00 00 55 0009 02727 8042 851240 023580 197"
"177.896736"
"$GPRMC,213114,A,2614.5551,N,07958.9202,W,2.9,298.1,260615,7.1,"
"##MN-00 00 56 0010 02727 8042 742096 023552 197"
"177.896782"
"$GPRMC,213118,A,2614.5566,N,07958.9234,W,2.9,298.3,260615,7.1,"
"##MN-00 00 55 0011 02727 8041 722168 023566 197"
"177.896829"
"$GPRMC,213122,A,2614.5583,N,07958.9266,W,2.9,298.4,260615,7.1,"
"##MN-00 00 55 0013 02727 8040 708416 023572 197"
"177.896875"
"$GPRMC,213126,A,2614.5602,N,07958.9299,W,2.8,298.5,260615,7.1,"
"##MN-00 00 55 0014 02727 8039 492472 023574 197"
"177.896921"
"$GPRMC,213130,A,2614.5620,N,07958.9332,W,2.8,298.3,260615,7.1,"
"##MN-00 00 54 0015 02726 8039 688880 023561 197"
"177.896968"
"$GPRMC,213134,A,2614.5638,N,07958.9365,W,2.8,298.7,260615,7.1,"
"##MN-00 00 56 0016 02726 8038 570488 023548 197"
"177.897014"
"$GPRMC,213137,A,2614.5651,N,07958.9389,W,2.8,298.4,260615,7.1,"
"##MN-00 00 54 0017 02727 8037 876192 023565 197"
"177.89706"
"$GPRMC,213142,A,2614.5667,N,07958.9425,W,2.6,298.2,260615,7.1,"
"##MN-00 00 55 0018 02724 8036 323072 023587 197"
"177.897106"
"$GPRMC,213146,A,2614.5680,N,07958.9452,W,2.6,297.9,260615,7.1,"
"##MN-00 00 54 0019 02725 8034 632560 023543 197"
"177.897153"
"$GPRMC,213150,A,2614.5694,N,07958.9481,W,2.6,298.2,260615,7.1,"
"##MN-00 00 56 0020 02726 8033 631920 023564 197"
"177.897199"
"$GPRMC,213154,A,2614.5708,N,07958.9510,W,2.6,298.0,260615,7.1,"
"##MN-00 00 56 0021 02725 8032 498712 023561 197"
"177.897245"
"$GPRMC,213158,A,2614.5721,N,07958.9538,W,2.6,297.8,260615,7.1,"
"##MN-00 00 56 0022 02725 8031 624608 023578 197"
"177.897292"
"$GPRMC,213202,A,2614.5735,N,07958.9567,W,2.6,297.7,260615,7.1,"
"##MN-00 00 55 0023 02725 8029 690128 023575 197"
"177.897338"
"$GPRMC,213206,A,2614.5750,N,07958.9599,W,2.6,297.3,260615,7.1,"
"##MN-00 00 55 0024 02724 8028 399104 023553 197"
"177.897384"
"$GPRMC,213210,A,2614.5764,N,07958.9628,W,2.6,297.4,260615,7.1,"
"##MN-00 00 56 0025 02725 8026 357648 023549 197"
"177.897431"
"$GPRMC,213215,A,2614.5782,N,07958.9665,W,2.6,297.2,260615,7.1,"
"##MN-00 00 55 0026 02726 8025 756560 023576 197"
"177.897477"
"$GPRMC,213218,A,2614.5790,N,07958.9687,W,2.6,297.7,260615,7.1,"
"##MN-00 00 55 0027 02726 8023 525600 023589 197"
"177.897523"
"$GPRMC,213223,A,2614.5811,N,07958.9726,W,2.6,297.6,260615,7.1,"
"##MN-00 00 55 0028 02725 8022 641608 023537 197"
"177.897569"
"$GPRMC,213227,A,2614.5824,N,07958.9755,W,2.6,298.2,260615,7.1,"
"##MN-00 00 56 0029 02726 8020 489600 023565 197"
"177.897616"
"$GPRMC,213231,A,2614.5836,N,07958.9783,W,2.7,298.6,260615,7.1,"
"##MN-00 00 55 0030 02723 8018 611600 023559 197"
"177.897662"
"$GPRMC,213235,A,2614.5854,N,07958.9816,W,2.8,298.7,260615,7.1,"
"##MN-00 00 55 0031 02725 8016 483904 023558 197"
"177.897708"
"$GPRMC,213239,A,2614.5868,N,07958.9845,W,2.8,299.0,260615,7.1,"
"##MN-00 00 55 0033 02725 8014 698904 023579 197"
"177.897755"
"$GPRMC,213243,A,2614.5887,N,07958.9877,W,2.8,299.1,260615,7.1,"
"##MN-00 00 55 0034 02727 8012 465728 023563 197"
"177.897801"
"$GPRMC,213247,A,2614.5902,N,07958.9908,W,2.8,299.1,260615,7.1,"
"##MN-00 00 56 0035 02727 8009 458824 023547 197"
"177.897847"
"$GPRMC,213251,A,2614.5916,N,07958.9939,W,2.8,298.9,260615,7.1,"
"##MN-00 00 55 0036 02726 8007 214224 023573 197"
"177.897894"
"$GPRMC,213255,A,2614.5930,N,07958.9968,W,2.8,298.9,260615,7.1,"
"##MN-00 00 55 0037 02725 8005 658824 023545 197"
"177.89794"
"$GPRMC,213259,A,2614.5943,N,07958.9991,W,2.8,298.9,260615,7.1,"
"##MN-00 00 56 0038 02728 8003 420240 023581 197"
"177.897986"
"$GPRMC,213303,A,2614.5956,N,07959.0022,W,2.9,299.1,260615,7.1,"
"##MN-00 00 55 0039 02724 8000 409800 023570 197"
"177.898032"
"$GPRMC,213307,A,2614.5974,N,07959.0058,W,2.9,298.8,260615,7.1,"
"##MN-00 00 56 0040 02724 7998 404672 023574 197"
"177.898079"
"$GPRMC,213311,A,2614.5990,N,07959.0087,W,2.8,299.1,260615,7.1,"
"##MN-00 00 55 0041 02726 7995 274488 023586 197"
"177.898125"
"$GPRMC,213315,A,2614.6005,N,07959.0117,W,2.8,298.9,260615,7.1,"
"##MN-00 00 56 0042 02727 7993 377488 023583 197"
"177.898171"
"$GPRMC,213319,A,2614.6023,N,07959.0148,W,2.8,299.0,260615,7.1,"
"##MN-00 00 55 0043 02727 7990 366088 023596 197"
"177.898218"
"$GPRMC,213323,A,2614.6042,N,07959.0181,W,2.8,298.6,260615,7.1,"
"##MN-00 00 55 0044 02727 7988 353760 023594 197"
"177.898264"
"$GPRMC,213327,A,2614.6057,N,07959.0213,W,2.8,298.2,260615,7.1,"
"##MN-00 00 54 0045 02728 7985 349568 023587 197"
"177.89831"
"$GPRMC,213331,A,2614.6074,N,07959.0243,W,2.7,298.4,260615,7.1,"
"##MN-00 00 55 0046 02728 7982 792592 023581 197"
"177.898357"
"$GPRMC,213335,A,2614.6089,N,07959.0275,W,2.8,298.8,260615,7.1,"
"##MN-00 00 55 0047 02729 7979 437864 023601 197"
"177.898403"
"$GPRMC,213339,A,2614.6106,N,07959.0304,W,2.7,299.0,260615,7.1,"
"##MN-00 00 55 0049 02727 7976 309568 023593 197"
"177.898449"
"$GPRMC,213343,A,2614.6122,N,07959.0336,W,2.7,298.7,260615,7.1,"
"##MN-00 00 55 0050 02728 7974 529424 023619 197"
"177.898495"
"$GPRMC,213347,A,2614.6136,N,07959.0365,W,2.8,298.5,260615,7.1,"
"##MN-00 00 55 0051 02731 7970 296160 023576 197"
"177.898542"
"$GPRMC,213351,A,2614.6149,N,07959.0395,W,2.8,298.3,260615,7.1,"
"##MN-00 00 55 0052 02732 7967 169872 023599 197"
"177.898588"
"$GPRMC,213355,A,2614.6161,N,07959.0424,W,2.8,298.4,260615,7.1,"
"##MN-00 00 55 0053 02730 7964 274112 023594 197"
"177.898634"
"$GPRMC,213359,A,2614.6174,N,07959.0453,W,2.7,298.0,260615,7.1,"
"##MN-00 00 56 0054 02733 7961 264960 023602 197"
"177.898681"
"$GPRMC,213403,A,2614.6187,N,07959.0484,W,2.8,297.9,260615,7.1,"
"##MN-00 00 55 0055 02732 7958 254896 023591 197"
"177.898727"
"$GPRMC,213407,A,2614.6203,N,07959.0513,W,2.7,298.2,260615,7.1,"
"##MN-00 00 55 0056 02732 7954 242576 023618 197"
"177.898773"
"$GPRMC,213411,A,2614.6216,N,07959.0542,W,2.7,298.2,260615,7.1,"
"##MN-00 00 57 0057 02734 7951 234736 023603 197"
"177.898819"
"$GPRMC,213415,A,2614.6233,N,07959.0572,W,2.8,298.3,260615,7.1,"
"##MN-00 00 54 0058 02733 7948 223328 023600 197"
"177.898866"
"$GPRMC,213419,A,2614.6248,N,07959.0603,W,2.7,298.3,260615,7.1,"
"##MN-00 00 56 0059 02734 7944 439328 023605 197"
"177.898924"
"$GPRMC,213423,A,2614.6259,N,07959.0630,W,2.8,298.1,260615,7.1,"
"##MN-00 00 55 0060 02736 7941 204096 023601 197"
"177.89897"
"$GPRMC,213427,A,2614.6268,N,07959.0655,W,2.8,298.2,260615,7.1,"
"##MN-00 00 56 0061 02734 7938 191792 023615 197"
"177.899016"
"$GPRMC,213431,A,2614.6279,N,07959.0681,W,2.8,297.9,260615,7.1,"
"##MN-00 00 55 0063 02735 7934 184800 023616 197"
"177.899062"
"$GPRMC,213435,A,2614.6294,N,07959.0710,W,2.8,298.1,260615,7.1,"
"##MN-00 00 57 0064 02737 7931 174240 023609 197"
"177.899109"
"$GPRMC,213439,A,2614.6306,N,07959.0738,W,2.8,298.2,260615,7.1,"
"##MN-00 00 55 0065 02736 7927 394928 023596 197"
"177.899155"
"$GPRMC,213443,A,2614.6320,N,07959.0769,W,2.8,298.3,260615,7.1,"
"##MN-00 00 55 0066 02739 7924 156736 023604 197"
"177.899201"
"$GPRMC,213447,A,2614.6334,N,07959.0799,W,2.9,298.2,260615,7.1,"
"##MN-00 00 54 0067 02740 7920 146624 023609 197"
"177.899248"
"$GPRMC,213451,A,2614.6352,N,07959.0832,W,2.9,298.5,260615,7.1,"
"##MN-00 00 55 0068 02741 7916 132064 023624 197"
"177.899294"
"$GPRMC,213455,A,2614.6367,N,07959.0864,W,2.9,298.7,260615,7.1,"
"##MN-00 00 56 0069 02744 7913 767024 023618 197"
"177.89934"
"$GPRMC,213459,A,2614.6382,N,07959.0896,W,2.9,298.7,260615,7.1,"
"##MN-00 00 56 0070 02743 7909 936944 023604 197"
"177.899387"
"$GPRMC,213503,A,2614.6398,N,07959.0928,W,2.9,298.7,260615,7.1,"
"##MN-00 00 55 0071 02744 7905 339192 023608 197"
"177.899433"
"$GPRMC,213507,A,2614.6413,N,07959.0958,W,2.9,298.7,260615,7.1,"
"##MN-00 00 55 0072 02744 7902 100608 023616 197"
"177.899479"
"$GPRMC,213511,A,2614.6429,N,07959.0990,W,2.9,299.1,260615,7.1,"
"##MN-00 00 55 0073 02746 7898 498152 023609 197"
"177.899525"
"$GPRMC,213515,A,2614.6445,N,07959.1020,W,2.9,299.3,260615,7.1,"
"##MN-00 00 54 0074 02745 7894 075872 023648 197"
"177.899572"
"$GPRMC,213519,A,2614.6461,N,07959.1051,W,2.9,299.3,260615,7.1,"
"##MN-00 00 56 0075 02749 7890 303192 023637 197"
"177.899618"
"$GPRMC,213523,A,2614.6480,N,07959.1084,W,2.9,298.9,260615,7.1,"
"##MN-00 00 55 0076 02748 7886 067312 023611 197"
"177.899664"
"$GPRMC,213527,A,2614.6494,N,07959.1113,W,2.8,298.8,260615,7.1,"
"##MN-00 00 53 0077 02751 7882 171736 023609 197"
"177.899711"
"$GPRMC,213531,A,2614.6510,N,07959.1145,W,2.8,298.3,260615,7.1,"
"##MN-00 00 55 0078 02751 7879 045296 023614 197"
"177.899757"
"$GPRMC,213535,A,2614.6526,N,07959.1176,W,2.8,298.1,260615,7.1,"
"##MN-00 00 55 0079 02753 7875 446416 023618 197"
"177.899803"
"$GPRMC,213539,A,2614.6543,N,07959.1207,W,2.8,298.1,260615,7.1,"
"##MN-00 00 55 0081 02753 7871 018816 023666 197"
"177.89985"
"$GPRMC,213543,A,2614.6559,N,07959.1239,W,2.8,297.9,260615,7.1,"
"##MN-00 00 55 0082 02755 7867 017200 023634 197"
"177.899896"
"$GPRMC,213547,A,2614.6574,N,07959.1272,W,2.8,297.9,260615,7.1,"
"##MN-00 00 55 0083 02758 7863 017360 023633 197"
"177.899942"
"$GPRMC,213551,A,2614.6591,N,07959.1304,W,2.8,297.8,260615,7.1,"
"##MN-00 00 55 0084 02758 7859 233520 023630 197"
"177.899988"
"$GPRMC,213555,A,2614.6606,N,07959.1335,W,2.8,297.8,260615,7.1,"
"##MN-00 00 55 0085 02758 7855 041296 023633 197"
"177.900035"
"$GPRMC,213559,A,2614.6617,N,07959.1366,W,2.8,298.1,260615,7.1,"
"##MN-00 00 55 0086 02763 7851 032984 023634 197"
"177.900081"
"$GPRMC,213603,A,2614.6631,N,07959.1396,W,2.8,297.9,260615,7.1,"
"##MN-00 00 55 0087 02764 7847 019264 023657 197"
"177.900127"
"$GPRMC,213607,A,2614.6646,N,07959.1427,W,2.8,298.2,260615,7.1,"
"##MN-00 00 55 0088 02764 7843 010024 023681 197"
"177.900174"
"$GPRMC,213611,A,2614.6660,N,07959.1456,W,2.8,298.6,260615,7.1,"
"##MN-00 00 54 0089 02767 7839 008896 023658 197"
"177.90022"
"$GPRMC,213615,A,2614.6674,N,07959.1486,W,2.8,298.6,260615,7.1,"
"##MN-00 00 55 0090 02768 7835 002368 023639 197"
"177.900266"
"$GPRMC,213619,A,2614.6689,N,07959.1517,W,2.8,299.1,260615,7.1,"
"##MN-00 00 53 0091 02771 7831 992208 023648 197"
"177.900313"
"$GPRMC,213623,A,2614.6703,N,07959.1548,W,2.9,298.7,260615,7.1,"
"##MN-00 00 55 0092 02774 7826 865072 023644 197"
"177.900359"
"$GPRMC,213627,A,2614.6718,N,07959.1579,W,2.9,298.9,260615,7.1,"
"##MN-00 00 55 0093 02776 7822 972048 023657 197"
"177.900405"
"$GPRMC,213631,A,2614.6732,N,07959.1608,W,2.8,298.9,260615,7.1,"
"##MN-00 00 54 0094 02775 7818 778512 023676 197"
"177.900451"
"$GPRMC,213635,A,2614.6746,N,07959.1640,W,2.8,298.8,260615,7.1,"
"##MN-00 00 55 0095 02779 7814 365936 023664 197"
"177.900498"
"$GPRMC,213640,A,2614.6764,N,07959.1677,W,2.9,298.5,260615,7.1,"
"##MN-00 00 55 0096 02783 7809 542880 023664 197"
"177.900544"
"$GPRMC,213644,A,2614.6778,N,07959.1709,W,2.9,298.2,260615,7.1,"
"##MN-00 00 54 0097 02784 7805 125536 023649 197"
"177.90059"
"$GPRMC,213648,A,2614.6792,N,07959.1738,W,2.9,298.1,260615,7.1,"
"##MN-00 00 54 0098 02788 7801 638776 023645 197"
"177.900637"
"$GPRMC,213652,A,2614.6805,N,07959.1771,W,2.9,297.9,260615,7.1,"
"##MN-00 00 55 0099 02788 7797 107200 023641 197"
"177.900683"
"$GPRMC,213656,A,2614.6821,N,07959.1801,W,2.8,298.1,260615,7.1,"
"##MN+00 00 54 0100 02792 7793 791920 023662 197"
"177.900729"
"$GPRMC,213700,A,2614.6836,N,07959.1833,W,2.9,298.1,260615,7.1,"
"##MN+00 00 55 0102 02793 7788 896656 023651 197"
"177.900775"
"$GPRMC,213704,A,2614.6851,N,07959.1865,W,2.8,298.1,260615,7.1,"
"##MN+00 00 58 0103 02793 7784 897696 023676 197"
"177.900822"
"$GPRMC,213708,A,2614.6866,N,07959.1897,W,2.9,298.7,260615,7.1,"
"##MN-00 00 55 0104 02794 7780 599000 023650 197"
"177.900868"
"#increment_net"
"$GPRMC,213712,A,2614.6881,N,07959.1929,W,2.9,298.6,260615,7.1,"
"##MN-00 00 54 0105 02798 7776 877504 023661 197"
"177.900914"
"$GPRMC,213716,A,2614.6897,N,07959.1960,W,2.9,298.9,260615,7.1,"
"##MN-00 00 55 0106 02801 7771 870488 023667 197"
"177.900961"
"$GPRMC,213720,A,2614.6912,N,07959.1991,W,2.9,298.9,260615,7.1,"
"##MN-00 00 55 0107 02803 7767 861712 023653 197"
"177.901007"
"$GPRMC,213724,A,2614.6927,N,07959.2023,W,2.9,299.1,260615,7.1,"
"##MN-00 00 56 0108 02805 7762 841760 023679 197"
"177.901053"
"$GPRMC,213728,A,2614.6942,N,07959.2052,W,2.9,298.9,260615,7.1,"
"##MN-00 00 55 0109 02808 7758 609040 023673 197"
"177.9011"
"$GPRMC,213732,A,2614.6956,N,07959.2085,W,2.9,298.4,260615,7.1,"
"##MN-00 00 55 0111 02808 7754 841064 023673 197"
"177.901146"
"$GPRMC,213736,A,2614.6969,N,07959.2118,W,2.8,298.5,260615,7.1,"
"##MN-00 00 55 0112 02812 7750 250928 023675 197"
"177.901192"
"$GPRMC,213740,A,2614.6985,N,07959.2150,W,2.8,298.4,260615,7.1,"
"##MN-00 00 57 0113 02813 7745 413312 023674 197"
"177.901238"
"$GPRMC,213744,A,2614.7000,N,07959.2179,W,2.8,298.5,260615,7.1,"
"##MN-00 00 54 0114 02814 7741 813392 023675 197"
"177.901319"
"$GPRMC,213750,A,2614.7021,N,07959.2229,W,2.8,298.2,260615,7.1,"
"##MN-00 00 56 0116 02819 7733 718549 023691 197"
"177.901366"
"$GPRMC,213755,A,2614.7039,N,07959.2267,W,2.8,298.4,260615,7.1,"
"##MN-00 00 56 0117 02821 7728 202528 023693 197"
"177.901412"
"$GPRMC,213759,A,2614.7054,N,07959.2298,W,2.8,298.1,260615,7.1,"
"##MN-00 00 54 0118 02825 7724 669128 023705 197"
"177.901458"
"$GPRMC,213803,A,2614.7068,N,07959.2327,W,2.8,298.4,260615,7.1,"
"##MN-00 00 56 0119 02826 7720 784624 023677 197"
"177.901516"
"$GPRMC,213807,A,2614.7085,N,07959.2359,W,2.9,298.2,260615,7.1,"
"##MN-00 00 55 0120 02826 7715 482232 023692 197"
"177.901563"
"$GPRMC,213811,A,2614.7101,N,07959.2386,W,2.9,298.6,260615,7.1,"
"##MN-00 00 55 0122 02829 7710 528352 023695 197"
"177.901609"
"$GPRMC,213815,A,2614.7115,N,07959.2418,W,2.9,298.3,260615,7.1,"
"##MN-00 00 56 0123 02830 7706 464152 023693 197"
"177.901655"
"$GPRMC,213819,A,2614.7130,N,07959.2450,W,2.9,298.9,260615,7.1,"
"##MN-00 00 56 0124 02830 7702 618536 023708 197"
"177.901701"
"$GPRMC,213823,A,2614.7147,N,07959.2483,W,2.9,298.8,260615,7.1,"
"##MN-00 00 57 0125 02832 7697 729920 023715 197"
"177.901748"
"$GPRMC,213827,A,2614.7162,N,07959.2515,W,2.9,298.5,260615,7.1,"
"##MN-00 00 55 0126 02836 7693 728736 023724 197"
"177.901794"
"$GPRMC,213831,A,2614.7177,N,07959.2547,W,2.8,298.6,260615,7.1,"
"##MN-00 00 54 0127 02837 7689 617088 023697 197"
"177.90184"
"$GPRMC,213835,A,2614.7191,N,07959.2577,W,2.8,298.4,260615,7.1,"
"##MN-00 00 55 0128 02839 7684 721360 023705 197"
"177.901887"
"$GPRMC,213839,A,2614.7206,N,07959.2605,W,2.9,298.7,260615,7.1,"
"##MN-00 00 55 0129 02839 7680 710720 023708 197"
"177.901933"
"$GPRMC,213843,A,2614.7220,N,07959.2633,W,2.8,298.5,260615,7.1,"
"##MN-00 00 55 0131 02841 7675 703768 023710 197"
"177.901979"
"$GPRMC,213847,A,2614.7235,N,07959.2659,W,2.8,298.8,260615,7.1,"
"##MN-00 00 55 0132 02841 7671 929248 023712 197"
"177.902025"
"$GPRMC,213851,A,2614.7249,N,07959.2691,W,2.8,298.7,260615,7.1,"
"##MN-00 00 56 0133 02844 7666 678008 023731 197"
"177.902072"
"$GPRMC,213855,A,2614.7263,N,07959.2721,W,2.8,298.8,260615,7.1,"
"##MN+00 00 55 0134 02845 7662 672752 023746 197"
"177.902118"
"$GPRMC,213859,A,2614.7277,N,07959.2751,W,2.8,298.7,260615,7.1,"
"##MN+00 00 54 0135 02847 7657 672872 023742 197"
"177.902164"
"$GPRMC,213903,A,2614.7292,N,07959.2779,W,2.8,298.7,260615,7.1,"
"##MN+00 00 56 0136 02846 7653 672080 023728 197"
"177.902211"
"$GPRMC,213907,A,2614.7307,N,07959.2811,W,2.8,298.8,260615,7.1,"
"##MN-00 00 54 0137 02849 7648 663312 023729 197"
"177.902257"
"#increment_net"
"$GPRMC,213911,A,2614.7323,N,07959.2840,W,2.8,298.6,260615,7.1,"
"##MN-00 00 55 0138 02849 7644 651856 023722 197"
"177.902303"
"$GPRMC,213915,A,2614.7338,N,07959.2872,W,2.8,299.1,260615,7.1,"
"##MN-00 00 54 0139 02852 7639 355624 023718 197"
"177.90235"
"$GPRMC,213919,A,2614.7353,N,07959.2901,W,2.8,298.9,260615,7.1,"
"##MN-00 00 56 0140 02851 7635 639504 023736 197"
"177.902396"
"$GPRMC,213923,A,2614.7368,N,07959.2930,W,2.8,299.5,260615,7.1,"
"##MN-00 00 55 0142 02856 7631 625376 023740 197"
"177.902442"
"$GPRMC,213927,A,2614.7385,N,07959.2959,W,2.8,299.5,260615,7.1,"
"##MN-00 00 54 0143 02853 7626 382336 023768 197"
"177.902488"
"$GPRMC,213931,A,2614.7400,N,07959.2989,W,2.8,299.5,260615,7.1,"
"##MN-00 00 53 0144 02855 7621 616608 023757 197"
"177.902535"
"$GPRMC,213935,A,2614.7415,N,07959.3020,W,2.8,299.7,260615,7.1,"
"##MN-00 00 55 0145 02857 7617 616672 023734 197"
"177.902581"
"$GPRMC,213939,A,2614.7430,N,07959.3050,W,2.8,299.3,260615,7.1,"
"##MN-00 00 55 0146 02856 7613 612336 023733 197"
"177.902627"
"$GPRMC,213943,A,2614.7444,N,07959.3082,W,2.8,299.3,260615,7.1,"
"##MN-00 00 55 0147 02859 7608 599072 023749 197"
"177.902674"
"$GPRMC,213947,A,2614.7459,N,07959.3112,W,2.8,299.2,260615,7.1,"
"##MN-00 00 55 0148 02857 7603 303840 023740 197"
"177.90272"
"$GPRMC,213951,A,2614.7475,N,07959.3144,W,2.8,299.6,260615,7.1,"
"##MN-00 00 54 0149 02859 7599 586008 023758 197"
"177.902766"
"$GPRMC,213955,A,2614.7490,N,07959.3175,W,2.8,299.7,260615,7.1,"
"##MN-00 00 54 0150 02861 7594 044704 023754 197"
"177.902812"
"$GPRMC,213959,A,2614.7505,N,07959.3206,W,2.8,299.7,260615,7.1,"
"##MN-00 00 56 0152 02861 7590 561104 023754 197"
"177.902859"
"$GPRMC,214003,A,2614.7520,N,07959.3237,W,2.8,299.6,260615,7.1,"
"##MN-00 00 54 0153 02862 7586 560304 023789 197"
"177.902905"
"$GPRMC,214007,A,2614.7537,N,07959.3270,W,2.8,299.5,260615,7.1,"
"##MN-00 00 55 0154 02865 7581 442848 023768 197"
"177.902951"
"$GPRMC,214011,A,2614.7552,N,07959.3302,W,2.8,299.3,260615,7.1,"
"##MN-00 00 54 0155 02865 7577 032592 023764 197"
"177.902998"
"$GPRMC,214015,A,2614.7567,N,07959.3331,W,2.8,299.2,260615,7.1,"
"##MN-00 00 54 0156 02866 7573 553008 023755 197"
"177.903044"
"$GPRMC,214019,A,2614.7584,N,07959.3360,W,2.8,299.4,260615,7.1,"
"##MN-00 00 54 0157 02864 7568 306032 023772 197"
"177.90309"
"$GPRMC,214024,A,2614.7603,N,07959.3396,W,2.8,299.1,260615,7.1,"
"##MN-00 00 55 0158 02865 7563 364784 023772 197"
"177.903137"
"$GPRMC,214028,A,2614.7614,N,07959.3419,W,2.9,299.0,260615,7.1,"
"##MN-00 00 54 0159 02865 7559 524320 023790 197"
"177.903183"
"$GPRMC,214032,A,2614.7628,N,07959.3455,W,2.8,299.2,260615,7.1,"
"##MN-00 00 54 0160 02867 7555 753896 023786 197"
"177.903229"
"$GPRMC,214035,A,2614.7643,N,07959.3484,W,2.9,299.7,260615,7.1,"
"##MN-00 00 56 0162 02867 7550 977856 023781 197"
"177.903275"
"$GPRMC,214040,A,2614.7660,N,07959.3515,W,2.8,299.3,260615,7.1,"
"##MN-00 00 55 0163 02867 7546 503640 023808 197"
"177.903322"
"$GPRMC,214044,A,2614.7681,N,07959.3548,W,2.8,299.1,260615,7.1,"
"##MN-00 00 54 0164 02869 7542 269120 023777 197"
"177.903368"
"$GPRMC,214048,A,2614.7697,N,07959.3577,W,2.9,299.5,260615,7.1,"
"##MN-00 00 56 0165 02868 7537 504240 023785 197"
"177.903414"
"$GPRMC,214052,A,2614.7715,N,07959.3605,W,2.9,299.4,260615,7.1,"
"##MN-00 00 55 0166 02868 7532 970192 023787 197"
"177.903461"
"$GPRMC,214056,A,2614.7726,N,07959.3628,W,2.8,299.6,260615,7.1,"
"##MN+00 00 53 0167 02869 7528 485304 023794 197"
"177.903507"
"$GPRMC,214100,A,2614.7743,N,07959.3670,W,2.8,299.1,260615,7.1,"
"##MN+00 00 55 0168 02868 7524 358048 023799 197"
"177.903553"
"$GPRMC,214104,A,2614.7758,N,07959.3699,W,2.8,299.2,260615,7.1,"
"##MN+00 00 57 0169 02870 7520 941072 023805 197"
"177.9036"
"$GPRMC,214108,A,2614.7775,N,07959.3728,W,2.8,299.3,260615,7.1,"
"##MN-00 00 56 0170 02870 7515 458808 023828 197"
"177.903646"
"#increment_net"
"$GPRMC,214112,A,2614.7791,N,07959.3757,W,2.8,299.2,260615,7.1,"
"##MN-00 00 57 0171 02871 7511 212624 023815 197"
"177.903692"
"$GPRMC,214116,A,2614.7805,N,07959.3790,W,2.9,299.5,260615,7.1,"
"##MN-00 00 56 0172 02872 7506 447376 023817 197"
"177.903738"
"$GPRMC,214120,A,2614.7823,N,07959.3820,W,2.9,299.7,260615,7.1,"
"##MN-00 00 54 0174 02872 7502 686688 023798 197"
"177.903785"
"$GPRMC,214124,A,2614.7838,N,07959.3852,W,2.8,299.7,260615,7.1,"
"##MN-00 00 57 0175 02871 7497 519264 023787 197"
"177.903831"
"$GPRMC,214128,A,2614.7855,N,07959.3883,W,2.8,299.5,260615,7.1,"
"##MN-00 00 57 0176 02872 7493 349232 023820 197"
"177.903877"
"$GPRMC,214132,A,2614.7872,N,07959.3913,W,2.9,299.5,260615,7.1,"
"##MN-00 00 57 0177 02873 7489 103424 023808 197"
"177.903924"
"$GPRMC,214136,A,2614.7888,N,07959.3942,W,2.9,299.4,260615,7.1,"
"##MN-00 00 56 0178 02874 7484 494056 023806 197"
"177.90397"
"$GPRMC,214140,A,2614.7903,N,07959.3974,W,2.9,299.0,260615,7.1,"
"##MN-00 00 56 0179 02874 7480 897312 023804 197"
"177.904016"
"$GPRMC,214144,A,2614.7917,N,07959.4004,W,2.8,299.5,260615,7.1,"
"##MN-00 00 56 0180 02874 7476 651912 023802 197"
"177.904063"
"$GPRMC,214148,A,2614.7932,N,07959.4036,W,2.8,299.0,260615,7.1,"
"##MN-00 00 57 0181 02873 7471 070704 023826 197"
"177.904109"
"$GPRMC,214152,A,2614.7949,N,07959.4066,W,2.9,299.7,260615,7.1,"
"##MN-00 00 58 0182 02875 7467 512192 023835 197"
"177.904155"
"$GPRMC,214156,A,2614.7966,N,07959.4097,W,2.9,299.7,260615,7.1,"
"##MN-00 00 58 0183 02874 7463 390688 023835 197"
"177.904201"
"$GPRMC,214200,A,2614.7982,N,07959.4126,W,2.9,299.8,260615,7.1,"
"##MN-00 00 56 0184 02876 7458 274096 023794 197"
"177.904248"
"$GPRMC,214204,A,2614.7996,N,07959.4159,W,2.9,299.6,260615,7.1,"
"##MN-00 00 56 0186 02874 7454 391696 023812 197"
"177.904294"
"$GPRMC,214208,A,2614.8011,N,07959.4191,W,2.9,300.0,260615,7.1,"
"##MN-00 00 57 0187 02878 7450 503144 023808 197"
"177.90434"
"$GPRMC,214212,A,2614.8026,N,07959.4223,W,2.9,299.9,260615,7.1,"
"##MN-00 00 57 0188 02875 7446 850528 023827 197"
"177.904387"
"$GPRMC,214216,A,2614.8043,N,07959.4256,W,2.9,300.0,260615,7.1,"
"##MN-00 00 56 0189 02876 7441 250728 023827 197"
"177.904433"
"$GPRMC,214220,A,2614.8058,N,07959.4288,W,2.9,299.7,260615,7.1,"
"##MN-00 00 58 0190 02875 7437 601760 023830 197"
"177.904479"
"$GPRMC,214224,A,2614.8073,N,07959.4321,W,2.9,299.6,260615,7.1,"
"##MN-00 00 57 0191 02874 7432 354640 023825 197"
"177.904525"
"$GPRMC,214228,A,2614.8089,N,07959.4353,W,2.9,299.5,260615,7.1,"
"##MN-00 00 57 0192 02876 7428 704320 023836 197"
"177.904572"
"$GPRMC,214232,A,2614.8105,N,07959.4382,W,2.9,299.4,260615,7.1,"
"##MN-00 00 58 0193 02874 7424 101840 023858 197"
"177.904618"
"$GPRMC,214236,A,2614.8122,N,07959.4409,W,2.9,299.8,260615,7.1,"
"##MN-00 00 57 0194 02876 7420 455496 023846 197"
"177.904664"
"$GPRMC,214240,A,2614.8138,N,07959.4440,W,2.9,299.8,260615,7.1,"
"##MN-00 00 58 0195 02877 7416 244288 023837 197"
"177.904711"
"$GPRMC,214244,A,2614.8155,N,07959.4472,W,2.9,299.1,260615,7.1,"
"##MN-00 00 56 0196 02878 7411 532200 023813 197"
"177.904769"
"$GPRMC,214248,A,2614.8172,N,07959.4501,W,2.8,298.6,260615,7.1,"
"##MN-00 00 57 0198 02877 7407 331888 023835 197"
"177.904815"
"$GPRMC,214252,A,2614.8188,N,07959.4530,W,2.8,298.6,260615,7.1,"
"##MN-00 00 57 0199 02875 7403 446440 023842 197"
"177.904861"
"$GPRMC,214256,A,2614.8202,N,07959.4563,W,2.8,298.6,260615,7.1,"
"##MN-00 00 56 0200 02877 7399 316880 023835 197"
"177.904907"
"$GPRMC,214300,A,2614.8219,N,07959.4592,W,2.8,298.4,260615,7.1,"
"##MN-00 00 58 0201 02877 7395 527968 023843 197"
"177.904954"
"$GPRMC,214304,A,2614.8235,N,07959.4620,W,2.8,298.5,260615,7.1,"
"##MN+00 00 57 0202 02879 7390 447152 023853 197"
"177.905"
"$GPRMC,214308,A,2614.8249,N,07959.4651,W,2.8,298.8,260615,7.1,"
"##MN+00 00 55 0203 02879 7386 774016 023840 197"
"177.905046"
"$GPRMC,214312,A,2614.8264,N,07959.4684,W,2.9,299.3,260615,7.1,"
"##MN+00 00 60 0204 02878 7382 168840 023870 197"
"177.905093"
"$GPRMC,214316,A,2614.8282,N,07959.4711,W,2.9,299.5,260615,7.1,"
"##MN-00 00 54 0205 02877 7378 757168 023866 197"
"177.905139"
"$GPRMC,214320,A,2614.8295,N,07959.4741,W,2.9,299.4,260615,7.1,"
"##MN-00 00 56 0206 02878 7374 281648 023864 197"
"177.905185"
"#increment_net"
"$GPRMC,214324,A,2614.8308,N,07959.4773,W,2.9,299.4,260615,7.1,"
"##MN-00 00 57 0207 02876 7370 761856 023853 197"
"177.905231"
"$GPRMC,214328,A,2614.8324,N,07959.4805,W,2.9,299.3,260615,7.1,"
"##MN-00 00 55 0209 02878 7365 520120 023829 197"
"177.905278"
"$GPRMC,214332,A,2614.8340,N,07959.4837,W,2.9,299.3,260615,7.1,"
"##MN-00 00 57 0210 02880 7361 184608 023852 197"
"177.905324"
"$GPRMC,214336,A,2614.8355,N,07959.4870,W,2.9,299.3,260615,7.1,"
"##MN-00 00 57 0211 02879 7357 509560 023859 197"
"177.90537"
"$GPRMC,214340,A,2614.8372,N,07959.4900,W,2.9,299.5,260615,7.1,"
"##MN-00 00 56 0212 02879 7353 498464 023867 197"
"177.905417"
"$GPRMC,214344,A,2614.8387,N,07959.4931,W,2.9,299.4,260615,7.1,"
"##MN-00 00 56 0213 02877 7349 976864 023865 197"
"177.905463"
"$GPRMC,214348,A,2614.8404,N,07959.4960,W,2.9,299.4,260615,7.1,"
"##MN-00 00 56 0214 02879 7345 205880 023853 197"
"177.905509"
"$GPRMC,214352,A,2614.8419,N,07959.4989,W,2.9,299.5,260615,7.1,"
"##MN-00 00 55 0215 02877 7341 160848 023861 197"
"177.905556"
"$GPRMC,214356,A,2614.8434,N,07959.5018,W,2.9,299.3,260615,7.1,"
"##MN-00 00 56 0216 02879 7337 999832 023883 197"
"177.905602"
"$GPRMC,214400,A,2614.8451,N,07959.5048,W,2.9,299.5,260615,7.1,"
"##MN-00 00 57 0217 02880 7333 469344 023893 197"
"177.905648"
"$GPRMC,214404,A,2614.8465,N,07959.5081,W,2.8,299.6,260615,7.1,"
"##MN-00 00 56 0218 02880 7328 465000 023879 197"
"177.905694"
"$GPRMC,214408,A,2614.8481,N,07959.5113,W,2.9,300.1,260615,7.1,"
"##MN-00 00 56 0220 02881 7324 989384 023850 197"
"177.905741"
"$GPRMC,214412,A,2614.8499,N,07959.5141,W,2.9,300.3,260615,7.1,"
"##MN-00 00 57 0221 02880 7320 705648 023864 197"
"177.905787"
"$GPRMC,214416,A,2614.8514,N,07959.5171,W,2.9,300.0,260615,7.1,"
"##MN-00 00 56 0222 02882 7317 580784 023861 197"
"177.905833"
"$GPRMC,214420,A,2614.8530,N,07959.5206,W,2.9,300.1,260615,7.1,"
"##MN-00 00 56 0223 02879 7312 561616 023861 197"
"177.90588"
"$GPRMC,214424,A,2614.8545,N,07959.5238,W,2.9,299.8,260615,7.1,"
"##MN-00 00 57 0224 02880 7308 833272 023861 197"
"177.905926"
"$GPRMC,214428,A,2614.8560,N,07959.5267,W,2.9,300.0,260615,7.1,"
"##MN-00 00 58 0225 02879 7304 680920 023856 197"
"177.905972"
"$GPRMC,214432,A,2614.8578,N,07959.5298,W,2.9,299.9,260615,7.1,"
"##MN-00 00 56 0226 02879 7300 678336 023871 197"
"177.906018"
"$GPRMC,214436,A,2614.8595,N,07959.5329,W,2.9,299.8,260615,7.1,"
"##MN-00 00 57 0227 02880 7296 268968 023878 197"
"177.906065"
"$GPRMC,214440,A,2614.8611,N,07959.5358,W,2.9,299.6,260615,7.1,"
"##MN-00 00 56 0228 02882 7292 100032 023868 197"
"177.906111"
"$GPRMC,214444,A,2614.8629,N,07959.5390,W,2.9,299.4,260615,7.1,"
"##MN-00 00 57 0229 02882 7288 640480 023873 197"
"177.906157"
"$GPRMC,214448,A,2614.8649,N,07959.5420,W,2.9,299.7,260615,7.1,"
"##MN-00 00 58 0230 02881 7285 882376 023891 197"
"177.906204"
"$GPRMC,214452,A,2614.8665,N,07959.5453,W,2.9,299.7,260615,7.1,"
"##MN-00 00 58 0232 02881 7280 819904 023887 197"
"177.90625"
"$GPRMC,214456,A,2614.8679,N,07959.5484,W,2.9,299.4,260615,7.1,"
"##MN-00 00 57 0233 02880 7276 933840 023861 197"
"177.906296"
"$GPRMC,214500,A,2614.8694,N,07959.5518,W,2.9,299.2,260615,7.1,"
"##MN-00 00 57 0234 02880 7273 079792 023859 197"
"177.906343"
"$GPRMC,214504,A,2614.8711,N,07959.5553,W,2.9,299.2,260615,7.1,"
"##MN-00 00 57 0235 02881 7268 524552 023877 197"
"177.906389"
"$GPRMC,214509,A,2614.8732,N,07959.5589,W,2.9,299.6,260615,7.1,"
"##MN-00 00 57 0236 02881 7264 758888 023865 197"
"177.906435"
"$GPRMC,214513,A,2614.8748,N,07959.5623,W,2.9,299.8,260615,7.1,"
"##MN-00 00 55 0237 02882 7261 828224 023878 197"
"177.906482"
"$GPRMC,214516,A,2614.8761,N,07959.5645,W,2.8,299.7,260615,7.1,"
"##MN-00 00 57 0238 02883 7257 854232 023870 197"
"177.906528"
"$GPRMC,214521,A,2614.8781,N,07959.5686,W,2.9,299.9,260615,7.1,"
"##MN-00 00 57 0239 02884 7253 153744 023872 197"
"177.906574"
"$GPRMC,214525,A,2614.8798,N,07959.5713,W,2.9,300.1,260615,7.1,"
"##MN-00 00 56 0240 02883 7249 815736 023878 197"
"177.90662"
"$GPRMC,214529,A,2614.8815,N,07959.5738,W,2.9,300.5,260615,7.1,"
"##MN-00 00 56 0241 02884 7245 295392 023881 197"
"177.906667"
"$GPRMC,214533,A,2614.8830,N,07959.5770,W,2.9,300.4,260615,7.1,"
"##MN-00 00 56 0242 02884 7242 011472 023882 197"
"177.906713"
"$GPRMC,214537,A,2614.8846,N,07959.5796,W,2.9,300.3,260615,7.1,"
"##MN-00 00 56 0243 02884 7238 566696 023898 197"
"177.906759"
"$GPRMC,214541,A,2614.8862,N,07959.5827,W,2.9,300.3,260615,7.1,"
"##MN-00 00 57 0245 02883 7233 400136 023901 197"
"177.906806"
"$GPRMC,214545,A,2614.8875,N,07959.5854,W,2.9,300.0,260615,7.1,"
"##MN-00 00 57 0246 02886 7230 288000 023866 197"
"177.906852"
"$GPRMC,214549,A,2614.8888,N,07959.5882,W,2.8,299.9,260615,7.1,"
"##MN-00 00 56 0247 02882 7226 592424 023866 197"
"177.906898"
"$GPRMC,214553,A,2614.8904,N,07959.5914,W,2.8,299.8,260615,7.1,"
"##MN-00 00 55 0248 02883 7222 791408 023857 197"
"177.906944"
"$GPRMC,214557,A,2614.8918,N,07959.5948,W,2.9,300.0,260615,7.1,"
"##MN-00 00 57 0249 02884 7219 180440 023878 197"
"177.906991"
"$GPRMC,214601,A,2614.8933,N,07959.5975,W,2.9,300.4,260615,7.1,"
"##MN-00 00 57 0250 02883 7215 613392 023851 197"
"177.907037"
"$GPRMC,214605,A,2614.8950,N,07959.6006,W,2.9,300.5,260615,7.1,"
"##MN-00 00 56 0251 02886 7211 504608 023842 197"
"177.907083"
"$GPRMC,214609,A,2614.8965,N,07959.6037,W,2.9,300.5,260615,7.1,"
"##MN-00 00 56 0252 02885 7207 367720 023826 197"
"177.90713"
"$GPRMC,214613,A,2614.8982,N,07959.6069,W,2.9,300.2,260615,7.1,"
"##MN-00 00 56 0253 02884 7203 254432 023780 197"
"177.907176"
"$GPRMC,214617,A,2614.8997,N,07959.6099,W,2.9,300.4,260615,7.1,"
"##MN-00 00 55 0254 02888 7199 731976 023770 197"
"177.907222"
"$GPRMC,214621,A,2614.9014,N,07959.6129,W,2.9,300.5,260615,7.1,"
"##MN-00 00 57 0255 02886 7196 524512 023748 197"
"177.907269"
"$GPRMC,214625,A,2614.9030,N,07959.6160,W,2.9,300.6,260615,7.1,"
"##MN-00 00 57 0256 02885 7192 108592 023740 197"
"177.907315"
"$GPRMC,214629,A,2614.9047,N,07959.6190,W,2.9,300.7,260615,7.1,"
"##MN-00 00 56 0257 02885 7188 410168 023763 197"
"177.907361"
"$GPRMC,214633,A,2614.9063,N,07959.6221,W,2.9,300.9,260615,7.1,"
"##MN-00 00 56 0258 02887 7185 611792 023753 197"
"177.907407"
"$GPRMC,214637,A,2614.9081,N,07959.6253,W,2.9,300.5,260615,7.1,"
"##MN-00 00 55 0260 02886 7181 834896 023736 197"
"177.907454"
"$GPRMC,214641,A,2614.9099,N,07959.6283,W,2.9,300.3,260615,7.1,"
"##MN-00 00 56 0261 02887 7177 751816 023725 197"
"177.9075"
"$GPRMC,214645,A,2614.9119,N,07959.6313,W,2.9,300.5,260615,7.1,"
"##MN-00 00 57 0262 02887 7173 346008 023718 197"
"177.907546"
"$GPRMC,214649,A,2614.9135,N,07959.6344,W,2.9,300.5,260615,7.1,"
"##MN-00 00 55 0263 02887 7170 464944 023719 197"
"177.907593"
"$GPRMC,214653,A,2614.9153,N,07959.6374,W,2.9,300.6,260615,7.1,"
"##MN-00 00 56 0264 02888 7166 500448 023711 197"
"177.907639"
"$GPRMC,214657,A,2614.9171,N,07959.6406,W,2.9,300.5,260615,7.1,"
"##MN-00 00 56 0265 02887 7163 422456 023722 197"
"177.907685"
"$GPRMC,214701,A,2614.9186,N,07959.6441,W,2.9,300.4,260615,7.1,"
"##MN-00 00 57 0266 02887 7159 585184 023726 197"
"177.907731"
"$GPRMC,214705,A,2614.9203,N,07959.6470,W,2.9,300.3,260615,7.1,"
"##MN-00 00 56 0267 02888 7155 537432 023720 197"
"177.907778"
"$GPRMC,214709,A,2614.9220,N,07959.6504,W,2.9,300.4,260615,7.1,"
"##MN-00 00 57 0268 02887 7152 966288 023717 197"
"177.907824"
"$GPRMC,214713,A,2614.9236,N,07959.6539,W,2.9,300.4,260615,7.1,"
"##MN-00 00 55 0269 02888 7148 195360 023736 197"
"177.90787"
"$GPRMC,214717,A,2614.9253,N,07959.6569,W,2.9,300.3,260615,7.1,"
"##MN-00 00 56 0270 02888 7145 738904 023710 197"
"177.907928"
"$GPRMC,214721,A,2614.9268,N,07959.6601,W,2.9,300.3,260615,7.1,"
"##MN-00 00 58 0271 02886 7141 679920 023740 197"
"177.907975"
"$GPRMC,214725,A,2614.9283,N,07959.6637,W,2.9,300.3,260615,7.1,"
"##MN+00 00 57 0272 02887 7137 122240 023756 197"
"177.908021"
"$GPRMC,214729,A,2614.9301,N,07959.6667,W,2.9,300.4,260615,7.1,"
"##MN+00 00 57 0273 02887 7133 646720 023749 197"
"177.908067"
"$GPRMC,214733,A,2614.9316,N,07959.6699,W,2.9,300.3,260615,7.1,"
"##MN+00 00 60 0275 02887 7130 757760 023742 197"
"177.908113"
"$GPRMC,214737,A,2614.9334,N,07959.6730,W,2.9,300.2,260615,7.1,"
"##MN-00 00 57 0276 02886 7127 015488 023725 197"
"177.90816"
"$GPRMC,214741,A,2614.9352,N,07959.6760,W,2.9,300.2,260615,7.1,"
"##MN-00 00 55 0277 02888 7123 481448 023733 197"
"177.908206"
"#increment_net"
"$GPRMC,214745,A,2614.9368,N,07959.6792,W,2.9,299.8,260615,7.1,"
"##MN-00 00 57 0278 02888 7120 633528 023732 197"
"177.908252"
"$GPRMC,214749,A,2614.9384,N,07959.6825,W,2.9,299.7,260615,7.1,"
"##MN-00 00 56 0279 02890 7116 464160 023734 197"
"177.908299"
"$GPRMC,214753,A,2614.9401,N,07959.6857,W,2.9,299.9,260615,7.1,"
"##MN-00 00 57 0280 02889 7113 481232 023732 197"
"177.908345"
"$GPRMC,214757,A,2614.9417,N,07959.6889,W,2.9,299.7,260615,7.1,"
"##MN-00 00 55 0281 02889 7109 597760 023734 197"
"177.908391"
"$GPRMC,214801,A,2614.9427,N,07959.6912,W,3.0,299.8,260615,7.1,"
"##MN-00 00 56 0282 02887 7106 572376 023747 197"
"177.908437"
"$GPRMC,214805,A,2614.9446,N,07959.6944,W,2.9,299.7,260615,7.1,"
"##MN-00 00 55 0283 02887 7102 694144 023727 197"
"177.908484"
"$GPRMC,214809,A,2614.9467,N,07959.6976,W,3.0,300.3,260615,7.1,"
"##MN-00 00 55 0284 02887 7099 607488 023736 197"
"177.90853"
"$GPRMC,214813,A,2614.9487,N,07959.7010,W,3.0,300.2,260615,7.1,"
"##MN-00 00 55 0285 02887 7095 766672 023752 197"
"177.908576"
"$GPRMC,214817,A,2614.9507,N,07959.7052,W,3.0,300.0,260615,7.1,"
"##MN-00 00 55 0286 02888 7092 599104 023737 197"
"177.908623"
"$GPRMC,214821,A,2614.9524,N,07959.7085,W,3.0,299.9,260615,7.1,"
"##MN-00 00 56 0288 02888 7088 708680 023756 197"
"177.908669"
"$GPRMC,214825,A,2614.9540,N,07959.7118,W,3.0,300.0,260615,7.1,"
"##MN-00 00 56 0289 02888 7085 989440 023763 197"
"177.908715"
"$GPRMC,214829,A,2614.9557,N,07959.7153,W,3.0,299.9,260615,7.1,"
"##MN-00 00 56 0290 02889 7082 870144 023743 197"
"177.908762"
"$GPRMC,214833,A,2614.9572,N,07959.7184,W,3.0,299.8,260615,7.1,"
"##MN-00 00 55 0291 02888 7079 426352 023732 197"
"177.908808"
"$GPRMC,214837,A,2614.9589,N,07959.7215,W,3.0,299.7,260615,7.1,"
"##MN-00 00 56 0292 02888 7075 863584 023743 197"
"177.908854"
"$GPRMC,214841,A,2614.9604,N,07959.7247,W,3.0,299.2,260615,7.1,"
"##MN-00 00 56 0293 02888 7072 978912 023731 197"
"177.9089"
"$GPRMC,214845,A,2614.9621,N,07959.7276,W,3.0,299.2,260615,7.1,"
"##MN-00 00 55 0294 02888 7068 973624 023726 197"
"177.908947"
"$GPRMC,214849,A,2614.9636,N,07959.7305,W,3.0,299.0,260615,7.1,"
"##MN-00 00 58 0295 02890 7065 406896 023743 197"
"177.908993"
"$GPRMC,214853,A,2614.9652,N,07959.7337,W,3.0,299.4,260615,7.1,"
"##MN-00 00 56 0296 02888 7061 969704 023728 197"
"177.909039"
"$GPRMC,214857,A,2614.9669,N,07959.7370,W,2.9,299.2,260615,7.1,"
"##MN-00 00 55 0297 02888 7058 963952 023736 197"
"177.909086"
"$GPRMC,214901,A,2614.9684,N,07959.7402,W,2.9,299.3,260615,7.1,"
"##MN-00 00 55 0298 02888 7055 960416 023732 197"
"177.909132"
"$GPRMC,214905,A,2614.9701,N,07959.7435,W,2.9,299.5,260615,7.1,"
"##MN-00 00 54 0299 02888 7052 953344 023737 197"
"177.909178"
"$GPRMC,214909,A,2614.9716,N,07959.7467,W,2.9,299.5,260615,7.1,"
"##MN-00 00 57 0300 02889 7048 951136 023728 197"
"177.909225"
"$GPRMC,214913,A,2614.9731,N,07959.7497,W,2.9,299.6,260615,7.1,"
"##MN-00 00 56 0302 02888 7045 829160 023719 197"
"177.909271"
"$GPRMC,214917,A,2614.9747,N,07959.7529,W,2.9,299.7,260615,7.1,"
"##MN-00 00 57 0303 02891 7042 938304 023761 197"
"177.909317"
"$GPRMC,214921,A,2614.9763,N,07959.7558,W,2.9,299.7,260615,7.1,"
"##MN-00 00 55 0304 02888 7038 928944 023787 197"
"177.909363"
"$GPRMC,214925,A,2614.9780,N,07959.7590,W,2.9,300.1,260615,7.1,"
"##MN-00 00 55 0305 02889 7035 941040 023769 197"
"177.90941"
"$GPRMC,214929,A,2614.9794,N,07959.7619,W,3.0,300.0,260615,7.1,"
"##MN-00 00 56 0306 02889 7032 652304 023765 197"
"177.909456"
"$GPRMC,214934,A,2614.9817,N,07959.7663,W,3.0,300.0,260615,7.1,"
"##MN-00 00 56 0307 02890 7029 930416 023758 197"
"177.909502"
"$GPRMC,214938,A,2614.9835,N,07959.7695,W,3.0,300.3,260615,7.1,"
"##MN-00 00 57 0308 02889 7026 933576 023728 197"
"177.909549"
"$GPRMC,214941,A,2614.9846,N,07959.7717,W,3.0,300.9,260615,7.1,"
"##MN+00 00 56 0309 02891 7022 926960 023734 197"
"177.909595"
"$GPRMC,214946,A,2614.9868,N,07959.7757,W,3.0,301.3,260615,7.1,"
"##MN+00 00 55 0310 02888 7019 921632 023724 197"
"177.909641"
"$GPRMC,214950,A,2614.9888,N,07959.7790,W,3.0,301.4,260615,7.1,"
"##MN+00 00 57 0311 02888 7016 917216 023723 197"
"177.909688"
"$GPRMC,214954,A,2614.9904,N,07959.7825,W,3.0,301.1,260615,7.1,"
"##MN-00 00 55 0312 02889 7012 913712 023738 197"
"177.909734"
"#increment_net"
"$GPRMC,214958,A,2614.9919,N,07959.7859,W,3.0,300.8,260615,7.1,"
"##MN-00 00 55 0313 02890 7009 911104 023730 197"
"177.90978"
"$GPRMC,215002,A,2614.9936,N,07959.7891,W,3.0,300.6,260615,7.1,"
"##MN-00 00 55 0314 02889 7007 905808 023741 197"
"177.909826"
"$GPRMC,215006,A,2614.9954,N,07959.7923,W,3.0,300.9,260615,7.1,"
"##MN-00 00 55 0316 02890 7003 380208 023732 197"
"177.909873"
"$GPRMC,215010,A,2614.9971,N,07959.7957,W,3.0,300.7,260615,7.1,"
"##MN-00 00 56 0317 02890 7000 896944 023744 197"
"177.909919"
"$GPRMC,215014,A,2614.9988,N,07959.7991,W,3.1,300.8,260615,7.1,"
"##MN-00 00 55 0318 02889 6997 894736 023741 197"
"177.909965"
"$GPRMC,215018,A,2615.0004,N,07959.8021,W,3.0,300.4,260615,7.1,"
"##MN-00 00 56 0319 02891 6994 891680 023753 197"
"177.910012"
"$GPRMC,215022,A,2615.0020,N,07959.8053,W,3.0,300.3,260615,7.1,"
"##MN-00 00 56 0320 02888 6991 758560 023776 197"
"177.910058"
"$GPRMC,215026,A,2615.0037,N,07959.8085,W,3.0,300.0,260615,7.1,"
"##MN-00 00 56 0321 02890 6987 315200 023773 197"
"177.910104"
"$GPRMC,215030,A,2615.0052,N,07959.8115,W,3.0,299.9,260615,7.1,"
"##MN-00 00 57 0322 02889 6985 876664 023763 197"
"177.91015"
"$GPRMC,215034,A,2615.0069,N,07959.8148,W,3.0,299.9,260615,7.1,"
"##MN-00 00 55 0323 02887 6981 877616 023764 197"
"177.910197"
"$GPRMC,215038,A,2615.0085,N,07959.8180,W,3.0,299.5,260615,7.1,"
"##MN-00 00 54 0324 02889 6978 876320 023757 197"
"177.910243"
"$GPRMC,215042,A,2615.0100,N,07959.8212,W,3.0,299.6,260615,7.1,"
"##MN-00 00 56 0325 02887 6975 876816 023768 197"
"177.910289"
"$GPRMC,215046,A,2615.0116,N,07959.8244,W,3.0,299.0,260615,7.1,"
"##MN-00 00 56 0326 02888 6972 754360 023754 197"
"177.910336"
"$GPRMC,215050,A,2615.0132,N,07959.8277,W,3.0,299.1,260615,7.1,"
"##MN-00 00 56 0327 02887 6969 466608 023749 197"
"177.910382"
"$GPRMC,215054,A,2615.0150,N,07959.8309,W,2.9,299.3,260615,7.1,"
"##MN-00 00 55 0328 02887 6966 063488 023760 197"
"177.910428"
"$GPRMC,215058,A,2615.0167,N,07959.8340,W,3.0,299.4,260615,7.1,"
"##MN-00 00 54 0330 02887 6963 859632 023752 197"
"177.910475"
"$GPRMC,215102,A,2615.0183,N,07959.8374,W,3.0,299.5,260615,7.1,"
"##MN-00 00 57 0331 02887 6960 296896 023761 197"
"177.910521"
"$GPRMC,215106,A,2615.0200,N,07959.8405,W,3.0,299.7,260615,7.1,"
"##MN-00 00 57 0332 02886 6956 333128 023768 197"
"177.910567"
"$GPRMC,215110,A,2615.0215,N,07959.8439,W,2.9,299.3,260615,7.1,"
"##MN-00 00 56 0333 02888 6954 849488 023755 197"
"177.910613"
"$GPRMC,215114,A,2615.0233,N,07959.8470,W,2.9,299.4,260615,7.1,"
"##MN-00 00 55 0334 02887 6951 847744 023765 197"
"177.91066"
"$GPRMC,215118,A,2615.0251,N,07959.8504,W,2.9,299.3,260615,7.1,"
"##MN-00 00 57 0335 02887 6948 841520 023782 197"
"177.910706"
"$GPRMC,215122,A,2615.0266,N,07959.8537,W,3.0,299.2,260615,7.1,"
"##MN-00 00 55 0336 02886 6944 838896 023770 197"
"177.910752"
"$GPRMC,215126,A,2615.0283,N,07959.8569,W,3.0,299.3,260615,7.1,"
"##MN-00 00 57 0337 02888 6942 833536 023795 197"
"177.910799"
"$GPRMC,215130,A,2615.0301,N,07959.8603,W,3.0,299.5,260615,7.1,"
"##MN-00 00 53 0338 02888 6939 821576 023801 197"
"177.910845"
"$GPRMC,215134,A,2615.0319,N,07959.8635,W,3.0,299.8,260615,7.1,"
"##MN-00 00 56 0339 02885 6936 820320 023802 197"
"177.910891"
"$GPRMC,215138,A,2615.0334,N,07959.8665,W,3.0,299.6,260615,7.1,"
"##MN-00 00 57 0340 02886 6933 820400 023807 197"
"177.910937"
"$GPRMC,215142,A,2615.0351,N,07959.8699,W,3.0,299.6,260615,7.1,"
"##MN-00 00 55 0342 02886 6930 540568 023786 197"
"177.910984"
"$GPRMC,215146,A,2615.0365,N,07959.8728,W,3.0,299.1,260615,7.1,"
"##MN-00 00 56 0343 02887 6927 820448 023796 197"
"177.911042"
"$GPRMC,215150,A,2615.0381,N,07959.8761,W,3.0,299.7,260615,7.1,"
"##MN-00 00 55 0344 02887 6924 266496 023784 197"
"177.911088"
"$GPRMC,215154,A,2615.0398,N,07959.8797,W,3.0,299.9,260615,7.1,"
"##MN-00 00 55 0345 02886 6921 040000 023788 197"
"177.911134"
"$GPRMC,215158,A,2615.0416,N,07959.8827,W,3.0,299.7,260615,7.1,"
"##MN+00 00 56 0346 02885 6918 386408 023779 197"
"177.911181"
"$GPRMC,215202,A,2615.0431,N,07959.8862,W,3.0,299.7,260615,7.1,"
"##MN+00 00 55 0347 02887 6916 385544 023790 197"
"177.911227"
"$GPRMC,215206,A,2615.0448,N,07959.8895,W,3.0,299.5,260615,7.1,"
"##MN+00 00 55 0348 02887 6912 016864 023777 197"
"177.911273"
"$GPRMC,215210,A,2615.0464,N,07959.8930,W,3.0,299.5,260615,7.1,"
"##MN-00 00 53 0349 02886 6909 372712 023783 197"
"177.911319"
"$GPRMC,215214,A,2615.0481,N,07959.8963,W,3.0,299.2,260615,7.1,"
"##MN-00 00 51 0350 02885 6907 811744 023799 197"
"177.911366"
"#increment_net"
"$GPRMC,215218,A,2615.0499,N,07959.8993,W,3.0,299.4,260615,7.1,"
"##MN-00 00 52 0351 02886 6903 919544 023809 197"
"177.911412"
"$GPRMC,215222,A,2615.0515,N,07959.9025,W,3.0,299.4,260615,7.1,"
"##MN-00 00 54 0352 02886 6901 042448 023799 197"
"177.911458"
"$GPRMC,215226,A,2615.0533,N,07959.9057,W,3.0,299.2,260615,7.1,"
"##MN-00 00 53 0353 02888 6898 517744 023798 197"
"177.911505"
"$GPRMC,215230,A,2615.0550,N,07959.9090,W,3.0,299.1,260615,7.1,"
"##MN-00 00 52 0354 02885 6895 786960 023813 197"
"177.911551"
"$GPRMC,215234,A,2615.0565,N,07959.9120,W,3.0,299.1,260615,7.1,"
"##MN-00 00 52 0356 02885 6892 223776 023804 197"
"177.911597"
"$GPRMC,215238,A,2615.0579,N,07959.9149,W,3.0,298.8,260615,7.1,"
"##MN-00 00 53 0357 02886 6889 904992 023799 197"
"177.911644"
"$GPRMC,215242,A,2615.0593,N,07959.9180,W,2.9,298.8,260615,7.1,"
"##MN-00 00 52 0358 02886 6887 770112 023828 197"
"177.91169"
"$GPRMC,215246,A,2615.0609,N,07959.9212,W,2.9,299.2,260615,7.1,"
"##MN-00 00 53 0359 02885 6884 763896 023843 197"
"177.911736"
"$GPRMC,215250,A,2615.0622,N,07959.9241,W,2.9,299.0,260615,7.1,"
"##MN-00 00 52 0360 02885 6881 525200 023846 197"
"177.911782"
"$GPRMC,215254,A,2615.0637,N,07959.9271,W,2.9,299.2,260615,7.1,"
"##MN-00 00 53 0361 02887 6878 763968 023837 197"
"177.911829"
"$GPRMC,215258,A,2615.0652,N,07959.9303,W,2.8,298.8,260615,7.1,"
"##MN-00 00 51 0362 02886 6875 204368 023834 197"
"177.911875"
"$GPRMC,215302,A,2615.0665,N,07959.9333,W,2.8,298.8,260615,7.1,"
"##MN-00 00 51 0363 02886 6873 764536 023828 197"
"177.911921"
"$GPRMC,215306,A,2615.0677,N,07959.9362,W,2.8,298.5,260615,7.1,"
"##MN-00 00 51 0364 02887 6870 763696 023831 197"
"177.911968"
"$GPRMC,215310,A,2615.0695,N,07959.9395,W,2.8,298.7,260615,7.1,"
"##MN-00 00 52 0365 02883 6867 764176 023816 197"
"177.912014"
"$GPRMC,215314,A,2615.0714,N,07959.9429,W,2.9,299.0,260615,7.1,"
"##MN-00 00 51 0366 02885 6864 640864 023817 197"
"177.91206"
"$GPRMC,215318,A,2615.0730,N,07959.9460,W,2.8,299.0,260615,7.1,"
"##MN-00 00 53 0367 02887 6862 755328 023812 197"
"177.912107"
"$GPRMC,215322,A,2615.0745,N,07959.9491,W,2.9,299.3,260615,7.1,"
"##MN-00 00 54 0368 02884 6859 751352 023814 197"
"177.912153"
"$GPRMC,215326,A,2615.0760,N,07959.9520,W,2.8,299.5,260615,7.1,"
"##MN-00 00 52 0369 02888 6856 747360 023831 197"
"177.912199"
"$GPRMC,215330,A,2615.0778,N,07959.9550,W,2.8,299.6,260615,7.1,"
"##MN-00 00 51 0371 02887 6854 590912 023815 197"
"177.912245"
"$GPRMC,215334,A,2615.0795,N,07959.9582,W,2.9,299.7,260615,7.1,"
"##MN-00 00 51 0372 02886 6851 740288 023816 197"
"177.912292"
"$GPRMC,215338,A,2615.0808,N,07959.9614,W,2.9,299.4,260615,7.1,"
"##MN-00 00 51 0373 02887 6848 736808 023838 197"
"177.912338"
"$GPRMC,215342,A,2615.0826,N,07959.9646,W,2.9,299.9,260615,7.1,"
"##MN-00 00 52 0374 02885 6845 735952 023836 197"
"177.912384"
"$GPRMC,215346,A,2615.0842,N,07959.9676,W,2.9,299.9,260615,7.1,"
"##MN-00 00 52 0375 02888 6843 733760 023822 197"
"177.912431"
"$GPRMC,215350,A,2615.0861,N,07959.9707,W,2.9,300.2,260615,7.1,"
"##MN-00 00 52 0376 02888 6840 609112 023834 197"
"177.912477"
"$GPRMC,215354,A,2615.0876,N,07959.9738,W,3.0,300.3,260615,7.1,"
"##MN-00 00 50 0377 02885 6837 161264 023823 197"
"177.912523"
"$GPRMC,215358,A,2615.0898,N,07959.9774,W,3.0,300.4,260615,7.1,"
"##MN-00 00 52 0378 02885 6835 590472 023866 197"
"177.912569"
"$GPRMC,215402,A,2615.0909,N,07959.9808,W,2.9,299.9,260615,7.1,"
"##MN+00 00 53 0379 02887 6832 149744 023882 197"
"177.912616"
"$GPRMC,215406,A,2615.0925,N,07959.9841,W,3.0,300.2,260615,7.1,"
"##MN+00 00 52 0380 02885 6829 707672 023878 197"
"177.912662"
"$GPRMC,215411,A,2615.0943,N,07959.9879,W,2.9,300.0,260615,7.1,"
"##MN+00 00 55 0381 02889 6827 707648 023892 197"
"177.912708"
"#increment_net"
"$GPRMC,215414,A,2615.0956,N,07959.9903,W,2.9,300.1,260615,7.1,"
"##MN-00 00 55 0382 02886 6824 707696 023893 197"
"177.912755"
"$GPRMC,215418,A,2615.0974,N,07959.9935,W,2.8,299.7,260615,7.1,"
"##MN-00 00 54 0384 02887 6821 468160 023891 197"
"177.912801"
"$GPRMC,215422,A,2615.0990,N,07959.9964,W,2.8,299.7,260615,7.1,"
"##MN-00 00 54 0385 02888 6819 428832 023877 197"
"177.912847"
"$GPRMC,215426,A,2615.1003,N,07959.9991,W,2.9,299.9,260615,7.1,"
"##MN-00 00 55 0386 02886 6816 588048 023848 197"
"177.912894"
"$GPRMC,215430,A,2615.1019,N,08000.0019,W,2.8,299.8,260615,7.1,"
"##MN-00 00 54 0387 02888 6814 149104 023808 197"
"177.91294"
"$GPRMC,215434,A,2615.1035,N,08000.0050,W,2.8,299.4,260615,7.1,"
"##MN-00 00 54 0388 02887 6811 302440 023825 197"
"177.912986"
"$GPRMC,215438,A,2615.1052,N,08000.0081,W,2.8,299.1,260615,7.1,"
"##MN-00 00 53 0389 02887 6809 696352 023833 197"
"177.913032"
"$GPRMC,215442,A,2615.1067,N,08000.0112,W,2.8,299.1,260615,7.1,"
"##MN-00 00 54 0390 02887 6806 742544 023840 197"
"177.913079"
"$GPRMC,215446,A,2615.1085,N,08000.0146,W,2.8,298.8,260615,7.1,"
"##MN-00 00 54 0391 02885 6803 838320 023837 197"
"177.913125"
"$GPRMC,215450,A,2615.1099,N,08000.0177,W,2.8,299.1,260615,7.1,"
"##MN-00 00 55 0392 02887 6801 569528 023832 197"
"177.913171"
"$GPRMC,215455,A,2615.1120,N,08000.0214,W,2.9,299.3,260615,7.1,"
"##MN-00 00 55 0393 02887 6798 119984 023832 197"
"177.913218"
"$GPRMC,215459,A,2615.1133,N,08000.0243,W,2.9,299.5,260615,7.1,"
"##MN-00 00 54 0394 02886 6796 805168 023850 197"
"177.913264"
"$GPRMC,215503,A,2615.1147,N,08000.0271,W,2.9,299.4,260615,7.1,"
"##MN-00 00 54 0395 02886 6793 280896 023842 197"
"177.91331"
"$GPRMC,215507,A,2615.1161,N,08000.0303,W,2.9,299.4,260615,7.1,"
"##MN-00 00 55 0396 02885 6790 673488 023841 197"
"177.913356"
"$GPRMC,215511,A,2615.1182,N,08000.0334,W,2.8,299.9,260615,7.1,"
"##MN-00 00 56 0397 02885 6788 669040 023851 197"
"177.913403"
"$GPRMC,215515,A,2615.1198,N,08000.0363,W,2.9,299.9,260615,7.1,"
"##MN-00 00 55 0398 02886 6786 664608 023852 197"
"177.913449"
"$GPRMC,215519,A,2615.1212,N,08000.0394,W,2.9,300.3,260615,7.1,"
"##MN-00 00 54 0399 02886 6783 532344 023863 197"
"177.913495"
"$GPRMC,215523,A,2615.1229,N,08000.0427,W,2.9,300.8,260615,7.1,"
"##MN-00 00 54 0400 02888 6780 651312 023873 197"
"177.913542"
"$GPRMC,215527,A,2615.1245,N,08000.0460,W,2.9,300.6,260615,7.1,"
"##MN-00 00 56 0402 02886 6778 651360 023881 197"
"177.913588"
"$GPRMC,215531,A,2615.1263,N,08000.0493,W,3.0,300.7,260615,7.1,"
"##MN-00 00 56 0403 02886 6775 658528 023863 197"
"177.913634"
"$GPRMC,215535,A,2615.1280,N,08000.0524,W,2.9,300.2,260615,7.1,"
"##MN-00 00 54 0404 02885 6773 647864 023892 197"
"177.913681"
"$GPRMC,215539,A,2615.1299,N,08000.0557,W,2.9,300.0,260615,7.1,"
"##MN-00 00 56 0405 02885 6771 651488 023885 197"
"177.913727"
"$GPRMC,215543,A,2615.1315,N,08000.0589,W,2.9,299.9,260615,7.1,"
"##MN-00 00 54 0406 02884 6768 651512 023887 197"
"177.913773"
"$GPRMC,215547,A,2615.1331,N,08000.0623,W,2.9,299.7,260615,7.1,"
"##MN-00 00 54 0407 02885 6765 651120 023854 197"
"177.913819"
"$GPRMC,215551,A,2615.1346,N,08000.0654,W,2.9,300.3,260615,7.1,"
"##MN-00 00 55 0408 02885 6763 652496 023831 197"
"177.913866"
"$GPRMC,215555,A,2615.1362,N,08000.0686,W,2.9,300.4,260615,7.1,"
"##MN-00 00 55 0409 02884 6761 648048 023829 197"
"177.913912"
"$GPRMC,215559,A,2615.1381,N,08000.0719,W,2.9,300.1,260615,7.1,"
"##MN-00 00 56 0410 02885 6758 643616 023850 197"
"177.913958"
"$GPRMC,215603,A,2615.1395,N,08000.0751,W,2.9,299.8,260615,7.1,"
"##MN-00 00 54 0411 02885 6756 639616 023859 197"
"177.914005"
"$GPRMC,215607,A,2615.1410,N,08000.0781,W,2.9,299.6,260615,7.1,"
"##MN+00 00 54 0412 02886 6753 079504 023843 197"
"177.914051"
"$GPRMC,215611,A,2615.1425,N,08000.0813,W,2.8,299.2,260615,7.1,"
"##MN+00 00 54 0413 02885 6751 631232 023860 197"
"177.914097"
"$GPRMC,215615,A,2615.1443,N,08000.0845,W,2.8,299.3,260615,7.1,"
"##MN+00 00 57 0414 02886 6748 627712 023850 197"
"177.914143"
"#increment_net"
"$GPRMC,215619,A,2615.1458,N,08000.0876,W,2.8,299.6,260615,7.1,"
"##MN-00 00 50 0416 02886 6746 624160 023866 197"
"177.91419"
"$GPRMC,215623,A,2615.1474,N,08000.0907,W,2.8,299.4,260615,7.1,"
"##MN-00 00 52 0417 02886 6744 623312 023853 197"
"177.914236"
"$GPRMC,215627,A,2615.1490,N,08000.0939,W,2.9,298.8,260615,7.1,"
"##MN-00 00 51 0418 02887 6741 620704 023864 197"
"177.914294"
"$GPRMC,215631,A,2615.1505,N,08000.0969,W,2.8,298.4,260615,7.1,"
"##MN-00 00 53 0419 02889 6739 616248 023865 197"
"177.91434"
"$GPRMC,215635,A,2615.1519,N,08000.1001,W,2.9,297.4,260615,7.1,"
"##MN-00 00 51 0420 02888 6737 611824 023872 197"
"177.914387"
"$GPRMC,215639,A,2615.1530,N,08000.1029,W,2.9,297.2,260615,7.1,"
"##MN-00 00 56 0422 02891 6734 604696 023874 197"
"177.914433"
"$GPRMC,215643,A,2615.1545,N,08000.1059,W,2.9,297.1,260615,7.1,"
"##MN-00 00 54 0423 02892 6732 597584 023886 197"
"177.914479"
"$GPRMC,215647,A,2615.1562,N,08000.1089,W,2.9,297.3,260615,7.1,"
"##MN-00 00 53 0424 02892 6730 595416 023887 197"
"177.914525"
"$GPRMC,215651,A,2615.1577,N,08000.1123,W,2.9,297.0,260615,7.1,"
"##MN-00 00 51 0426 02893 6727 595040 023893 197"
"177.914572"
"$GPRMC,215655,A,2615.1588,N,08000.1150,W,2.9,297.2,260615,7.1,"
"##MN-00 00 49 0427 02894 6725 595048 023883 197"
"177.914618"
"$GPRMC,215659,A,2615.1602,N,08000.1179,W,2.9,297.5,260615,7.1,"
"##MN-00 00 51 0428 02893 6723 595072 023893 197"
"177.914664"
"$GPRMC,215703,A,2615.1617,N,08000.1211,W,2.9,297.7,260615,7.1,"
"##MN-00 00 50 0430 02894 6720 595112 023896 197"
"177.914711"
"$GPRMC,215707,A,2615.1635,N,08000.1244,W,2.9,297.6,260615,7.1,"
"##MN-00 00 54 0431 02893 6718 595168 023904 197"
"177.914757"
"$GPRMC,215711,A,2615.1649,N,08000.1275,W,2.9,297.8,260615,7.1,"
"##MN-00 00 51 0432 02895 6716 595200 023861 197"
"177.914803"
"$GPRMC,215715,A,2615.1664,N,08000.1306,W,2.9,298.1,260615,7.1,"
"##MN-00 00 51 0433 02894 6713 465160 023835 197"
"177.91485"
"$GPRMC,215719,A,2615.1682,N,08000.1342,W,3.0,298.3,260615,7.1,"
"##MN-00 00 50 0435 02894 6711 613936 023861 197"
"177.914896"
"$GPRMC,215723,A,2615.1699,N,08000.1374,W,3.0,298.3,260615,7.1,"
"##MN-00 00 50 0436 02895 6709 587264 023849 197"
"177.914942"
"$GPRMC,215727,A,2615.1716,N,08000.1409,W,3.0,299.4,260615,7.1,"
"##MN-00 00 54 0437 02893 6706 587296 023870 197"
"177.914988"
"$GPRMC,215731,A,2615.1732,N,08000.1439,W,3.1,299.9,260615,7.1,"
"##MN-00 00 49 0439 02892 6704 580656 023861 197"
"177.915035"
"$GPRMC,215735,A,2615.1751,N,08000.1471,W,3.1,300.7,260615,7.1,"
"##MN-00 00 49 0440 02891 6702 531136 023881 197"
"177.915081"
"$GPRMC,215739,A,2615.1771,N,08000.1510,W,3.2,301.3,260615,7.1,"
"##MN-00 00 50 0441 02891 6700 598592 023867 197"
"177.915127"
"$GPRMC,215743,A,2615.1793,N,08000.1544,W,3.2,301.7,260615,7.1,"
"##MN-00 00 48 0442 02891 6697 572248 023874 197"
"177.915174"
"$GPRMC,215747,A,2615.1815,N,08000.1579,W,3.3,301.9,260615,7.1,"
"##MN-00 00 51 0444 02889 6695 562432 023878 197"
"177.91522"
"$GPRMC,215751,A,2615.1836,N,08000.1620,W,3.3,301.7,260615,7.1,"
"##MN-00 00 47 0445 02890 6693 568256 023864 197"
"177.915266"
"$GPRMC,215755,A,2615.1855,N,08000.1659,W,3.4,302.5,260615,7.1,"
"##MN-00 00 52 0446 02889 6691 563408 023872 197"
"177.915313"
"$GPRMC,215759,A,2615.1880,N,08000.1698,W,3.5,303.3,260615,7.1,"
"##MN-00 00 48 0448 02887 6689 284024 023889 197"
"177.915359"
"$GPRMC,215803,A,2615.1904,N,08000.1734,W,3.5,303.8,260615,7.1,"
"##MN-00 00 50 0449 02884 6686 558096 023875 197"
"177.915405"
"$GPRMC,215807,A,2615.1926,N,08000.1767,W,3.5,304.5,260615,7.1,"
"##MN-00 00 50 0450 02886 6684 435192 023879 197"
"177.915451"
"$GPRMC,215811,A,2615.1951,N,08000.1803,W,3.6,304.8,260615,7.1,"
"##MN-00 00 52 0451 02886 6682 551904 023896 197"
"177.915498"
"$GPRMC,215815,A,2615.1975,N,08000.1837,W,3.6,305.2,260615,7.1,"
"##MN-00 00 50 0453 02882 6680 542552 023910 197"
"177.915544"
"$GPRMC,215819,A,2615.2007,N,08000.1869,W,3.7,305.6,260615,7.1,"
"##MN-00 00 52 0454 02880 6678 785240 023916 197"
"177.91559"
"$GPRMC,215823,A,2615.2035,N,08000.1902,W,3.7,306.3,260615,7.1,"
"##MN-00 00 48 0455 02881 6675 538544 023914 197"
"177.915637"
"$GPRMC,215827,A,2615.2061,N,08000.1940,W,3.7,306.8,260615,7.1,"
"##MN-00 00 51 0456 02879 6673 538656 023919 197"
"177.915683"
"$GPRMC,215831,A,2615.2086,N,08000.1977,W,3.8,307.0,260615,7.1,"
"##MN-00 00 48 0458 02877 6671 540464 023903 197"
"177.915729"
"$GPRMC,215835,A,2615.2112,N,08000.2014,W,3.8,307.4,260615,7.1,"
"##MN-00 00 49 0459 02876 6669 537776 023909 197"
"177.915775"
"$GPRMC,215839,A,2615.2139,N,08000.2053,W,3.9,307.9,260615,7.1,"
"##MN-00 00 46 0460 02873 6667 538672 023891 197"
"177.915822"
"$GPRMC,215844,A,2615.2175,N,08000.2103,W,3.9,308.6,260615,7.1,"
"##MN-00 00 46 0462 02875 6665 538680 023890 197"
"177.915868"
"$GPRMC,215847,A,2615.2195,N,08000.2132,W,4.0,308.8,260615,7.1,"
"##MN-00 00 49 0463 02872 6662 537760 023851 197"
"177.915914"
"$GPRMC,215851,A,2615.2224,N,08000.2168,W,4.0,309.2,260615,7.1,"
"##MN-00 00 50 0464 02872 6660 539104 023845 197"
"177.915961"
"$GPRMC,215855,A,2615.2253,N,08000.2207,W,4.0,310.0,260615,7.1,"
"##MN-00 00 49 0465 02869 6658 537728 023837 197"
"177.916007"
"$GPRMC,215859,A,2615.2284,N,08000.2247,W,4.1,310.4,260615,7.1,"
"##MN-00 00 49 0467 02863 6656 538600 023838 197"
"177.916053"
"$GPRMC,215904,A,2615.2321,N,08000.2295,W,4.2,310.7,260615,7.1,"
"##MN-00 00 46 0468 02863 6654 411144 023860 197"
"177.9161"
"$GPRMC,215908,A,2615.2353,N,08000.2334,W,4.2,311.2,260615,7.1,"
"##MN-00 00 48 0469 02863 6652 528720 023839 197"
"177.916146"
"$GPRMC,215912,A,2615.2385,N,08000.2374,W,4.3,311.8,260615,7.1,"
"##MN-00 00 48 0471 02859 6650 527352 023854 197"
"177.916192"
"$GPRMC,215916,A,2615.2415,N,08000.2413,W,4.3,311.9,260615,7.1,"
"##MN-00 00 49 0472 02858 6648 519760 023854 197"
"177.916238"
"$GPRMC,215920,A,2615.2448,N,08000.2453,W,4.3,312.4,260615,7.1,"
"##MN-00 00 54 0473 02856 6646 522904 023864 197"
"177.916285"
"$GPRMC,215924,A,2615.2482,N,08000.2491,W,4.3,312.6,260615,7.1,"
"##MN-00 00 50 0474 02855 6643 517120 023856 197"
"177.916331"
"$GPRMC,215928,A,2615.2515,N,08000.2533,W,4.4,313.4,260615,7.1,"
"##MN-00 00 54 0476 02852 6641 519344 023862 197"
"177.916377"
"$GPRMC,215932,A,2615.2545,N,08000.2573,W,4.4,313.9,260615,7.1,"
"##MN-00 00 46 0477 02850 6640 519776 023861 197"
"177.916424"
"$GPRMC,215936,A,2615.2577,N,08000.2613,W,4.4,314.5,260615,7.1,"
"##MN-00 00 51 0478 02847 6637 639912 023861 197"
"177.91647"
"$GPRMC,215940,A,2615.2612,N,08000.2650,W,4.5,315.1,260615,7.1,"
"##MN-00 00 51 0479 02848 6635 509016 023853 197"
"177.916516"
"$GPRMC,215944,A,2615.2648,N,08000.2689,W,4.5,315.4,260615,7.1,"
"##MN-00 00 48 0481 02845 6633 512608 023861 197"
"177.916562"
"$GPRMC,215948,A,2615.2686,N,08000.2725,W,4.5,316.0,260615,7.1,"
"##MN-00 00 51 0482 02842 6631 509448 023867 197"
"177.916609"
"$GPRMC,215952,A,2615.2724,N,08000.2762,W,4.6,316.4,260615,7.1,"
"##MN-00 00 50 0483 02841 6629 505456 023877 197"
"177.916655"
"$GPRMC,215956,A,2615.2762,N,08000.2800,W,4.6,316.7,260615,7.1,"
"##MN-00 00 46 0485 02837 6627 507256 023871 197"
"177.916701"
"$GPRMC,220000,A,2615.2802,N,08000.2841,W,4.6,317.3,260615,7.1,"
"##MN-00 00 46 0486 02836 6625 512592 023863 197"
"177.916748"
"$GPRMC,220004,A,2615.2841,N,08000.2879,W,4.7,317.8,260615,7.1,"
"##MN-00 00 45 0487 02834 6623 506792 023879 197"
"177.916794"
"$GPRMC,220008,A,2615.2881,N,08000.2919,W,4.8,318.1,260615,7.1,"
"##MN-00 00 50 0488 02831 6621 498336 023869 197"
"177.91684"
"$GPRMC,220012,A,2615.2924,N,08000.2959,W,4.8,318.7,260615,7.1,"
"##MN-00 00 50 0490 02828 6619 499216 023873 197"
"177.916887"
"$GPRMC,220016,A,2615.2966,N,08000.3000,W,4.8,319.0,260615,7.1,"
"##MN-00 00 48 0491 02826 6618 494768 023879 197"
"177.916933"
"$GPRMC,220020,A,2615.3008,N,08000.3040,W,4.9,319.4,260615,7.1,"
"##MN-00 00 45 0492 02823 6615 489424 023891 197"
"177.916979"
"$GPRMC,220024,A,2615.3051,N,08000.3079,W,4.9,320.0,260615,7.1,"
"##MN-00 00 46 0493 02823 6613 484496 023897 197"
"177.917025"
"$GPRMC,220028,A,2615.3094,N,08000.3119,W,4.9,320.4,260615,7.1,"
"##MN-00 00 46 0495 02821 6612 484896 023888 197"
"177.917072"
"$GPRMC,220032,A,2615.3138,N,08000.3158,W,4.9,321.1,260615,7.1,"
"##MN-00 00 50 0496 02821 6609 481784 023895 197"
"177.917118"
"$GPRMC,220036,A,2615.3187,N,08000.3195,W,5.0,321.7,260615,7.1,"
"##MN-00 00 45 0497 02816 6608 973760 023898 197"
"177.917164"
"$GPRMC,220040,A,2615.3231,N,08000.3230,W,5.0,322.2,260615,7.1,"
"##MN-00 00 47 0498 02812 6606 482272 023884 197"
"177.917211"
"$GPRMC,220044,A,2615.3277,N,08000.3266,W,5.1,322.4,260615,7.1,"
"##MN-00 00 48 0500 02812 6604 481328 023890 197"
"177.917257"
"$GPRMC,220048,A,2615.3324,N,08000.3305,W,5.1,323.0,260615,7.1,"
"##MN-00 00 47 0501 02808 6602 481320 023895 197"
"177.917303"
"$GPRMC,220052,A,2615.3371,N,08000.3343,W,5.2,323.3,260615,7.1,"
"##MN-00 00 52 0502 02805 6600 359248 023897 197"
"177.917349"
"$GPRMC,220056,A,2615.3419,N,08000.3381,W,5.2,323.8,260615,7.1,"
"##MN-00 00 47 0503 02805 6598 489280 023891 197"
"177.917396"
"$GPRMC,220100,A,2615.3466,N,08000.3418,W,5.2,324.1,260615,7.1,"
"##MN-00 00 51 0505 02804 6596 479440 023897 197"
"177.917442"
"$GPRMC,220104,A,2615.3516,N,08000.3457,W,5.2,324.7,260615,7.1,"
"##MN-00 00 49 0506 02802 6595 482944 023891 197"
"177.917488"
"$GPRMC,220108,A,2615.3564,N,08000.3494,W,5.3,325.0,260615,7.1,"
"##MN-00 00 51 0507 02798 6593 478960 023892 197"
"177.917546"
"$GPRMC,220112,A,2615.3614,N,08000.3531,W,5.3,325.4,260615,7.1,"
"##MN-00 00 50 0509 02797 6591 483856 023889 197"
"177.917593"
"$GPRMC,220116,A,2615.3664,N,08000.3569,W,5.3,325.9,260615,7.1,"
"##MN-00 00 51 0510 02793 6589 478944 023883 197"
