" Tow: 6WS-B   RVWS/WS15161"
" Date: 26/06/2015"
" Temperature Probe #  4762    Conductivity Probe #  710"
" Pressure Probe #  159"
" Flow Meter Calibration  4.71 (m/count)  "
"177.723912"
"$GPRMC,172222,A,2559.7753,N,07959.2292,W,0.9,51.8,260615,7.0,W"
"##MN-00 00 87 0000 01540 5247 385034 827718 195"
"177.723958"
"$GPRMC,172227,A,2559.7757,N,07959.2276,W,0.9,61.6,260615,7.0,W"
"##MN-00 00 87 0000 01539 5242 398878 827480 195"
"177.724005"
"$GPRMC,172231,A,2559.7760,N,07959.2262,W,1.0,68.3,260615,7.0,W"
"##MN-00 00 87 0000 01540 5237 399076 827752 195"
"177.724051"
"$GPRMC,172235,A,2559.7760,N,07959.2248,W,1.0,73.3,260615,7.0,W"
"##MN-00 00 87 0000 01540 5232 399112 827616 195"
"177.724097"
"$GPRMC,172239,A,2559.7760,N,07959.2234,W,1.0,79.5,260615,7.0,W"
"##MN-00 00 87 0000 01540 5227 399566 827752 195"
"177.724144"
"$GPRMC,172243,A,2559.7762,N,07959.2221,W,1.0,82.4,260615,7.0,W"
"##MN-00 00 87 0000 01540 5222 400721 827751 195"
"177.72419"
"$GPRMC,172247,A,2559.7760,N,07959.2209,W,1.0,86.3,260615,7.0,W"
"##MN-00 00 87 0000 01540 5217 401656 827550 195"
"177.724236"
"$GPRMC,172251,A,2559.7760,N,07959.2197,W,0.9,88.5,260615,7.0,W"
"##MN-00 00 87 0000 01540 5213 402709 827684 195"
"177.724282"
"$GPRMC,172255,A,2559.7758,N,07959.2186,W,0.9,92.1,260615,7.0,W"
"##MN-00 00 87 0000 01542 5208 403366 827547 195"
"177.724329"
"$GPRMC,172259,A,2559.7757,N,07959.2175,W,0.9,95.7,260615,7.0,W"
"##MN-00 00 87 0000 01540 5204 403098 827683 195"
"177.724375"
"$GPRMC,172303,A,2559.7751,N,07959.2162,W,0.8,99.9,260615,7.0,W"
"##MN-00 00 87 0000 01541 5199 403415 827617 195"
"177.724421"
"$GPRMC,172307,A,2559.7749,N,07959.2153,W,0.8,103.8,260615,7.0,"
"##MN-00 00 87 0000 01540 5195 403528 827682 195"
"177.724468"
"$GPRMC,172311,A,2559.7747,N,07959.2147,W,0.8,107.4,260615,7.0,"
"##MN-00 00 87 0000 01540 5191 403421 827547 195"
"177.724514"
"$GPRMC,172315,A,2559.7744,N,07959.2139,W,0.7,110.7,260615,7.0,"
"##MN-00 00 87 0000 01541 5187 403684 827550 195"
"177.72456"
"$GPRMC,172319,A,2559.7740,N,07959.2131,W,0.7,113.0,260615,7.0,"
"##MN-00 00 84 0000 01542 5183 404503 827683 195"
"177.724607"
"$GPRMC,172323,A,2559.7737,N,07959.2121,W,0.7,114.5,260615,7.0,"
"##MN-00 00 79 0000 01541 5179 405763 827679 195"
"177.724653"
"$GPRMC,172327,A,2559.7731,N,07959.2112,W,0.7,116.1,260615,7.0,"
"##MN-00 00 76 0000 01542 5175 406699 827544 195"
"177.724699"
"$GPRMC,172331,A,2559.7729,N,07959.2107,W,0.7,116.8,260615,7.0,"
"##MN-00 00 76 0000 01542 5171 407363 827474 195"
"177.724745"
"$GPRMC,172335,A,2559.7727,N,07959.2099,W,0.8,117.0,260615,7.0,"
"##MN-00 00 55 0000 01542 5167 407453 827747 195"
"177.724792"
"$GPRMC,172339,A,2559.7724,N,07959.2089,W,0.8,115.3,260615,7.0,"
"##MN-00 00 51 0000 01542 5164 408102 827751 195"
"177.724838"
"$GPRMC,172343,A,2559.7721,N,07959.2079,W,0.9,113.1,260615,7.0,"
"##MN-00 00 51 0000 01541 5160 408730 827684 195"
"177.724884"
"$GPRMC,172347,A,2559.7719,N,07959.2066,W,0.9,109.7,260615,7.0,"
"##MN-00 00 51 0000 01541 5157 410537 827616 195"
"177.724931"
"$GPRMC,172351,A,2559.7717,N,07959.2056,W,1.0,107.0,260615,7.0,"
"##MN-00 00 51 0000 01542 5153 412841 827683 195"
"177.724977"
"$GPRMC,172355,A,2559.7715,N,07959.2039,W,1.0,103.5,260615,7.0,"
"##MN-00 00 51 0000 01543 5149 413903 827683 195"
"177.725023"
"$GPRMC,172359,A,2559.7715,N,07959.2027,W,1.0,100.2,260615,7.0,"
"##MN-00 00 51 0000 01543 5146 415955 827617 195"
"177.725081"
"$GPRMC,172403,A,2559.7713,N,07959.2014,W,1.0,96.9,260615,7.0,W"
"##MN-00 00 51 0001 01542 5142 418280 827684 195"
"177.725127"
"$GPRMC,172407,A,2559.7713,N,07959.2000,W,1.0,94.7,260615,7.0,W"
"##MN-00 00 51 0001 01543 5139 419626 827677 195"
"177.725174"
"$GPRMC,172411,A,2559.7713,N,07959.1987,W,1.0,92.9,260615,7.0,W"
"##MN-00 00 51 0001 01542 5136 419644 827747 195"
"177.72522"
"$GPRMC,172415,A,2559.7713,N,07959.1975,W,1.0,91.2,260615,7.0,W"
"##MN-00 00 13 0002 01544 5132 426913 225648 195"
"177.725266"
"$GPRMC,172419,A,2559.7715,N,07959.1964,W,0.9,89.2,260615,7.0,W"
"##MN-00 00 07 0003 01543 5129 430523 201598 195"
"177.725312"
"$GPRMC,172423,A,2559.7719,N,07959.1955,W,0.8,86.8,260615,7.0,W"
"##MN-00 00 09 0004 01544 5126 433229 202592 195"
"177.725359"
"$GPRMC,172427,A,2559.7724,N,07959.1947,W,0.8,83.5,260615,7.0,W"
"##MN-00 00 09 0005 01544 5123 432800 204526 195"
"177.725405"
"$GPRMC,172431,A,2559.7727,N,07959.1940,W,0.8,78.6,260615,7.0,W"
"##MN-00 00 07 0006 01544 5120 432952 204077 195"
"177.725451"
"$GPRMC,172435,A,2559.7733,N,07959.1934,W,0.7,73.0,260615,7.0,W"
"##MN-00 00 06 0007 01548 5118 434348 203038 195"
"177.725498"
"$GPRMC,172439,A,2559.7737,N,07959.1929,W,0.6,67.1,260615,7.0,W"
"##MN-00 00 06 0008 01549 5116 435937 203550 195"
"177.725544"
"$GPRMC,172443,A,2559.7740,N,07959.1924,W,0.6,61.6,260615,7.0,W"
"##MN-00 00 06 0010 01551 5114 436854 203563 195"
"177.72559"
"$GPRMC,172447,A,2559.7747,N,07959.1919,W,0.5,56.9,260615,7.0,W"
"##MN-00 00 06 0011 01554 5112 437785 203823 195"
"177.725637"
"$GPRMC,172451,A,2559.7751,N,07959.1916,W,0.6,52.3,260615,7.0,W"
"##MN-00 00 07 0012 01556 5111 437984 203961 195"
"177.725683"
"$GPRMC,172455,A,2559.7758,N,07959.1911,W,0.6,47.9,260615,7.0,W"
"##MN-00 00 07 0013 01558 5110 439193 204030 195"
"177.725729"
"$GPRMC,172459,A,2559.7764,N,07959.1907,W,0.6,44.1,260615,7.0,W"
"##MN-00 00 07 0015 01560 5110 439852 204177 195"
"177.725775"
"$GPRMC,172503,A,2559.7769,N,07959.1900,W,0.6,41.1,260615,7.0,W"
"##MN-00 00 07 0016 01564 5109 439951 204243 195"
"177.725822"
"$GPRMC,172507,A,2559.7775,N,07959.1896,W,0.6,39.5,260615,7.0,W"
"##MN-00 00 07 0017 01565 5109 440332 204238 195"
"177.725868"
"$GPRMC,172512,A,2559.7783,N,07959.1889,W,0.7,39.0,260615,7.0,W"
"##MN-00 00 07 0018 01569 5109 440822 204429 195"
"177.725914"
"$GPRMC,172516,A,2559.7790,N,07959.1883,W,0.8,39.0,260615,7.0,W"
"##MN-00 00 07 0019 01573 5109 441034 204463 195"
"177.725961"
"$GPRMC,172520,A,2559.7795,N,07959.1877,W,0.8,38.9,260615,7.0,W"
"##MN-00 00 07 0021 01575 5110 441124 204522 195"
"177.726007"
"$GPRMC,172524,A,2559.7804,N,07959.1871,W,0.8,39.8,260615,7.0,W"
"##MN-00 00 07 0022 01579 5110 441214 204556 195"
"177.726053"
"$GPRMC,172528,A,2559.7811,N,07959.1865,W,0.8,41.4,260615,7.0,W"
"##MN-00 00 07 0023 01580 5111 441294 204544 195"
"177.7261"
"$GPRMC,172532,A,2559.7819,N,07959.1857,W,0.8,42.9,260615,7.0,W"
"##MN-00 00 07 0024 01582 5111 441332 204569 195"
"177.726146"
"$GPRMC,172536,A,2559.7826,N,07959.1849,W,0.9,43.5,260615,7.0,W"
"##MN-00 00 07 0025 01586 5112 441356 204581 195"
"177.726192"
"$GPRMC,172540,A,2559.7833,N,07959.1840,W,0.9,44.4,260615,7.0,W"
"##MN-00 00 07 0026 01591 5113 441423 204626 195"
"177.726238"
"$GPRMC,172544,A,2559.7838,N,07959.1832,W,0.9,44.7,260615,7.0,W"
"##MN-00 00 07 0028 01592 5114 441484 204627 195"
"177.726285"
"$GPRMC,172548,A,2559.7845,N,07959.1823,W,0.9,44.8,260615,7.0,W"
"##MN-00 00 07 0029 01594 5115 441511 204599 195"
"177.726331"
"$GPRMC,172552,A,2559.7852,N,07959.1815,W,0.9,44.8,260615,7.0,W"
"##MN-00 00 07 0030 01594 5117 441544 204614 195"
"177.726377"
"$GPRMC,172556,A,2559.7859,N,07959.1807,W,0.9,44.7,260615,7.0,W"
"##MN-00 00 07 0031 01596 5118 441554 204623 195"
"177.726424"
"$GPRMC,172600,A,2559.7867,N,07959.1798,W,0.9,44.5,260615,7.0,W"
"##MN-00 00 07 0033 01601 5119 441567 204623 195"
"177.72647"
"$GPRMC,172604,A,2559.7873,N,07959.1791,W,0.9,44.6,260615,7.0,W"
"##MN-00 00 07 0034 01602 5121 441580 204621 195"
"177.726516"
"$GPRMC,172608,A,2559.7880,N,07959.1783,W,0.9,45.1,260615,7.0,W"
"##MN-00 00 07 0035 01605 5122 441587 204618 195"
"177.726563"
"$GPRMC,172612,A,2559.7888,N,07959.1776,W,0.9,43.9,260615,7.0,W"
"##MN-00 00 07 0036 01607 5124 441615 204614 195"
"177.726609"
"$GPRMC,172616,A,2559.7896,N,07959.1770,W,0.9,43.2,260615,7.0,W"
"##MN-00 00 07 0037 01609 5126 441655 204612 195"
"177.726655"
"$GPRMC,172620,A,2559.7903,N,07959.1763,W,0.9,41.8,260615,7.0,W"
"##MN-00 00 07 0039 01612 5127 441691 204612 195"
"177.726701"
"$GPRMC,172624,A,2559.7914,N,07959.1759,W,0.9,41.4,260615,7.0,W"
"##MN-00 00 06 0040 01614 5129 441714 204609 195"
"177.726748"
"$GPRMC,172628,A,2559.7920,N,07959.1749,W,0.9,41.3,260615,7.0,W"
"##MN-00 00 06 0041 01616 5131 441693 204565 195"
"177.726794"
"$GPRMC,172632,A,2559.7925,N,07959.1743,W,0.8,41.0,260615,7.0,W"
"##MN-00 00 07 0042 01617 5133 441587 204536 195"
"177.72684"
"$GPRMC,172636,A,2559.7932,N,07959.1734,W,0.8,40.3,260615,7.0,W"
"##MN-00 00 07 0044 01620 5135 441385 204476 195"
"177.726887"
"$GPRMC,172640,A,2559.7939,N,07959.1725,W,0.8,39.7,260615,7.0,W"
"##MN-00 00 06 0045 01623 5137 441173 204367 195"
"177.726933"
"$GPRMC,172644,A,2559.7946,N,07959.1715,W,0.8,39.3,260615,7.0,W"
"##MN-00 00 06 0046 01625 5139 440901 204232 195"
"177.726979"
"$GPRMC,172648,A,2559.7953,N,07959.1708,W,0.8,39.2,260615,7.0,W"
"##MN-00 00 07 0047 01626 5141 440529 204126 195"
"177.727025"
"$GPRMC,172652,A,2559.7961,N,07959.1702,W,0.8,38.6,260615,7.0,W"
"##MN-00 00 07 0049 01629 5143 440432 204058 195"
"177.727072"
"$GPRMC,172656,A,2559.7968,N,07959.1696,W,0.8,38.3,260615,7.0,W"
"##MN-00 00 06 0050 01630 5145 440382 204046 195"
"177.727118"
"$GPRMC,172700,A,2559.7974,N,07959.1690,W,0.8,38.2,260615,7.0,W"
"##MN-00 00 06 0051 01634 5147 440416 204045 195"
"177.727164"
"$GPRMC,172704,A,2559.7981,N,07959.1683,W,0.8,38.1,260615,7.0,W"
"##MN-00 00 06 0052 01635 5149 440451 204037 195"
"177.727211"
"$GPRMC,172708,A,2559.7989,N,07959.1679,W,0.8,38.2,260615,7.0,W"
"##MN-00 00 06 0053 01638 5151 440468 204036 195"
"177.727257"
"$GPRMC,172712,A,2559.7997,N,07959.1674,W,0.8,37.1,260615,7.0,W"
"##MN-00 00 06 0055 01642 5153 440444 204009 195"
"177.727303"
"$GPRMC,172716,A,2559.8004,N,07959.1668,W,0.8,36.7,260615,7.0,W"
"##MN-00 00 07 0056 01642 5156 440472 204029 195"
"177.72735"
"$GPRMC,172720,A,2559.8011,N,07959.1661,W,0.8,36.4,260615,7.0,W"
"##MN-00 00 07 0057 01645 5158 440539 204041 195"
"177.727396"
"$GPRMC,172724,A,2559.8022,N,07959.1658,W,0.9,37.1,260615,7.0,W"
"##MN-00 00 07 0058 01650 5160 440704 204087 195"
"177.727442"
"$GPRMC,172728,A,2559.8032,N,07959.1653,W,0.9,37.5,260615,7.0,W"
"##MN-00 00 07 0060 01654 5163 440720 204077 195"
"177.727488"
"$GPRMC,172732,A,2559.8040,N,07959.1646,W,0.9,38.6,260615,7.0,W"
"##MN-00 00 06 0061 01656 5165 440770 204106 195"
"177.727535"
"$GPRMC,172736,A,2559.8046,N,07959.1638,W,0.9,39.1,260615,7.0,W"
"##MN-00 00 07 0062 01659 5167 440700 204090 195"
"177.727581"
"$GPRMC,172740,A,2559.8054,N,07959.1631,W,0.9,40.3,260615,7.0,W"
"##MN-00 00 07 0063 01658 5170 440660 204079 195"
"177.727627"
"$GPRMC,172744,A,2559.8061,N,07959.1623,W,0.9,40.6,260615,7.0,W"
"##MN+00 00 07 0065 01658 5172 440713 204083 195"
"177.727674"
"$GPRMC,172748,A,2559.8069,N,07959.1614,W,0.9,40.4,260615,7.0,W"
"##MN+00 00 07 0066 01659 5175 440806 204112 195"
"177.72772"
"$GPRMC,172752,A,2559.8076,N,07959.1606,W,1.0,40.1,260615,7.0,W"
"##MN+00 00 07 0067 01658 5177 440885 204139 195"
"177.727766"
"$GPRMC,172756,A,2559.8083,N,07959.1599,W,0.9,39.0,260615,7.0,W"
"##MN-00 00 07 0069 01660 5179 440976 204169 195"
"177.727813"
"$GPRMC,172800,A,2559.8091,N,07959.1590,W,0.9,38.1,260615,7.0,W"
"##MN+00 00 07 0070 01660 5182 440979 204157 195"
"177.727859"
"$GPRMC,172804,A,2559.8098,N,07959.1584,W,0.9,37.4,260615,7.0,W"
"##MN+00 00 07 0071 01660 5184 440828 204118 195"
"177.727905"
"$GPRMC,172808,A,2559.8108,N,07959.1579,W,0.9,37.1,260615,7.0,W"
"##MN+00 00 06 0072 01666 5187 440792 204105 195"
"177.727951"
"$GPRMC,172812,A,2559.8115,N,07959.1574,W,0.9,36.9,260615,7.0,W"
"##MN-00 00 07 0073 01666 5190 440771 204108 195"
"177.727998"
"#increment_net"
"$GPRMC,172816,A,2559.8123,N,07959.1567,W,0.9,36.7,260615,7.0,W"
"##MN-00 00 07 0074 01666 5192 440903 204165 195"
"177.728044"
"$GPRMC,172820,A,2559.8130,N,07959.1560,W,0.9,36.7,260615,7.0,W"
"##MN-00 00 07 0076 01663 5194 440890 204124 195"
"177.72809"
"$GPRMC,172824,A,2559.8137,N,07959.1553,W,0.9,37.1,260615,7.0,W"
"##MN-00 00 07 0077 01666 5197 440824 204125 195"
"177.728137"
"$GPRMC,172828,A,2559.8143,N,07959.1547,W,0.8,37.2,260615,7.0,W"
"##MN-00 00 07 0078 01662 5199 440888 204135 195"
"177.728194"
"$GPRMC,172832,A,2559.8149,N,07959.1539,W,0.8,37.7,260615,7.0,W"
"##MN-00 00 07 0080 01663 5202 440862 204114 195"
"177.728241"
"$GPRMC,172836,A,2559.8156,N,07959.1531,W,0.8,38.4,260615,7.0,W"
"##MN-00 00 07 0081 01663 5204 440939 204131 195"
"177.728287"
"$GPRMC,172840,A,2559.8163,N,07959.1523,W,0.9,39.4,260615,7.0,W"
"##MN+00 00 07 0082 01662 5207 440929 204145 195"
"177.728333"
"$GPRMC,172844,A,2559.8172,N,07959.1518,W,0.9,40.1,260615,7.0,W"
"##MN+00 00 07 0083 01663 5209 441055 204186 195"
"177.72838"
"$GPRMC,172848,A,2559.8178,N,07959.1508,W,0.9,40.6,260615,7.0,W"
"##MN+00 00 07 0085 01665 5212 440987 204167 195"
"177.728426"
"$GPRMC,172852,A,2559.8185,N,07959.1500,W,0.9,40.5,260615,7.0,W"
"##MN-00 00 07 0086 01663 5215 440946 204152 195"
"177.728472"
"$GPRMC,172856,A,2559.8195,N,07959.1493,W,0.9,40.7,260615,7.0,W"
"##MN+00 00 07 0087 01663 5217 440924 204145 195"
"177.728518"
"$GPRMC,172900,A,2559.8203,N,07959.1487,W,0.9,40.5,260615,7.0,W"
"##MN+00 00 07 0089 01668 5219 440887 204128 195"
"177.728565"
"$GPRMC,172904,A,2559.8212,N,07959.1481,W,0.9,40.1,260615,7.0,W"
"##MN+00 00 07 0090 01665 5222 440917 204141 195"
"177.728611"
"#increment_net"
"$GPRMC,172908,A,2559.8219,N,07959.1471,W,0.9,40.1,260615,7.0,W"
"##MN-00 00 07 0091 01663 5225 440861 204127 195"
"177.728657"
"$GPRMC,172912,A,2559.8225,N,07959.1461,W,0.9,40.3,260615,7.0,W"
"##MN-00 00 07 0092 01661 5227 440814 204096 195"
"177.728704"
"$GPRMC,172916,A,2559.8234,N,07959.1456,W,0.9,40.6,260615,7.0,W"
"##MN-00 00 07 0094 01661 5230 440812 204102 195"
"177.72875"
"$GPRMC,172920,A,2559.8242,N,07959.1450,W,0.9,41.1,260615,7.0,W"
"##MN-00 00 07 0095 01662 5232 440851 204116 195"
"177.728796"
"$GPRMC,172924,A,2559.8250,N,07959.1444,W,0.9,41.1,260615,7.0,W"
"##MN-00 00 07 0096 01658 5235 440845 204120 195"
"177.728843"
"$GPRMC,172928,A,2559.8257,N,07959.1436,W,0.9,40.8,260615,7.0,W"
"##MN-00 00 07 0097 01659 5238 440912 204155 195"
"177.728889"
"$GPRMC,172932,A,2559.8264,N,07959.1429,W,0.9,40.0,260615,7.0,W"
"##MN-00 00 07 0099 01659 5240 440945 204154 195"
"177.728935"
"$GPRMC,172936,A,2559.8274,N,07959.1423,W,0.9,38.5,260615,7.0,W"
"##MN+00 00 07 0100 01657 5242 440953 204151 195"
"177.728981"
"$GPRMC,172940,A,2559.8281,N,07959.1415,W,0.9,36.9,260615,7.0,W"
"##MN+00 00 07 0101 01658 5245 440859 204100 195"
"177.729028"
"$GPRMC,172944,A,2559.8289,N,07959.1409,W,0.9,35.9,260615,7.0,W"
"##MN+00 00 07 0103 01657 5247 440801 204111 195"
"177.729074"
"$GPRMC,172948,A,2559.8297,N,07959.1403,W,0.9,35.2,260615,7.0,W"
"##MN+00 00 07 0104 01657 5250 440818 204105 195"
"177.72912"
"$GPRMC,172952,A,2559.8307,N,07959.1397,W,0.9,34.8,260615,7.0,W"
"##MN+00 00 07 0105 01658 5253 440843 204114 195"
"177.729167"
"$GPRMC,172956,A,2559.8315,N,07959.1389,W,0.9,34.5,260615,7.0,W"
"##MN+00 00 07 0106 01663 5256 440861 204132 195"
"177.729213"
"#increment_net"
"$GPRMC,173000,A,2559.8322,N,07959.1382,W,0.9,34.1,260615,7.0,W"
"##MN-00 00 07 0108 01662 5258 440908 204133 195"
"177.729259"
"$GPRMC,173004,A,2559.8331,N,07959.1376,W,0.9,33.8,260615,7.0,W"
"##MN-00 00 07 0109 01659 5261 440926 204142 195"
"177.729306"
"$GPRMC,173009,A,2559.8340,N,07959.1368,W,0.9,33.5,260615,7.0,W"
"##MN-00 00 07 0110 01658 5263 440975 204151 195"
"177.729352"
"$GPRMC,173013,A,2559.8347,N,07959.1361,W,0.9,33.8,260615,7.0,W"
"##MN-00 00 07 0112 01659 5266 440899 204126 195"
"177.729398"
"$GPRMC,173017,A,2559.8357,N,07959.1354,W,0.9,34.7,260615,7.0,W"
"##MN-00 00 07 0113 01658 5268 440869 204130 195"
"177.729444"
"$GPRMC,173021,A,2559.8365,N,07959.1347,W,0.9,35.1,260615,7.0,W"
"##MN+00 00 07 0114 01657 5271 440900 204120 195"
"177.729491"
"$GPRMC,173025,A,2559.8375,N,07959.1341,W,1.0,35.0,260615,7.0,W"
"##MN+00 00 07 0116 01658 5273 440744 204087 195"
"177.729537"
"$GPRMC,173029,A,2559.8385,N,07959.1335,W,1.0,34.7,260615,7.0,W"
"##MN+00 00 07 0117 01656 5276 440716 204083 195"
"177.729583"
"$GPRMC,173033,A,2559.8394,N,07959.1328,W,1.0,34.2,260615,7.0,W"
"##MN+00 00 07 0118 01656 5278 440826 204121 195"
"177.72963"
"$GPRMC,173037,A,2559.8402,N,07959.1321,W,1.0,34.4,260615,7.0,W"
"##MN+00 00 07 0120 01656 5281 440878 204113 195"
"177.729676"
"$GPRMC,173041,A,2559.8412,N,07959.1315,W,1.0,34.1,260615,7.0,W"
"##MN+00 00 07 0121 01660 5284 440895 204131 195"
"177.729722"
"$GPRMC,173045,A,2559.8422,N,07959.1309,W,1.0,34.2,260615,7.0,W"
"##MN-00 00 07 0122 01656 5286 440944 204141 195"
"177.729769"
"#increment_net"
"$GPRMC,173049,A,2559.8432,N,07959.1303,W,1.0,34.9,260615,7.0,W"
"##MN-00 00 07 0123 01656 5289 440861 204107 195"
"177.729815"
"$GPRMC,173053,A,2559.8441,N,07959.1296,W,1.0,34.9,260615,7.0,W"
"##MN-00 00 07 0125 01657 5292 440781 204091 195"
"177.729861"
"$GPRMC,173057,A,2559.8451,N,07959.1288,W,1.0,34.7,260615,7.0,W"
"##MN-00 00 07 0126 01655 5294 440754 204088 195"
"177.729907"
"$GPRMC,173101,A,2559.8459,N,07959.1280,W,1.0,35.4,260615,7.0,W"
"##MN-00 00 07 0128 01656 5297 440840 204105 195"
"177.729954"
"$GPRMC,173105,A,2559.8467,N,07959.1272,W,1.0,35.4,260615,7.0,W"
"##MN-00 00 07 0129 01656 5299 440871 204114 195"
"177.73"
"$GPRMC,173109,A,2559.8476,N,07959.1264,W,1.0,35.5,260615,7.0,W"
"##MN+00 00 07 0130 01657 5302 440829 204108 195"
"177.730046"
"$GPRMC,173113,A,2559.8481,N,07959.1257,W,1.0,35.4,260615,7.0,W"
"##MN+00 00 07 0132 01655 5304 440832 204101 195"
"177.730093"
"$GPRMC,173117,A,2559.8491,N,07959.1249,W,1.0,34.8,260615,7.0,W"
"##MN+00 00 07 0133 01654 5307 440830 204090 195"
"177.730139"
"$GPRMC,173121,A,2559.8499,N,07959.1244,W,1.0,34.6,260615,7.0,W"
"##MN-00 00 07 0135 01655 5309 440714 204070 195"
"177.730185"
"$GPRMC,173125,A,2559.8510,N,07959.1238,W,1.0,34.3,260615,7.0,W"
"##MN+00 00 07 0136 01653 5312 440743 204090 195"
"177.730231"
"$GPRMC,173129,A,2559.8519,N,07959.1232,W,1.0,34.0,260615,7.0,W"
"##MN+00 00 07 0137 01655 5314 440847 204096 195"
"177.730278"
"$GPRMC,173133,A,2559.8528,N,07959.1226,W,1.0,34.0,260615,7.0,W"
"##MN+00 00 07 0139 01659 5317 440872 204112 195"
"177.730324"
"#increment_net"
"$GPRMC,173137,A,2559.8538,N,07959.1218,W,0.9,33.5,260615,7.0,W"
"##MN-00 00 07 0140 01659 5319 440898 204136 195"
"177.73037"
"$GPRMC,173141,A,2559.8546,N,07959.1211,W,0.9,33.1,260615,7.0,W"
"##MN-00 00 07 0142 01668 5322 440973 204167 195"
"177.730417"
"$GPRMC,173145,A,2559.8553,N,07959.1204,W,0.9,33.2,260615,7.0,W"
"##MN-00 00 07 0143 01677 5324 441052 204172 195"
"177.730463"
"$GPRMC,173149,A,2559.8560,N,07959.1197,W,0.9,35.3,260615,7.0,W"
"##MN-00 00 07 0145 01682 5327 441177 204218 195"
"177.730509"
"$GPRMC,173153,A,2559.8566,N,07959.1188,W,0.9,38.8,260615,7.0,W"
"##MN-00 00 06 0147 01686 5329 441291 204227 195"
"177.730556"
"$GPRMC,173157,A,2559.8571,N,07959.1180,W,0.9,41.9,260615,7.0,W"
"##MN-00 00 07 0148 01685 5332 441328 204256 195"
"177.730602"
"$GPRMC,173201,A,2559.8578,N,07959.1171,W,0.9,44.2,260615,7.0,W"
"##MN-00 00 07 0150 01686 5334 441269 204214 195"
"177.730648"
"$GPRMC,173205,A,2559.8585,N,07959.1162,W,0.9,45.6,260615,7.0,W"
"##MN-00 00 07 0152 01686 5336 441058 204177 195"
"177.730694"
"$GPRMC,173209,A,2559.8593,N,07959.1157,W,0.9,46.6,260615,7.0,W"
"##MN-00 00 07 0153 01685 5339 441133 204189 195"
"177.730741"
"$GPRMC,173213,A,2559.8600,N,07959.1149,W,0.9,47.7,260615,7.0,W"
"##MN-00 00 07 0155 01682 5341 441004 204148 195"
"177.730787"
"$GPRMC,173217,A,2559.8607,N,07959.1140,W,0.9,48.1,260615,7.0,W"
"##MN-00 00 07 0157 01679 5344 441016 204158 195"
"177.730833"
"$GPRMC,173221,A,2559.8614,N,07959.1130,W,0.9,48.8,260615,7.0,W"
"##MN-00 00 06 0159 01679 5346 441091 204185 195"
"177.73088"
"$GPRMC,173225,A,2559.8621,N,07959.1122,W,0.9,49.2,260615,7.0,W"
"##MN-00 00 07 0160 01677 5349 441088 204175 195"
"177.730926"
"$GPRMC,173229,A,2559.8626,N,07959.1113,W,0.9,49.6,260615,7.0,W"
"##MN-00 00 07 0162 01673 5351 441012 204166 195"
"177.730972"
"$GPRMC,173233,A,2559.8633,N,07959.1105,W,0.9,50.3,260615,7.0,W"
"##MN-00 00 07 0164 01671 5354 440935 204151 195"
"177.731019"
"$GPRMC,173237,A,2559.8639,N,07959.1097,W,0.9,50.9,260615,7.0,W"
"##MN-00 00 07 0165 01671 5356 440989 204151 195"
"177.731065"
"$GPRMC,173241,A,2559.8644,N,07959.1089,W,0.9,51.8,260615,7.0,W"
"##MN-00 00 07 0167 01667 5359 440949 204140 195"
"177.731111"
"$GPRMC,173245,A,2559.8650,N,07959.1081,W,0.8,53.0,260615,7.0,W"
"##MN-00 00 06 0169 01665 5361 440951 204140 195"
"177.731157"
"$GPRMC,173249,A,2559.8654,N,07959.1072,W,0.8,54.4,260615,7.0,W"
"##MN-00 00 07 0170 01660 5364 440942 204136 195"
"177.731204"
"$GPRMC,173253,A,2559.8660,N,07959.1064,W,0.8,56.0,260615,7.0,W"
"##MN-00 00 07 0172 01655 5366 440964 204142 195"
"177.73125"
"$GPRMC,173257,A,2559.8665,N,07959.1054,W,0.9,57.1,260615,7.0,W"
"##MN-00 00 07 0174 01654 5368 440947 204135 195"
"177.731296"
"$GPRMC,173301,A,2559.8669,N,07959.1045,W,0.8,58.0,260615,7.0,W"
"##MN-00 00 06 0175 01649 5370 440921 204134 195"
"177.731343"
"$GPRMC,173305,A,2559.8672,N,07959.1036,W,0.8,59.2,260615,7.0,W"
"##MN-00 00 06 0177 01647 5373 440832 204103 195"
"177.731389"
"$GPRMC,173309,A,2559.8676,N,07959.1027,W,0.8,59.6,260615,7.0,W"
"##MN-00 00 07 0179 01641 5375 440732 204054 195"
"177.731447"
"$GPRMC,173313,A,2559.8682,N,07959.1018,W,0.8,60.0,260615,7.0,W"
"##MN-00 00 07 0180 01639 5378 440610 204023 195"
"177.731493"
"$GPRMC,173317,A,2559.8686,N,07959.1010,W,0.8,59.5,260615,7.0,W"
"##MN-00 00 06 0182 01635 5380 440565 204026 195"
"177.731539"
"$GPRMC,173321,A,2559.8690,N,07959.1001,W,0.8,58.6,260615,7.0,W"
"##MN-00 00 06 0184 01630 5383 440581 204002 195"
"177.731586"
"$GPRMC,173325,A,2559.8694,N,07959.0991,W,0.8,58.3,260615,7.0,W"
"##MN-00 00 07 0185 01630 5385 440381 203947 195"
"177.731632"
"$GPRMC,173329,A,2559.8700,N,07959.0981,W,0.8,58.2,260615,7.0,W"
"##MN-00 00 07 0187 01623 5387 440287 203931 195"
"177.731678"
"$GPRMC,173333,A,2559.8704,N,07959.0971,W,0.8,57.6,260615,7.0,W"
"##MN-00 00 06 0189 01619 5390 440228 203922 195"
"177.731725"
"$GPRMC,173337,A,2559.8709,N,07959.0961,W,0.9,57.3,260615,7.0,W"
"##MN-00 00 07 0190 01618 5392 440172 203916 195"
"177.731771"
"$GPRMC,173341,A,2559.8716,N,07959.0950,W,0.9,56.4,260615,7.0,W"
"##MN-00 00 07 0192 01617 5394 440148 203918 195"
"177.731817"
"$GPRMC,173345,A,2559.8722,N,07959.0938,W,1.0,56.9,260615,7.0,W"
"##MN-00 00 07 0194 01615 5397 440132 203921 195"
"177.731863"
"$GPRMC,173349,A,2559.8729,N,07959.0925,W,1.1,57.4,260615,7.0,W"
"##MN-00 00 07 0196 01612 5399 440135 203930 195"
"177.73191"
"$GPRMC,173353,A,2559.8734,N,07959.0911,W,1.1,58.3,260615,7.0,W"
"##MN-00 00 07 0197 01610 5401 440147 203936 195"
"177.731956"
"$GPRMC,173357,A,2559.8741,N,07959.0897,W,1.2,59.2,260615,7.0,W"
"##MN-00 00 07 0199 01607 5404 440158 203944 195"
"177.732002"
"$GPRMC,173401,A,2559.8748,N,07959.0883,W,1.3,60.3,260615,7.0,W"
"##MN-00 00 07 0201 01603 5406 440176 203975 195"
"177.732049"
"$GPRMC,173405,A,2559.8755,N,07959.0868,W,1.3,60.3,260615,7.0,W"
"##MN-00 00 07 0202 01600 5409 440241 203998 195"
"177.732095"
"$GPRMC,173409,A,2559.8763,N,07959.0852,W,1.3,60.5,260615,7.0,W"
"##MN-00 00 07 0204 01595 5411 440437 204113 195"
"177.732141"
"$GPRMC,173413,A,2559.8770,N,07959.0837,W,1.4,60.2,260615,7.0,W"
"##MN-00 00 07 0205 01594 5413 440913 204296 195"
"177.732188"
"$GPRMC,173417,A,2559.8780,N,07959.0821,W,1.4,59.6,260615,7.0,W"
"##MN-00 00 07 0207 01591 5416 441194 204428 195"
"177.732234"
"$GPRMC,173421,A,2559.8788,N,07959.0804,W,1.5,59.0,260615,7.0,W"
"##MN-00 00 07 0209 01589 5418 441370 204486 195"
"177.73228"
"$GPRMC,173425,A,2559.8797,N,07959.0787,W,1.5,58.4,260615,7.0,W"
"##MN-00 00 07 0210 01586 5420 441417 204510 195"
"177.732326"
"$GPRMC,173429,A,2559.8806,N,07959.0773,W,1.6,57.0,260615,7.0,W"
"##MN-00 00 07 0212 01585 5422 441430 204517 195"
"177.732373"
"$GPRMC,173433,A,2559.8817,N,07959.0760,W,1.6,56.2,260615,7.0,W"
"##MN-00 00 26 0213 01583 5425 441417 204524 195"
"177.732419"
"$GPRMC,173438,A,2559.8831,N,07959.0739,W,1.7,55.0,260615,7.0,W"
"##MN-00 00 48 0215 01578 5427 441357 204526 195"
"177.732465"
"$GPRMC,173442,A,2559.8842,N,07959.0722,W,1.7,54.9,260615,7.0,W"
"##MN-00 00 07 0217 01579 5430 441321 204542 195"
"177.732512"
"$GPRMC,173446,A,2559.8853,N,07959.0704,W,1.8,54.3,260615,7.0,W"
"##MN-00 00 07 0218 01572 5432 441311 204559 195"
"177.732558"
"$GPRMC,173450,A,2559.8866,N,07959.0685,W,1.8,53.5,260615,7.0,W"
"##MN-00 00 07 0220 01570 5434 441297 204571 195"
"177.732604"
"$GPRMC,173454,A,2559.8878,N,07959.0665,W,1.8,53.1,260615,7.0,W"
"##MN-00 00 07 0221 01568 5436 441276 204572 195"
"177.73265"
"$GPRMC,173458,A,2559.8891,N,07959.0644,W,1.9,53.4,260615,7.0,W"
"##MN-00 00 47 0223 01566 5438 441255 204579 195"
"177.732697"
"$GPRMC,173502,A,2559.8904,N,07959.0624,W,1.9,53.8,260615,7.0,W"
"##MN-00 00 07 0225 01563 5440 441229 204575 195"
"177.732743"
"$GPRMC,173506,A,2559.8917,N,07959.0603,W,1.9,54.1,260615,7.0,W"
"##MN-00 00 07 0226 01560 5443 441175 204570 195"
"177.732789"
"$GPRMC,173509,A,2559.8927,N,07959.0588,W,1.9,54.2,260615,7.0,W"
"##MN-00 00 07 0228 01556 5445 441052 204561 195"
"177.732836"
"$GPRMC,173514,A,2559.8943,N,07959.0561,W,2.1,54.6,260615,7.0,W"
"##MN-00 00 07 0229 01554 5448 440762 204504 195"
"177.732882"
"$GPRMC,173518,A,2559.8957,N,07959.0538,W,2.0,54.8,260615,7.0,W"
"##MN-00 00 07 0231 01550 5449 440447 204457 195"
"177.732928"
"$GPRMC,173522,A,2559.8971,N,07959.0516,W,2.1,55.1,260615,7.0,W"
"##MN-00 00 08 0232 01548 5452 438689 203946 195"
"177.732975"
"$GPRMC,173526,A,2559.8985,N,07959.0494,W,2.1,55.0,260615,7.0,W"
"##MN-00 00 08 0234 01548 5454 435969 203572 195"
"177.733021"
"$GPRMC,173530,A,2559.8998,N,07959.0471,W,2.2,55.1,260615,7.0,W"
"##MN-00 00 09 0235 01550 5456 437116 203774 195"
"177.733067"
"$GPRMC,173534,A,2559.9014,N,07959.0448,W,2.2,55.3,260615,7.0,W"
"##MN-00 00 07 0237 01546 5458 436844 203758 195"
"177.733113"
"$GPRMC,173538,A,2559.9029,N,07959.0424,W,2.3,54.6,260615,7.0,W"
"##MN-00 00 07 0239 01545 5461 434878 203446 195"
"177.73316"
"$GPRMC,173542,A,2559.9044,N,07959.0401,W,2.4,54.3,260615,7.0,W"
"##MN-00 00 07 0240 01543 5463 432925 203155 195"
"177.733206"
"$GPRMC,173546,A,2559.9059,N,07959.0377,W,2.4,54.0,260615,7.0,W"
"##MN-00 00 46 0241 01542 5465 431461 204836 195"
"177.733252"
"$GPRMC,173550,A,2559.9076,N,07959.0351,W,2.4,54.0,260615,7.0,W"
"##MN-00 00 50 0243 01542 5467 431344 257746 195"
"177.733299"
"$GPRMC,173554,A,2559.9092,N,07959.0326,W,2.4,53.9,260615,7.0,W"
"##MN-00 00 49 0243 01543 5470 435661 770978 195"
