" Tow: 6WS-A   RVWS/WS15161"
" Date: 26/06/2015"
" Temperature Probe #  4762    Conductivity Probe #  710"
" Pressure Probe #  159"
" Flow Meter Calibration  4.71 (m/count)  "
"177.689201"
"$GPRMC,163222,A,2555.6666,N,08001.4709,W,1.0,74.0,260615,7.0,W"
"##MN-00 00 87 0000 01502 7688 389131 827052 197"
" Tow: 6WS-A   RVWS/WS15161"
" Date: 26/06/2015"
" Temperature Probe #  4762    Conductivity Probe #  710"
" Pressure Probe #  159"
" Flow Meter Calibration  4.71 (m/count)  "
"177.690139"
"$GPRMC,163344,A,2555.6674,N,08001.4461,W,1.0,89.1,260615,7.0,W"
"##MN-00 00 87 0000 01501 7699 395574 827043 196"
"177.690185"
"$GPRMC,163349,A,2555.6674,N,08001.4444,W,1.0,89.3,260615,7.0,W"
"##MN-00 00 87 0000 01503 7700 397098 826848 196"
"177.690231"
"$GPRMC,163353,A,2555.6674,N,08001.4431,W,1.0,89.2,260615,7.0,W"
"##MN-00 00 87 0000 01503 7701 396583 826914 196"
"177.690278"
"$GPRMC,163357,A,2555.6672,N,08001.4417,W,1.1,89.8,260615,7.0,W"
"##MN-00 00 87 0000 01504 7701 397206 827054 196"
"177.690324"
"$GPRMC,163401,A,2555.6672,N,08001.4404,W,1.1,89.9,260615,7.0,W"
"##MN-00 00 87 0000 01503 7702 397208 826983 196"
"177.69037"
"$GPRMC,163405,A,2555.6671,N,08001.4390,W,1.1,90.3,260615,7.0,W"
"##MN-00 00 87 0000 01502 7703 397215 827050 196"
"177.690417"
"$GPRMC,163409,A,2555.6671,N,08001.4377,W,1.0,90.7,260615,7.0,W"
"##MN-00 00 87 0000 01503 7704 397783 826722 196"
"177.690463"
"$GPRMC,163413,A,2555.6669,N,08001.4363,W,1.0,91.6,260615,7.0,W"
"##MN-00 00 87 0000 01504 7704 398692 826845 196"
"177.690509"
"$GPRMC,163417,A,2555.6668,N,08001.4351,W,1.0,92.4,260615,7.0,W"
"##MN-00 00 87 0000 01504 7705 400186 827251 196"
"177.690556"
"$GPRMC,163421,A,2555.6667,N,08001.4339,W,0.9,93.8,260615,7.0,W"
"##MN-00 00 86 0000 01503 7706 400498 827525 196"
"177.690602"
"$GPRMC,163425,A,2555.6664,N,08001.4327,W,0.9,94.7,260615,7.0,W"
"##MN-00 00 75 0000 01504 7706 400231 827250 196"
"177.690648"
"$GPRMC,163429,A,2555.6661,N,08001.4314,W,0.9,95.9,260615,7.0,W"
"##MN-00 00 68 0000 01504 7707 401047 827331 196"
"177.690694"
"$GPRMC,163433,A,2555.6660,N,08001.4300,W,0.9,97.1,260615,7.0,W"
"##MN-00 00 56 0000 01504 7708 401564 827189 196"
"177.690741"
"$GPRMC,163437,A,2555.6660,N,08001.4286,W,0.9,97.8,260615,7.0,W"
"##MN-00 00 55 0000 01504 7709 401146 826979 196"
"177.690787"
"$GPRMC,163441,A,2555.6657,N,08001.4274,W,0.8,98.9,260615,7.0,W"
"##MN-00 00 54 0000 01503 7710 400975 827322 196"
"177.690833"
"$GPRMC,163445,A,2555.6657,N,08001.4263,W,0.8,98.6,260615,7.0,W"
"##MN-00 00 53 0000 01505 7711 401116 827046 196"
"177.69088"
"$GPRMC,163449,A,2555.6655,N,08001.4253,W,0.8,98.1,260615,7.0,W"
"##MN-00 00 53 0000 01503 7711 401435 827046 196"
"177.690926"
"$GPRMC,163453,A,2555.6655,N,08001.4243,W,0.8,97.0,260615,7.0,W"
"##MN-00 00 53 0000 01504 7712 402627 826647 196"
"177.690972"
"$GPRMC,163457,A,2555.6656,N,08001.4233,W,0.8,95.0,260615,7.0,W"
"##MN-00 00 53 0000 01504 7713 405503 827046 196"
"177.691019"
"$GPRMC,163501,A,2555.6654,N,08001.4223,W,0.9,92.4,260615,7.0,W"
"##MN-00 00 53 0000 01504 7714 405133 827116 196"
"177.691065"
"$GPRMC,163505,A,2555.6656,N,08001.4214,W,0.8,88.9,260615,7.0,W"
"##MN-00 00 53 0000 01505 7715 404271 827180 196"
"177.691111"
"$GPRMC,163509,A,2555.6662,N,08001.4204,W,0.9,82.7,260615,7.0,W"
"##MN-00 00 51 0001 01504 7716 414310 314236 196"
"177.691157"
"$GPRMC,163513,A,2555.6667,N,08001.4195,W,0.9,77.6,260615,7.0,W"
"##MN-00 00 07 0002 01504 7717 430346 218181 196"
"177.691204"
"$GPRMC,163517,A,2555.6671,N,08001.4186,W,0.9,73.5,260615,7.0,W"
"##MN-00 00 11 0003 01503 7717 431248 201618 196"
"177.69125"
"$GPRMC,163521,A,2555.6678,N,08001.4177,W,0.9,68.1,260615,7.0,W"
"##MN-00 00 10 0005 01504 7718 432135 201659 196"
"177.691296"
"$GPRMC,163525,A,2555.6686,N,08001.4168,W,0.9,63.0,260615,7.0,W"
"##MN-00 00 09 0006 01504 7719 432576 202590 196"
"177.691343"
"$GPRMC,163529,A,2555.6695,N,08001.4159,W,1.0,58.0,260615,7.0,W"
"##MN-00 00 10 0007 01505 7719 433995 202857 196"
"177.691389"
"$GPRMC,163533,A,2555.6703,N,08001.4150,W,1.0,53.9,260615,7.0,W"
"##MN-00 00 09 0008 01507 7720 435368 202870 196"
"177.691435"
"$GPRMC,163537,A,2555.6711,N,08001.4140,W,1.0,50.9,260615,7.0,W"
"##MN-00 00 10 0010 01507 7720 436527 203077 196"
"177.691482"
"$GPRMC,163541,A,2555.6720,N,08001.4131,W,1.1,48.0,260615,7.0,W"
"##MN-00 00 09 0011 01512 7721 437524 203466 196"
"177.691528"
"$GPRMC,163545,A,2555.6729,N,08001.4122,W,1.1,45.4,260615,7.0,W"
"##MN-00 00 10 0012 01515 7721 438167 203647 196"
"177.691574"
"$GPRMC,163549,A,2555.6738,N,08001.4113,W,1.1,43.3,260615,7.0,W"
"##MN-00 00 10 0013 01516 7720 438700 203805 196"
"177.69162"
"$GPRMC,163553,A,2555.6746,N,08001.4105,W,1.0,41.8,260615,7.0,W"
"##MN-00 00 10 0015 01519 7720 438913 203559 196"
"177.691667"
"$GPRMC,163557,A,2555.6756,N,08001.4097,W,1.1,40.7,260615,7.0,W"
"##MN-00 00 09 0016 01522 7719 439004 203665 196"
"177.691713"
"$GPRMC,163601,A,2555.6765,N,08001.4088,W,1.1,39.7,260615,7.0,W"
"##MN-00 00 09 0017 01525 7719 439094 203903 196"
"177.691759"
"$GPRMC,163605,A,2555.6774,N,08001.4080,W,1.1,39.1,260615,7.0,W"
"##MN-00 00 09 0018 01526 7718 439188 204065 196"
"177.691806"
"$GPRMC,163609,A,2555.6785,N,08001.4073,W,1.1,38.4,260615,7.0,W"
"##MN-00 00 09 0020 01531 7717 439332 204032 196"
"177.691852"
"$GPRMC,163613,A,2555.6794,N,08001.4064,W,1.1,37.5,260615,7.0,W"
"##MN-00 00 09 0021 01532 7715 439488 204108 196"
"177.691898"
"$GPRMC,163617,A,2555.6805,N,08001.4056,W,1.1,36.5,260615,7.0,W"
"##MN-00 00 09 0022 01535 7714 439706 204125 196"
"177.691944"
"$GPRMC,163621,A,2555.6815,N,08001.4048,W,1.1,36.1,260615,7.0,W"
"##MN-00 00 09 0023 01538 7712 439959 204224 196"
"177.691991"
"$GPRMC,163625,A,2555.6823,N,08001.4040,W,1.1,36.4,260615,7.0,W"
"##MN-00 00 09 0024 01542 7710 440306 204241 196"
"177.692037"
"$GPRMC,163629,A,2555.6833,N,08001.4030,W,1.1,36.5,260615,7.0,W"
"##MN-00 00 09 0026 01545 7708 440643 204263 196"
"177.692083"
"$GPRMC,163633,A,2555.6844,N,08001.4022,W,1.1,36.8,260615,7.0,W"
"##MN-00 00 08 0027 01549 7706 440911 204246 196"
"177.69213"
"$GPRMC,163637,A,2555.6854,N,08001.4013,W,1.1,37.0,260615,7.0,W"
"##MN-00 00 08 0028 01553 7704 441056 204456 196"
"177.692222"
"$GPRMC,163644,A,2555.6872,N,08001.3999,W,1.1,36.3,260615,7.0,W"
"##MN-00 00 09 0030 01556 7700 441156 204471 196"
"177.692269"
"$GPRMC,163649,A,2555.6884,N,08001.3989,W,1.1,36.2,260615,7.0,W"
"##MN-00 00 08 0031 01559 7697 441253 204453 196"
"177.692315"
"$GPRMC,163653,A,2555.6893,N,08001.3979,W,1.1,36.4,260615,7.0,W"
"##MN-00 00 09 0032 01563 7694 441486 204483 196"
"177.692361"
"$GPRMC,163657,A,2555.6902,N,08001.3971,W,1.1,37.0,260615,7.0,W"
"##MN-00 00 08 0034 01566 7692 441668 204521 196"
"177.692407"
"$GPRMC,163701,A,2555.6913,N,08001.3963,W,1.1,37.2,260615,7.0,W"
"##MN-00 00 08 0035 01568 7689 441782 204540 196"
"177.692454"
"$GPRMC,163705,A,2555.6923,N,08001.3954,W,1.1,37.7,260615,7.0,W"
"##MN-00 00 08 0036 01571 7686 441872 204601 196"
"177.6925"
"$GPRMC,163709,A,2555.6933,N,08001.3946,W,1.1,38.0,260615,7.0,W"
"##MN-00 00 08 0037 01573 7683 441922 204620 196"
"177.692546"
"$GPRMC,163713,A,2555.6941,N,08001.3936,W,1.1,38.1,260615,7.0,W"
"##MN-00 00 08 0038 01575 7680 441967 204626 196"
"177.692593"
"$GPRMC,163717,A,2555.6953,N,08001.3928,W,1.1,38.1,260615,7.0,W"
"##MN-00 00 08 0040 01581 7677 441999 204617 196"
"177.692639"
"$GPRMC,163721,A,2555.6964,N,08001.3920,W,1.1,38.4,260615,7.0,W"
"##MN-00 00 08 0041 01582 7674 442034 204636 196"
"177.692685"
"$GPRMC,163725,A,2555.6971,N,08001.3910,W,1.1,39.1,260615,7.0,W"
"##MN-00 00 08 0042 01584 7671 442064 204658 196"
"177.692731"
"$GPRMC,163729,A,2555.6981,N,08001.3901,W,1.1,39.3,260615,7.0,W"
"##MN-00 00 08 0043 01584 7668 442097 204674 196"
"177.692778"
"$GPRMC,163733,A,2555.6991,N,08001.3892,W,1.1,39.6,260615,7.0,W"
"##MN-00 00 08 0044 01590 7665 442126 204681 196"
"177.692824"
"$GPRMC,163737,A,2555.7000,N,08001.3884,W,1.1,40.0,260615,7.0,W"
"##MN-00 00 07 0045 01595 7661 442143 204682 196"
"177.69287"
"$GPRMC,163741,A,2555.7011,N,08001.3876,W,1.1,39.4,260615,7.0,W"
"##MN-00 00 08 0047 01598 7658 442155 204682 196"
"177.692917"
"$GPRMC,163745,A,2555.7021,N,08001.3868,W,1.1,38.4,260615,7.0,W"
"##MN-00 00 08 0048 01600 7654 442161 204680 196"
"177.692963"
"$GPRMC,163749,A,2555.7032,N,08001.3859,W,1.1,37.8,260615,7.0,W"
"##MN-00 00 08 0049 01601 7651 442175 204687 196"
"177.693009"
"$GPRMC,163753,A,2555.7042,N,08001.3852,W,1.1,37.3,260615,7.0,W"
"##MN-00 00 08 0050 01603 7647 442193 204690 196"
"177.693056"
"$GPRMC,163757,A,2555.7050,N,08001.3842,W,1.1,37.2,260615,7.0,W"
"##MN-00 00 08 0051 01604 7644 442202 204702 196"
"177.693102"
"$GPRMC,163801,A,2555.7057,N,08001.3833,W,1.1,37.2,260615,7.0,W"
"##MN-00 00 07 0052 01607 7640 442211 204707 196"
"177.693148"
"$GPRMC,163805,A,2555.7065,N,08001.3824,W,1.1,37.0,260615,7.0,W"
"##MN+00 00 07 0054 01609 7637 442223 204709 196"
"177.693194"
"$GPRMC,163809,A,2555.7076,N,08001.3817,W,1.0,36.4,260615,7.0,W"
"##MN+00 00 07 0055 01612 7633 442237 204714 196"
"177.693241"
"$GPRMC,163813,A,2555.7085,N,08001.3809,W,1.1,35.6,260615,7.0,W"
"##MN+00 00 07 0056 01617 7629 442279 204711 196"
"177.693287"
"$GPRMC,163817,A,2555.7094,N,08001.3801,W,1.1,35.7,260615,7.0,W"
"##MN-00 00 07 0057 01620 7625 442344 204718 196"
"177.693333"
"$GPRMC,163821,A,2555.7104,N,08001.3793,W,1.1,35.4,260615,7.0,W"
"##MN-00 00 07 0058 01625 7622 442446 204726 196"
"177.69338"
"$GPRMC,163825,A,2555.7114,N,08001.3784,W,1.1,35.6,260615,7.0,W"
"##MN-00 00 07 0059 01626 7618 442496 204730 196"
"177.693426"
"$GPRMC,163829,A,2555.7126,N,08001.3777,W,1.1,35.8,260615,7.0,W"
"##MN-00 00 07 0061 01629 7614 442538 204734 196"
"177.693472"
"$GPRMC,163833,A,2555.7135,N,08001.3767,W,1.1,36.3,260615,7.0,W"
"##MN+00 00 08 0062 01632 7610 442571 204736 196"
"177.693518"
"$GPRMC,163837,A,2555.7144,N,08001.3759,W,1.1,36.5,260615,7.0,W"
"##MN+00 00 07 0063 01632 7607 442615 204741 196"
"177.693565"
"$GPRMC,163841,A,2555.7151,N,08001.3754,W,1.1,36.4,260615,7.0,W"
"##MN+00 00 08 0064 01635 7603 442648 204743 196"
"177.693611"
"$GPRMC,163845,A,2555.7165,N,08001.3745,W,1.1,36.0,260615,7.0,W"
"##MN-00 00 08 0065 01636 7599 442705 204753 196"
"177.693657"
"$GPRMC,163849,A,2555.7175,N,08001.3737,W,1.1,35.5,260615,7.0,W"
"##MN-00 00 08 0067 01635 7595 442734 204753 196"
"177.693704"
"#increment_net"
"$GPRMC,163853,A,2555.7186,N,08001.3728,W,1.1,35.3,260615,7.0,W"
"##MN-00 00 08 0068 01636 7591 442732 204755 196"
"177.69375"
"$GPRMC,163857,A,2555.7195,N,08001.3719,W,1.1,35.6,260615,7.0,W"
"##MN-00 00 08 0069 01634 7588 442731 204754 196"
"177.693796"
"$GPRMC,163901,A,2555.7206,N,08001.3710,W,1.1,35.7,260615,7.0,W"
"##MN-00 00 09 0070 01634 7584 442731 204757 196"
"177.693843"
"$GPRMC,163905,A,2555.7216,N,08001.3702,W,1.1,35.9,260615,7.0,W"
"##MN-00 00 08 0071 01636 7580 442736 204759 196"
"177.693889"
"$GPRMC,163909,A,2555.7227,N,08001.3693,W,1.1,35.9,260615,7.0,W"
"##MN-00 00 08 0073 01636 7576 442735 204759 196"
"177.693935"
"$GPRMC,163913,A,2555.7235,N,08001.3685,W,1.1,36.4,260615,7.0,W"
"##MN-00 00 08 0074 01636 7573 442721 204759 196"
"177.693981"
"$GPRMC,163917,A,2555.7247,N,08001.3677,W,1.1,36.6,260615,7.0,W"
"##MN-00 00 09 0075 01638 7568 442709 204760 196"
"177.694028"
"$GPRMC,163921,A,2555.7256,N,08001.3669,W,1.1,36.9,260615,7.0,W"
"##MN-00 00 08 0076 01636 7564 442712 204761 196"
"177.694074"
"$GPRMC,163925,A,2555.7267,N,08001.3660,W,1.2,37.1,260615,7.0,W"
"##MN-00 00 09 0078 01636 7560 442712 204760 196"
"177.69412"
"$GPRMC,163929,A,2555.7277,N,08001.3652,W,1.2,37.1,260615,7.0,W"
"##MN+00 00 09 0079 01636 7557 442733 204762 196"
"177.694167"
"$GPRMC,163933,A,2555.7285,N,08001.3643,W,1.1,36.8,260615,7.0,W"
"##MN+00 00 09 0080 01636 7553 442751 204764 196"
"177.694213"
"$GPRMC,163937,A,2555.7296,N,08001.3633,W,1.1,36.2,260615,7.0,W"
"##MN+00 00 08 0081 01638 7548 442755 204767 196"
"177.694259"
"$GPRMC,163941,A,2555.7306,N,08001.3625,W,1.1,36.1,260615,7.0,W"
"##MN-00 00 09 0082 01636 7544 442734 204766 196"
"177.694306"
"$GPRMC,163945,A,2555.7314,N,08001.3616,W,1.1,35.7,260615,7.0,W"
"##MN+00 00 08 0084 01636 7541 442711 204764 196"
"177.694363"
"$GPRMC,163949,A,2555.7325,N,08001.3609,W,1.1,35.0,260615,7.0,W"
"##MN+00 00 09 0085 01638 7537 442702 204763 196"
"177.69441"
"$GPRMC,163953,A,2555.7338,N,08001.3602,W,1.1,34.4,260615,7.0,W"
"##MN+00 00 09 0086 01640 7533 442695 204763 196"
"177.694456"
"$GPRMC,163957,A,2555.7350,N,08001.3595,W,1.1,33.7,260615,7.0,W"
"##MN-00 00 08 0087 01640 7528 442737 204768 196"
"177.694502"
"#increment_net"
"$GPRMC,164001,A,2555.7363,N,08001.3587,W,1.1,33.0,260615,7.0,W"
"##MN-00 00 09 0088 01640 7525 442767 204769 196"
"177.694549"
"$GPRMC,164005,A,2555.7374,N,08001.3577,W,1.1,33.2,260615,7.0,W"
"##MN-00 00 08 0090 01637 7521 442756 204767 196"
"177.694595"
"$GPRMC,164009,A,2555.7385,N,08001.3569,W,1.1,33.0,260615,7.0,W"
"##MN-00 00 09 0091 01638 7516 442751 204768 196"
"177.694641"
"$GPRMC,164013,A,2555.7393,N,08001.3560,W,1.1,32.8,260615,7.0,W"
"##MN-00 00 08 0092 01637 7512 442746 204768 196"
"177.694688"
"$GPRMC,164017,A,2555.7404,N,08001.3552,W,1.1,32.4,260615,7.0,W"
"##MN-00 00 08 0093 01636 7509 442731 204768 196"
"177.694734"
"$GPRMC,164021,A,2555.7417,N,08001.3547,W,1.1,32.9,260615,7.0,W"
"##MN-00 00 08 0095 01638 7505 442721 204768 196"
"177.69478"
"$GPRMC,164025,A,2555.7429,N,08001.3541,W,1.1,33.1,260615,7.0,W"
"##MN+00 00 08 0096 01636 7500 442697 204769 196"
"177.694826"
"$GPRMC,164029,A,2555.7440,N,08001.3534,W,1.1,33.4,260615,7.0,W"
"##MN+00 00 08 0097 01636 7496 442680 204769 196"
"177.694873"
"$GPRMC,164033,A,2555.7451,N,08001.3526,W,1.1,33.6,260615,7.0,W"
"##MN+00 00 08 0098 01634 7492 442660 204767 196"
"177.694919"
"$GPRMC,164037,A,2555.7462,N,08001.3519,W,1.1,33.7,260615,7.0,W"
"##MN-00 00 08 0100 01635 7488 442628 204766 196"
"177.694965"
"$GPRMC,164041,A,2555.7472,N,08001.3511,W,1.1,33.7,260615,7.0,W"
"##MN-00 00 43 0101 01636 7484 442601 204764 196"
"177.695012"
"$GPRMC,164046,A,2555.7484,N,08001.3500,W,1.1,33.3,260615,7.0,W"
"##MN-00 00 08 0102 01634 7480 442588 204764 196"
"177.695058"
"$GPRMC,164050,A,2555.7493,N,08001.3490,W,1.1,33.0,260615,7.0,W"
"##MN+00 00 08 0103 01635 7476 442583 204763 196"
"177.695104"
"$GPRMC,164053,A,2555.7500,N,08001.3484,W,1.1,32.8,260615,7.0,W"
"##MN+00 00 08 0105 01636 7472 442580 204762 196"
"177.69515"
"$GPRMC,164058,A,2555.7513,N,08001.3474,W,1.2,33.6,260615,7.0,W"
"##MN+00 00 09 0106 01638 7468 442555 204760 196"
"177.695197"
"#increment_net"
"$GPRMC,164102,A,2555.7523,N,08001.3466,W,1.2,34.3,260615,7.0,W"
"##MN-00 00 07 0107 01636 7464 442568 204759 196"
"177.695243"
"$GPRMC,164106,A,2555.7534,N,08001.3457,W,1.1,34.7,260615,7.0,W"
"##MN-00 00 09 0108 01634 7460 442562 204757 196"
"177.695289"
"$GPRMC,164110,A,2555.7544,N,08001.3449,W,1.1,35.2,260615,7.0,W"
"##MN-00 00 08 0109 01634 7455 442543 204758 196"
"177.695336"
"$GPRMC,164114,A,2555.7553,N,08001.3440,W,1.1,35.6,260615,7.0,W"
"##MN-00 00 09 0111 01633 7451 442521 204756 196"
"177.695382"
"$GPRMC,164118,A,2555.7563,N,08001.3433,W,1.2,35.5,260615,7.0,W"
"##MN-00 00 08 0112 01633 7447 442486 204755 196"
"177.695428"
"$GPRMC,164122,A,2555.7574,N,08001.3424,W,1.1,35.4,260615,7.0,W"
"##MN-00 00 08 0113 01633 7443 442452 204751 196"
"177.695475"
"$GPRMC,164126,A,2555.7583,N,08001.3415,W,1.1,35.6,260615,7.0,W"
"##MN-00 00 08 0115 01631 7439 442432 204749 196"
"177.695521"
"$GPRMC,164130,A,2555.7595,N,08001.3409,W,1.1,36.3,260615,7.0,W"
"##MN-00 00 08 0116 01632 7435 442397 204743 196"
"177.695567"
"$GPRMC,164134,A,2555.7605,N,08001.3401,W,1.2,36.1,260615,7.0,W"
"##MN+00 00 08 0117 01631 7431 442359 204743 196"
"177.695613"
"$GPRMC,164138,A,2555.7617,N,08001.3394,W,1.1,35.7,260615,7.0,W"
"##MN+00 00 08 0119 01631 7427 442371 204744 196"
"177.69566"
"$GPRMC,164142,A,2555.7627,N,08001.3387,W,1.1,35.4,260615,7.0,W"
"##MN+00 00 08 0120 01631 7423 442384 204744 196"
"177.695706"
"$GPRMC,164146,A,2555.7636,N,08001.3380,W,1.1,34.9,260615,7.0,W"
"##MN+00 00 08 0121 01630 7419 442457 204747 196"
"177.695752"
"$GPRMC,164150,A,2555.7648,N,08001.3371,W,1.1,33.4,260615,7.0,W"
"##MN+00 00 08 0122 01631 7415 442450 204748 196"
"177.695799"
"$GPRMC,164154,A,2555.7660,N,08001.3365,W,1.1,32.5,260615,7.0,W"
"##MN+00 00 09 0124 01632 7411 442400 204747 196"
"177.695845"
"#increment_net"
"$GPRMC,164158,A,2555.7672,N,08001.3359,W,1.1,32.2,260615,7.0,W"
"##MN-00 00 09 0125 01631 7407 442457 204754 196"
"177.695891"
"$GPRMC,164202,A,2555.7682,N,08001.3352,W,1.1,32.4,260615,7.0,W"
"##MN-00 00 08 0126 01632 7402 442508 204754 196"
"177.695937"
"$GPRMC,164206,A,2555.7693,N,08001.3345,W,1.1,32.3,260615,7.0,W"
"##MN-00 00 08 0127 01629 7398 442470 204752 196"
"177.695984"
"$GPRMC,164210,A,2555.7704,N,08001.3337,W,1.1,32.6,260615,7.0,W"
"##MN-00 00 08 0129 01629 7394 442436 204752 196"
"177.69603"
"$GPRMC,164214,A,2555.7715,N,08001.3330,W,1.1,32.6,260615,7.0,W"
"##MN-00 00 08 0130 01628 7390 442415 204751 196"
"177.696076"
"$GPRMC,164218,A,2555.7726,N,08001.3320,W,1.1,32.2,260615,7.0,W"
"##MN-00 00 08 0131 01632 7386 442384 204750 196"
"177.696123"
"$GPRMC,164222,A,2555.7737,N,08001.3313,W,1.1,31.6,260615,7.0,W"
"##MN-00 00 08 0133 01630 7382 442372 204749 196"
"177.696169"
"$GPRMC,164226,A,2555.7748,N,08001.3306,W,1.1,31.3,260615,7.0,W"
"##MN+00 00 08 0134 01631 7378 442361 204749 196"
"177.696215"
"$GPRMC,164230,A,2555.7760,N,08001.3299,W,1.2,30.8,260615,7.0,W"
"##MN+00 00 08 0135 01630 7374 442357 204748 196"
"177.696262"
"$GPRMC,164234,A,2555.7773,N,08001.3294,W,1.2,30.0,260615,7.0,W"
"##MN+00 00 08 0137 01630 7369 442356 204748 196"
"177.696308"
"$GPRMC,164238,A,2555.7784,N,08001.3286,W,1.2,30.3,260615,7.0,W"
"##MN-00 00 08 0138 01631 7366 442362 204748 196"
"177.696354"
"$GPRMC,164242,A,2555.7797,N,08001.3280,W,1.2,30.0,260615,7.0,W"
"##MN+00 00 08 0139 01630 7362 442359 204748 196"
"177.6964"
"$GPRMC,164246,A,2555.7809,N,08001.3272,W,1.2,30.6,260615,7.0,W"
"##MN+00 00 08 0141 01630 7358 442364 204748 196"
"177.696447"
"$GPRMC,164250,A,2555.7822,N,08001.3264,W,1.2,31.3,260615,7.0,W"
"##MN+00 00 09 0142 01636 7354 442366 204748 196"
"177.696493"
"$GPRMC,164254,A,2555.7834,N,08001.3256,W,1.2,31.9,260615,7.0,W"
"##MN-00 00 45 0143 01640 7350 442411 204751 196"
"177.696539"
"#increment_net"
"$GPRMC,164258,A,2555.7844,N,08001.3246,W,1.2,32.3,260615,7.0,W"
"##MN-00 00 44 0145 01645 7346 442521 204758 196"
"177.696586"
"$GPRMC,164302,A,2555.7854,N,08001.3236,W,1.1,33.6,260615,7.0,W"
"##MN-00 00 08 0147 01655 7342 442726 204767 196"
"177.696632"
"$GPRMC,164306,A,2555.7863,N,08001.3227,W,1.1,35.9,260615,7.0,W"
"##MN-00 00 08 0148 01657 7338 442919 204786 196"
"177.696678"
"$GPRMC,164310,A,2555.7873,N,08001.3217,W,1.1,38.1,260615,7.0,W"
"##MN-00 00 08 0150 01661 7334 443444 204843 196"
"177.696725"
"$GPRMC,164314,A,2555.7881,N,08001.3206,W,1.1,40.4,260615,7.0,W"
"##MN-00 00 08 0151 01663 7329 444771 205024 196"
"177.696771"
"$GPRMC,164318,A,2555.7889,N,08001.3196,W,1.1,42.4,260615,7.0,W"
"##MN-00 00 42 0153 01661 7325 445676 205128 196"
"177.696817"
"$GPRMC,164322,A,2555.7898,N,08001.3186,W,1.1,44.3,260615,7.0,W"
"##MN-00 00 07 0154 01662 7321 445696 205112 196"
"177.696863"
"$GPRMC,164326,A,2555.7906,N,08001.3175,W,1.1,45.4,260615,7.0,W"
"##MN-00 00 08 0156 01658 7317 445384 205056 196"
"177.69691"
"$GPRMC,164330,A,2555.7914,N,08001.3164,W,1.1,46.4,260615,7.0,W"
"##MN-00 00 07 0157 01655 7314 444676 204991 196"
"177.696956"
"$GPRMC,164334,A,2555.7921,N,08001.3151,W,1.1,46.6,260615,7.0,W"
"##MN-00 00 08 0159 01653 7310 444065 205003 196"
"177.697002"
"$GPRMC,164338,A,2555.7925,N,08001.3138,W,1.0,46.9,260615,7.0,W"
"##MN-00 00 08 0161 01651 7305 443468 204846 196"
"177.697049"
"$GPRMC,164342,A,2555.7932,N,08001.3127,W,1.0,47.7,260615,7.0,W"
"##MN-00 00 07 0162 01650 7302 443185 204829 196"
"177.697095"
"$GPRMC,164346,A,2555.7939,N,08001.3117,W,1.0,48.5,260615,7.0,W"
"##MN-00 00 08 0164 01647 7298 443043 204816 196"
"177.697141"
"$GPRMC,164350,A,2555.7949,N,08001.3109,W,1.0,48.8,260615,7.0,W"
"##MN-00 00 08 0166 01645 7294 442952 204808 196"
"177.697188"
"$GPRMC,164354,A,2555.7957,N,08001.3103,W,1.0,48.7,260615,7.0,W"
"##MN-00 00 07 0167 01639 7289 442813 204792 196"
"177.697234"
"$GPRMC,164358,A,2555.7967,N,08001.3096,W,1.0,48.1,260615,7.0,W"
"##MN-00 00 08 0169 01636 7286 442714 204787 196"
"177.69728"
"$GPRMC,164402,A,2555.7974,N,08001.3087,W,1.0,47.5,260615,7.0,W"
"##MN-00 00 08 0171 01633 7282 442600 204777 196"
"177.697326"
"$GPRMC,164406,A,2555.7982,N,08001.3079,W,1.0,47.6,260615,7.0,W"
"##MN-00 00 07 0172 01630 7278 442506 204768 196"
"177.697373"
"$GPRMC,164410,A,2555.7990,N,08001.3071,W,1.0,47.2,260615,7.0,W"
"##MN-00 00 07 0174 01630 7274 442409 204757 196"
"177.697419"
"$GPRMC,164414,A,2555.7997,N,08001.3062,W,1.0,46.9,260615,7.0,W"
"##MN-00 00 08 0176 01624 7270 442268 204748 196"
"177.697477"
"$GPRMC,164418,A,2555.8004,N,08001.3053,W,1.0,46.2,260615,7.0,W"
"##MN-00 00 07 0177 01621 7266 442189 204735 196"
"177.697523"
"$GPRMC,164422,A,2555.8011,N,08001.3045,W,0.9,45.2,260615,7.0,W"
"##MN-00 00 07 0179 01616 7262 442153 204726 196"
"177.697569"
"$GPRMC,164426,A,2555.8018,N,08001.3037,W,0.9,44.0,260615,7.0,W"
"##MN-00 00 08 0180 01615 7258 442138 204721 196"
"177.697616"
"$GPRMC,164430,A,2555.8026,N,08001.3027,W,1.0,43.2,260615,7.0,W"
"##MN-00 00 12 0182 01613 7254 442127 204719 196"
"177.697662"
"$GPRMC,164434,A,2555.8033,N,08001.3015,W,1.0,41.6,260615,7.0,W"
"##MN-00 00 07 0184 01609 7251 442121 204716 196"
"177.697708"
"$GPRMC,164438,A,2555.8042,N,08001.3004,W,1.0,41.3,260615,7.0,W"
"##MN-00 00 08 0185 01605 7246 442109 204714 196"
"177.697755"
"$GPRMC,164442,A,2555.8049,N,08001.2995,W,1.0,41.4,260615,7.0,W"
"##MN-00 00 08 0187 01602 7242 442099 204712 196"
"177.697801"
"$GPRMC,164446,A,2555.8055,N,08001.2985,W,1.0,41.9,260615,7.0,W"
"##MN-00 00 07 0189 01601 7239 442094 204710 196"
"177.697847"
"$GPRMC,164450,A,2555.8062,N,08001.2974,W,1.0,42.6,260615,7.0,W"
"##MN-00 00 07 0190 01598 7235 442079 204707 196"
"177.697894"
"$GPRMC,164454,A,2555.8073,N,08001.2966,W,1.0,43.6,260615,7.0,W"
"##MN-00 00 08 0192 01596 7231 442060 204703 196"
"177.69794"
"$GPRMC,164458,A,2555.8083,N,08001.2957,W,1.0,44.6,260615,7.0,W"
"##MN-00 00 07 0193 01591 7227 442040 204701 196"
"177.697986"
"$GPRMC,164502,A,2555.8093,N,08001.2949,W,1.0,45.3,260615,7.0,W"
"##MN-00 00 07 0195 01589 7224 442026 204696 196"
"177.698032"
"$GPRMC,164506,A,2555.8102,N,08001.2941,W,1.1,46.0,260615,7.0,W"
"##MN-00 00 07 0197 01586 7220 442005 204694 196"
"177.698079"
"$GPRMC,164510,A,2555.8111,N,08001.2931,W,1.1,46.2,260615,7.0,W"
"##MN-00 00 08 0198 01582 7216 441981 204687 196"
"177.698125"
"$GPRMC,164514,A,2555.8118,N,08001.2919,W,1.1,45.8,260615,7.0,W"
"##MN-00 00 07 0200 01579 7212 441946 204682 196"
"177.698171"
"$GPRMC,164518,A,2555.8127,N,08001.2910,W,1.1,46.1,260615,7.0,W"
"##MN-00 00 08 0202 01576 7209 441905 204677 196"
"177.698218"
"$GPRMC,164522,A,2555.8136,N,08001.2901,W,1.1,46.9,260615,7.0,W"
"##MN-00 00 08 0203 01572 7205 441860 204669 196"
"177.698264"
"$GPRMC,164526,A,2555.8145,N,08001.2891,W,1.1,48.2,260615,7.0,W"
"##MN-00 00 08 0205 01570 7201 441771 204655 196"
"177.69831"
"$GPRMC,164530,A,2555.8152,N,08001.2881,W,1.1,49.0,260615,7.0,W"
"##MN-00 00 08 0206 01567 7197 441663 204647 196"
"177.698356"
"$GPRMC,164534,A,2555.8161,N,08001.2870,W,1.0,49.6,260615,7.0,W"
"##MN-00 00 08 0208 01563 7194 441609 204648 196"
"177.698403"
"$GPRMC,164539,A,2555.8170,N,08001.2856,W,1.1,50.4,260615,7.0,W"
"##MN-00 00 07 0210 01558 7190 441585 204650 196"
"177.698449"
"$GPRMC,164543,A,2555.8177,N,08001.2845,W,1.1,51.0,260615,7.0,W"
"##MN-00 00 08 0211 01556 7186 441579 204654 196"
"177.698495"
"$GPRMC,164547,A,2555.8187,N,08001.2834,W,1.2,50.4,260615,7.0,W"
"##MN-00 00 08 0213 01553 7182 441532 204648 196"
"177.698542"
"$GPRMC,164551,A,2555.8194,N,08001.2822,W,1.2,50.6,260615,7.0,W"
"##MN-00 00 08 0214 01549 7178 441444 204633 196"
"177.698588"
"$GPRMC,164555,A,2555.8203,N,08001.2810,W,1.3,50.5,260615,7.0,W"
"##MN-00 00 08 0216 01546 7175 441333 204607 196"
"177.698634"
"$GPRMC,164559,A,2555.8209,N,08001.2800,W,1.3,51.1,260615,7.0,W"
"##MN-00 00 08 0218 01544 7171 441160 204551 196"
"177.698681"
"$GPRMC,164603,A,2555.8217,N,08001.2786,W,1.4,52.0,260615,7.0,W"
"##MN-00 00 08 0219 01539 7168 440838 204479 196"
"177.698727"
"$GPRMC,164607,A,2555.8225,N,08001.2773,W,1.4,52.2,260615,7.0,W"
"##MN-00 00 08 0221 01536 7164 440552 204443 196"
"177.698773"
"$GPRMC,164611,A,2555.8232,N,08001.2763,W,1.5,52.8,260615,7.0,W"
"##MN-00 00 08 0223 01530 7161 440267 204390 196"
"177.698819"
"$GPRMC,164615,A,2555.8242,N,08001.2746,W,1.6,53.3,260615,7.0,W"
"##MN-00 00 08 0224 01529 7157 439788 204304 196"
"177.698866"
"$GPRMC,164619,A,2555.8256,N,08001.2725,W,1.6,53.2,260615,7.0,W"
"##MN-00 00 08 0226 01527 7153 439465 204268 196"
"177.698912"
"$GPRMC,164623,A,2555.8267,N,08001.2706,W,1.7,53.3,260615,7.0,W"
"##MN-00 00 09 0228 01524 7150 439303 204239 196"
