" Tow: 6WS   RVWS/WS15161"
" Date: 26/06/2015"
" Temperature Probe #  4762    Conductivity Probe #  710"
" Pressure Probe #  188"
" Flow Meter Calibration  4.71 (m/count)  "
"177.938472"
"$GPRMC,223119,A,2617.9044,N,07958.7373,W,0.3,237.8,260615,7.1,"
"##MN-00 00 80 0000 02704 6280 208120 024080 197"
"177.938669"
"$GPRMC,223136,A,2617.9026,N,07958.7378,W,0.3,219.1,260615,7.1,"
"##MN-00 00 80 0000 02704 6286 108560 024030 197"
"177.938715"
"$GPRMC,223141,A,2617.9023,N,07958.7379,W,0.3,217.3,260615,7.1,"
"##MN-00 00 80 0000 02704 6287 139752 024015 197"
"177.938762"
"$GPRMC,223145,A,2617.9017,N,07958.7381,W,0.4,215.6,260615,7.1,"
"##MN-00 00 80 0000 02705 6288 139040 024037 197"
"177.938808"
"$GPRMC,223149,A,2617.9014,N,07958.7383,W,0.4,213.8,260615,7.1,"
"##MN-00 00 80 0000 02704 6289 545016 024015 197"
"177.938854"
"$GPRMC,223153,A,2617.9013,N,07958.7386,W,0.4,212.3,260615,7.1,"
"##MN-00 00 80 0000 02706 6291 146528 024016 197"
"177.9389"
"$GPRMC,223158,A,2617.9010,N,07958.7389,W,0.4,210.3,260615,7.1,"
"##MN-00 00 80 0000 02705 6292 170392 024003 197"
"177.938947"
"$GPRMC,223202,A,2617.9008,N,07958.7392,W,0.4,208.5,260615,7.1,"
"##MN-00 00 80 0000 02705 6293 192368 023997 197"
"177.938993"
"$GPRMC,223206,A,2617.9005,N,07958.7392,W,0.3,207.2,260615,7.1,"
"##MN-00 00 80 0000 02705 6294 193952 023978 197"
"177.939039"
"$GPRMC,223210,A,2617.8998,N,07958.7389,W,0.3,205.6,260615,7.1,"
"##MN-00 00 80 0000 02706 6295 323736 024003 197"
"177.939086"
"$GPRMC,223214,A,2617.8996,N,07958.7391,W,0.3,203.3,260615,7.1,"
"##MN-00 00 80 0000 02703 6296 182816 024011 197"
"177.939132"
"$GPRMC,223218,A,2617.8994,N,07958.7392,W,0.3,201.4,260615,7.1,"
"##MN-00 00 80 0000 02705 6297 210296 023991 197"
"177.939178"
"$GPRMC,223221,A,2617.8992,N,07958.7393,W,0.3,200.5,260615,7.1,"
"##MN-00 00 80 0000 02707 6298 209200 023980 197"
"177.939225"
"$GPRMC,223226,A,2617.8990,N,07958.7397,W,0.3,199.5,260615,7.1,"
"##MN-00 00 80 0000 02707 6299 225064 023972 197"
"177.939271"
"$GPRMC,223230,A,2617.8987,N,07958.7399,W,0.3,199.6,260615,7.1,"
"##MN-00 00 80 0000 02707 6300 235648 023976 197"
"177.939317"
"$GPRMC,223234,A,2617.8985,N,07958.7402,W,0.4,202.1,260615,7.1,"
"##MN-00 00 80 0000 02705 6301 238176 023954 197"
"177.939363"
"$GPRMC,223238,A,2617.8980,N,07958.7406,W,0.4,203.9,260615,7.1,"
"##MN-00 00 80 0000 02706 6302 255360 023966 197"
"177.93941"
"$GPRMC,223242,A,2617.8977,N,07958.7407,W,0.4,206.5,260615,7.1,"
"##MN-00 00 80 0000 02709 6302 244032 023983 197"
"177.939456"
"$GPRMC,223246,A,2617.8973,N,07958.7408,W,0.3,207.9,260615,7.1,"
"##MN-00 00 80 0000 02705 6304 249248 023992 197"
"177.939502"
"$GPRMC,223250,A,2617.8971,N,07958.7411,W,0.4,208.0,260615,7.1,"
"##MN-00 00 80 0000 02708 6305 270528 023964 197"
"177.939549"
"$GPRMC,223254,A,2617.8969,N,07958.7415,W,0.4,207.8,260615,7.1,"
"##MN-00 00 80 0000 02707 6305 521472 023965 197"
"177.939595"
"$GPRMC,223258,A,2617.8965,N,07958.7417,W,0.4,206.9,260615,7.1,"
"##MN-00 00 80 0000 02708 6306 278272 023964 197"
"177.939641"
"$GPRMC,223302,A,2617.8960,N,07958.7418,W,0.3,206.0,260615,7.1,"
"##MN-00 00 80 0000 02708 6307 283040 023964 197"
"177.939687"
"$GPRMC,223306,A,2617.8955,N,07958.7418,W,0.4,203.8,260615,7.1,"
"##MN-00 00 80 0000 02704 6308 291784 023949 197"
"177.939734"
"$GPRMC,223310,A,2617.8951,N,07958.7418,W,0.4,202.4,260615,7.1,"
"##MN-00 00 80 0000 02706 6308 301056 023946 197"
"177.93978"
"$GPRMC,223314,A,2617.8945,N,07958.7417,W,0.4,200.0,260615,7.1,"
"##MN-00 00 80 0000 02708 6309 308024 023955 197"
"177.939826"
"$GPRMC,223318,A,2617.8941,N,07958.7420,W,0.4,199.2,260615,7.1,"
"##MN-00 00 80 0000 02707 6310 054080 023967 197"
"177.939873"
"$GPRMC,223322,A,2617.8938,N,07958.7421,W,0.4,199.3,260615,7.1,"
"##MN-00 00 80 0000 02707 6310 310048 023972 197"
"177.939919"
"$GPRMC,223326,A,2617.8934,N,07958.7424,W,0.4,199.6,260615,7.1,"
"##MN-00 00 80 0000 02706 6311 307728 023973 197"
"177.939965"
"$GPRMC,223330,A,2617.8931,N,07958.7425,W,0.4,200.8,260615,7.1,"
"##MN-00 00 80 0000 02709 6312 322736 023953 197"
"177.940012"
"$GPRMC,223334,A,2617.8926,N,07958.7428,W,0.4,201.5,260615,7.1,"
"##MN-00 00 80 0000 02707 6313 324416 023951 197"
"177.940058"
"$GPRMC,223338,A,2617.8924,N,07958.7433,W,0.4,203.6,260615,7.1,"
"##MN-00 00 80 0000 02708 6313 332832 023948 197"
"177.940104"
"$GPRMC,223342,A,2617.8920,N,07958.7438,W,0.4,205.7,260615,7.1,"
"##MN-00 00 80 0000 02707 6313 337176 023945 197"
"177.94015"
"$GPRMC,223346,A,2617.8913,N,07958.7439,W,0.4,205.8,260615,7.1,"
"##MN-00 00 81 0000 02707 6314 342912 023947 197"
"177.940197"
"$GPRMC,223350,A,2617.8909,N,07958.7443,W,0.5,206.8,260615,7.1,"
"##MN-00 00 80 0000 02707 6315 345928 023930 197"
"177.940243"
"$GPRMC,223354,A,2617.8906,N,07958.7447,W,0.5,209.0,260615,7.1,"
"##MN-00 00 80 0000 02708 6315 356064 023925 197"
"177.940289"
"$GPRMC,223358,A,2617.8901,N,07958.7451,W,0.5,212.5,260615,7.1,"
"##MN-00 00 78 0000 02706 6316 366696 023920 197"
"177.940336"
"$GPRMC,223402,A,2617.8896,N,07958.7454,W,0.5,215.3,260615,7.1,"
"##MN-00 00 77 0000 02707 6317 363056 023931 197"
"177.940394"
"$GPRMC,223406,A,2617.8893,N,07958.7457,W,0.4,215.8,260615,7.1,"
"##MN-00 00 65 0000 02707 6317 491216 023961 197"
"177.94044"
"$GPRMC,223410,A,2617.8887,N,07958.7460,W,0.4,215.0,260615,7.1,"
"##MN-00 00 54 0000 02706 6318 492872 023953 197"
"177.940486"
"$GPRMC,223414,A,2617.8882,N,07958.7462,W,0.4,212.8,260615,7.1,"
"##MN-00 00 41 0000 02709 6318 374368 023960 197"
"177.940532"
"$GPRMC,223418,A,2617.8877,N,07958.7463,W,0.4,210.2,260615,7.1,"
"##MN-00 00 28 0000 02707 6319 369816 023935 197"
"177.940579"
"$GPRMC,223422,A,2617.8874,N,07958.7464,W,0.4,207.3,260615,7.1,"
"##MN-00 00 19 0000 02709 6319 883664 023937 197"
"177.940625"
"$GPRMC,223426,A,2617.8869,N,07958.7465,W,0.4,204.7,260615,7.1,"
"##MN-00 00 15 0000 02708 6320 261048 023924 197"
"177.940671"
"$GPRMC,223430,A,2617.8864,N,07958.7465,W,0.4,202.4,260615,7.1,"
"##MN-00 00 00 0000 02707 6321 396416 023931 197"
"177.940718"
"$GPRMC,223434,A,2617.8860,N,07958.7464,W,0.4,199.2,260615,7.1,"
"##MN-00 00 00 0000 02707 6321 644840 023921 197"
"177.940764"
"$GPRMC,223438,A,2617.8857,N,07958.7464,W,0.4,195.2,260615,7.1,"
"##MN-00 00 00 0000 02710 6322 153072 023926 197"
"177.94081"
"$GPRMC,223442,A,2617.8851,N,07958.7464,W,0.4,191.7,260615,7.1,"
"##MN-00 00 01 0000 02708 6322 403768 023911 197"
"177.940856"
"$GPRMC,223446,A,2617.8849,N,07958.7462,W,0.4,187.7,260615,7.1,"
"##MN-00 00 03 0000 02710 6323 134528 023916 197"
"177.940903"
"$GPRMC,223450,A,2617.8844,N,07958.7462,W,0.3,187.0,260615,7.1,"
"##MN-00 00 31 0000 02710 6323 421872 023912 197"
"177.940949"
"$GPRMC,223454,A,2617.8840,N,07958.7462,W,0.3,186.5,260615,7.1,"
"##MN-00 00 44 0000 02709 6324 420032 023879 197"
"177.940995"
"$GPRMC,223458,A,2617.8836,N,07958.7462,W,0.4,186.6,260615,7.1,"
"##MN-00 00 45 0000 02708 6324 411952 023890 197"
"177.941042"
"$GPRMC,223502,A,2617.8833,N,07958.7464,W,0.4,187.3,260615,7.1,"
"##MN-00 00 46 0000 02708 6325 551776 023898 197"
"177.941088"
"$GPRMC,223506,A,2617.8830,N,07958.7465,W,0.3,189.4,260615,7.1,"
"##MN-00 00 51 0001 02710 6326 918752 023925 197"
"177.941134"
"$GPRMC,223510,A,2617.8828,N,07958.7468,W,0.3,192.9,260615,7.1,"
"##MN-00 00 52 0002 02710 6326 548304 023926 197"
"177.941181"
"$GPRMC,223514,A,2617.8828,N,07958.7471,W,0.3,198.6,260615,7.1,"
"##MN-00 00 48 0003 02708 6326 419408 023929 197"
"177.941227"
"$GPRMC,223518,A,2617.8826,N,07958.7475,W,0.3,205.6,260615,7.1,"
"##MN-00 00 52 0004 02708 6327 420664 023928 197"
"177.941273"
"$GPRMC,223522,A,2617.8826,N,07958.7478,W,0.2,213.7,260615,7.1,"
"##MN-00 00 49 0005 02707 6328 421352 023935 197"
"177.941319"
"$GPRMC,223526,A,2617.8825,N,07958.7482,W,0.2,221.0,260615,7.1,"
"##MN-00 00 53 0006 02709 6328 418800 023944 197"
"177.941366"
"$GPRMC,223530,A,2617.8825,N,07958.7486,W,0.3,230.1,260615,7.1,"
"##MN-00 00 52 0006 02705 6329 420728 023937 197"
"177.941412"
"$GPRMC,223534,A,2617.8825,N,07958.7487,W,0.3,238.1,260615,7.1,"
"##MN-00 00 51 0007 02712 6329 420832 023932 197"
"177.941458"
"$GPRMC,223538,A,2617.8825,N,07958.7490,W,0.2,244.4,260615,7.1,"
"##MN-00 00 53 0008 02709 6330 420936 023936 197"
"177.941505"
"$GPRMC,223542,A,2617.8826,N,07958.7492,W,0.2,251.2,260615,7.1,"
"##MN-00 00 53 0009 02709 6330 421088 023938 197"
"177.941551"
"$GPRMC,223546,A,2617.8826,N,07958.7494,W,0.2,257.2,260615,7.1,"
"##MN-00 00 54 0010 02709 6331 421208 023939 197"
"177.941597"
"$GPRMC,223550,A,2617.8828,N,07958.7496,W,0.2,263.7,260615,7.1,"
"##MN-00 00 53 0011 02709 6331 421328 023933 197"
"177.941644"
"$GPRMC,223554,A,2617.8828,N,07958.7497,W,0.2,269.0,260615,7.1,"
"##MN-00 00 51 0012 02709 6331 421472 023935 197"
"177.94169"
"$GPRMC,223558,A,2617.8831,N,07958.7498,W,0.2,275.8,260615,7.1,"
"##MN-00 00 53 0013 02708 6332 421632 023939 197"
"177.941736"
"$GPRMC,223602,A,2617.8832,N,07958.7499,W,0.2,283.2,260615,7.1,"
"##MN-00 00 55 0014 02708 6333 421712 023935 197"
"177.941782"
"$GPRMC,223606,A,2617.8835,N,07958.7498,W,0.2,292.8,260615,7.1,"
"##MN-00 00 52 0015 02709 6333 422288 023933 197"
"177.941829"
"$GPRMC,223610,A,2617.8835,N,07958.7496,W,0.2,301.5,260615,7.1,"
"##MN-00 00 53 0016 02708 6333 421056 023929 197"
"177.941875"
"$GPRMC,223614,A,2617.8839,N,07958.7496,W,0.2,311.9,260615,7.1,"
"##MN-00 00 53 0017 02708 6334 422088 023923 197"
"177.941921"
"$GPRMC,223618,A,2617.8840,N,07958.7496,W,0.3,321.2,260615,7.1,"
"##MN-00 00 53 0018 02710 6334 422224 023929 197"
"177.941968"
"$GPRMC,223622,A,2617.8844,N,07958.7495,W,0.2,326.8,260615,7.1,"
"##MN-00 00 54 0019 02709 6334 422344 023933 197"
"177.942014"
"$GPRMC,223626,A,2617.8848,N,07958.7497,W,0.2,330.5,260615,7.1,"
"##MN-00 00 54 0020 02708 6335 422400 023922 197"
"177.94206"
"$GPRMC,223630,A,2617.8853,N,07958.7500,W,0.2,333.8,260615,7.1,"
"##MN-00 00 54 0021 02711 6335 422512 023927 197"
"177.942106"
"$GPRMC,223635,A,2617.8863,N,07958.7503,W,0.2,335.7,260615,7.1,"
"##MN-00 00 54 0022 02710 6335 422608 023931 197"
"177.942153"
"$GPRMC,223638,A,2617.8866,N,07958.7507,W,0.2,335.6,260615,7.1,"
"##MN-00 00 52 0023 02711 6336 422704 023928 197"
"177.942199"
"$GPRMC,223642,A,2617.8868,N,07958.7507,W,0.2,334.8,260615,7.1,"
"##MN-00 00 55 0024 02711 6336 422760 023930 197"
"177.942245"
"$GPRMC,223647,A,2617.8870,N,07958.7509,W,0.2,331.9,260615,7.1,"
"##MN-00 00 54 0025 02710 6336 422896 023912 197"
"177.942292"
"$GPRMC,223651,A,2617.8870,N,07958.7511,W,0.2,329.4,260615,7.1,"
"##MN-00 00 53 0026 02711 6336 422968 023912 197"
"177.942338"
"$GPRMC,223655,A,2617.8871,N,07958.7514,W,0.2,327.8,260615,7.1,"
"##MN-00 00 52 0027 02713 6337 423024 023912 197"
"177.942384"
"$GPRMC,223659,A,2617.8871,N,07958.7515,W,0.2,324.0,260615,7.1,"
"##MN-00 00 53 0028 02711 6337 422208 023906 197"
"177.942431"
"$GPRMC,223703,A,2617.8871,N,07958.7518,W,0.2,321.4,260615,7.1,"
"##MN-00 00 53 0029 02712 6337 424064 023905 197"
"177.942477"
"$GPRMC,223707,A,2617.8874,N,07958.7522,W,0.2,319.0,260615,7.1,"
"##MN-00 00 54 0030 02711 6337 299848 023883 197"
"177.942523"
"$GPRMC,223711,A,2617.8875,N,07958.7524,W,0.2,316.5,260615,7.1,"
"##MN-00 00 54 0031 02712 6338 422408 023886 197"
"177.942569"
"$GPRMC,223715,A,2617.8878,N,07958.7529,W,0.3,314.8,260615,7.1,"
"##MN-00 00 55 0032 02714 6338 421584 023884 197"
"177.942616"
"$GPRMC,223719,A,2617.8878,N,07958.7532,W,0.2,313.5,260615,7.1,"
"##MN-00 00 54 0033 02715 6338 426568 023885 197"
"177.942662"
"$GPRMC,223723,A,2617.8881,N,07958.7534,W,0.3,312.8,260615,7.1,"
"##MN-00 00 55 0034 02712 6338 422560 023877 197"
"177.942708"
"$GPRMC,223727,A,2617.8881,N,07958.7536,W,0.2,312.3,260615,7.1,"
"##MN-00 00 53 0035 02714 6338 422128 023889 197"
"177.942755"
"$GPRMC,223731,A,2617.8882,N,07958.7540,W,0.3,311.5,260615,7.1,"
"##MN-00 00 54 0036 02715 6338 413744 023894 197"
"177.942801"
"$GPRMC,223735,A,2617.8882,N,07958.7539,W,0.2,311.2,260615,7.1,"
"##MN-00 00 54 0037 02715 6338 416456 023890 197"
"177.942847"
"$GPRMC,223739,A,2617.8884,N,07958.7541,W,0.2,311.4,260615,7.1,"
"##MN-00 00 55 0038 02716 6339 406672 023907 197"
"177.942894"
"$GPRMC,223743,A,2617.8884,N,07958.7542,W,0.2,312.7,260615,7.1,"
"##MN-00 00 55 0039 02717 6339 407600 023896 197"
"177.94294"
"$GPRMC,223747,A,2617.8884,N,07958.7543,W,0.2,314.4,260615,7.1,"
"##MN-00 00 54 0040 02717 6339 417424 023898 197"
"177.942986"
"$GPRMC,223751,A,2617.8884,N,07958.7544,W,0.2,314.7,260615,7.1,"
"##MN-00 00 56 0041 02718 6339 406752 023891 197"
"177.943032"
"$GPRMC,223755,A,2617.8886,N,07958.7544,W,0.2,316.1,260615,7.1,"
"##MN-00 00 55 0042 02718 6339 405944 023902 197"
"177.943079"
"$GPRMC,223759,A,2617.8888,N,07958.7545,W,0.1,317.7,260615,7.1,"
"##MN-00 00 54 0043 02719 6339 406000 023900 197"
"177.943125"
"$GPRMC,223803,A,2617.8889,N,07958.7545,W,0.2,320.4,260615,7.1,"
"##MN-00 00 54 0044 02719 6339 402904 023900 197"
"177.943171"
"$GPRMC,223807,A,2617.8891,N,07958.7547,W,0.2,322.7,260615,7.1,"
"##MN-00 00 55 0045 02721 6339 401584 023892 197"
"177.943218"
"$GPRMC,223811,A,2617.8892,N,07958.7547,W,0.2,324.6,260615,7.1,"
"##MN-00 00 53 0046 02722 6339 407408 023900 197"
"177.943264"
"$GPRMC,223815,A,2617.8895,N,07958.7548,W,0.2,326.3,260615,7.1,"
"##MN-00 00 53 0047 02721 6339 392768 023895 197"
"177.94331"
"$GPRMC,223819,A,2617.8896,N,07958.7548,W,0.2,327.4,260615,7.1,"
"##MN-00 00 54 0048 02724 6339 400784 023889 197"
"177.943357"
"$GPRMC,223823,A,2617.8899,N,07958.7550,W,0.2,328.7,260615,7.1,"
"##MN-00 00 54 0049 02723 6339 400832 023906 197"
"177.943403"
"$GPRMC,223827,A,2617.8900,N,07958.7551,W,0.2,329.1,260615,7.1,"
"##MN-00 00 55 0050 02723 6339 389264 023899 197"
"177.943449"
"$GPRMC,223831,A,2617.8903,N,07958.7552,W,0.2,328.7,260615,7.1,"
"##MN-00 00 54 0051 02725 6339 401768 023911 197"
"177.943495"
"$GPRMC,223835,A,2617.8904,N,07958.7554,W,0.2,328.2,260615,7.1,"
"##MN-00 00 56 0052 02726 6338 395552 023895 197"
"177.943553"
"$GPRMC,223839,A,2617.8905,N,07958.7555,W,0.3,326.6,260615,7.1,"
"##MN-00 00 55 0053 02726 6338 392952 023908 197"
"177.9436"
"$GPRMC,223843,A,2617.8906,N,07958.7557,W,0.3,325.3,260615,7.1,"
"##MN-00 00 55 0054 02729 6338 395680 023914 197"
"177.943646"
"$GPRMC,223847,A,2617.8907,N,07958.7559,W,0.3,324.0,260615,7.1,"
"##MN-00 00 53 0055 02729 6338 399720 023908 197"
"177.943692"
"$GPRMC,223851,A,2617.8911,N,07958.7562,W,0.2,322.2,260615,7.1,"
"##MN-00 00 53 0056 02730 6338 391328 023908 197"
"177.943738"
"$GPRMC,223855,A,2617.8913,N,07958.7566,W,0.2,321.0,260615,7.1,"
"##MN-00 00 54 0057 02732 6338 391368 023903 197"
"177.943785"
"$GPRMC,223859,A,2617.8914,N,07958.7569,W,0.3,320.1,260615,7.1,"
"##MN-00 00 55 0058 02732 6337 382928 023906 197"
"177.943831"
"$GPRMC,223903,A,2617.8914,N,07958.7571,W,0.2,319.1,260615,7.1,"
"##MN-00 00 54 0059 02733 6338 378080 023912 197"
"177.943877"
"$GPRMC,223907,A,2617.8915,N,07958.7574,W,0.3,318.7,260615,7.1,"
"##MN-00 00 55 0060 02734 6337 384784 023907 197"
"177.943924"
"$GPRMC,223911,A,2617.8920,N,07958.7577,W,0.2,318.7,260615,7.1,"
"##MN-00 00 54 0061 02738 6337 397728 023906 197"
"177.94397"
"$GPRMC,223915,A,2617.8921,N,07958.7579,W,0.2,319.0,260615,7.1,"
"##MN-00 00 54 0062 02739 6337 384376 023910 197"
"177.944016"
"$GPRMC,223919,A,2617.8922,N,07958.7580,W,0.2,319.2,260615,7.1,"
"##MN-00 00 54 0064 02738 6336 392416 023901 197"
"177.944062"
"$GPRMC,223923,A,2617.8918,N,07958.7578,W,0.2,319.4,260615,7.1,"
"##MN-00 00 53 0065 02740 6336 376416 023916 197"
"177.944109"
"$GPRMC,223927,A,2617.8914,N,07958.7577,W,0.2,319.2,260615,7.1,"
"##MN-00 00 54 0066 02741 6336 380008 023903 197"
"177.944155"
"$GPRMC,223931,A,2617.8917,N,07958.7579,W,0.2,318.4,260615,7.1,"
"##MN-00 00 55 0067 02741 6336 378304 023917 197"
"177.944201"
"$GPRMC,223935,A,2617.8918,N,07958.7580,W,0.2,317.9,260615,7.1,"
"##MN-00 00 54 0068 02742 6335 367656 023942 197"
"177.944248"
"$GPRMC,223939,A,2617.8927,N,07958.7585,W,0.2,317.7,260615,7.1,"
"##MN-00 00 56 0069 02747 6335 346304 023930 197"
"177.944294"
"$GPRMC,223943,A,2617.8931,N,07958.7587,W,0.2,317.9,260615,7.1,"
"##MN-00 00 54 0070 02747 6335 628208 023926 197"
"177.94434"
"$GPRMC,223947,A,2617.8932,N,07958.7588,W,0.2,318.1,260615,7.1,"
"##MN-00 00 54 0071 02749 6335 369520 023935 197"
"177.944387"
"$GPRMC,223951,A,2617.8932,N,07958.7586,W,0.2,318.6,260615,7.1,"
"##MN-00 00 54 0072 02750 6334 367384 023919 197"
"177.944433"
"$GPRMC,223955,A,2617.8933,N,07958.7588,W,0.2,319.6,260615,7.1,"
"##MN-00 00 54 0073 02754 6334 367856 023933 197"
"177.944479"
"$GPRMC,223959,A,2617.8936,N,07958.7589,W,0.2,320.0,260615,7.1,"
"##MN-00 00 54 0074 02752 6334 367936 023919 197"
"177.944525"
"$GPRMC,224003,A,2617.8933,N,07958.7588,W,0.2,320.4,260615,7.1,"
"##MN-00 00 54 0075 02752 6333 368032 023926 197"
"177.944572"
"$GPRMC,224007,A,2617.8934,N,07958.7588,W,0.2,321.5,260615,7.1,"
"##MN-00 00 55 0076 02758 6333 368128 023917 197"
"177.944618"
"$GPRMC,224011,A,2617.8936,N,07958.7590,W,0.2,323.2,260615,7.1,"
"##MN-00 00 54 0077 02758 6333 368168 023909 197"
"177.944664"
"$GPRMC,224015,A,2617.8935,N,07958.7587,W,0.1,323.9,260615,7.1,"
"##MN-00 00 54 0078 02763 6332 125040 023902 197"
"177.944711"
"$GPRMC,224019,A,2617.8932,N,07958.7586,W,0.2,324.7,260615,7.1,"
"##MN-00 00 54 0079 02761 6332 357160 023892 197"
"177.944757"
"$GPRMC,224023,A,2617.8934,N,07958.7587,W,0.2,326.2,260615,7.1,"
"##MN-00 00 54 0080 02764 6332 387120 023890 197"
"177.944803"
"$GPRMC,224027,A,2617.8932,N,07958.7585,W,0.2,328.1,260615,7.1,"
"##MN-00 00 54 0081 02767 6331 368448 023875 197"
"177.94485"
"$GPRMC,224031,A,2617.8932,N,07958.7585,W,0.2,328.9,260615,7.1,"
"##MN-00 00 54 0082 02769 6331 361392 023897 197"
"177.944896"
"$GPRMC,224035,A,2617.8931,N,07958.7585,W,0.2,329.3,260615,7.1,"
"##MN-00 00 54 0083 02771 6331 366360 023888 197"
"177.944942"
"$GPRMC,224039,A,2617.8938,N,07958.7594,W,0.2,328.7,260615,7.1,"
"##MN-00 00 52 0084 02773 6331 613128 023900 197"
"177.944988"
"$GPRMC,224043,A,2617.8936,N,07958.7596,W,0.2,327.7,260615,7.1,"
"##MN-00 00 54 0085 02777 6330 357120 023894 197"
"177.945035"
"$GPRMC,224047,A,2617.8936,N,07958.7601,W,0.2,326.0,260615,7.1,"
"##MN-00 00 54 0086 02778 6330 354968 023909 197"
"177.945081"
"$GPRMC,224051,A,2617.8940,N,07958.7605,W,0.2,324.9,260615,7.1,"
"##MN-00 00 53 0087 02780 6329 354512 023903 197"
"177.945127"
"$GPRMC,224055,A,2617.8943,N,07958.7609,W,0.2,322.9,260615,7.1,"
"##MN-00 00 53 0088 02784 6329 350576 023900 197"
"177.945174"
"$GPRMC,224059,A,2617.8947,N,07958.7610,W,0.2,321.4,260615,7.1,"
"##MN-00 00 52 0089 02785 6328 350144 023910 197"
"177.94522"
"$GPRMC,224103,A,2617.8947,N,07958.7616,W,0.2,320.3,260615,7.1,"
"##MN-00 00 54 0090 02788 6328 348912 023910 197"
"177.945266"
"$GPRMC,224107,A,2617.8951,N,07958.7619,W,0.2,318.5,260615,7.1,"
"##MN-00 00 54 0091 02791 6327 346720 023910 197"
"177.945313"
"$GPRMC,224111,A,2617.8951,N,07958.7621,W,0.2,315.9,260615,7.1,"
"##MN-00 00 52 0092 02790 6327 471400 023908 197"
"177.945359"
"$GPRMC,224115,A,2617.8951,N,07958.7623,W,0.2,314.3,260615,7.1,"
"##MN-00 00 54 0093 02796 6326 340576 023911 197"
"177.945405"
"$GPRMC,224120,A,2617.8951,N,07958.7626,W,0.2,312.6,260615,7.1,"
"##MN-00 00 54 0094 02798 6326 340592 023917 197"
"177.945451"
"$GPRMC,224124,A,2617.8956,N,07958.7630,W,0.3,313.8,260615,7.1,"
"##MN-00 00 53 0095 02804 6326 339296 023907 197"
"177.945498"
"$GPRMC,224127,A,2617.8955,N,07958.7630,W,0.3,314.6,260615,7.1,"
"##MN-00 00 53 0096 02806 6325 338016 023916 197"
"177.945544"
"$GPRMC,224131,A,2617.8958,N,07958.7630,W,0.2,316.3,260615,7.1,"
"##MN-00 00 52 0097 02809 6325 334520 023899 197"
"177.94559"
"$GPRMC,224136,A,2617.8960,N,07958.7631,W,0.2,317.7,260615,7.1,"
"##MN-00 00 54 0098 02812 6324 331904 023911 197"
"177.945637"
"$GPRMC,224140,A,2617.8961,N,07958.7631,W,0.2,320.3,260615,7.1,"
"##MN-00 00 54 0099 02816 6324 330608 023921 197"
"177.945683"
"$GPRMC,224144,A,2617.8962,N,07958.7631,W,0.2,323.8,260615,7.1,"
"##MN-00 00 54 0100 02819 6323 330224 023901 197"
"177.945729"
"$GPRMC,224148,A,2617.8965,N,07958.7633,W,0.2,327.2,260615,7.1,"
"##MN-00 00 52 0101 02825 6323 323536 023921 197"
"177.945775"
"$GPRMC,224152,A,2617.8969,N,07958.7633,W,0.3,332.6,260615,7.1,"
"##MN-00 00 53 0102 02827 6322 319168 023923 197"
"177.945822"
"$GPRMC,224156,A,2617.8972,N,07958.7633,W,0.2,335.7,260615,7.1,"
"##MN-00 00 53 0103 02830 6322 071088 023922 197"
"177.945868"
"$GPRMC,224200,A,2617.8976,N,07958.7633,W,0.2,338.6,260615,7.1,"
"##MN-00 00 55 0104 02832 6321 302720 023935 197"
"177.945914"
"$GPRMC,224204,A,2617.8977,N,07958.7631,W,0.2,343.5,260615,7.1,"
"##MN-00 00 52 0105 02838 6321 835328 023934 197"
"177.945961"
"$GPRMC,224208,A,2617.8979,N,07958.7630,W,0.2,345.5,260615,7.1,"
"##MN-00 00 54 0107 02841 6320 312640 023940 197"
"177.946007"
"$GPRMC,224212,A,2617.8980,N,07958.7628,W,0.2,347.3,260615,7.1,"
"##MN-00 00 53 0108 02844 6320 312688 023953 197"
"177.946053"
"$GPRMC,224216,A,2617.8983,N,07958.7630,W,0.2,349.1,260615,7.1,"
"##MN-00 00 53 0109 02846 6319 312744 023936 197"
"177.9461"
"$GPRMC,224220,A,2617.8983,N,07958.7637,W,0.2,349.9,260615,7.1,"
"##MN-00 00 54 0110 02851 6318 312384 023918 197"
"177.946146"
"$GPRMC,224224,A,2617.8985,N,07958.7639,W,0.2,348.9,260615,7.1,"
"##MN-00 00 52 0111 02855 6318 060752 023917 197"
"177.946192"
"$GPRMC,224228,A,2617.8989,N,07958.7640,W,0.2,347.2,260615,7.1,"
"##MN-00 00 54 0112 02858 6317 313368 023903 197"
"177.946238"
"$GPRMC,224232,A,2617.8990,N,07958.7641,W,0.2,345.0,260615,7.1,"
"##MN-00 00 52 0113 02862 6317 318288 023911 197"
"177.946285"
"$GPRMC,224236,A,2617.8994,N,07958.7642,W,0.2,342.2,260615,7.1,"
"##MN-00 00 52 0114 02864 6316 313848 023919 197"
"177.946331"
"$GPRMC,224240,A,2617.8996,N,07958.7644,W,0.3,338.8,260615,7.1,"
"##MN-00 00 52 0115 02867 6315 308560 023905 197"
"177.946377"
"$GPRMC,224244,A,2617.8998,N,07958.7646,W,0.2,336.8,260615,7.1,"
"##MN-00 00 55 0117 02872 6315 303232 023907 197"
"177.946424"
"$GPRMC,224248,A,2617.9001,N,07958.7646,W,0.3,334.7,260615,7.1,"
"##MN-00 00 53 0118 02873 6314 310400 023918 197"
"177.94647"
"$GPRMC,224252,A,2617.9003,N,07958.7648,W,0.3,333.3,260615,7.1,"
"##MN-00 00 51 0119 02875 6314 313088 023907 197"
"177.946516"
"$GPRMC,224256,A,2617.9005,N,07958.7649,W,0.2,332.0,260615,7.1,"
"##MN-00 00 54 0120 02874 6313 290864 023918 197"
"177.946563"
"$GPRMC,224300,A,2617.9008,N,07958.7650,W,0.2,331.5,260615,7.1,"
"##MN-00 00 54 0121 02877 6313 565984 023911 197"
"177.946609"
"$GPRMC,224304,A,2617.9012,N,07958.7652,W,0.3,331.1,260615,7.1,"
"##MN-00 00 54 0122 02879 6312 293128 023912 197"
"177.946655"
"$GPRMC,224308,A,2617.9015,N,07958.7653,W,0.3,331.5,260615,7.1,"
"##MN-00 00 52 0123 02883 6311 295440 023913 197"
"177.946701"
"$GPRMC,224312,A,2617.9022,N,07958.7656,W,0.3,332.0,260615,7.1,"
"##MN-00 00 53 0125 02882 6310 294536 023925 197"
"177.946748"
"$GPRMC,224316,A,2617.9027,N,07958.7659,W,0.3,333.9,260615,7.1,"
"##MN-00 00 55 0126 02883 6310 310576 023927 197"
"177.946806"
"$GPRMC,224320,A,2617.9030,N,07958.7659,W,0.3,336.0,260615,7.1,"
"##MN-00 00 53 0127 02882 6309 288328 023919 197"
"177.946852"
"$GPRMC,224324,A,2617.9031,N,07958.7659,W,0.3,338.1,260615,7.1,"
"##MN-00 00 52 0128 02883 6309 298144 023927 197"
"177.946898"
"$GPRMC,224328,A,2617.9036,N,07958.7657,W,0.3,341.3,260615,7.1,"
"##MN-00 00 54 0129 02886 6308 278992 023923 197"
"177.946944"
"$GPRMC,224332,A,2617.9037,N,07958.7656,W,0.3,344.6,260615,7.1,"
"##MN-00 00 54 0130 02886 6307 279464 023916 197"
"177.946991"
"$GPRMC,224336,A,2617.9039,N,07958.7656,W,0.3,347.7,260615,7.1,"
"##MN-00 00 52 0132 02888 6306 807568 023932 197"
"177.947037"
"$GPRMC,224340,A,2617.9041,N,07958.7654,W,0.3,350.1,260615,7.1,"
"##MN-00 00 54 0133 02886 6306 283064 023942 197"
"177.947083"
"$GPRMC,224344,A,2617.9043,N,07958.7653,W,0.3,352.5,260615,7.1,"
"##MN-00 00 55 0134 02888 6305 278624 023925 197"
"177.94713"
"$GPRMC,224348,A,2617.9044,N,07958.7655,W,0.3,354.7,260615,7.1,"
"##MN-00 00 53 0135 02886 6305 150344 023928 197"
"177.947176"
"$GPRMC,224352,A,2617.9045,N,07958.7659,W,0.3,355.9,260615,7.1,"
"##MN-00 00 54 0136 02889 6304 277760 023940 197"
"177.947222"
"$GPRMC,224356,A,2617.9048,N,07958.7659,W,0.3,355.6,260615,7.1,"
"##MN-00 00 53 0137 02886 6303 529320 023927 197"
"177.947268"
"$GPRMC,224400,A,2617.9051,N,07958.7663,W,0.3,354.8,260615,7.1,"
"##MN-00 00 53 0139 02886 6302 272896 023928 197"
"177.947315"
"$GPRMC,224404,A,2617.9054,N,07958.7663,W,0.3,353.2,260615,7.1,"
"##MN-00 00 55 0140 02885 6302 270640 023933 197"
"177.947361"
"$GPRMC,224408,A,2617.9057,N,07958.7660,W,0.3,351.9,260615,7.1,"
"##MN-00 00 52 0141 02883 6301 266664 023939 197"
"177.947407"
"$GPRMC,224412,A,2617.9059,N,07958.7663,W,0.3,351.5,260615,7.1,"
"##MN-00 00 52 0142 02884 6301 261776 023942 197"
"177.947454"
"$GPRMC,224416,A,2617.9061,N,07958.7666,W,0.3,351.1,260615,7.1,"
"##MN-00 00 56 0143 02885 6300 261776 023949 197"
"177.9475"
"$GPRMC,224420,A,2617.9063,N,07958.7668,W,0.3,349.8,260615,7.1,"
"##MN-00 00 53 0144 02883 6299 007920 023953 197"
"177.947546"
"$GPRMC,224424,A,2617.9066,N,07958.7670,W,0.3,347.3,260615,7.1,"
"##MN-00 00 55 0145 02883 6298 511168 023956 197"
"177.947593"
"$GPRMC,224428,A,2617.9069,N,07958.7672,W,0.3,344.8,260615,7.1,"
"##MN-00 00 53 0147 02883 6298 256480 023957 197"
"177.947639"
"$GPRMC,224432,A,2617.9070,N,07958.7673,W,0.3,342.1,260615,7.1,"
"##MN-00 00 54 0148 02880 6297 256480 023944 197"
"177.947685"
"$GPRMC,224436,A,2617.9072,N,07958.7673,W,0.3,340.8,260615,7.1,"
"##MN-00 00 53 0149 02879 6296 256488 023955 197"
"177.947731"
"$GPRMC,224440,A,2617.9073,N,07958.7673,W,0.3,339.2,260615,7.1,"
"##MN-00 00 54 0150 02879 6295 256544 023962 197"
"177.947778"
"$GPRMC,224444,A,2617.9075,N,07958.7673,W,0.3,337.6,260615,7.1,"
"##MN-00 00 53 0151 02881 6294 132256 023964 197"
"177.947824"
"$GPRMC,224448,A,2617.9079,N,07958.7673,W,0.3,337.5,260615,7.1,"
"##MN-00 00 55 0152 02877 6294 763200 023942 197"
"177.94787"
"$GPRMC,224452,A,2617.9081,N,07958.7672,W,0.3,338.1,260615,7.1,"
"##MN-00 00 53 0154 02877 6293 648048 023938 197"
"177.947917"
"$GPRMC,224456,A,2617.9086,N,07958.7672,W,0.3,339.5,260615,7.1,"
"##MN-00 00 53 0155 02876 6293 276992 023953 197"
"177.947963"
"$GPRMC,224500,A,2617.9088,N,07958.7674,W,0.3,341.2,260615,7.1,"
"##MN-00 00 54 0156 02873 6292 251976 023941 197"
"177.948009"
"$GPRMC,224504,A,2617.9091,N,07958.7673,W,0.3,343.0,260615,7.1,"
"##MN-00 00 53 0157 02873 6291 250640 023939 197"
"177.948056"
"$GPRMC,224508,A,2617.9093,N,07958.7671,W,0.3,346.5,260615,7.1,"
"##MN-00 00 53 0158 02871 6290 780096 023935 197"
"177.948102"
"$GPRMC,224512,A,2617.9096,N,07958.7670,W,0.3,348.6,260615,7.1,"
"##MN-00 00 52 0159 02870 6290 648000 023935 197"
"177.948148"
"$GPRMC,224516,A,2617.9099,N,07958.7669,W,0.2,350.4,260615,7.1,"
"##MN-00 00 51 0161 02868 6289 782752 023925 197"
"177.948194"
"$GPRMC,224520,A,2617.9102,N,07958.7670,W,0.3,352.1,260615,7.1,"
"##MN-00 00 53 0162 02869 6288 128576 023927 197"
"177.948241"
"$GPRMC,224524,A,2617.9106,N,07958.7670,W,0.3,354.0,260615,7.1,"
"##MN-00 00 54 0163 02865 6288 258208 023937 197"
"177.948287"
"$GPRMC,224528,A,2617.9109,N,07958.7668,W,0.3,356.4,260615,7.1,"
"##MN-00 00 53 0164 02865 6287 249304 023937 197"
"177.948333"
"$GPRMC,224532,A,2617.9112,N,07958.7670,W,0.3,357.7,260615,7.1,"
"##MN-00 00 54 0165 02866 6286 276944 023947 197"
"177.94838"
"$GPRMC,224536,A,2617.9115,N,07958.7668,W,0.3,359.1,260615,7.1,"
"##MN-00 00 52 0166 02863 6286 256408 023942 197"
"177.948426"
"$GPRMC,224540,A,2617.9117,N,07958.7668,W,0.3,359.9,260615,7.1,"
"##MN-00 00 53 0168 02861 6285 503464 023937 197"
"177.948472"
"$GPRMC,224544,A,2617.9122,N,07958.7667,W,0.3,0.6,260615,7.1,W*"
"##MN-00 00 55 0169 02859 6284 046544 023939 197"
"177.948519"
"$GPRMC,224548,A,2617.9124,N,07958.7668,W,0.3,0.2,260615,7.1,W*"
"##MN-00 00 53 0170 02857 6284 242512 023940 197"
"177.948565"
"$GPRMC,224552,A,2617.9126,N,07958.7668,W,0.2,358.9,260615,7.1,"
"##MN-00 00 53 0171 02858 6283 771936 023935 197"
"177.948611"
"$GPRMC,224556,A,2617.9128,N,07958.7670,W,0.3,356.2,260615,7.1,"
"##MN-00 00 54 0172 02855 6282 645632 023937 197"
"177.948657"
"$GPRMC,224600,A,2617.9130,N,07958.7670,W,0.3,354.2,260615,7.1,"
"##MN-00 00 52 0173 02852 6281 228624 023945 197"
"177.948704"
"$GPRMC,224605,A,2617.9135,N,07958.7673,W,0.3,352.0,260615,7.1,"
"##MN-00 00 53 0175 02849 6281 251848 023939 197"
"177.94875"
"$GPRMC,224609,A,2617.9138,N,07958.7677,W,0.3,350.2,260615,7.1,"
"##MN-00 00 54 0176 02852 6280 235768 023948 197"
"177.948796"
"$GPRMC,224612,A,2617.9139,N,07958.7677,W,0.3,348.6,260615,7.1,"
"##MN-00 00 53 0177 02847 6279 766544 023941 197"
"177.948843"
"$GPRMC,224616,A,2617.9142,N,07958.7679,W,0.3,346.3,260615,7.1,"
"##MN-00 00 53 0178 02847 6279 242912 023946 197"
"177.948889"
"$GPRMC,224621,A,2617.9146,N,07958.7681,W,0.3,343.8,260615,7.1,"
"##MN-00 00 53 0179 02845 6278 241104 023941 197"
"177.948935"
"$GPRMC,224625,A,2617.9149,N,07958.7682,W,0.3,342.7,260615,7.1,"
"##MN-00 00 55 0181 02843 6277 241568 023944 197"
"177.948981"
"$GPRMC,224629,A,2617.9152,N,07958.7683,W,0.3,340.4,260615,7.1,"
"##MN-00 00 54 0182 02841 6277 240240 023954 197"
"177.949028"
"$GPRMC,224633,A,2617.9153,N,07958.7684,W,0.3,339.4,260615,7.1,"
"##MN-00 00 54 0183 02840 6276 240200 023942 197"
"177.949074"
"$GPRMC,224637,A,2617.9156,N,07958.7685,W,0.3,338.5,260615,7.1,"
"##MN-00 00 53 0184 02840 6275 629544 023939 197"
"177.94912"
"$GPRMC,224641,A,2617.9160,N,07958.7684,W,0.4,340.5,260615,7.1,"
"##MN-00 00 55 0185 02836 6275 254544 023946 197"
"177.949167"
"$GPRMC,224645,A,2617.9162,N,07958.7685,W,0.4,342.8,260615,7.1,"
"##MN-00 00 53 0186 02835 6274 237128 023942 197"
"177.949213"
"$GPRMC,224648,A,2617.9167,N,07958.7680,W,0.3,343.7,260615,7.1,"
"##MN-00 00 52 0188 02833 6273 221536 023944 197"
"177.949259"
"$GPRMC,224653,A,2617.9171,N,07958.7682,W,0.3,346.9,260615,7.1,"
"##MN-00 00 56 0189 02831 6273 498528 023949 197"
"177.949306"
"$GPRMC,224657,A,2617.9174,N,07958.7682,W,0.3,349.4,260615,7.1,"
"##MN-00 00 52 0190 02830 6272 234000 023943 197"
"177.949352"
"$GPRMC,224701,A,2617.9177,N,07958.7682,W,0.3,351.5,260615,7.1,"
"##MN-00 00 52 0191 02829 6271 234456 023944 197"
"177.949398"
"$GPRMC,224705,A,2617.9179,N,07958.7681,W,0.3,353.0,260615,7.1,"
"##MN-00 00 53 0192 02827 6271 038448 023953 197"
"177.949444"
"$GPRMC,224709,A,2617.9182,N,07958.7682,W,0.3,354.6,260615,7.1,"
"##MN-00 00 54 0193 02825 6270 232632 023945 197"
"177.949491"
"$GPRMC,224713,A,2617.9185,N,07958.7682,W,0.3,356.0,260615,7.1,"
"##MN-00 00 53 0194 02824 6269 232632 023948 197"
"177.949537"
"$GPRMC,224717,A,2617.9189,N,07958.7681,W,0.3,358.2,260615,7.1,"
"##MN+00 00 54 0195 02823 6269 231248 023947 197"
"177.949583"
"$GPRMC,224721,A,2617.9192,N,07958.7680,W,0.3,0.6,260615,7.1,W*"
"##MN+00 00 52 0197 02822 6268 221024 023943 197"
"177.94963"
"$GPRMC,224725,A,2617.9195,N,07958.7679,W,0.3,2.2,260615,7.1,W*"
"##MN+00 00 54 0198 02819 6268 246432 023954 197"
"177.949676"
"$GPRMC,224729,A,2617.9196,N,07958.7678,W,0.3,4.1,260615,7.1,W*"
"##MN-00 00 59 0199 02818 6267 227768 023947 197"
"177.949722"
"#increment_net"
"$GPRMC,224733,A,2617.9200,N,07958.7675,W,0.3,4.8,260615,7.1,W*"
"##MN-00 00 54 0200 02818 6266 233104 023951 197"
"177.949769"
"$GPRMC,224737,A,2617.9202,N,07958.7677,W,0.3,4.0,260615,7.1,W*"
"##MN-00 00 54 0201 02816 6265 219696 023941 197"
"177.949815"
"$GPRMC,224741,A,2617.9203,N,07958.7678,W,0.3,3.0,260615,7.1,W*"
"##MN-00 00 54 0202 02814 6265 227744 023950 197"
"177.949861"
"$GPRMC,224745,A,2617.9206,N,07958.7679,W,0.2,1.1,260615,7.1,W*"
"##MN-00 00 55 0203 02816 6264 227744 023950 197"
"177.949907"
"$GPRMC,224749,A,2617.9207,N,07958.7681,W,0.2,359.5,260615,7.1,"
"##MN-00 00 54 0204 02814 6264 489984 023948 197"
"177.949954"
"$GPRMC,224753,A,2617.9211,N,07958.7682,W,0.2,356.0,260615,7.1,"
"##MN-00 00 55 0205 02814 6263 026848 023950 197"
"177.95"
"$GPRMC,224757,A,2617.9214,N,07958.7684,W,0.2,352.6,260615,7.1,"
"##MN-00 00 52 0206 02812 6263 479728 023949 197"
"177.950058"
"$GPRMC,224801,A,2617.9218,N,07958.7686,W,0.2,348.8,260615,7.1,"
"##MN-00 00 54 0208 02810 6262 225072 023944 197"
"177.950104"
"$GPRMC,224805,A,2617.9221,N,07958.7688,W,0.3,345.3,260615,7.1,"
"##MN-00 00 55 0209 02811 6261 613488 023951 197"
"177.95015"
"$GPRMC,224809,A,2617.9225,N,07958.7691,W,0.3,342.9,260615,7.1,"
"##MN-00 00 53 0210 02811 6261 241072 023950 197"
"177.950197"
"$GPRMC,224813,A,2617.9229,N,07958.7692,W,0.3,339.6,260615,7.1,"
"##MN-00 00 54 0211 02810 6261 474384 023947 197"
"177.950243"
"$GPRMC,224817,A,2617.9232,N,07958.7693,W,0.3,338.4,260615,7.1,"
"##MN-00 00 52 0212 02808 6260 220616 023956 197"
"177.950289"
"$GPRMC,224821,A,2617.9234,N,07958.7695,W,0.3,336.2,260615,7.1,"
"##MN-00 00 54 0213 02809 6259 219776 023948 197"
"177.950336"
"$GPRMC,224825,A,2617.9236,N,07958.7695,W,0.3,334.8,260615,7.1,"
"##MN-00 00 52 0214 02808 6259 216624 023957 197"
"177.950382"
"$GPRMC,224829,A,2617.9239,N,07958.7695,W,0.3,334.6,260615,7.1,"
"##MN-00 00 55 0215 02807 6258 011808 023949 197"
"177.950428"
"$GPRMC,224833,A,2617.9240,N,07958.7696,W,0.2,334.6,260615,7.1,"
"##MN-00 00 53 0216 02806 6258 216224 023951 197"
"177.950475"
"$GPRMC,224837,A,2617.9243,N,07958.7695,W,0.3,335.9,260615,7.1,"
"##MN-00 00 51 0217 02808 6257 233200 023952 197"
"177.950521"
"$GPRMC,224841,A,2617.9245,N,07958.7696,W,0.2,337.6,260615,7.1,"
"##MN-00 00 53 0219 02807 6256 210872 023950 197"
"177.950567"
"$GPRMC,224845,A,2617.9246,N,07958.7696,W,0.2,339.7,260615,7.1,"
"##MN-00 00 52 0220 02806 6256 227376 023965 197"
"177.950613"
"$GPRMC,224849,A,2617.9248,N,07958.7695,W,0.2,342.7,260615,7.1,"
"##MN-00 00 53 0221 02806 6255 198432 023957 197"
"177.95066"
"$GPRMC,224853,A,2617.9250,N,07958.7695,W,0.2,345.8,260615,7.1,"
"##MN-00 00 54 0222 02806 6255 217152 023956 197"
"177.950706"
"$GPRMC,224857,A,2617.9254,N,07958.7694,W,0.2,349.1,260615,7.1,"
"##MN-00 00 51 0223 02805 6254 217168 023962 197"
"177.950752"
"$GPRMC,224901,A,2617.9256,N,07958.7696,W,0.2,350.7,260615,7.1,"
"##MN-00 00 53 0224 02805 6254 215376 023952 197"
"177.950799"
"$GPRMC,224905,A,2617.9257,N,07958.7697,W,0.2,353.1,260615,7.1,"
"##MN-00 00 52 0225 02804 6253 738128 023962 197"
"177.950845"
"$GPRMC,224909,A,2617.9260,N,07958.7699,W,0.3,355.8,260615,7.1,"
"##MN-00 00 53 0226 02802 6252 212744 023954 197"
"177.950891"
"$GPRMC,224913,A,2617.9264,N,07958.7694,W,0.3,357.1,260615,7.1,"
"##MN-00 00 53 0227 02803 6252 212736 023961 197"
"177.950938"
"$GPRMC,224917,A,2617.9267,N,07958.7691,W,0.3,357.9,260615,7.1,"
"##MN-00 00 53 0228 02804 6251 610096 023953 197"
"177.950984"
"$GPRMC,224921,A,2617.9269,N,07958.7693,W,0.3,358.9,260615,7.1,"
"##MN-00 00 52 0229 02804 6251 200296 023962 197"
"177.95103"
"$GPRMC,224925,A,2617.9272,N,07958.7694,W,0.3,358.9,260615,7.1,"
"##MN-00 00 54 0230 02805 6251 203904 023956 197"
"177.951076"
"$GPRMC,224929,A,2617.9274,N,07958.7696,W,0.3,357.5,260615,7.1,"
"##MN+00 00 54 0232 02802 6250 205136 023967 197"
"177.951123"
"$GPRMC,224933,A,2617.9278,N,07958.7697,W,0.3,356.7,260615,7.1,"
"##MN+00 00 51 0233 02801 6250 191312 023972 197"
"177.951169"
"$GPRMC,224937,A,2617.9280,N,07958.7699,W,0.3,355.5,260615,7.1,"
"##MN+00 00 52 0234 02804 6249 455816 023963 197"
"177.951215"
"$GPRMC,224941,A,2617.9283,N,07958.7700,W,0.3,354.6,260615,7.1,"
"##MN-00 00 54 0235 02800 6248 199392 023975 197"
"177.951262"
"#increment_net"
"$GPRMC,224945,A,2617.9286,N,07958.7700,W,0.3,353.3,260615,7.1,"
"##MN-00 00 52 0236 02802 6248 146336 023971 197"
"177.951308"
"$GPRMC,224949,A,2617.9290,N,07958.7700,W,0.3,353.8,260615,7.1,"
"##MN-00 00 52 0237 02801 6247 252528 023978 197"
"177.951354"
"$GPRMC,224953,A,2617.9293,N,07958.7700,W,0.3,354.8,260615,7.1,"
"##MN-00 00 53 0238 02801 6247 992336 023977 197"
"177.9514"
"$GPRMC,224957,A,2617.9295,N,07958.7702,W,0.3,353.6,260615,7.1,"
"##MN-00 00 54 0239 02802 6246 457184 023973 197"
"177.951447"
"$GPRMC,225001,A,2617.9298,N,07958.7702,W,0.3,352.9,260615,7.1,"
"##MN-00 00 54 0240 02803 6246 002128 023969 197"
"177.951493"
"$GPRMC,225005,A,2617.9301,N,07958.7701,W,0.3,350.6,260615,7.1,"
"##MN-00 00 51 0241 02801 6245 189192 023972 197"
"177.951539"
"$GPRMC,225009,A,2617.9305,N,07958.7702,W,0.3,349.5,260615,7.1,"
"##MN-00 00 55 0243 02800 6245 199456 023984 197"
"177.951586"
"$GPRMC,225013,A,2617.9308,N,07958.7703,W,0.3,348.8,260615,7.1,"
"##MN-00 00 52 0244 02801 6245 199416 023977 197"
"177.951632"
"$GPRMC,225017,A,2617.9311,N,07958.7704,W,0.3,347.7,260615,7.1,"
"##MN-00 00 53 0245 02802 6244 199392 023979 197"
"177.951678"
"$GPRMC,225021,A,2617.9314,N,07958.7704,W,0.3,346.9,260615,7.1,"
"##MN-00 00 53 0246 02801 6243 205696 023965 197"
"177.951725"
"$GPRMC,225025,A,2617.9316,N,07958.7704,W,0.3,347.4,260615,7.1,"
"##MN-00 00 54 0247 02801 6243 455472 023973 197"
"177.951771"
"$GPRMC,225029,A,2617.9319,N,07958.7704,W,0.3,347.8,260615,7.1,"
"##MN-00 00 53 0248 02801 6243 199472 023976 197"
"177.951817"
"$GPRMC,225034,A,2617.9323,N,07958.7704,W,0.3,347.3,260615,7.1,"
"##MN-00 00 53 0249 02799 6242 199480 023993 197"
"177.951863"
"$GPRMC,225037,A,2617.9326,N,07958.7705,W,0.3,347.7,260615,7.1,"
"##MN-00 00 54 0250 02801 6241 199504 023984 197"
"177.95191"
"$GPRMC,225042,A,2617.9330,N,07958.7705,W,0.3,348.0,260615,7.1,"
"##MN-00 00 52 0251 02799 6241 199504 023956 197"
"177.951956"
"$GPRMC,225045,A,2617.9333,N,07958.7706,W,0.3,349.1,260615,7.1,"
"##MN-00 00 55 0252 02799 6241 982592 023959 197"
"177.952002"
"$GPRMC,225050,A,2617.9337,N,07958.7706,W,0.3,349.9,260615,7.1,"
"##MN-00 00 52 0254 02801 6240 202624 023953 197"
"177.952049"
"$GPRMC,225054,A,2617.9340,N,07958.7706,W,0.3,350.5,260615,7.1,"
"##MN-00 00 55 0255 02801 6239 201752 023952 197"
"177.952095"
"$GPRMC,225058,A,2617.9342,N,07958.7706,W,0.3,351.8,260615,7.1,"
"##MN-00 00 53 0256 02798 6239 188848 023938 197"
"177.952141"
"$GPRMC,225102,A,2617.9346,N,07958.7706,W,0.3,351.7,260615,7.1,"
"##MN-00 00 54 0257 02799 6238 207128 023959 197"
"177.952188"
"$GPRMC,225106,A,2617.9348,N,07958.7706,W,0.3,351.2,260615,7.1,"
"##MN-00 00 53 0258 02799 6238 184368 023955 197"
"177.952234"
"$GPRMC,225110,A,2617.9349,N,07958.7706,W,0.3,351.1,260615,7.1,"
"##MN-00 00 53 0259 02800 6237 199568 023958 197"
"177.95228"
"$GPRMC,225114,A,2617.9352,N,07958.7706,W,0.3,350.6,260615,7.1,"
"##MN-00 00 54 0260 02797 6237 219184 023951 197"
"177.952326"
"$GPRMC,225118,A,2617.9355,N,07958.7706,W,0.3,350.5,260615,7.1,"
"##MN-00 00 52 0261 02797 6237 189768 023951 197"
"177.952373"
"$GPRMC,225122,A,2617.9356,N,07958.7706,W,0.3,351.4,260615,7.1,"
"##MN-00 00 54 0262 02798 6236 199608 023960 197"
"177.952419"
"$GPRMC,225126,A,2617.9359,N,07958.7705,W,0.3,351.9,260615,7.1,"
"##MN-00 00 55 0263 02797 6235 207648 023955 197"
"177.952465"
"$GPRMC,225130,A,2617.9362,N,07958.7705,W,0.3,352.5,260615,7.1,"
"##MN-00 00 55 0265 02799 6235 195616 023949 197"
"177.952512"
"$GPRMC,225134,A,2617.9366,N,07958.7705,W,0.3,352.4,260615,7.1,"
"##MN-00 00 53 0266 02799 6235 199648 023940 197"
"177.952558"
"$GPRMC,225138,A,2617.9369,N,07958.7704,W,0.3,353.7,260615,7.1,"
"##MN+00 00 54 0267 02799 6234 204128 023958 197"
"177.952604"
"$GPRMC,225142,A,2617.9372,N,07958.7704,W,0.3,354.6,260615,7.1,"
"##MN+00 00 54 0268 02799 6234 200560 023954 197"
"177.95265"
"$GPRMC,225146,A,2617.9375,N,07958.7702,W,0.3,356.1,260615,7.1,"
"##MN+00 00 54 0269 02798 6233 204128 023965 197"
"177.952697"
"#increment_net"
"$GPRMC,225150,A,2617.9377,N,07958.7702,W,0.3,357.5,260615,7.1,"
"##MN-00 00 57 0270 02798 6233 192560 023960 197"
"177.952743"
"$GPRMC,225154,A,2617.9380,N,07958.7702,W,0.3,359.4,260615,7.1,"
"##MN-00 00 55 0271 02797 6233 454400 023956 197"
"177.952789"
"$GPRMC,225158,A,2617.9383,N,07958.7702,W,0.3,1.4,260615,7.1,W*"
"##MN-00 00 57 0272 02799 6232 197040 023960 197"
"177.952836"
"$GPRMC,225202,A,2617.9386,N,07958.7701,W,0.3,2.5,260615,7.1,W*"
"##MN-00 00 56 0273 02799 6232 197936 023955 197"
"177.952882"
"$GPRMC,225206,A,2617.9388,N,07958.7701,W,0.3,2.7,260615,7.1,W*"
"##MN-00 00 55 0274 02798 6231 194760 023962 197"
"177.952928"
"$GPRMC,225210,A,2617.9391,N,07958.7700,W,0.3,2.9,260615,7.1,W*"
"##MN-00 00 56 0275 02796 6231 192480 023947 197"
"177.952975"
"$GPRMC,225214,A,2617.9393,N,07958.7698,W,0.3,3.7,260615,7.1,W*"
"##MN-00 00 55 0277 02797 6230 190712 023958 197"
"177.953021"
"$GPRMC,225218,A,2617.9397,N,07958.7698,W,0.3,3.0,260615,7.1,W*"
"##MN-00 00 56 0278 02795 6230 191584 023954 197"
"177.953067"
"$GPRMC,225222,A,2617.9398,N,07958.7702,W,0.3,1.9,260615,7.1,W*"
"##MN-00 00 54 0279 02796 6229 189392 023954 197"
"177.953113"
"$GPRMC,225226,A,2617.9399,N,07958.7702,W,0.3,2.0,260615,7.1,W*"
"##MN-00 00 56 0280 02798 6229 588984 023962 197"
"177.95316"
"$GPRMC,225230,A,2617.9402,N,07958.7703,W,0.3,1.7,260615,7.1,W*"
"##MN-00 00 55 0281 02797 6229 167536 023964 197"
"177.953206"
"$GPRMC,225234,A,2617.9404,N,07958.7703,W,0.2,0.4,260615,7.1,W*"
"##MN-00 00 56 0282 02797 6228 193880 023958 197"
"177.953252"
"$GPRMC,225238,A,2617.9406,N,07958.7701,W,0.2,358.7,260615,7.1,"
"##MN-00 00 57 0283 02795 6228 172896 023960 197"
"177.95331"
"$GPRMC,225242,A,2617.9409,N,07958.7700,W,0.2,355.8,260615,7.1,"
"##MN-00 00 56 0284 02796 6227 193472 023950 197"
"177.953357"
"$GPRMC,225246,A,2617.9412,N,07958.7699,W,0.3,355.5,260615,7.1,"
"##MN-00 00 57 0285 02797 6227 169376 023960 197"
"177.953403"
"$GPRMC,225250,A,2617.9413,N,07958.7706,W,0.3,354.3,260615,7.1,"
"##MN-00 00 56 0286 02798 6226 577576 023958 197"
"177.953449"
"$GPRMC,225254,A,2617.9413,N,07958.7710,W,0.3,354.3,260615,7.1,"
"##MN-00 00 56 0287 02798 6226 185376 023951 197"
"177.953495"
"$GPRMC,225258,A,2617.9416,N,07958.7711,W,0.3,355.3,260615,7.1,"
"##MN-00 00 58 0288 02797 6226 576032 023961 197"
"177.953542"
"$GPRMC,225302,A,2617.9417,N,07958.7711,W,0.3,356.5,260615,7.1,"
"##MN-00 00 56 0289 02798 6225 446752 023959 197"
"177.953588"
"$GPRMC,225306,A,2617.9419,N,07958.7711,W,0.2,358.3,260615,7.1,"
"##MN-00 00 55 0290 02797 6225 184512 023960 197"
"177.953634"
"$GPRMC,225310,A,2617.9422,N,07958.7711,W,0.2,359.4,260615,7.1,"
"##MN-00 00 58 0292 02797 6224 182280 023959 197"
"177.953681"
"$GPRMC,225314,A,2617.9424,N,07958.7710,W,0.2,0.3,260615,7.1,W*"
"##MN-00 00 55 0293 02795 6224 180960 023958 197"
"177.953727"
"$GPRMC,225318,A,2617.9426,N,07958.7709,W,0.3,2.0,260615,7.1,W*"
"##MN-00 00 55 0294 02796 6223 181000 023958 197"
"177.953773"
"$GPRMC,225322,A,2617.9431,N,07958.7709,W,0.3,2.9,260615,7.1,W*"
"##MN-00 00 56 0295 02797 6223 181008 023968 197"
"177.953819"
"$GPRMC,225326,A,2617.9434,N,07958.7709,W,0.3,3.2,260615,7.1,W*"
"##MN-00 00 56 0296 02797 6223 180560 023956 197"
"177.953866"
"$GPRMC,225330,A,2617.9437,N,07958.7709,W,0.3,4.1,260615,7.1,W*"
"##MN-00 00 56 0297 02796 6222 179688 023969 197"
"177.953912"
"$GPRMC,225334,A,2617.9440,N,07958.7707,W,0.3,4.6,260615,7.1,W*"
"##MN-00 00 57 0298 02795 6222 179232 023968 197"
"177.953958"
"$GPRMC,225338,A,2617.9442,N,07958.7707,W,0.3,4.8,260615,7.1,W*"
"##MN-00 00 57 0299 02796 6221 178336 023966 197"
"177.954005"
"$GPRMC,225342,A,2617.9448,N,07958.7710,W,0.3,4.5,260615,7.1,W*"
"##MN-00 00 56 0300 02795 6221 177456 023967 197"
"177.954051"
"$GPRMC,225346,A,2617.9453,N,07958.7710,W,0.3,4.0,260615,7.1,W*"
"##MN-00 00 55 0301 02797 6220 176992 023970 197"
"177.954097"
"$GPRMC,225350,A,2617.9460,N,07958.7710,W,0.3,3.6,260615,7.1,W*"
"##MN+00 00 57 0302 02795 6220 176528 023963 197"
"177.954144"
"$GPRMC,225354,A,2617.9465,N,07958.7707,W,0.3,4.6,260615,7.1,W*"
"##MN+00 00 58 0303 02795 6220 574336 023974 197"
"177.95419"
"$GPRMC,225358,A,2617.9471,N,07958.7706,W,0.3,6.3,260615,7.1,W*"
"##MN+00 00 57 0304 02794 6219 173864 023964 197"
"177.954236"
"$GPRMC,225402,A,2617.9475,N,07958.7704,W,0.3,6.8,260615,7.1,W*"
"##MN-00 00 58 0306 02797 6219 168592 023966 197"
"177.954282"
"#increment_net"
"$GPRMC,225406,A,2617.9478,N,07958.7701,W,0.3,6.5,260615,7.1,W*"
"##MN-00 00 55 0307 02794 6219 175216 023972 197"
"177.954329"
"$GPRMC,225410,A,2617.9480,N,07958.7700,W,0.3,7.2,260615,7.1,W*"
"##MN-00 00 55 0308 02795 6218 155152 023972 197"
"177.954375"
"$GPRMC,225414,A,2617.9482,N,07958.7700,W,0.4,6.7,260615,7.1,W*"
"##MN-00 00 54 0309 02794 6218 172088 023965 197"
"177.954421"
"$GPRMC,225418,A,2617.9487,N,07958.7697,W,0.4,5.9,260615,7.1,W*"
"##MN-00 00 55 0310 02795 6217 174768 023973 197"
"177.954468"
"$GPRMC,225422,A,2617.9489,N,07958.7696,W,0.4,5.9,260615,7.1,W*"
"##MN-00 00 55 0311 02794 6217 180144 023977 197"
"177.954514"
"$GPRMC,225426,A,2617.9492,N,07958.7698,W,0.3,5.7,260615,7.1,W*"
"##MN-00 00 56 0312 02797 6217 149840 023971 197"
"177.95456"
"$GPRMC,225430,A,2617.9493,N,07958.7699,W,0.3,4.8,260615,7.1,W*"
"##MN-00 00 55 0313 02799 6216 171264 023966 197"
"177.954606"
"$GPRMC,225434,A,2617.9496,N,07958.7697,W,0.3,3.8,260615,7.1,W*"
"##MN-00 00 56 0314 02797 6216 830888 023967 197"
"177.954653"
"$GPRMC,225438,A,2617.9500,N,07958.7696,W,0.3,3.2,260615,7.1,W*"
"##MN-00 00 56 0315 02796 6215 686032 023978 197"
"177.954699"
"$GPRMC,225442,A,2617.9500,N,07958.7700,W,0.2,2.5,260615,7.1,W*"
"##MN-00 00 57 0316 02796 6215 168632 023972 197"
"177.954745"
"$GPRMC,225446,A,2617.9500,N,07958.7706,W,0.2,2.0,260615,7.1,W*"
"##MN-00 00 54 0318 02797 6214 176688 023969 197"
"177.954792"
"$GPRMC,225450,A,2617.9503,N,07958.7704,W,0.2,1.2,260615,7.1,W*"
"##MN-00 00 56 0319 02796 6214 171328 023975 197"
"177.954838"
"$GPRMC,225454,A,2617.9507,N,07958.7702,W,0.2,1.0,260615,7.1,W*"
"##MN-00 00 58 0320 02797 6214 169568 023968 197"
"177.954884"
"$GPRMC,225458,A,2617.9511,N,07958.7698,W,0.3,1.1,260615,7.1,W*"
"##MN-00 00 56 0321 02797 6214 169120 023978 197"
"177.954931"
"$GPRMC,225502,A,2617.9514,N,07958.7697,W,0.3,0.0,260615,7.1,W*"
"##MN-00 00 56 0322 02797 6213 168704 023975 197"
"177.954977"
"$GPRMC,225506,A,2617.9517,N,07958.7696,W,0.3,359.8,260615,7.1,"
"##MN-00 00 55 0323 02795 6213 167776 023971 197"
"177.955023"
"$GPRMC,225510,A,2617.9518,N,07958.7700,W,0.3,357.6,260615,7.1,"
"##MN-00 00 56 0324 02797 6212 166424 023970 197"
"177.955069"
"$GPRMC,225515,A,2617.9521,N,07958.7700,W,0.3,359.2,260615,7.1,"
"##MN-00 00 55 0325 02796 6212 165968 023968 197"
"177.955116"
"$GPRMC,225519,A,2617.9523,N,07958.7703,W,0.3,0.8,260615,7.1,W*"
"##MN-00 00 56 0326 02797 6212 164648 023976 197"
"177.955162"
"$GPRMC,225522,A,2617.9525,N,07958.7703,W,0.3,2.6,260615,7.1,W*"
"##MN-00 00 57 0327 02797 6211 164224 023969 197"
"177.955208"
"$GPRMC,225526,A,2617.9527,N,07958.7702,W,0.3,5.3,260615,7.1,W*"
"##MN-00 00 55 0329 02794 6211 164224 023964 197"
"177.955255"
"$GPRMC,225530,A,2617.9529,N,07958.7699,W,0.3,8.0,260615,7.1,W*"
"##MN-00 00 55 0330 02797 6211 165104 023975 197"
"177.955301"
"$GPRMC,225534,A,2617.9529,N,07958.7697,W,0.3,9.4,260615,7.1,W*"
"##MN-00 00 55 0331 02795 6210 162896 023975 197"
"177.955347"
"$GPRMC,225538,A,2617.9529,N,07958.7695,W,0.3,11.3,260615,7.1,W"
"##MN-00 00 56 0332 02796 6210 553096 023970 197"
"177.955394"
"$GPRMC,225542,A,2617.9539,N,07958.7693,W,0.3,13.0,260615,7.1,W"
"##MN-00 00 56 0333 02796 6209 182992 023970 197"
"177.95544"
"$GPRMC,225546,A,2617.9546,N,07958.7691,W,0.2,14.3,260615,7.1,W"
"##MN-00 00 56 0334 02796 6209 151336 023974 197"
"177.955486"
"$GPRMC,225550,A,2617.9552,N,07958.7690,W,0.2,15.5,260615,7.1,W"
"##MN-00 00 56 0335 02796 6209 161552 023972 197"
"177.955532"
"$GPRMC,225555,A,2617.9556,N,07958.7689,W,0.2,15.9,260615,7.1,W"
"##MN-00 00 57 0336 02797 6208 168248 023970 197"
"177.955579"
"$GPRMC,225559,A,2617.9561,N,07958.7689,W,0.2,15.8,260615,7.1,W"
"##MN-00 00 57 0337 02797 6208 144624 023976 197"
"177.955625"
"$GPRMC,225603,A,2617.9564,N,07958.7689,W,0.2,15.0,260615,7.1,W"
"##MN+00 00 57 0338 02795 6208 168280 023975 197"
"177.955671"
"$GPRMC,225607,A,2617.9568,N,07958.7689,W,0.2,13.4,260615,7.1,W"
"##MN+00 00 54 0340 02796 6207 146880 023989 197"
"177.955718"
"$GPRMC,225611,A,2617.9571,N,07958.7691,W,0.3,11.1,260615,7.1,W"
"##MN+00 00 54 0341 02796 6207 168736 023975 197"
"177.955764"
"$GPRMC,225615,A,2617.9572,N,07958.7689,W,0.2,8.6,260615,7.1,W*"
"##MN-00 00 58 0342 02797 6206 149136 023976 197"
"177.95581"
"#increment_net"
"$GPRMC,225619,A,2617.9576,N,07958.7689,W,0.3,5.4,260615,7.1,W*"
"##MN-00 00 56 0343 02797 6206 171456 023974 197"
"177.955856"
"$GPRMC,225623,A,2617.9579,N,07958.7692,W,0.3,3.1,260615,7.1,W*"
"##MN-00 00 54 0344 02797 6206 149168 023981 197"
"177.955903"
"$GPRMC,225627,A,2617.9580,N,07958.7692,W,0.3,0.5,260615,7.1,W*"
"##MN-00 00 55 0345 02796 6205 681776 023981 197"
"177.955949"
"$GPRMC,225631,A,2617.9583,N,07958.7692,W,0.3,358.0,260615,7.1,"
"##MN-00 00 55 0346 02797 6205 150944 023976 197"
"177.955995"
"$GPRMC,225635,A,2617.9586,N,07958.7690,W,0.3,356.8,260615,7.1,"
"##MN-00 00 53 0347 02795 6205 150544 023971 197"
"177.956042"
"$GPRMC,225639,A,2617.9588,N,07958.7691,W,0.3,355.6,260615,7.1,"
"##MN-00 00 56 0348 02798 6204 149200 023977 197"
"177.956088"
"$GPRMC,225643,A,2617.9590,N,07958.7690,W,0.3,353.8,260615,7.1,"
"##MN-00 00 55 0349 02794 6204 149216 023977 197"
"177.956134"
"$GPRMC,225647,A,2617.9594,N,07958.7690,W,0.3,352.9,260615,7.1,"
"##MN-00 00 54 0351 02795 6204 149184 023988 197"
"177.956181"
"$GPRMC,225651,A,2617.9596,N,07958.7690,W,0.3,352.6,260615,7.1,"
"##MN-00 00 56 0352 02795 6203 149224 023980 197"
"177.956227"
"$GPRMC,225655,A,2617.9599,N,07958.7688,W,0.3,352.7,260615,7.1,"
"##MN-00 00 56 0353 02796 6203 150080 023978 197"
"177.956273"
"$GPRMC,225659,A,2617.9599,N,07958.7691,W,0.3,353.5,260615,7.1,"
"##MN-00 00 57 0354 02796 6202 145200 023974 197"
"177.956319"
"$GPRMC,225703,A,2617.9600,N,07958.7691,W,0.3,354.3,260615,7.1,"
"##MN-00 00 54 0355 02795 6202 145632 023978 197"
"177.956366"
"$GPRMC,225707,A,2617.9600,N,07958.7693,W,0.3,355.6,260615,7.1,"
"##MN-00 00 54 0356 02795 6202 144304 023984 197"
"177.956412"
"$GPRMC,225711,A,2617.9601,N,07958.7693,W,0.3,356.2,260615,7.1,"
"##MN-00 00 55 0357 02794 6202 145624 023972 197"
"177.956458"
"$GPRMC,225715,A,2617.9601,N,07958.7692,W,0.3,358.3,260615,7.1,"
"##MN-00 00 54 0358 02795 6201 146528 023985 197"
"177.956516"
"$GPRMC,225719,A,2617.9604,N,07958.7692,W,0.3,0.3,260615,7.1,W*"
"##MN-00 00 56 0359 02797 6201 144304 023988 197"
"177.956563"
"$GPRMC,225723,A,2617.9605,N,07958.7692,W,0.2,1.8,260615,7.1,W*"
"##MN-00 00 56 0360 02795 6200 142128 023979 197"
"177.956609"
"$GPRMC,225727,A,2617.9608,N,07958.7691,W,0.3,4.3,260615,7.1,W*"
"##MN-00 00 55 0361 02796 6200 143416 023989 197"
"177.956655"
"$GPRMC,225731,A,2617.9615,N,07958.7688,W,0.3,6.8,260615,7.1,W*"
"##MN-00 00 56 0363 02797 6200 143856 023988 197"
"177.956701"
"$GPRMC,225735,A,2617.9619,N,07958.7684,W,0.3,8.8,260615,7.1,W*"
"##MN-00 00 53 0364 02797 6199 142984 023979 197"
"177.956748"
"$GPRMC,225739,A,2617.9626,N,07958.7681,W,0.3,9.1,260615,7.1,W*"
"##MN-00 00 56 0365 02795 6199 143000 023981 197"
"177.956794"
"$GPRMC,225743,A,2617.9628,N,07958.7680,W,0.3,9.3,260615,7.1,W*"
"##MN-00 00 55 0366 02796 6199 143040 023990 197"
"177.95684"
"$GPRMC,225747,A,2617.9630,N,07958.7682,W,0.3,8.9,260615,7.1,W*"
"##MN-00 00 55 0367 02796 6199 143488 023981 197"
"177.956887"
"$GPRMC,225751,A,2617.9632,N,07958.7682,W,0.2,8.4,260615,7.1,W*"
"##MN-00 00 55 0368 02795 6198 142128 023985 197"
"177.956933"
"$GPRMC,225755,A,2617.9633,N,07958.7682,W,0.2,7.1,260615,7.1,W*"
"##MN-00 00 57 0369 02797 6198 142976 023988 197"
"177.956979"
"$GPRMC,225759,A,2617.9635,N,07958.7682,W,0.2,5.7,260615,7.1,W*"
"##MN-00 00 54 0370 02794 6197 142112 023991 197"
"177.957025"
"$GPRMC,225803,A,2617.9640,N,07958.7684,W,0.2,4.6,260615,7.1,W*"
"##MN-00 00 54 0371 02796 6197 143448 023989 197"
"177.957072"
"$GPRMC,225807,A,2617.9644,N,07958.7688,W,0.3,2.4,260615,7.1,W*"
"##MN-00 00 57 0372 02796 6197 143056 023994 197"
"177.957118"
"$GPRMC,225811,A,2617.9648,N,07958.7688,W,0.2,0.4,260615,7.1,W*"
"##MN-00 00 57 0374 02795 6197 143024 023980 197"
"177.957164"
"$GPRMC,225815,A,2617.9651,N,07958.7689,W,0.2,358.3,260615,7.1,"
"##MN-00 00 57 0375 02795 6196 142576 023991 197"
"177.957211"
"$GPRMC,225819,A,2617.9654,N,07958.7689,W,0.2,356.3,260615,7.1,"
"##MN-00 00 56 0376 02797 6196 143904 023988 197"
"177.957257"
"$GPRMC,225823,A,2617.9657,N,07958.7689,W,0.2,354.3,260615,7.1,"
"##MN-00 00 54 0377 02795 6196 143000 023987 197"
"177.957303"
"$GPRMC,225827,A,2617.9659,N,07958.7689,W,0.2,353.4,260615,7.1,"
"##MN-00 00 53 0378 02795 6195 142992 023995 197"
"177.95735"
"$GPRMC,225831,A,2617.9661,N,07958.7691,W,0.2,353.1,260615,7.1,"
"##MN-00 00 56 0379 02795 6195 142984 023999 197"
"177.957396"
"$GPRMC,225835,A,2617.9665,N,07958.7691,W,0.2,353.7,260615,7.1,"
"##MN-00 00 55 0380 02796 6194 143008 023996 197"
"177.957442"
"$GPRMC,225839,A,2617.9668,N,07958.7691,W,0.2,354.1,260615,7.1,"
"##MN-00 00 56 0381 02797 6194 143000 023980 197"
"177.957488"
"$GPRMC,225843,A,2617.9672,N,07958.7690,W,0.2,354.2,260615,7.1,"
"##MN-00 00 55 0382 02795 6194 142584 023975 197"
"177.957535"
"$GPRMC,225847,A,2617.9673,N,07958.7690,W,0.2,355.4,260615,7.1,"
"##MN-00 00 56 0383 02794 6194 143040 023976 197"
"177.957581"
"$GPRMC,225851,A,2617.9677,N,07958.7688,W,0.3,356.5,260615,7.1,"
"##MN-00 00 55 0385 02794 6193 143032 023970 197"
"177.957627"
"$GPRMC,225855,A,2617.9677,N,07958.7691,W,0.3,358.3,260615,7.1,"
"##MN-00 00 56 0386 02796 6193 143920 023976 197"
"177.957674"
"$GPRMC,225859,A,2617.9677,N,07958.7693,W,0.3,359.6,260615,7.1,"
"##MN-00 00 55 0387 02796 6193 142592 023962 197"
"177.95772"
"$GPRMC,225903,A,2617.9678,N,07958.7693,W,0.3,1.8,260615,7.1,W*"
"##MN-00 00 55 0388 02795 6192 143904 023968 197"
"177.957766"
"$GPRMC,225907,A,2617.9680,N,07958.7693,W,0.3,3.2,260615,7.1,W*"
"##MN-00 00 55 0389 02796 6192 143008 023975 197"
"177.957812"
"$GPRMC,225911,A,2617.9682,N,07958.7691,W,0.3,5.3,260615,7.1,W*"
"##MN-00 00 54 0390 02796 6192 143008 023969 197"
"177.957859"
"$GPRMC,225915,A,2617.9684,N,07958.7690,W,0.3,7.2,260615,7.1,W*"
"##MN-00 00 55 0391 02797 6191 142584 023977 197"
"177.957905"
"$GPRMC,225919,A,2617.9688,N,07958.7688,W,0.3,9.3,260615,7.1,W*"
"##MN-00 00 55 0392 02795 6191 143504 023970 197"
"177.957951"
"$GPRMC,225923,A,2617.9689,N,07958.7689,W,0.3,10.9,260615,7.1,W"
"##MN-00 00 56 0393 02795 6190 143104 023967 197"
"177.957998"
"$GPRMC,225927,A,2617.9698,N,07958.7683,W,0.3,11.8,260615,7.1,W"
"##MN-00 00 55 0394 02796 6190 142656 023968 197"
"177.958044"
"$GPRMC,225931,A,2617.9705,N,07958.7684,W,0.3,11.9,260615,7.1,W"
"##MN-00 00 56 0395 02794 6190 144048 023968 197"
"177.95809"
"$GPRMC,225935,A,2617.9711,N,07958.7687,W,0.3,10.8,260615,7.1,W"
"##MN-00 00 55 0397 02795 6189 143168 023968 197"
"177.958137"
"$GPRMC,225940,A,2617.9716,N,07958.7688,W,0.3,8.7,260615,7.1,W*"
"##MN-00 00 55 0398 02798 6189 143184 023965 197"
"177.958183"
"$GPRMC,225943,A,2617.9719,N,07958.7685,W,0.3,6.6,260615,7.1,W*"
"##MN-00 00 54 0399 02796 6189 143160 023975 197"
"177.958229"
"$GPRMC,225948,A,2617.9723,N,07958.7685,W,0.3,4.8,260615,7.1,W*"
"##MN-00 00 54 0400 02794 6188 142688 023976 197"
"177.958275"
"$GPRMC,225951,A,2617.9724,N,07958.7683,W,0.3,3.9,260615,7.1,W*"
"##MN-00 00 55 0401 02796 6188 926224 023968 197"
"177.958322"
"$GPRMC,225955,A,2617.9727,N,07958.7682,W,0.3,2.6,260615,7.1,W*"
"##MN-00 00 54 0402 02795 6188 143136 023976 197"
"177.958368"
"$GPRMC,225959,A,2617.9728,N,07958.7682,W,0.3,0.9,260615,7.1,W*"
"##MN-00 00 55 0403 02795 6188 143152 023974 197"
"177.958414"
"$GPRMC,230003,A,2617.9731,N,07958.7684,W,0.2,359.1,260615,7.1,"
"##MN-00 00 54 0404 02797 6188 405840 023972 197"
"177.958461"
"$GPRMC,230008,A,2617.9732,N,07958.7683,W,0.3,356.1,260615,7.1,"
"##MN-00 00 55 0405 02796 6187 142288 023971 197"
"177.958507"
"$GPRMC,230012,A,2617.9734,N,07958.7684,W,0.2,354.0,260615,7.1,"
"##MN+00 00 54 0406 02797 6187 140488 023976 197"
"177.958553"
"$GPRMC,230016,A,2617.9736,N,07958.7684,W,0.3,352.4,260615,7.1,"
"##MN+00 00 56 0407 02795 6187 140048 023978 197"
"177.9586"
"$GPRMC,230020,A,2617.9738,N,07958.7685,W,0.3,351.3,260615,7.1,"
"##MN+00 00 55 0409 02794 6186 139600 023967 197"
"177.958646"
"#increment_net"
"$GPRMC,230024,A,2617.9740,N,07958.7685,W,0.3,350.5,260615,7.1,"
"##MN-00 00 57 0410 02795 6186 136936 023984 197"
"177.958692"
"$GPRMC,230028,A,2617.9744,N,07958.7686,W,0.3,349.8,260615,7.1,"
"##MN-00 00 55 0411 02795 6186 137776 023979 197"
"177.958738"
"$GPRMC,230032,A,2617.9745,N,07958.7686,W,0.2,349.6,260615,7.1,"
"##MN-00 00 56 0412 02796 6186 136008 023986 197"
"177.958785"
"$GPRMC,230036,A,2617.9748,N,07958.7686,W,0.2,348.7,260615,7.1,"
"##MN-00 00 54 0413 02796 6185 135136 023980 197"
"177.958831"
"$GPRMC,230040,A,2617.9752,N,07958.7688,W,0.2,348.3,260615,7.1,"
"##MN-00 00 55 0414 02793 6185 134248 023981 197"
"177.958877"
"$GPRMC,230044,A,2617.9756,N,07958.7689,W,0.3,348.3,260615,7.1,"
"##MN-00 00 54 0415 02798 6185 136048 023982 197"
"177.958924"
"$GPRMC,230048,A,2617.9759,N,07958.7689,W,0.3,348.4,260615,7.1,"
"##MN-00 00 54 0416 02793 6184 134680 023979 197"
"177.95897"
"$GPRMC,230052,A,2617.9763,N,07958.7690,W,0.3,349.2,260615,7.1,"
"##MN-00 00 55 0417 02796 6184 131112 023981 197"
"177.959016"
"$GPRMC,230056,A,2617.9766,N,07958.7691,W,0.2,349.5,260615,7.1,"
"##MN-00 00 52 0418 02796 6184 140528 023979 197"
"177.959062"
"$GPRMC,230100,A,2617.9769,N,07958.7692,W,0.3,350.2,260615,7.1,"
"##MN-00 00 57 0419 02796 6183 132936 023993 197"
"177.959109"
"$GPRMC,230104,A,2617.9773,N,07958.7693,W,0.3,351.9,260615,7.1,"
"##MN-00 00 56 0420 02794 6183 132464 023968 197"
"177.959155"
"$GPRMC,230108,A,2617.9774,N,07958.7693,W,0.3,353.0,260615,7.1,"
"##MN-00 00 53 0422 02794 6183 130680 023975 197"
"177.959201"
"$GPRMC,230112,A,2617.9778,N,07958.7693,W,0.3,354.3,260615,7.1,"
"##MN-00 00 56 0423 02796 6183 130688 023975 197"
"177.959248"
"$GPRMC,230116,A,2617.9780,N,07958.7694,W,0.3,355.8,260615,7.1,"
"##MN-00 00 54 0424 02793 6182 130256 023978 197"
"177.959294"
"$GPRMC,230120,A,2617.9781,N,07958.7694,W,0.3,357.0,260615,7.1,"
"##MN-00 00 57 0425 02795 6182 522216 023985 197"
"177.95934"
"$GPRMC,230124,A,2617.9783,N,07958.7693,W,0.3,359.0,260615,7.1,"
"##MN-00 00 55 0426 02796 6182 136048 023983 197"
"177.959387"
"$GPRMC,230128,A,2617.9788,N,07958.7690,W,0.3,1.3,260615,7.1,W*"
"##MN-00 00 55 0427 02793 6181 126680 023982 197"
"177.959433"
"$GPRMC,230132,A,2617.9794,N,07958.7691,W,0.3,3.7,260615,7.1,W*"
"##MN-00 00 54 0428 02794 6181 150304 023981 197"
"177.959479"
"$GPRMC,230136,A,2617.9799,N,07958.7689,W,0.3,6.1,260615,7.1,W*"
"##MN-00 00 56 0429 02795 6181 118712 023985 197"
"177.959525"
"$GPRMC,230140,A,2617.9803,N,07958.7692,W,0.3,8.8,260615,7.1,W*"
"##MN-00 00 56 0430 02794 6180 128112 023982 197"
"177.959572"
"$GPRMC,230144,A,2617.9803,N,07958.7694,W,0.3,10.3,260615,7.1,W"
"##MN-00 00 56 0431 02793 6180 126296 023985 197"
"177.959618"
"$GPRMC,230148,A,2617.9803,N,07958.7693,W,0.3,12.9,260615,7.1,W"
"##MN-00 00 54 0432 02795 6180 126304 023980 197"
"177.959676"
"$GPRMC,230152,A,2617.9803,N,07958.7692,W,0.3,13.3,260615,7.1,W"
"##MN-00 00 57 0434 02794 6180 124504 023986 197"
"177.959722"
"$GPRMC,230156,A,2617.9807,N,07958.7689,W,0.3,13.8,260615,7.1,W"
"##MN-00 00 57 0435 02793 6179 124936 023986 197"
"177.959769"
"$GPRMC,230200,A,2617.9811,N,07958.7688,W,0.2,14.2,260615,7.1,W"
"##MN-00 00 56 0436 02795 6179 139648 023988 197"
"177.959815"
"$GPRMC,230204,A,2617.9818,N,07958.7684,W,0.2,14.1,260615,7.1,W"
"##MN-00 00 56 0437 02794 6179 116944 023982 197"
"177.959861"
"$GPRMC,230208,A,2617.9825,N,07958.7683,W,0.2,13.9,260615,7.1,W"
"##MN-00 00 54 0438 02793 6179 123616 023977 197"
"177.959907"
"$GPRMC,230212,A,2617.9828,N,07958.7683,W,0.2,12.3,260615,7.1,W"
"##MN-00 00 55 0439 02795 6178 128544 023988 197"
"177.959954"
"$GPRMC,230216,A,2617.9831,N,07958.7684,W,0.2,11.1,260615,7.1,W"
"##MN-00 00 57 0440 02792 6178 130752 023980 197"
"177.96"
"$GPRMC,230220,A,2617.9835,N,07958.7685,W,0.3,9.5,260615,7.1,W*"
"##MN+00 00 55 0441 02793 6178 124064 023990 197"
"177.960046"
"$GPRMC,230224,A,2617.9839,N,07958.7688,W,0.2,7.7,260615,7.1,W*"
"##MN+00 00 57 0442 02793 6178 116040 023988 197"
"177.960093"
"$GPRMC,230228,A,2617.9843,N,07958.7690,W,0.2,4.9,260615,7.1,W*"
"##MN+00 00 54 0443 02795 6177 131664 023978 197"
"177.960139"
"#increment_net"
"$GPRMC,230232,A,2617.9846,N,07958.7691,W,0.3,2.4,260615,7.1,W*"
"##MN-00 00 53 0445 02795 6177 118304 023988 197"
"177.960185"
"$GPRMC,230236,A,2617.9847,N,07958.7691,W,0.2,1.1,260615,7.1,W*"
"##MN-00 00 55 0446 02794 6177 142400 023985 197"
"177.960231"
"$GPRMC,230240,A,2617.9846,N,07958.7690,W,0.2,358.9,260615,7.1,"
"##MN-00 00 51 0447 02792 6176 111616 023993 197"
"177.960278"
"$GPRMC,230244,A,2617.9846,N,07958.7689,W,0.2,357.4,260615,7.1,"
