" Tow: 7CGELZO   RVWS/WS15161"
" Date: 25/06/2015"
" Temperature Probe #  4762    Conductivity Probe #  710"
" Pressure Probe #  159"
" Flow Meter Calibration  4.71 (m/count)  "
"176.945625"
"$GPRMC,224139,A,2559.6373,N,07949.3526,W,0.1,143.5,250615,7.2,"
"##MN-00 00 87 0000 01518 6986 394053 827307 195"
"176.945671"
"$GPRMC,224143,A,2559.6372,N,07949.3527,W,0.1,143.5,250615,7.2,"
"##MN-00 00 87 0000 01517 6983 394709 827509 195"
"176.945718"
"$GPRMC,224147,A,2559.6371,N,07949.3529,W,0.1,143.5,250615,7.2,"
"##MN-00 00 87 0000 01519 6980 394105 827248 195"
"176.945764"
"$GPRMC,224151,A,2559.6369,N,07949.3530,W,0.2,153.8,250615,7.2,"
"##MN-00 00 87 0000 01518 6978 394230 827237 195"
"176.94581"
"$GPRMC,224155,A,2559.6367,N,07949.3532,W,0.2,164.8,250615,7.2,"
"##MN-00 00 87 0000 01518 6975 394472 827236 195"
"176.945856"
"$GPRMC,224159,A,2559.6364,N,07949.3534,W,0.3,172.3,250615,7.2,"
"##MN-00 00 87 0000 01519 6973 395174 826965 195"
"176.945903"
"$GPRMC,224203,A,2559.6360,N,07949.3535,W,0.3,178.0,250615,7.2,"
"##MN-00 00 87 0000 01521 6970 395018 827310 195"
"176.945949"
"$GPRMC,224207,A,2559.6357,N,07949.3536,W,0.3,182.0,250615,7.2,"
"##MN-00 00 87 0000 01518 6967 394961 827577 195"
"176.945995"
"$GPRMC,224211,A,2559.6351,N,07949.3537,W,0.4,184.0,250615,7.2,"
"##MN-00 00 87 0000 01519 6965 394576 827713 195"
"176.946042"
"$GPRMC,224215,A,2559.6349,N,07949.3538,W,0.4,185.3,250615,7.2,"
"##MN-00 00 87 0000 01519 6962 394206 827175 195"
"176.946088"
"$GPRMC,224219,A,2559.6344,N,07949.3539,W,0.4,186.7,250615,7.2,"
"##MN-00 00 87 0000 01521 6960 394773 827305 195"
"176.946134"
"$GPRMC,224223,A,2559.6339,N,07949.3539,W,0.4,186.7,250615,7.2,"
"##MN-00 00 87 0000 01520 6957 395727 827236 195"
"176.946181"
"$GPRMC,224227,A,2559.6335,N,07949.3540,W,0.4,186.0,250615,7.2,"
"##MN-00 00 87 0000 01519 6955 395922 827310 195"
"176.946227"
"$GPRMC,224231,A,2559.6330,N,07949.3537,W,0.4,183.4,250615,7.2,"
"##MN-00 00 87 0000 01519 6952 396402 827377 195"
"176.946273"
"$GPRMC,224235,A,2559.6325,N,07949.3537,W,0.5,180.9,250615,7.2,"
"##MN-00 00 87 0000 01518 6950 396350 827440 195"
"176.946319"
"$GPRMC,224239,A,2559.6321,N,07949.3534,W,0.4,177.3,250615,7.2,"
"##MN-00 00 87 0000 01520 6948 395796 827444 195"
"176.946366"
"$GPRMC,224243,A,2559.6317,N,07949.3531,W,0.5,172.4,250615,7.2,"
"##MN-00 00 87 0000 01518 6945 395231 827031 195"
"176.946412"
"$GPRMC,224247,A,2559.6311,N,07949.3530,W,0.4,170.0,250615,7.2,"
"##MN-00 00 87 0000 01521 6942 395370 827508 195"
"176.946458"
"$GPRMC,224251,A,2559.6306,N,07949.3530,W,0.4,168.7,250615,7.2,"
"##MN-00 00 87 0000 01519 6940 395196 827443 195"
"176.946505"
"$GPRMC,224255,A,2559.6299,N,07949.3529,W,0.5,168.2,250615,7.2,"
"##MN-00 00 87 0000 01519 6938 394544 827507 195"
"176.946551"
"$GPRMC,224259,A,2559.6295,N,07949.3527,W,0.4,168.6,250615,7.2,"
"##MN-00 00 87 0000 01520 6936 394344 827236 195"
"176.946597"
"$GPRMC,224303,A,2559.6289,N,07949.3527,W,0.4,170.0,250615,7.2,"
"##MN-00 00 87 0000 01521 6934 394299 826972 195"
"176.946644"
"$GPRMC,224307,A,2559.6283,N,07949.3526,W,0.4,171.9,250615,7.2,"
"##MN-00 00 87 0000 01520 6931 394466 827441 195"
"176.94669"
"$GPRMC,224311,A,2559.6277,N,07949.3527,W,0.4,174.4,250615,7.2,"
"##MN-00 00 87 0000 01520 6929 395264 827371 195"
"176.946736"
"$GPRMC,224315,A,2559.6270,N,07949.3527,W,0.5,177.8,250615,7.2,"
"##MN-00 00 87 0000 01521 6927 395048 827371 195"
"176.946782"
"$GPRMC,224319,A,2559.6264,N,07949.3530,W,0.5,181.2,250615,7.2,"
"##MN-00 00 87 0000 01521 6924 395329 827114 195"
"176.946829"
"$GPRMC,224323,A,2559.6259,N,07949.3531,W,0.5,184.8,250615,7.2,"
"##MN-00 00 87 0000 01521 6922 395214 827372 195"
"176.946875"
"$GPRMC,224327,A,2559.6252,N,07949.3533,W,0.5,187.7,250615,7.2,"
"##MN-00 00 87 0000 01520 6920 394643 827376 195"
"176.946921"
"$GPRMC,224331,A,2559.6247,N,07949.3535,W,0.5,190.4,250615,7.2,"
"##MN-00 00 87 0000 01520 6918 393786 827439 195"
"176.946968"
"$GPRMC,224335,A,2559.6242,N,07949.3537,W,0.4,192.5,250615,7.2,"
"##MN-00 00 87 0000 01521 6915 393736 827371 195"
"176.947014"
"$GPRMC,224339,A,2559.6237,N,07949.3538,W,0.4,193.8,250615,7.2,"
"##MN-00 00 87 0000 01520 6913 394344 827173 195"
"176.94706"
"$GPRMC,224343,A,2559.6234,N,07949.3540,W,0.4,195.9,250615,7.2,"
"##MN-00 00 87 0000 01520 6911 394504 827235 195"
"176.947107"
"$GPRMC,224347,A,2559.6228,N,07949.3541,W,0.5,195.6,250615,7.2,"
"##MN-00 00 87 0000 01522 6909 394138 827235 195"
"176.947153"
"$GPRMC,224351,A,2559.6224,N,07949.3541,W,0.4,193.5,250615,7.2,"
"##MN-00 00 87 0000 01523 6907 394369 827439 195"
"176.947199"
"$GPRMC,224355,A,2559.6220,N,07949.3542,W,0.4,190.7,250615,7.2,"
"##MN-00 00 87 0000 01522 6905 394343 827376 195"
"176.947257"
"$GPRMC,224359,A,2559.6216,N,07949.3540,W,0.4,186.8,250615,7.2,"
"##MN-00 00 87 0000 01522 6903 394127 827507 195"
"176.947303"
"$GPRMC,224403,A,2559.6210,N,07949.3537,W,0.4,182.3,250615,7.2,"
"##MN-00 00 87 0000 01520 6901 394072 827179 195"
"176.94735"
"$GPRMC,224407,A,2559.6207,N,07949.3535,W,0.5,177.3,250615,7.2,"
"##MN-00 00 87 0000 01522 6898 394176 827642 195"
"176.947396"
"$GPRMC,224411,A,2559.6200,N,07949.3533,W,0.5,173.5,250615,7.2,"
"##MN-00 00 87 0000 01520 6896 394907 827166 195"
"176.947442"
"$GPRMC,224415,A,2559.6196,N,07949.3531,W,0.4,170.2,250615,7.2,"
"##MN-00 00 87 0000 01522 6894 394989 827167 195"
"176.947488"
"$GPRMC,224420,A,2559.6189,N,07949.3529,W,0.4,167.1,250615,7.2,"
"##MN-00 00 87 0000 01521 6891 395245 827510 195"
"176.947535"
"$GPRMC,224423,A,2559.6187,N,07949.3528,W,0.4,166.5,250615,7.2,"
"##MN-00 00 87 0000 01521 6890 395479 826894 195"
"176.947581"
"$GPRMC,224427,A,2559.6181,N,07949.3527,W,0.4,166.8,250615,7.2,"
"##MN-00 00 87 0000 01522 6888 395008 827233 195"
"176.947627"
"$GPRMC,224431,A,2559.6176,N,07949.3529,W,0.4,168.4,250615,7.2,"
"##MN-00 00 87 0000 01521 6886 394154 827370 195"
"176.947674"
"$GPRMC,224435,A,2559.6176,N,07949.3530,W,0.4,170.9,250615,7.2,"
"##MN-00 00 87 0000 01522 6884 393904 827173 195"
"176.94772"
"$GPRMC,224440,A,2559.6169,N,07949.3530,W,0.4,175.2,250615,7.2,"
"##MN-00 00 87 0000 01520 6882 394000 827438 195"
"176.947766"
"$GPRMC,224444,A,2559.6168,N,07949.3533,W,0.4,180.1,250615,7.2,"
"##MN-00 00 87 0000 01521 6880 394208 827642 195"
"176.947812"
"$GPRMC,224448,A,2559.6162,N,07949.3535,W,0.4,184.1,250615,7.2,"
"##MN-00 00 87 0000 01521 6877 394474 827445 195"
"176.947859"
"$GPRMC,224452,A,2559.6156,N,07949.3537,W,0.5,188.2,250615,7.2,"
"##MN-00 00 87 0000 01521 6876 394709 827438 195"
"176.947905"
"$GPRMC,224456,A,2559.6151,N,07949.3539,W,0.4,191.5,250615,7.2,"
"##MN-00 00 87 0000 01520 6874 394673 827030 195"
"176.947951"
"$GPRMC,224500,A,2559.6147,N,07949.3541,W,0.4,193.6,250615,7.2,"
"##MN-00 00 87 0000 01520 6871 395105 827441 195"
"176.947998"
"$GPRMC,224504,A,2559.6141,N,07949.3542,W,0.5,195.4,250615,7.2,"
"##MN-00 00 87 0000 01520 6870 394459 827302 195"
"176.948044"
"$GPRMC,224508,A,2559.6135,N,07949.3542,W,0.5,195.0,250615,7.2,"
"##MN-00 00 87 0000 01520 6868 393894 827505 195"
"176.94809"
"$GPRMC,224512,A,2559.6131,N,07949.3544,W,0.4,194.0,250615,7.2,"
"##MN-00 00 87 0000 01521 6866 393176 827172 195"
"176.948137"
"$GPRMC,224516,A,2559.6125,N,07949.3544,W,0.5,192.3,250615,7.2,"
"##MN-00 00 75 0000 01523 6864 392849 827642 195"
"176.948183"
"$GPRMC,224520,A,2559.6117,N,07949.3543,W,0.4,189.9,250615,7.2,"
"##MN-00 00 74 0000 01521 6862 393663 827301 195"
"176.948229"
"$GPRMC,224524,A,2559.6111,N,07949.3541,W,0.5,185.9,250615,7.2,"
"##MN-00 00 62 0000 01521 6860 395343 827642 195"
"176.948275"
"$GPRMC,224528,A,2559.6105,N,07949.3538,W,0.5,180.7,250615,7.2,"
"##MN-00 00 54 0000 01523 6858 395258 827572 195"
"176.948322"
"$GPRMC,224532,A,2559.6100,N,07949.3537,W,0.5,174.9,250615,7.2,"
"##MN-00 00 52 0000 01524 6856 395860 827102 195"
"176.948368"
"$GPRMC,224536,A,2559.6095,N,07949.3533,W,0.5,169.4,250615,7.2,"
"##MN-00 00 52 0000 01522 6855 397492 827506 195"
"176.948414"
"$GPRMC,224540,A,2559.6090,N,07949.3531,W,0.5,165.1,250615,7.2,"
"##MN-00 00 52 0000 01522 6853 399157 827367 195"
"176.948461"
"$GPRMC,224544,A,2559.6087,N,07949.3529,W,0.5,160.6,250615,7.2,"
"##MN-00 00 51 0000 01523 6851 400552 827707 195"
"176.948507"
"$GPRMC,224548,A,2559.6082,N,07949.3526,W,0.4,158.9,250615,7.2,"
"##MN-00 00 52 0000 01522 6849 401834 827303 195"
"176.948553"
"$GPRMC,224552,A,2559.6080,N,07949.3526,W,0.4,158.2,250615,7.2,"
"##MN-00 00 52 0000 01522 6847 403057 827297 195"
"176.948599"
"$GPRMC,224556,A,2559.6082,N,07949.3527,W,0.3,158.6,250615,7.2,"
"##MN-00 00 54 0000 01523 6845 405520 827502 195"
"176.948646"
"$GPRMC,224600,A,2559.6082,N,07949.3529,W,0.2,159.5,250615,7.2,"
"##MN-00 00 50 0001 01521 6843 406456 827349 195"
"176.948692"
"$GPRMC,224604,A,2559.6084,N,07949.3533,W,0.2,164.8,250615,7.2,"
"##MN-00 00 46 0002 01522 6841 432507 268135 195"
"176.948738"
"$GPRMC,224608,A,2559.6086,N,07949.3534,W,0.2,177.9,250615,7.2,"
"##MN-00 00 09 0003 01523 6840 434520 219215 195"
"176.948785"
"$GPRMC,224612,A,2559.6091,N,07949.3537,W,0.3,204.7,250615,7.2,"
"##MN-00 00 10 0004 01523 6838 434401 202797 195"
"176.948831"
"$GPRMC,224616,A,2559.6095,N,07949.3540,W,0.3,230.2,250615,7.2,"
"##MN-00 00 10 0005 01525 6836 434405 202695 195"
"176.948877"
"$GPRMC,224620,A,2559.6103,N,07949.3545,W,0.4,259.3,250615,7.2,"
"##MN-00 00 10 0007 01527 6834 434410 202610 195"
"176.948924"
"$GPRMC,224624,A,2559.6110,N,07949.3551,W,0.4,275.3,250615,7.2,"
"##MN-00 00 10 0008 01529 6832 434565 202671 195"
"176.94897"
"$GPRMC,224628,A,2559.6115,N,07949.3553,W,0.5,295.5,250615,7.2,"
"##MN-00 00 10 0009 01532 6830 434507 202649 195"
"176.949016"
"$GPRMC,224632,A,2559.6122,N,07949.3558,W,0.5,308.9,250615,7.2,"
"##MN-00 00 10 0011 01533 6829 434754 202677 195"
"176.949063"
"$GPRMC,224636,A,2559.6129,N,07949.3560,W,0.6,319.8,250615,7.2,"
"##MN-00 00 10 0012 01534 6827 434779 202699 195"
"176.949109"
"$GPRMC,224640,A,2559.6139,N,07949.3564,W,0.6,327.8,250615,7.2,"
"##MN-00 00 10 0014 01535 6825 434943 202714 195"
"176.949155"
"$GPRMC,224644,A,2559.6150,N,07949.3566,W,0.6,334.4,250615,7.2,"
"##MN-00 00 10 0015 01536 6824 435112 202792 195"
"176.949201"
"$GPRMC,224648,A,2559.6158,N,07949.3566,W,0.6,340.7,250615,7.2,"
"##MN-00 00 10 0016 01538 6822 435774 202957 195"
"176.949248"
"$GPRMC,224652,A,2559.6167,N,07949.3567,W,0.6,346.3,250615,7.2,"
"##MN-00 00 11 0018 01540 6820 436708 203182 195"
"176.949294"
"$GPRMC,224656,A,2559.6174,N,07949.3566,W,0.6,350.1,250615,7.2,"
"##MN-00 00 11 0019 01548 6818 437875 203312 195"
"176.94934"
"$GPRMC,224700,A,2559.6180,N,07949.3564,W,0.6,353.8,250615,7.2,"
"##MN-00 00 10 0021 01548 6817 438668 203579 195"
"176.949387"
"$GPRMC,224704,A,2559.6186,N,07949.3563,W,0.6,356.9,250615,7.2,"
"##MN-00 00 10 0022 01552 6815 439207 203629 195"
"176.949433"
"$GPRMC,224708,A,2559.6190,N,07949.3562,W,0.6,358.5,250615,7.2,"
"##MN-00 00 10 0023 01554 6813 439444 203684 195"
"176.949479"
"$GPRMC,224712,A,2559.6198,N,07949.3560,W,0.6,0.4,250615,7.2,W*"
"##MN-00 00 09 0025 01555 6811 439523 203698 195"
"176.949525"
"$GPRMC,224716,A,2559.6203,N,07949.3559,W,0.6,1.8,250615,7.2,W*"
"##MN-00 00 09 0026 01555 6810 439558 203726 195"
"176.949572"
"$GPRMC,224720,A,2559.6208,N,07949.3559,W,0.6,3.0,250615,7.2,W*"
"##MN-00 00 10 0028 01558 6808 439601 203761 195"
"176.949618"
"$GPRMC,224724,A,2559.6216,N,07949.3556,W,0.6,3.5,250615,7.2,W*"
"##MN-00 00 10 0029 01561 6806 439652 203775 195"
"176.949664"
"$GPRMC,224728,A,2559.6223,N,07949.3556,W,0.6,2.5,250615,7.2,W*"
"##MN-00 00 09 0030 01563 6805 439687 203763 195"
"176.949711"
"$GPRMC,224732,A,2559.6230,N,07949.3556,W,0.6,1.3,250615,7.2,W*"
"##MN-00 00 10 0032 01567 6803 439748 203790 195"
"176.949757"
"$GPRMC,224736,A,2559.6237,N,07949.3556,W,0.6,0.6,250615,7.2,W*"
"##MN-00 00 09 0033 01568 6801 439824 203810 195"
"176.949803"
"$GPRMC,224740,A,2559.6241,N,07949.3556,W,0.6,359.6,250615,7.2,"
"##MN-00 00 09 0035 01570 6799 439902 203827 195"
"176.94985"
"$GPRMC,224744,A,2559.6248,N,07949.3556,W,0.6,358.1,250615,7.2,"
"##MN-00 00 08 0036 01571 6797 439952 203827 195"
"176.949896"
"$GPRMC,224748,A,2559.6254,N,07949.3559,W,0.6,355.9,250615,7.2,"
"##MN-00 00 09 0037 01575 6796 439971 203837 195"
"176.949942"
"$GPRMC,224752,A,2559.6259,N,07949.3559,W,0.6,353.7,250615,7.2,"
"##MN-00 00 09 0039 01577 6794 439992 203834 195"
"176.949988"
"$GPRMC,224756,A,2559.6266,N,07949.3559,W,0.6,351.5,250615,7.2,"
"##MN-00 00 08 0040 01581 6792 440038 203850 195"
"176.950035"
"$GPRMC,224800,A,2559.6273,N,07949.3560,W,0.7,350.7,250615,7.2,"
"##MN-00 00 08 0041 01582 6790 440077 203868 195"
"176.950081"
"$GPRMC,224804,A,2559.6281,N,07949.3563,W,0.8,349.9,250615,7.2,"
"##MN-00 00 08 0043 01587 6788 440106 203876 195"
"176.950127"
"$GPRMC,224808,A,2559.6288,N,07949.3564,W,0.7,349.8,250615,7.2,"
"##MN-00 00 08 0044 01588 6787 440122 203878 195"
"176.950174"
"$GPRMC,224812,A,2559.6295,N,07949.3566,W,0.7,349.5,250615,7.2,"
"##MN-00 00 08 0046 01589 6785 440135 203876 195"
"176.95022"
"$GPRMC,224816,A,2559.6302,N,07949.3567,W,0.7,349.4,250615,7.2,"
"##MN-00 00 08 0047 01592 6783 440155 203888 195"
"176.950266"
"$GPRMC,224820,A,2559.6306,N,07949.3567,W,0.7,350.1,250615,7.2,"
"##MN-00 00 08 0048 01596 6781 440196 203892 195"
"176.950313"
"$GPRMC,224824,A,2559.6313,N,07949.3566,W,0.7,350.4,250615,7.2,"
"##MN-00 00 08 0050 01598 6780 440232 203894 195"
"176.950359"
"$GPRMC,224828,A,2559.6317,N,07949.3567,W,0.7,351.0,250615,7.2,"
"##MN-00 00 08 0051 01597 6778 440259 203903 195"
"176.950417"
"$GPRMC,224832,A,2559.6326,N,07949.3567,W,0.7,352.2,250615,7.2,"
"##MN-00 00 08 0052 01600 6776 440276 203904 195"
"176.950463"
"$GPRMC,224836,A,2559.6333,N,07949.3567,W,0.7,353.2,250615,7.2,"
"##MN-00 00 08 0054 01603 6774 440286 203902 195"
"176.950509"
"$GPRMC,224840,A,2559.6341,N,07949.3567,W,0.7,354.3,250615,7.2,"
"##MN-00 00 08 0055 01603 6773 440302 203906 195"
"176.950556"
"$GPRMC,224844,A,2559.6348,N,07949.3567,W,0.7,355.6,250615,7.2,"
"##MN-00 00 08 0057 01608 6770 440308 203907 195"
"176.950602"
"$GPRMC,224848,A,2559.6356,N,07949.3566,W,0.7,357.5,250615,7.2,"
"##MN-00 00 08 0058 01612 6768 440324 203909 195"
"176.950648"
"$GPRMC,224852,A,2559.6364,N,07949.3564,W,0.7,359.8,250615,7.2,"
"##MN-00 00 08 0059 01614 6767 440338 203909 195"
"176.950694"
"$GPRMC,224856,A,2559.6371,N,07949.3563,W,0.6,1.9,250615,7.2,W*"
"##MN-00 00 07 0061 01614 6765 440358 203910 195"
"176.950741"
"$GPRMC,224900,A,2559.6378,N,07949.3562,W,0.7,2.9,250615,7.2,W*"
"##MN-00 00 07 0062 01618 6763 440368 203912 195"
"176.950787"
"$GPRMC,224904,A,2559.6385,N,07949.3562,W,0.7,2.9,250615,7.2,W*"
"##MN-00 00 07 0063 01621 6761 440384 203917 195"
"176.950833"
"$GPRMC,224908,A,2559.6392,N,07949.3562,W,0.7,2.3,250615,7.2,W*"
"##MN-00 00 07 0065 01622 6760 440397 203918 195"
"176.95088"
"$GPRMC,224912,A,2559.6399,N,07949.3561,W,0.7,0.8,250615,7.2,W*"
"##MN-00 00 07 0066 01624 6758 440406 203922 195"
"176.950926"
"$GPRMC,224916,A,2559.6404,N,07949.3562,W,0.6,359.6,250615,7.2,"
"##MN-00 00 07 0068 01629 6756 440418 203922 195"
"176.950972"
"$GPRMC,224920,A,2559.6411,N,07949.3563,W,0.7,357.7,250615,7.2,"
"##MN-00 00 07 0069 01629 6754 440421 203922 195"
"176.951018"
"$GPRMC,224925,A,2559.6421,N,07949.3562,W,0.6,355.6,250615,7.2,"
"##MN-00 00 07 0070 01631 6752 440426 203924 195"
"176.951065"
"$GPRMC,224929,A,2559.6428,N,07949.3563,W,0.7,355.3,250615,7.2,"
"##MN-00 00 07 0072 01634 6750 440437 203924 195"
"176.951111"
"$GPRMC,224933,A,2559.6436,N,07949.3563,W,0.6,355.1,250615,7.2,"
"##MN-00 00 07 0073 01636 6749 440445 203926 195"
"176.951157"
"$GPRMC,224937,A,2559.6443,N,07949.3563,W,0.6,354.7,250615,7.2,"
"##MN-00 00 07 0074 01637 6747 440457 203929 195"
"176.951204"
"$GPRMC,224941,A,2559.6451,N,07949.3564,W,0.6,354.7,250615,7.2,"
"##MN-00 00 07 0076 01640 6745 440477 203931 195"
"176.95125"
"$GPRMC,224945,A,2559.6458,N,07949.3564,W,0.6,354.3,250615,7.2,"
"##MN-00 00 07 0077 01643 6743 440484 203932 195"
"176.951296"
"$GPRMC,224949,A,2559.6465,N,07949.3567,W,0.6,353.3,250615,7.2,"
"##MN-00 00 07 0078 01644 6742 440498 203934 195"
"176.951343"
"$GPRMC,224953,A,2559.6472,N,07949.3568,W,0.6,352.3,250615,7.2,"
"##MN-00 00 07 0080 01648 6740 440511 203936 195"
"176.951389"
"$GPRMC,224957,A,2559.6480,N,07949.3569,W,0.7,352.2,250615,7.2,"
"##MN-00 00 07 0081 01650 6738 440522 203934 195"
"176.951435"
"$GPRMC,225001,A,2559.6489,N,07949.3571,W,0.7,351.8,250615,7.2,"
"##MN-00 00 07 0083 01651 6736 440527 203937 195"
"176.951482"
"$GPRMC,225005,A,2559.6497,N,07949.3572,W,0.7,351.8,250615,7.2,"
"##MN-00 00 08 0084 01654 6734 440539 203941 195"
"176.951528"
"$GPRMC,225009,A,2559.6504,N,07949.3573,W,0.7,352.5,250615,7.2,"
"##MN-00 00 07 0085 01655 6733 440543 203941 195"
"176.951574"
"$GPRMC,225013,A,2559.6512,N,07949.3574,W,0.7,352.5,250615,7.2,"
"##MN-00 00 07 0087 01659 6731 440549 203943 195"
"176.95162"
"$GPRMC,225017,A,2559.6519,N,07949.3574,W,0.6,353.1,250615,7.2,"
"##MN-00 00 07 0088 01663 6729 440560 203944 195"
"176.951667"
"$GPRMC,225021,A,2559.6526,N,07949.3575,W,0.7,354.5,250615,7.2,"
"##MN-00 00 07 0089 01665 6727 440571 203946 195"
"176.951713"
"$GPRMC,225025,A,2559.6534,N,07949.3577,W,0.7,355.0,250615,7.2,"
"##MN-00 00 07 0091 01665 6726 440587 203947 195"
"176.951759"
"$GPRMC,225029,A,2559.6541,N,07949.3578,W,0.7,355.1,250615,7.2,"
"##MN-00 00 07 0092 01668 6724 440595 203947 195"
"176.951806"
"$GPRMC,225033,A,2559.6550,N,07949.3578,W,0.7,355.4,250615,7.2,"
"##MN-00 00 07 0093 01671 6722 440607 203947 195"
"176.951852"
"$GPRMC,225037,A,2559.6557,N,07949.3580,W,0.7,356.6,250615,7.2,"
"##MN-00 00 07 0095 01674 6720 440614 203950 195"
"176.951898"
"$GPRMC,225041,A,2559.6563,N,07949.3578,W,0.7,358.0,250615,7.2,"
"##MN-00 00 07 0096 01676 6719 440612 203951 195"
"176.951944"
"$GPRMC,225045,A,2559.6570,N,07949.3577,W,0.6,359.3,250615,7.2,"
"##MN-00 00 07 0098 01678 6717 440616 203952 195"
"176.951991"
"$GPRMC,225049,A,2559.6577,N,07949.3577,W,0.6,359.7,250615,7.2,"
"##MN-00 00 07 0099 01681 6715 440627 203952 195"
"176.952037"
"$GPRMC,225053,A,2559.6584,N,07949.3577,W,0.7,0.1,250615,7.2,W*"
"##MN-00 00 07 0100 01683 6713 440635 203954 195"
"176.952083"
"$GPRMC,225057,A,2559.6592,N,07949.3578,W,0.6,359.7,250615,7.2,"
"##MN-00 00 07 0102 01686 6711 440646 203955 195"
"176.95213"
"$GPRMC,225101,A,2559.6599,N,07949.3578,W,0.6,358.3,250615,7.2,"
"##MN-00 00 07 0103 01687 6710 440654 203957 195"
"176.952176"
"$GPRMC,225105,A,2559.6608,N,07949.3580,W,0.6,357.0,250615,7.2,"
"##MN-00 00 07 0104 01688 6709 440656 203956 195"
"176.952222"
"$GPRMC,225109,A,2559.6613,N,07949.3580,W,0.6,355.0,250615,7.2,"
"##MN-00 00 07 0106 01691 6706 440657 203956 195"
"176.952269"
"$GPRMC,225113,A,2559.6620,N,07949.3582,W,0.6,353.0,250615,7.2,"
"##MN-00 00 07 0107 01694 6704 440658 203956 195"
"176.952315"
"$GPRMC,225117,A,2559.6628,N,07949.3583,W,0.6,351.5,250615,7.2,"
"##MN-00 00 08 0109 01695 6703 440662 203957 195"
"176.952361"
"$GPRMC,225121,A,2559.6635,N,07949.3584,W,0.6,350.7,250615,7.2,"
"##MN-00 00 07 0110 01697 6701 440668 203959 195"
"176.952407"
"$GPRMC,225125,A,2559.6642,N,07949.3585,W,0.6,350.2,250615,7.2,"
"##MN-00 00 07 0111 01701 6699 440678 203961 195"
"176.952454"
"$GPRMC,225129,A,2559.6649,N,07949.3587,W,0.6,349.9,250615,7.2,"
"##MN-00 00 07 0113 01701 6698 440691 203964 195"
"176.9525"
"$GPRMC,225133,A,2559.6656,N,07949.3589,W,0.6,349.3,250615,7.2,"
"##MN-00 00 07 0114 01703 6696 440699 203964 195"
"176.952546"
"$GPRMC,225137,A,2559.6662,N,07949.3589,W,0.6,350.8,250615,7.2,"
"##MN-00 00 07 0115 01705 6694 440696 203962 195"
"176.952593"
"$GPRMC,225141,A,2559.6669,N,07949.3588,W,0.6,352.5,250615,7.2,"
"##MN-00 00 05 0117 01709 6693 440695 203961 195"
"176.952639"
"$GPRMC,225145,A,2559.6677,N,07949.3588,W,0.6,354.5,250615,7.2,"
"##MN-00 00 53 0118 01711 6691 440699 203962 195"
"176.952685"
"$GPRMC,225149,A,2559.6684,N,07949.3588,W,0.6,356.3,250615,7.2,"
"##MN-00 00 54 0120 01712 6689 440704 203963 195"
"176.952731"
"$GPRMC,225153,A,2559.6692,N,07949.3587,W,0.6,357.5,250615,7.2,"
"##MN-00 00 08 0121 01713 6687 440708 203964 195"
"176.952778"
"$GPRMC,225157,A,2559.6699,N,07949.3587,W,0.6,358.6,250615,7.2,"
"##MN-00 00 06 0122 01716 6686 440715 203965 195"
"176.952824"
"$GPRMC,225201,A,2559.6706,N,07949.3587,W,0.6,359.7,250615,7.2,"
"##MN-00 00 06 0124 01719 6684 440727 203967 195"
"176.95287"
"$GPRMC,225205,A,2559.6713,N,07949.3587,W,0.6,1.0,250615,7.2,W*"
"##MN-00 00 07 0125 01719 6682 440731 203965 195"
"176.952917"
"$GPRMC,225209,A,2559.6720,N,07949.3585,W,0.6,1.9,250615,7.2,W*"
"##MN-00 00 07 0126 01720 6681 440732 203963 195"
"176.952963"
"$GPRMC,225213,A,2559.6727,N,07949.3586,W,0.6,2.3,250615,7.2,W*"
"##MN-00 00 07 0128 01724 6679 440733 203962 195"
"176.953009"
"$GPRMC,225217,A,2559.6735,N,07949.3586,W,0.6,1.9,250615,7.2,W*"
"##MN-00 00 07 0129 01729 6677 440735 203962 195"
"176.953056"
"$GPRMC,225221,A,2559.6742,N,07949.3586,W,0.6,0.6,250615,7.2,W*"
"##MN-00 00 07 0131 01729 6675 440737 203962 195"
"176.953102"
"$GPRMC,225225,A,2559.6750,N,07949.3587,W,0.7,359.7,250615,7.2,"
"##MN-00 00 07 0132 01730 6674 440739 203963 195"
"176.953148"
"$GPRMC,225229,A,2559.6758,N,07949.3587,W,0.7,358.5,250615,7.2,"
"##MN-00 00 07 0133 01733 6672 440741 203963 195"
"176.953194"
"$GPRMC,225233,A,2559.6765,N,07949.3588,W,0.7,356.9,250615,7.2,"
"##MN-00 00 07 0135 01734 6671 440742 203963 195"
"176.953241"
"$GPRMC,225237,A,2559.6772,N,07949.3589,W,0.7,355.5,250615,7.2,"
"##MN-00 00 46 0136 01737 6669 440742 203962 195"
"176.953287"
"$GPRMC,225241,A,2559.6781,N,07949.3591,W,0.7,354.6,250615,7.2,"
"##MN-00 00 08 0137 01740 6667 440748 203962 195"
"176.953333"
"$GPRMC,225245,A,2559.6787,N,07949.3592,W,0.6,354.2,250615,7.2,"
"##MN-00 00 08 0139 01743 6665 440759 203962 195"
"176.95338"
"$GPRMC,225249,A,2559.6796,N,07949.3592,W,0.7,354.0,250615,7.2,"
"##MN-00 00 09 0140 01744 6664 440766 203963 195"
"176.953426"
"$GPRMC,225253,A,2559.6803,N,07949.3595,W,0.6,353.7,250615,7.2,"
"##MN-00 00 07 0141 01747 6662 440767 203963 195"
"176.953472"
"$GPRMC,225257,A,2559.6812,N,07949.3595,W,0.7,353.3,250615,7.2,"
"##MN-00 00 47 0143 01749 6660 440771 203962 195"
"176.95353"
"$GPRMC,225301,A,2559.6819,N,07949.3596,W,0.6,353.1,250615,7.2,"
"##MN-00 00 06 0144 01751 6659 440775 203959 195"
"176.953576"
"$GPRMC,225305,A,2559.6826,N,07949.3596,W,0.6,352.7,250615,7.2,"
"##MN-00 00 07 0145 01752 6657 440767 203955 195"
"176.953623"
"$GPRMC,225309,A,2559.6833,N,07949.3596,W,0.7,352.9,250615,7.2,"
"##MN-00 00 06 0147 01754 6655 440761 203951 195"
"176.953669"
"$GPRMC,225313,A,2559.6840,N,07949.3596,W,0.7,354.0,250615,7.2,"
"##MN-00 00 06 0148 01757 6654 440759 203948 195"
"176.953715"
"$GPRMC,225317,A,2559.6848,N,07949.3596,W,0.7,355.2,250615,7.2,"
"##MN-00 00 08 0149 01759 6652 440765 203947 195"
"176.953762"
"$GPRMC,225321,A,2559.6854,N,07949.3599,W,0.7,356.0,250615,7.2,"
"##MN-00 00 06 0151 01760 6650 440767 203945 195"
"176.953808"
"$GPRMC,225325,A,2559.6861,N,07949.3602,W,0.7,357.3,250615,7.2,"
"##MN-00 00 06 0152 01763 6649 440767 203943 195"
"176.953854"
"$GPRMC,225329,A,2559.6868,N,07949.3602,W,0.8,358.7,250615,7.2,"
"##MN-00 00 08 0154 01765 6647 440767 203942 195"
"176.9539"
"$GPRMC,225333,A,2559.6875,N,07949.3602,W,0.8,359.8,250615,7.2,"
"##MN-00 00 06 0155 01768 6646 440770 203942 195"
"176.953947"
"$GPRMC,225337,A,2559.6881,N,07949.3602,W,0.7,0.8,250615,7.2,W*"
"##MN-00 00 06 0156 01772 6644 440773 203941 195"
"176.953993"
"$GPRMC,225341,A,2559.6890,N,07949.3604,W,0.7,0.8,250615,7.2,W*"
"##MN-00 00 52 0158 01772 6643 440775 203942 195"
"176.954039"
"$GPRMC,225345,A,2559.6898,N,07949.3604,W,0.7,0.3,250615,7.2,W*"
"##MN-00 00 52 0159 01777 6641 440785 203944 195"
"176.954086"
"$GPRMC,225349,A,2559.6906,N,07949.3604,W,0.7,0.1,250615,7.2,W*"
"##MN-00 00 52 0160 01778 6639 440795 203946 195"
"176.954132"
"$GPRMC,225353,A,2559.6913,N,07949.3603,W,0.6,359.7,250615,7.2,"
"##MN+00 00 40 0162 01778 6637 440797 203947 195"
"176.954178"
"$GPRMC,225358,A,2559.6924,N,07949.3603,W,0.6,358.9,250615,7.2,"
"##MN+00 00 52 0163 01780 6636 440799 203947 195"
"176.954225"
"$GPRMC,225402,A,2559.6933,N,07949.3605,W,0.7,358.3,250615,7.2,"
"##MN+00 00 54 0165 01780 6635 440793 203945 195"
"176.954271"
"$GPRMC,225406,A,2559.6942,N,07949.3605,W,0.7,357.0,250615,7.2,"
"##MN+00 00 52 0166 01781 6633 440789 203944 195"
"176.954317"
"$GPRMC,225410,A,2559.6951,N,07949.3606,W,0.7,356.0,250615,7.2,"
"##MN+00 00 53 0168 01780 6631 440786 203944 195"
"176.954363"
"$GPRMC,225414,A,2559.6960,N,07949.3607,W,0.7,354.6,250615,7.2,"
"##MN+00 00 06 0169 01784 6630 440790 203945 195"
"176.95441"
"$GPRMC,225418,A,2559.6969,N,07949.3608,W,0.8,353.9,250615,7.2,"
"##MN-00 00 07 0169 01784 6628 440800 203947 195"
"176.954456"
"$GPRMC,225422,A,2559.6978,N,07949.3609,W,0.8,353.7,250615,7.2,"
"##MN-00 00 07 0171 01786 6627 440806 203948 195"
"176.954502"
"$GPRMC,225426,A,2559.6987,N,07949.3610,W,0.8,353.8,250615,7.2,"
"##MN-00 00 07 0172 01785 6625 440809 203948 195"
"176.954549"
"$GPRMC,225430,A,2559.6996,N,07949.3611,W,0.7,353.7,250615,7.2,"
"##MN-00 00 07 0173 01785 6624 440813 203949 195"
"176.954595"
"$GPRMC,225434,A,2559.7005,N,07949.3611,W,0.7,353.7,250615,7.2,"
"##MN-00 00 07 0175 01785 6622 440815 203949 195"
"176.954641"
"$GPRMC,225438,A,2559.7013,N,07949.3611,W,0.7,353.6,250615,7.2,"
"##MN-00 00 07 0176 01785 6620 440815 203949 195"
"176.954688"
"#increment_net"
"$GPRMC,225442,A,2559.7021,N,07949.3611,W,0.8,354.1,250615,7.2,"
"##MN-00 00 07 0177 01782 6619 440820 203950 195"
"176.954734"
"$GPRMC,225446,A,2559.7031,N,07949.3613,W,0.8,354.2,250615,7.2,"
"##MN-00 00 07 0179 01783 6617 440819 203950 195"
"176.95478"
"$GPRMC,225450,A,2559.7039,N,07949.3613,W,0.8,354.5,250615,7.2,"
"##MN-00 00 07 0180 01782 6616 440809 203949 195"
"176.954826"
"$GPRMC,225454,A,2559.7049,N,07949.3614,W,0.8,354.3,250615,7.2,"
"##MN-00 00 07 0181 01779 6614 440801 203947 195"
"176.954873"
"$GPRMC,225458,A,2559.7057,N,07949.3614,W,0.8,354.7,250615,7.2,"
"##MN-00 00 07 0183 01778 6613 440795 203946 195"
"176.954919"
"$GPRMC,225502,A,2559.7065,N,07949.3617,W,0.8,355.5,250615,7.2,"
"##MN-00 00 07 0184 01778 6611 440795 203946 195"
"176.954965"
"$GPRMC,225506,A,2559.7074,N,07949.3620,W,0.8,356.2,250615,7.2,"
"##MN-00 00 08 0185 01777 6609 440796 203946 195"
"176.955012"
"$GPRMC,225510,A,2559.7083,N,07949.3621,W,0.8,357.6,250615,7.2,"
"##MN-00 00 07 0186 01775 6608 440795 203946 195"
"176.955058"
"$GPRMC,225514,A,2559.7093,N,07949.3621,W,0.9,358.5,250615,7.2,"
"##MN-00 00 07 0188 01775 6607 440795 203946 195"
"176.955104"
"$GPRMC,225518,A,2559.7103,N,07949.3619,W,0.8,358.8,250615,7.2,"
"##MN-00 00 07 0189 01772 6605 440795 203946 195"
"176.95515"
"$GPRMC,225522,A,2559.7112,N,07949.3618,W,0.9,358.8,250615,7.2,"
"##MN-00 00 07 0190 01771 6603 440790 203946 195"
"176.955197"
"$GPRMC,225526,A,2559.7122,N,07949.3617,W,0.8,358.9,250615,7.2,"
"##MN-00 00 07 0192 01771 6602 440790 203946 195"
"176.955243"
"$GPRMC,225530,A,2559.7133,N,07949.3617,W,0.8,358.0,250615,7.2,"
"##MN-00 00 07 0193 01767 6600 440791 203947 195"
"176.955289"
"$GPRMC,225534,A,2559.7143,N,07949.3617,W,0.8,357.7,250615,7.2,"
"##MN-00 00 07 0194 01765 6599 440792 203947 195"
"176.955336"
"$GPRMC,225538,A,2559.7152,N,07949.3617,W,0.8,356.8,250615,7.2,"
"##MN-00 00 07 0196 01765 6598 440788 203945 195"
"176.955382"
"$GPRMC,225542,A,2559.7162,N,07949.3617,W,0.9,356.2,250615,7.2,"
"##MN-00 00 08 0197 01763 6596 440776 203943 195"
"176.955428"
"$GPRMC,225546,A,2559.7173,N,07949.3620,W,0.9,355.4,250615,7.2,"
"##MN-00 00 08 0198 01761 6595 440775 203945 195"
"176.955475"
"$GPRMC,225550,A,2559.7183,N,07949.3619,W,0.9,354.6,250615,7.2,"
"##MN-00 00 07 0200 01759 6593 440776 203946 195"
"176.955521"
"$GPRMC,225554,A,2559.7193,N,07949.3619,W,0.9,354.6,250615,7.2,"
"##MN-00 00 07 0201 01758 6592 440780 203951 195"
"176.955567"
"$GPRMC,225558,A,2559.7202,N,07949.3620,W,0.9,354.7,250615,7.2,"
"##MN-00 00 08 0202 01758 6590 440782 203951 195"
"176.955613"
"$GPRMC,225602,A,2559.7212,N,07949.3620,W,0.9,354.9,250615,7.2,"
"##MN-00 00 07 0204 01756 6589 440787 203957 195"
"176.95566"
"$GPRMC,225606,A,2559.7220,N,07949.3621,W,0.8,353.8,250615,7.2,"
"##MN-00 00 07 0205 01752 6587 440799 203965 195"
"176.955706"
"$GPRMC,225610,A,2559.7230,N,07949.3622,W,0.8,353.0,250615,7.2,"
"##MN-00 00 07 0206 01751 6585 440805 203968 195"
"176.955752"
"$GPRMC,225614,A,2559.7240,N,07949.3624,W,0.8,352.2,250615,7.2,"
"##MN-00 00 07 0208 01749 6584 440807 203969 195"
"176.955799"
"$GPRMC,225618,A,2559.7249,N,07949.3624,W,0.8,352.4,250615,7.2,"
"##MN-00 00 10 0209 01747 6583 440810 203971 195"
"176.955845"
"$GPRMC,225622,A,2559.7259,N,07949.3625,W,0.8,352.4,250615,7.2,"
"##MN-00 00 07 0210 01744 6581 440816 203976 195"
"176.955891"
"$GPRMC,225626,A,2559.7269,N,07949.3627,W,0.8,352.8,250615,7.2,"
"##MN-00 00 07 0212 01744 6580 440816 203977 195"
"176.955937"
"$GPRMC,225630,A,2559.7278,N,07949.3627,W,0.8,353.3,250615,7.2,"
"##MN-00 00 07 0213 01741 6578 440815 203977 195"
"176.955984"
"$GPRMC,225634,A,2559.7287,N,07949.3628,W,0.8,353.9,250615,7.2,"
"##MN-00 00 07 0215 01741 6577 440811 203977 195"
"176.95603"
"$GPRMC,225638,A,2559.7296,N,07949.3628,W,0.8,354.1,250615,7.2,"
"##MN-00 00 08 0216 01739 6575 440807 203977 195"
"176.956076"
"$GPRMC,225642,A,2559.7305,N,07949.3628,W,0.8,354.9,250615,7.2,"
"##MN-00 00 07 0217 01734 6574 440804 203976 195"
"176.956123"
"$GPRMC,225646,A,2559.7313,N,07949.3628,W,0.8,356.0,250615,7.2,"
"##MN-00 00 07 0218 01733 6572 440797 203975 195"
"176.956169"
"$GPRMC,225650,A,2559.7321,N,07949.3627,W,0.8,357.9,250615,7.2,"
"##MN-00 00 08 0220 01732 6571 440789 203974 195"
"176.956215"
"$GPRMC,225654,A,2559.7331,N,07949.3627,W,0.8,359.0,250615,7.2,"
"##MN-00 00 07 0221 01728 6570 440778 203972 195"
"176.956262"
"$GPRMC,225658,A,2559.7339,N,07949.3628,W,0.8,359.8,250615,7.2,"
"##MN-00 00 07 0222 01727 6568 440771 203970 195"
"176.956308"
"$GPRMC,225702,A,2559.7347,N,07949.3628,W,0.8,360.0,250615,7.2,"
"##MN-00 00 08 0224 01723 6567 440765 203969 195"
"176.956354"
"$GPRMC,225706,A,2559.7357,N,07949.3628,W,0.8,359.9,250615,7.2,"
"##MN-00 00 07 0225 01723 6566 440759 203968 195"
"176.9564"
"$GPRMC,225710,A,2559.7368,N,07949.3629,W,0.8,359.2,250615,7.2,"
"##MN-00 00 07 0226 01721 6564 440757 203968 195"
"176.956447"
"$GPRMC,225714,A,2559.7376,N,07949.3631,W,0.8,358.9,250615,7.2,"
"##MN-00 00 07 0228 01719 6562 440758 203969 195"
"176.956493"
"$GPRMC,225718,A,2559.7386,N,07949.3631,W,0.8,358.3,250615,7.2,"
"##MN-00 00 07 0229 01716 6561 440753 203967 195"
"176.956539"
"$GPRMC,225722,A,2559.7396,N,07949.3631,W,0.8,357.7,250615,7.2,"
"##MN-00 00 05 0230 01713 6559 440740 203964 195"
"176.956586"
"$GPRMC,225726,A,2559.7406,N,07949.3634,W,0.8,356.7,250615,7.2,"
"##MN-00 00 08 0232 01713 6558 440732 203963 195"
"176.956632"
"$GPRMC,225730,A,2559.7417,N,07949.3634,W,0.8,356.2,250615,7.2,"
"##MN-00 00 52 0233 01711 6557 440727 203962 195"
"176.956678"
"$GPRMC,225734,A,2559.7433,N,07949.3636,W,0.8,355.1,250615,7.2,"
"##MN-00 00 08 0234 01709 6556 440719 203961 195"
"176.956725"
"$GPRMC,225738,A,2559.7447,N,07949.3636,W,0.8,354.5,250615,7.2,"
"##MN-00 00 07 0236 01706 6554 440718 203961 195"
"176.956782"
"$GPRMC,225742,A,2559.7455,N,07949.3637,W,0.8,354.4,250615,7.2,"
"##MN-00 00 07 0237 01702 6553 440719 203962 195"
"176.956829"
"$GPRMC,225746,A,2559.7466,N,07949.3638,W,0.8,353.8,250615,7.2,"
"##MN-00 00 07 0238 01700 6551 440727 203966 195"
"176.956875"
"$GPRMC,225750,A,2559.7475,N,07949.3639,W,0.7,353.3,250615,7.2,"
"##MN-00 00 07 0240 01698 6550 440734 203967 195"
"176.956921"
"$GPRMC,225754,A,2559.7484,N,07949.3641,W,0.8,353.1,250615,7.2,"
"##MN-00 00 08 0241 01696 6549 440732 203968 195"
"176.956968"
"$GPRMC,225758,A,2559.7493,N,07949.3642,W,0.8,352.9,250615,7.2,"
"##MN-00 00 07 0242 01695 6548 440727 203967 195"
"176.957014"
"$GPRMC,225802,A,2559.7502,N,07949.3642,W,0.8,353.1,250615,7.2,"
"##MN-00 00 07 0244 01692 6546 440718 203965 195"
"176.95706"
"$GPRMC,225806,A,2559.7511,N,07949.3643,W,0.8,353.1,250615,7.2,"
"##MN-00 00 07 0245 01691 6545 440711 203964 195"
"176.957107"
"$GPRMC,225810,A,2559.7520,N,07949.3644,W,0.8,352.8,250615,7.2,"
"##MN-00 00 07 0246 01690 6543 440708 203964 195"
"176.957153"
"$GPRMC,225814,A,2559.7530,N,07949.3645,W,0.8,352.7,250615,7.2,"
"##MN-00 00 08 0248 01686 6542 440702 203963 195"
"176.957199"
"$GPRMC,225818,A,2559.7538,N,07949.3645,W,0.8,353.2,250615,7.2,"
"##MN-00 00 07 0249 01682 6541 440694 203962 195"
"176.957245"
"$GPRMC,225822,A,2559.7545,N,07949.3645,W,0.8,354.0,250615,7.2,"
"##MN-00 00 07 0250 01682 6539 440687 203960 195"
"176.957292"
"$GPRMC,225826,A,2559.7549,N,07949.3644,W,0.8,355.3,250615,7.2,"
"##MN-00 00 09 0252 01679 6538 440679 203957 195"
"176.957338"
"$GPRMC,225830,A,2559.7556,N,07949.3643,W,0.8,356.9,250615,7.2,"
"##MN-00 00 07 0253 01679 6537 440673 203956 195"
"176.957384"
"$GPRMC,225835,A,2559.7565,N,07949.3642,W,0.8,357.3,250615,7.2,"
"##MN-00 00 52 0254 01677 6535 440675 203957 195"
"176.957431"
"$GPRMC,225839,A,2559.7573,N,07949.3642,W,0.8,357.8,250615,7.2,"
"##MN-00 00 07 0256 01673 6534 440670 203955 195"
"176.957477"
"$GPRMC,225843,A,2559.7581,N,07949.3641,W,0.8,358.9,250615,7.2,"
"##MN-00 00 07 0257 01672 6533 440663 203954 195"
"176.957523"
"$GPRMC,225847,A,2559.7591,N,07949.3641,W,0.8,359.5,250615,7.2,"
"##MN-00 00 51 0258 01668 6532 440651 203951 195"
"176.957569"
"$GPRMC,225850,A,2559.7603,N,07949.3640,W,0.8,359.5,250615,7.2,"
"##MN-00 00 07 0260 01665 6530 440642 203950 195"
"176.957616"
"$GPRMC,225854,A,2559.7618,N,07949.3640,W,0.8,359.2,250615,7.2,"
"##MN-00 00 07 0261 01664 6529 440630 203948 195"
"176.957662"
"$GPRMC,225858,A,2559.7631,N,07949.3641,W,0.8,358.4,250615,7.2,"
"##MN-00 00 50 0262 01663 6528 440624 203949 195"
"176.957708"
"$GPRMC,225902,A,2559.7639,N,07949.3642,W,0.8,357.0,250615,7.2,"
"##MN-00 00 07 0264 01660 6527 440613 203945 195"
"176.957755"
"$GPRMC,225907,A,2559.7650,N,07949.3643,W,0.8,356.4,250615,7.2,"
"##MN+00 00 07 0265 01656 6525 440598 203943 194"
"176.957801"
"$GPRMC,225911,A,2559.7661,N,07949.3645,W,0.8,355.5,250615,7.2,"
"##MN+00 00 07 0266 01655 6524 440586 203939 195"
"176.957847"
"$GPRMC,225915,A,2559.7664,N,07949.3647,W,0.8,355.9,250615,7.2,"
"##MN+00 00 08 0268 01653 6522 440577 203937 195"
"176.957894"
"$GPRMC,225919,A,2559.7670,N,07949.3647,W,0.8,355.8,250615,7.2,"
"##MN+00 00 07 0269 01649 6521 440571 203936 195"
"176.95794"
"$GPRMC,225923,A,2559.7677,N,07949.3649,W,0.8,356.2,250615,7.2,"
"##MN+00 00 07 0270 01649 6520 440560 203932 195"
"176.957986"
"$GPRMC,225927,A,2559.7682,N,07949.3649,W,0.8,356.8,250615,7.2,"
"##MN+00 00 07 0271 01647 6519 440549 203929 195"
"176.958032"
"$GPRMC,225931,A,2559.7690,N,07949.3649,W,0.8,357.4,250615,7.2,"
"##MN-00 00 07 0272 01643 6518 440538 203925 195"
"176.958079"
"$GPRMC,225935,A,2559.7697,N,07949.3650,W,0.8,357.8,250615,7.2,"
"##MN-00 00 08 0274 01639 6516 440523 203922 195"
"176.958125"
"#increment_net"
"$GPRMC,225939,A,2559.7710,N,07949.3650,W,0.8,358.0,250615,7.2,"
"##MN-00 00 07 0275 01633 6515 440506 203919 195"
"176.958171"
"$GPRMC,225943,A,2559.7719,N,07949.3652,W,0.8,358.0,250615,7.2,"
"##MN-00 00 08 0276 01632 6514 440490 203916 195"
"176.958218"
"$GPRMC,225947,A,2559.7729,N,07949.3652,W,0.8,358.3,250615,7.2,"
"##MN-00 00 08 0277 01629 6513 440477 203915 195"
"176.958264"
"$GPRMC,225951,A,2559.7740,N,07949.3652,W,0.8,358.3,250615,7.2,"
"##MN-00 00 07 0278 01627 6511 440468 203915 195"
"176.95831"
"$GPRMC,225955,A,2559.7750,N,07949.3652,W,0.8,357.4,250615,7.2,"
"##MN-00 00 07 0279 01625 6509 440454 203910 195"
"176.958356"
"$GPRMC,225959,A,2559.7758,N,07949.3653,W,0.8,356.8,250615,7.2,"
"##MN-00 00 09 0281 01623 6509 440441 203909 195"
"176.958403"
"$GPRMC,230003,A,2559.7769,N,07949.3656,W,0.8,355.3,250615,7.2,"
"##MN-00 00 07 0282 01618 6507 440434 203908 195"
"176.958449"
"$GPRMC,230007,A,2559.7779,N,07949.3656,W,0.8,354.3,250615,7.2,"
"##MN-00 00 07 0283 01616 6506 440425 203904 195"
"176.958495"
"$GPRMC,230011,A,2559.7787,N,07949.3656,W,0.8,354.2,250615,7.2,"
"##MN-00 00 07 0284 01615 6505 440396 203899 195"
"176.958542"
"$GPRMC,230015,A,2559.7797,N,07949.3656,W,0.8,354.3,250615,7.2,"
"##MN-00 00 07 0285 01612 6504 440378 203897 195"
"176.958588"
"$GPRMC,230019,A,2559.7805,N,07949.3656,W,0.8,354.5,250615,7.2,"
"##MN-00 00 07 0286 01610 6502 440365 203894 195"
"176.958634"
"$GPRMC,230023,A,2559.7813,N,07949.3656,W,0.8,354.7,250615,7.2,"
"##MN-00 00 08 0288 01607 6502 440334 203888 195"
"176.958681"
"$GPRMC,230027,A,2559.7823,N,07949.3655,W,0.8,355.3,250615,7.2,"
"##MN-00 00 52 0289 01604 6500 440304 203880 195"
"176.958727"
"$GPRMC,230031,A,2559.7833,N,07949.3656,W,0.9,355.4,250615,7.2,"
"##MN-00 00 07 0290 01600 6499 440284 203876 195"
"176.958773"
"$GPRMC,230035,A,2559.7841,N,07949.3657,W,0.8,355.7,250615,7.2,"
"##MN-00 00 08 0291 01599 6498 440265 203870 195"
"176.958819"
"$GPRMC,230039,A,2559.7852,N,07949.3663,W,0.8,355.7,250615,7.2,"
"##MN-00 00 07 0292 01600 6496 440241 203865 194"
"176.958866"
"$GPRMC,230043,A,2559.7863,N,07949.3664,W,0.8,355.5,250615,7.2,"
"##MN-00 00 07 0294 01598 6495 440223 203860 195"
"176.958912"
"$GPRMC,230047,A,2559.7872,N,07949.3665,W,0.8,355.4,250615,7.2,"
"##MN-00 00 07 0295 01593 6494 440201 203856 195"
"176.958958"
"$GPRMC,230051,A,2559.7881,N,07949.3666,W,0.8,355.5,250615,7.2,"
"##MN-00 00 07 0296 01592 6493 440174 203850 194"
"176.959005"
"$GPRMC,230055,A,2559.7889,N,07949.3667,W,0.8,355.9,250615,7.2,"
"##MN-00 00 08 0297 01589 6492 440140 203843 195"
"176.959051"
"$GPRMC,230059,A,2559.7899,N,07949.3667,W,0.8,355.4,250615,7.2,"
"##MN-00 00 07 0299 01587 6490 440122 203841 195"
"176.959097"
"$GPRMC,230103,A,2559.7906,N,07949.3667,W,0.8,356.0,250615,7.2,"
"##MN-00 00 07 0300 01586 6489 440112 203839 194"
"176.959143"
"$GPRMC,230107,A,2559.7914,N,07949.3669,W,0.8,356.0,250615,7.2,"
"##MN-00 00 07 0301 01585 6488 440106 203839 195"
"176.95919"
"$GPRMC,230111,A,2559.7921,N,07949.3671,W,0.9,355.4,250615,7.2,"
"##MN-00 00 07 0302 01584 6487 440111 203840 195"
"176.959236"
"$GPRMC,230115,A,2559.7928,N,07949.3672,W,0.9,355.1,250615,7.2,"
"##MN-00 00 09 0303 01578 6486 440090 203835 194"
"176.959282"
"$GPRMC,230119,A,2559.7938,N,07949.3674,W,0.8,354.6,250615,7.2,"
"##MN-00 00 09 0305 01576 6485 440061 203829 195"
"176.959329"
"$GPRMC,230123,A,2559.7946,N,07949.3672,W,0.9,354.0,250615,7.2,"
"##MN-00 00 08 0306 01576 6484 440019 203821 195"
"176.959375"
"$GPRMC,230127,A,2559.7957,N,07949.3671,W,0.8,353.6,250615,7.2,"
"##MN-00 00 08 0307 01573 6483 439999 203820 194"
"176.959421"
"$GPRMC,230131,A,2559.7963,N,07949.3671,W,0.8,353.0,250615,7.2,"
"##MN-00 00 08 0308 01569 6482 439988 203818 194"
"176.959468"
"$GPRMC,230135,A,2559.7972,N,07949.3671,W,0.8,353.0,250615,7.2,"
"##MN-00 00 08 0310 01567 6480 439953 203808 194"
"176.959514"
"$GPRMC,230139,A,2559.7979,N,07949.3671,W,0.9,354.0,250615,7.2,"
"##MN-00 00 08 0311 01568 6479 439894 203794 194"
"176.95956"
"$GPRMC,230143,A,2559.7990,N,07949.3671,W,0.8,354.1,250615,7.2,"
"##MN-00 00 07 0312 01564 6478 439818 203775 194"
"176.959606"
"$GPRMC,230147,A,2559.8007,N,07949.3671,W,0.9,354.8,250615,7.2,"
"##MN-00 00 08 0313 01562 6477 439744 203761 194"
"176.959653"
"$GPRMC,230151,A,2559.8014,N,07949.3671,W,0.9,355.9,250615,7.2,"
"##MN-00 00 08 0314 01561 6476 439689 203738 194"
"176.959699"
"$GPRMC,230155,A,2559.8022,N,07949.3671,W,0.9,356.3,250615,7.2,"
"##MN-00 00 10 0316 01558 6475 439552 203710 194"
"176.959745"
"$GPRMC,230159,A,2559.8031,N,07949.3670,W,0.9,356.1,250615,7.2,"
"##MN-00 00 10 0317 01556 6474 439434 203687 195"
"176.959792"
"$GPRMC,230203,A,2559.8042,N,07949.3671,W,0.9,355.9,250615,7.2,"
"##MN-00 00 10 0318 01554 6473 439356 203672 194"
"176.959838"
"$GPRMC,230207,A,2559.8051,N,07949.3672,W,0.9,355.6,250615,7.2,"
"##MN-00 00 10 0319 01553 6472 439285 203646 194"
"176.959884"
"$GPRMC,230211,A,2559.8064,N,07949.3672,W,0.9,356.2,250615,7.2,"
"##MN-00 00 08 0320 01551 6471 439063 203595 194"
"176.959931"
"$GPRMC,230215,A,2559.8075,N,07949.3672,W,0.9,356.6,250615,7.2,"
"##MN+00 00 10 0322 01549 6470 438781 203497 194"
"176.959977"
"$GPRMC,230219,A,2559.8084,N,07949.3675,W,0.8,357.0,250615,7.2,"
"##MN+00 00 10 0323 01547 6469 438228 203376 195"
"176.960035"
"$GPRMC,230223,A,2559.8096,N,07949.3678,W,0.9,356.9,250615,7.2,"
"##MN+00 00 09 0324 01546 6468 437531 203251 195"
"176.960081"
"$GPRMC,230227,A,2559.8105,N,07949.3681,W,0.9,357.4,250615,7.2,"
"##MN-00 00 09 0325 01541 6467 437017 203100 194"
"176.960127"
"$GPRMC,230231,A,2559.8115,N,07949.3682,W,0.9,357.7,250615,7.2,"
"##MN-00 00 08 0327 01538 6466 436171 202928 195"
"176.960174"
"$GPRMC,230235,A,2559.8129,N,07949.3683,W,0.9,357.4,250615,7.2,"
"##MN-00 00 09 0328 01537 6464 435428 202787 195"
"176.96022"
"$GPRMC,230239,A,2559.8140,N,07949.3685,W,0.9,357.4,250615,7.2,"
"##MN-00 00 10 0329 01534 6463 434811 202711 194"
"176.960266"
"$GPRMC,230243,A,2559.8149,N,07949.3685,W,0.9,357.0,250615,7.2,"
"##MN+00 00 09 0330 01533 6462 434688 202697 195"
"176.960313"
"$GPRMC,230247,A,2559.8159,N,07949.3685,W,0.9,356.7,250615,7.2,"
"##MN+00 00 09 0331 01534 6461 434634 202684 195"
"176.960359"
"$GPRMC,230251,A,2559.8169,N,07949.3684,W,0.9,356.3,250615,7.2,"
"##MN+00 00 08 0332 01534 6460 434623 202688 194"
"176.960405"
"$GPRMC,230255,A,2559.8181,N,07949.3683,W,0.9,356.3,250615,7.2,"
"##MN-00 00 08 0333 01535 6459 434632 202688 195"
"176.960451"
"#increment_net"
"$GPRMC,230259,A,2559.8187,N,07949.3684,W,0.8,355.8,250615,7.2,"
"##MN+00 00 08 0334 01534 6459 434600 202675 195"
"176.960498"
"$GPRMC,230303,A,2559.8194,N,07949.3684,W,0.8,355.5,250615,7.2,"
"##MN+00 00 08 0336 01534 6458 434558 202662 194"
"176.960544"
"$GPRMC,230308,A,2559.8201,N,07949.3688,W,0.8,355.1,250615,7.2,"
"##MN+00 00 08 0337 01533 6457 434511 202658 194"
"176.96059"
"$GPRMC,230311,A,2559.8206,N,07949.3687,W,0.8,355.1,250615,7.2,"
"##MN+00 00 09 0338 01533 6456 434554 202665 194"
"176.960637"
"$GPRMC,230315,A,2559.8212,N,07949.3689,W,0.8,355.2,250615,7.2,"
"##MN+00 00 09 0340 01533 6455 434519 202654 194"
"176.960683"
"$GPRMC,230319,A,2559.8220,N,07949.3689,W,0.8,355.2,250615,7.2,"
"##MN+00 00 09 0341 01532 6455 434503 202651 194"
"176.960729"
"$GPRMC,230323,A,2559.8230,N,07949.3689,W,0.8,355.4,250615,7.2,"
"##MN-00 00 09 0342 01532 6454 434549 202659 194"
"176.960775"
"#increment_net"
"$GPRMC,230328,A,2559.8242,N,07949.3687,W,0.8,355.9,250615,7.2,"
"##MN-00 00 09 0343 01535 6453 434594 202671 195"
"176.960822"
"$GPRMC,230332,A,2559.8252,N,07949.3687,W,0.8,356.8,250615,7.2,"
"##MN+00 00 09 0344 01531 6452 434593 202861 194"
"176.960868"
"$GPRMC,230336,A,2559.8260,N,07949.3687,W,0.8,357.5,250615,7.2,"
"##MN+00 00 09 0345 01533 6451 434554 202681 194"
"176.960914"
"$GPRMC,230340,A,2559.8270,N,07949.3686,W,0.8,357.6,250615,7.2,"
"##MN+00 00 09 0346 01532 6451 434562 202680 194"
"176.960961"
"$GPRMC,230344,A,2559.8279,N,07949.3687,W,0.8,357.7,250615,7.2,"
"##MN+00 00 09 0348 01531 6450 434574 202680 194"
"176.961007"
"$GPRMC,230348,A,2559.8289,N,07949.3688,W,0.8,357.8,250615,7.2,"
"##MN+00 00 09 0349 01531 6449 434546 202679 194"
"176.961053"
"$GPRMC,230352,A,2559.8297,N,07949.3690,W,0.8,357.3,250615,7.2,"
"##MN+00 00 09 0350 01533 6448 434611 202698 194"
"176.9611"
"$GPRMC,230356,A,2559.8303,N,07949.3694,W,0.8,356.7,250615,7.2,"
"##MN-00 00 09 0351 01535 6448 434692 202710 194"
"176.961146"
"#increment_net"
"$GPRMC,230400,A,2559.8310,N,07949.3695,W,0.7,356.2,250615,7.2,"
"##MN-00 00 08 0353 01540 6447 434717 202730 194"
"176.961192"
"$GPRMC,230404,A,2559.8315,N,07949.3696,W,0.6,356.4,250615,7.2,"
"##MN-00 00 09 0355 01545 6446 434817 202764 194"
