" Tow: 7cm-a   RVWS/WS15161"
" Date: 25/06/2015"
" Temperature Probe #  4762    Conductivity Probe #  710"
" Pressure Probe #  159"
" Flow Meter Calibration  4.71 (m/count)  "
"176.578646"
"$GPRMC,135311,A,2527.0946,N,07951.3862,W,1.8,93.4,250615,7.1,W"
"##MN-00 00 88 0000 01525 5893 419619 827564 196"
"176.578692"
"$GPRMC,135315,A,2527.0945,N,07951.3840,W,1.7,94.5,250615,7.1,W"
"##MN-00 00 88 0000 01528 5889 420419 827633 196"
"176.578738"
"$GPRMC,135319,A,2527.0945,N,07951.3817,W,1.7,95.9,250615,7.1,W"
"##MN-00 00 88 0000 01526 5885 420612 827701 196"
"176.578785"
"$GPRMC,135323,A,2527.0941,N,07951.3796,W,1.6,97.9,250615,7.1,W"
"##MN-00 00 88 0000 01527 5882 420158 827497 196"
"176.578831"
"$GPRMC,135328,A,2527.0938,N,07951.3773,W,1.6,99.2,250615,7.1,W"
"##MN-00 00 88 0000 01526 5878 420110 827702 196"
"176.578877"
"$GPRMC,135332,A,2527.0934,N,07951.3751,W,1.6,100.4,250615,7.1,"
"##MN-00 00 88 0000 01527 5874 419713 827298 196"
"176.578924"
"$GPRMC,135336,A,2527.0929,N,07951.3731,W,1.6,100.9,250615,7.1,"
"##MN-00 00 88 0000 01526 5871 419686 827701 196"
"176.57897"
"$GPRMC,135340,A,2527.0929,N,07951.3712,W,1.6,102.5,250615,7.1,"
"##MN-00 00 89 0000 01527 5867 420015 827364 196"
"176.579016"
"$GPRMC,135344,A,2527.0927,N,07951.3691,W,1.6,102.7,250615,7.1,"
"##MN-00 00 88 0000 01526 5864 419774 827701 196"
"176.579063"
"$GPRMC,135348,A,2527.0923,N,07951.3668,W,1.7,102.4,250615,7.1,"
"##MN-00 00 88 0000 01526 5860 419608 827360 196"
"176.579109"
"$GPRMC,135352,A,2527.0918,N,07951.3645,W,1.7,100.7,250615,7.1,"
"##MN-00 00 88 0000 01527 5857 419393 827360 196"
"176.579155"
"$GPRMC,135356,A,2527.0916,N,07951.3626,W,1.7,98.5,250615,7.1,W"
"##MN-00 00 88 0000 01527 5853 420228 827360 196"
"176.579294"
"$GPRMC,135407,A,2527.0912,N,07951.3566,W,1.7,94.7,250615,7.1,W"
"##MN-00 00 74 0000 01528 5843 420221 827464 196"
"176.57934"
"$GPRMC,135412,A,2527.0913,N,07951.3538,W,1.8,92.7,250615,7.1,W"
"##MN-00 00 74 0000 01527 5840 419150 827563 196"
"176.579387"
"$GPRMC,135416,A,2527.0913,N,07951.3515,W,1.8,91.3,250615,7.1,W"
"##MN-00 00 72 0000 01527 5837 418911 827361 196"
"176.579433"
"$GPRMC,135420,A,2527.0913,N,07951.3491,W,1.8,91.0,250615,7.1,W"
"##MN-00 00 70 0000 01528 5833 419530 827566 196"
"176.579479"
"$GPRMC,135424,A,2527.0912,N,07951.3467,W,1.8,91.1,250615,7.1,W"
"##MN-00 00 66 0000 01527 5831 419420 827155 196"
"176.579525"
"$GPRMC,135428,A,2527.0911,N,07951.3446,W,1.8,91.5,250615,7.1,W"
"##MN-00 00 66 0000 01526 5828 419474 827632 196"
"176.579572"
"$GPRMC,135432,A,2527.0911,N,07951.3427,W,1.8,92.5,250615,7.1,W"
"##MN-00 00 66 0000 01527 5825 419906 827565 196"
"176.579618"
"$GPRMC,135436,A,2527.0909,N,07951.3404,W,1.8,93.3,250615,7.1,W"
"##MN-00 00 66 0000 01530 5821 421042 827499 196"
"176.579664"
"$GPRMC,135440,A,2527.0906,N,07951.3380,W,1.8,94.0,250615,7.1,W"
"##MN-00 00 66 0000 01529 5819 422481 827583 196"
"176.579711"
"$GPRMC,135444,A,2527.0905,N,07951.3360,W,1.8,94.5,250615,7.1,W"
"##MN-00 00 66 0000 01529 5816 424247 827171 196"
"176.579757"
"$GPRMC,135448,A,2527.0902,N,07951.3339,W,1.7,95.2,250615,7.1,W"
"##MN-00 00 66 0000 01528 5813 425149 827172 196"
"176.579803"
"$GPRMC,135452,A,2527.0900,N,07951.3319,W,1.6,95.3,250615,7.1,W"
"##MN-00 00 65 0001 01529 5810 425331 827314 196"
"176.57985"
"$GPRMC,135456,A,2527.0898,N,07951.3298,W,1.6,94.2,250615,7.1,W"
"##MN-00 00 58 0001 01528 5807 428297 431666 196"
"176.579896"
"$GPRMC,135500,A,2527.0898,N,07951.3281,W,1.5,93.3,250615,7.1,W"
"##MN-00 00 17 0002 01530 5804 439008 251236 196"
"176.579942"
"$GPRMC,135504,A,2527.0898,N,07951.3266,W,1.4,90.2,250615,7.1,W"
"##MN-00 00 05 0003 01530 5801 439085 206930 196"
"176.579988"
"$GPRMC,135508,A,2527.0901,N,07951.3248,W,1.3,87.3,250615,7.1,W"
"##MN-00 00 06 0004 01531 5799 439410 203632 196"
"176.580035"
"$GPRMC,135512,A,2527.0907,N,07951.3235,W,1.3,82.5,250615,7.1,W"
"##MN-00 00 07 0006 01532 5796 439500 203567 196"
"176.580081"
"$GPRMC,135516,A,2527.0911,N,07951.3220,W,1.3,78.5,250615,7.1,W"
"##MN-00 00 07 0007 01534 5794 439559 203616 196"
"176.580127"
"$GPRMC,135520,A,2527.0916,N,07951.3203,W,1.3,76.0,250615,7.1,W"
"##MN-00 00 07 0008 01533 5791 439602 203570 196"
"176.580174"
"$GPRMC,135524,A,2527.0922,N,07951.3186,W,1.3,73.6,250615,7.1,W"
"##MN-00 00 07 0010 01534 5789 439581 203642 196"
"176.58022"
"$GPRMC,135528,A,2527.0927,N,07951.3171,W,1.3,70.9,250615,7.1,W"
"##MN-00 00 07 0011 01540 5786 439555 203633 196"
"176.580266"
"$GPRMC,135532,A,2527.0936,N,07951.3156,W,1.3,68.4,250615,7.1,W"
"##MN-00 00 07 0012 01541 5784 439606 203670 196"
"176.580312"
"$GPRMC,135536,A,2527.0943,N,07951.3143,W,1.3,66.5,250615,7.1,W"
"##MN-00 00 08 0014 01543 5783 439709 203705 196"
"176.580359"
"$GPRMC,135540,A,2527.0949,N,07951.3127,W,1.3,65.4,250615,7.1,W"
"##MN-00 00 08 0015 01547 5781 439812 203666 196"
"176.580417"
"$GPRMC,135544,A,2527.0958,N,07951.3111,W,1.4,65.1,250615,7.1,W"
"##MN-00 00 07 0016 01547 5779 439881 203679 196"
"176.580463"
"$GPRMC,135548,A,2527.0966,N,07951.3096,W,1.4,64.0,250615,7.1,W"
"##MN-00 00 08 0018 01552 5777 439940 203690 196"
"176.580509"
"$GPRMC,135552,A,2527.0973,N,07951.3081,W,1.4,63.3,250615,7.1,W"
"##MN-00 00 07 0019 01555 5776 439947 203763 196"
"176.580556"
"$GPRMC,135556,A,2527.0980,N,07951.3065,W,1.4,63.1,250615,7.1,W"
"##MN-00 00 07 0020 01557 5775 439954 203794 196"
"176.580602"
"$GPRMC,135600,A,2527.0987,N,07951.3048,W,1.5,62.2,250615,7.1,W"
"##MN-00 00 07 0022 01560 5774 439960 203824 196"
"176.580648"
"$GPRMC,135604,A,2527.0997,N,07951.3031,W,1.5,60.2,250615,7.1,W"
"##MN-00 00 08 0023 01566 5773 439942 203748 196"
"176.580694"
"$GPRMC,135608,A,2527.1006,N,07951.3014,W,1.6,57.3,250615,7.1,W"
"##MN-00 00 07 0024 01567 5772 439968 203769 196"
"176.580741"
"$GPRMC,135612,A,2527.1017,N,07951.2998,W,1.6,53.1,250615,7.1,W"
"##MN-00 00 08 0025 01576 5771 439995 203764 196"
"176.580787"
"$GPRMC,135616,A,2527.1031,N,07951.2985,W,1.6,49.8,250615,7.1,W"
"##MN-00 00 07 0027 01580 5770 440015 203766 196"
"176.580833"
"$GPRMC,135620,A,2527.1046,N,07951.2974,W,1.6,45.0,250615,7.1,W"
"##MN-00 00 07 0028 01585 5769 440036 203783 196"
"176.58088"
"$GPRMC,135624,A,2527.1060,N,07951.2963,W,1.6,40.7,250615,7.1,W"
"##MN-00 00 07 0029 01591 5769 440047 203792 196"
"176.580926"
"$GPRMC,135628,A,2527.1077,N,07951.2954,W,1.7,36.9,250615,7.1,W"
"##MN-00 00 07 0030 01598 5768 440059 203788 196"
"176.580972"
"$GPRMC,135633,A,2527.1099,N,07951.2940,W,1.7,33.8,250615,7.1,W"
"##MN-00 00 07 0031 01605 5768 440072 203793 196"
"176.581019"
"$GPRMC,135636,A,2527.1111,N,07951.2933,W,1.7,32.6,250615,7.1,W"
"##MN-00 00 07 0032 01610 5767 440081 203794 196"
"176.581065"
"$GPRMC,135640,A,2527.1128,N,07951.2924,W,1.7,30.9,250615,7.1,W"
"##MN-00 00 07 0033 01615 5767 440081 203797 196"
"176.581111"
"$GPRMC,135644,A,2527.1144,N,07951.2915,W,1.7,29.3,250615,7.1,W"
"##MN-00 00 07 0034 01623 5767 440082 203791 196"
"176.581157"
"$GPRMC,135648,A,2527.1161,N,07951.2906,W,1.7,28.4,250615,7.1,W"
"##MN-00 00 07 0035 01627 5767 440085 203791 196"
"176.581204"
"$GPRMC,135653,A,2527.1182,N,07951.2891,W,1.7,27.1,250615,7.1,W"
"##MN-00 00 07 0036 01631 5767 440086 203791 196"
"176.58125"
"$GPRMC,135657,A,2527.1198,N,07951.2880,W,1.8,27.0,250615,7.1,W"
"##MN-00 00 07 0037 01637 5767 440085 203787 196"
"176.581296"
"$GPRMC,135701,A,2527.1216,N,07951.2871,W,1.8,27.1,250615,7.1,W"
"##MN-00 00 07 0038 01641 5766 440087 203788 196"
"176.581343"
"$GPRMC,135705,A,2527.1234,N,07951.2860,W,1.7,26.9,250615,7.1,W"
"##MN-00 00 07 0039 01647 5766 440088 203787 196"
"176.581389"
"$GPRMC,135709,A,2527.1254,N,07951.2852,W,1.8,26.3,250615,7.1,W"
"##MN-00 00 07 0040 01655 5766 440088 203786 196"
"176.581435"
"$GPRMC,135713,A,2527.1273,N,07951.2844,W,1.8,26.1,250615,7.1,W"
"##MN-00 00 07 0041 01659 5766 440104 203786 196"
"176.581481"
"$GPRMC,135717,A,2527.1292,N,07951.2835,W,1.8,26.4,250615,7.1,W"
"##MN-00 00 07 0041 01664 5767 440119 203790 196"
"176.581528"
"$GPRMC,135721,A,2527.1312,N,07951.2824,W,1.8,26.4,250615,7.1,W"
"##MN-00 00 07 0042 01667 5767 440129 203790 196"
"176.581574"
"$GPRMC,135725,A,2527.1331,N,07951.2813,W,1.8,26.4,250615,7.1,W"
"##MN-00 00 07 0043 01672 5767 440127 203785 196"
"176.58162"
"$GPRMC,135729,A,2527.1350,N,07951.2804,W,1.9,26.9,250615,7.1,W"
"##MN-00 00 07 0044 01676 5767 440124 203784 196"
"176.581667"
"$GPRMC,135733,A,2527.1371,N,07951.2793,W,1.8,27.2,250615,7.1,W"
"##MN-00 00 07 0045 01680 5767 440126 203784 196"
"176.581713"
"$GPRMC,135737,A,2527.1388,N,07951.2782,W,1.8,27.5,250615,7.1,W"
"##MN-00 00 07 0046 01684 5767 440123 203783 196"
"176.581759"
"$GPRMC,135741,A,2527.1404,N,07951.2768,W,1.8,27.4,250615,7.1,W"
"##MN-00 00 07 0047 01691 5768 440124 203782 196"
"176.581806"
"$GPRMC,135745,A,2527.1421,N,07951.2757,W,1.8,26.1,250615,7.1,W"
"##MN-00 00 07 0048 01691 5768 440128 203781 196"
"176.581852"
"$GPRMC,135749,A,2527.1438,N,07951.2746,W,1.8,25.3,250615,7.1,W"
"##MN-00 00 07 0048 01696 5768 440133 203782 196"
"176.581898"
"$GPRMC,135753,A,2527.1454,N,07951.2737,W,1.7,23.8,250615,7.1,W"
"##MN-00 00 07 0049 01700 5769 440132 203781 196"
"176.581944"
"$GPRMC,135757,A,2527.1471,N,07951.2729,W,1.7,22.8,250615,7.1,W"
"##MN-00 00 07 0050 01704 5769 440131 203779 196"
"176.581991"
"$GPRMC,135801,A,2527.1487,N,07951.2721,W,1.7,22.0,250615,7.1,W"
"##MN-00 00 07 0051 01708 5769 440131 203780 196"
"176.582037"
"$GPRMC,135805,A,2527.1505,N,07951.2718,W,1.6,21.2,250615,7.1,W"
"##MN-00 00 07 0052 01708 5770 440130 203779 196"
"176.582083"
"$GPRMC,135809,A,2527.1522,N,07951.2715,W,1.6,19.3,250615,7.1,W"
"##MN-00 00 07 0053 01714 5770 440131 203779 196"
"176.58213"
"$GPRMC,135813,A,2527.1539,N,07951.2713,W,1.6,17.6,250615,7.1,W"
"##MN-00 00 07 0054 01719 5770 440130 203778 196"
"176.582176"
"$GPRMC,135817,A,2527.1555,N,07951.2709,W,1.5,15.9,250615,7.1,W"
"##MN-00 00 06 0055 01718 5770 440129 203778 196"
"176.582222"
"$GPRMC,135821,A,2527.1570,N,07951.2704,W,1.5,15.4,250615,7.1,W"
"##MN-00 00 05 0056 01722 5771 440129 203778 196"
"176.582269"
"$GPRMC,135825,A,2527.1584,N,07951.2700,W,1.3,16.0,250615,7.1,W"
"##MN-00 00 05 0057 01721 5772 440128 203777 196"
"176.582315"
"$GPRMC,135829,A,2527.1597,N,07951.2696,W,1.2,16.5,250615,7.1,W"
"##MN-00 00 05 0058 01722 5772 440125 203777 196"
"176.582361"
"$GPRMC,135833,A,2527.1609,N,07951.2692,W,1.2,18.2,250615,7.1,W"
"##MN-00 00 05 0059 01723 5773 440130 203777 196"
"176.582407"
"$GPRMC,135837,A,2527.1620,N,07951.2687,W,1.1,20.1,250615,7.1,W"
"##MN-00 00 05 0060 01722 5773 440130 203777 196"
"176.582454"
"$GPRMC,135841,A,2527.1631,N,07951.2681,W,1.1,21.0,250615,7.1,W"
"##MN-00 00 05 0062 01722 5774 440127 203776 196"
"176.5825"
"$GPRMC,135845,A,2527.1644,N,07951.2675,W,1.1,22.8,250615,7.1,W"
"##MN-00 00 05 0063 01724 5774 440124 203776 196"
"176.582546"
"$GPRMC,135849,A,2527.1656,N,07951.2670,W,1.2,24.6,250615,7.1,W"
"##MN-00 00 05 0064 01727 5775 440128 203776 196"
"176.582593"
"$GPRMC,135853,A,2527.1666,N,07951.2663,W,1.1,26.0,250615,7.1,W"
"##MN-00 00 05 0065 01726 5776 440133 203777 196"
"176.582639"
"$GPRMC,135857,A,2527.1678,N,07951.2655,W,1.1,26.6,250615,7.1,W"
"##MN-00 00 05 0066 01725 5776 440130 203776 196"
"176.582685"
"$GPRMC,135901,A,2527.1688,N,07951.2643,W,1.1,27.3,250615,7.1,W"
"##MN-00 00 05 0067 01727 5777 440129 203776 196"
"176.582731"
"$GPRMC,135905,A,2527.1699,N,07951.2633,W,1.2,29.1,250615,7.1,W"
"##MN-00 00 05 0068 01727 5778 440127 203775 196"
"176.582778"
"$GPRMC,135909,A,2527.1709,N,07951.2623,W,1.2,30.3,250615,7.1,W"
"##MN-00 00 05 0069 01729 5778 440127 203774 196"
"176.582824"
"$GPRMC,135913,A,2527.1721,N,07951.2618,W,1.2,30.4,250615,7.1,W"
"##MN-00 00 05 0070 01730 5779 440123 203774 196"
"176.58287"
"$GPRMC,135917,A,2527.1732,N,07951.2611,W,1.2,30.3,250615,7.1,W"
"##MN-00 00 05 0072 01735 5779 440121 203773 196"
"176.582917"
"$GPRMC,135921,A,2527.1745,N,07951.2602,W,1.2,29.4,250615,7.1,W"
"##MN-00 00 05 0073 01736 5780 440123 203772 196"
"176.582963"
"$GPRMC,135925,A,2527.1757,N,07951.2597,W,1.2,29.5,250615,7.1,W"
"##MN-00 00 05 0074 01737 5781 440121 203772 196"
"176.583009"
"$GPRMC,135929,A,2527.1769,N,07951.2589,W,1.2,29.3,250615,7.1,W"
"##MN-00 00 05 0075 01742 5782 440121 203771 196"
"176.583056"
"$GPRMC,135933,A,2527.1783,N,07951.2583,W,1.2,29.3,250615,7.1,W"
"##MN-00 00 05 0076 01745 5782 440119 203771 196"
"176.583102"
"$GPRMC,135937,A,2527.1796,N,07951.2579,W,1.2,29.1,250615,7.1,W"
"##MN-00 00 04 0077 01748 5783 440121 203771 196"
"176.583148"
"$GPRMC,135941,A,2527.1804,N,07951.2572,W,1.2,29.9,250615,7.1,W"
"##MN-00 00 04 0078 01751 5783 440121 203770 196"
"176.583194"
"$GPRMC,135945,A,2527.1815,N,07951.2565,W,1.2,30.8,250615,7.1,W"
"##MN-00 00 04 0079 01753 5784 440122 203770 196"
"176.583241"
"$GPRMC,135949,A,2527.1832,N,07951.2555,W,1.2,31.0,250615,7.1,W"
"##MN-00 00 04 0080 01755 5785 440123 203770 196"
"176.583287"
"$GPRMC,135953,A,2527.1841,N,07951.2549,W,1.2,31.7,250615,7.1,W"
"##MN-00 00 04 0081 01757 5786 440127 203770 196"
"176.583333"
"$GPRMC,135957,A,2527.1857,N,07951.2537,W,1.2,31.4,250615,7.1,W"
"##MN-00 00 04 0083 01760 5786 440130 203770 196"
"176.58338"
"$GPRMC,140001,A,2527.1869,N,07951.2529,W,1.3,31.9,250615,7.1,W"
"##MN-00 00 04 0084 01766 5787 440129 203770 196"
"176.583426"
"$GPRMC,140005,A,2527.1880,N,07951.2520,W,1.2,32.0,250615,7.1,W"
"##MN-00 00 04 0085 01764 5788 440132 203771 196"
"176.583472"
"$GPRMC,140009,A,2527.1891,N,07951.2510,W,1.3,32.0,250615,7.1,W"
"##MN-00 00 04 0086 01768 5789 440142 203771 196"
"176.583519"
"$GPRMC,140013,A,2527.1905,N,07951.2500,W,1.2,32.0,250615,7.1,W"
"##MN-00 00 04 0087 01773 5789 440152 203771 196"
"176.583576"
"$GPRMC,140017,A,2527.1917,N,07951.2491,W,1.3,31.9,250615,7.1,W"
"##MN-00 00 04 0088 01775 5790 440151 203770 196"
"176.583623"
"$GPRMC,140021,A,2527.1930,N,07951.2483,W,1.3,32.8,250615,7.1,W"
"##MN-00 00 04 0089 01778 5791 440147 203770 196"
"176.583669"
"$GPRMC,140025,A,2527.1942,N,07951.2474,W,1.3,32.4,250615,7.1,W"
"##MN-00 00 47 0090 01781 5792 440145 203769 196"
"176.583715"
"$GPRMC,140029,A,2527.1953,N,07951.2464,W,1.2,32.4,250615,7.1,W"
"##MN-00 00 04 0091 01785 5793 440143 203769 196"
"176.583762"
"$GPRMC,140033,A,2527.1967,N,07951.2455,W,1.2,32.5,250615,7.1,W"
"##MN-00 00 05 0092 01788 5794 440139 203768 196"
"176.583808"
"$GPRMC,140037,A,2527.1978,N,07951.2446,W,1.2,32.6,250615,7.1,W"
"##MN-00 00 04 0094 01791 5794 440134 203767 196"
"176.583854"
"$GPRMC,140041,A,2527.1991,N,07951.2436,W,1.3,32.7,250615,7.1,W"
"##MN-00 00 04 0095 01791 5795 440130 203766 196"
"176.5839"
"$GPRMC,140045,A,2527.2003,N,07951.2428,W,1.3,33.5,250615,7.1,W"
"##MN-00 00 04 0096 01798 5796 440129 203765 196"
"176.583947"
"$GPRMC,140049,A,2527.2016,N,07951.2420,W,1.2,34.2,250615,7.1,W"
"##MN-00 00 04 0097 01800 5797 440131 203764 196"
"176.583993"
"$GPRMC,140053,A,2527.2028,N,07951.2411,W,1.2,34.7,250615,7.1,W"
"##MN+00 00 05 0098 01797 5798 440148 203764 196"
"176.584039"
"$GPRMC,140057,A,2527.2040,N,07951.2401,W,1.2,34.9,250615,7.1,W"
"##MN+00 00 05 0099 01796 5798 440161 203765 196"
"176.584086"
"$GPRMC,140102,A,2527.2056,N,07951.2388,W,1.3,34.9,250615,7.1,W"
"##MN+00 00 05 0101 01796 5799 440162 203765 196"
"176.584132"
"$GPRMC,140106,A,2527.2068,N,07951.2377,W,1.2,35.1,250615,7.1,W"
"##MN+00 00 04 0102 01796 5800 440157 203764 196"
"176.584178"
"$GPRMC,140110,A,2527.2082,N,07951.2370,W,1.3,34.7,250615,7.1,W"
"##MN+00 00 05 0103 01793 5801 440174 203765 196"
"176.584225"
"$GPRMC,140114,A,2527.2094,N,07951.2361,W,1.3,34.7,250615,7.1,W"
"##MN+00 00 05 0104 01799 5801 440199 203767 196"
"176.584271"
"$GPRMC,140118,A,2527.2107,N,07951.2351,W,1.3,35.0,250615,7.1,W"
"##MN-00 00 06 0105 01798 5802 440229 203770 196"
"176.584317"
"#increment_net"
"$GPRMC,140122,A,2527.2119,N,07951.2342,W,1.3,34.8,250615,7.1,W"
"##MN-00 00 05 0107 01798 5803 440240 203770 196"
"176.584363"
"$GPRMC,140126,A,2527.2132,N,07951.2334,W,1.3,34.8,250615,7.1,W"
"##MN-00 00 05 0108 01798 5804 440240 203772 196"
"176.58441"
"$GPRMC,140130,A,2527.2144,N,07951.2325,W,1.3,35.2,250615,7.1,W"
"##MN-00 00 05 0109 01795 5805 440251 203774 196"
"176.584456"
"$GPRMC,140134,A,2527.2157,N,07951.2316,W,1.3,35.6,250615,7.1,W"
"##MN-00 00 04 0110 01798 5806 440237 203774 196"
"176.584502"
"$GPRMC,140138,A,2527.2169,N,07951.2306,W,1.3,34.8,250615,7.1,W"
"##MN-00 00 04 0112 01798 5807 440224 203773 196"
"176.584549"
"$GPRMC,140142,A,2527.2180,N,07951.2296,W,1.3,34.9,250615,7.1,W"
"##MN-00 00 04 0113 01797 5807 440220 203772 196"
"176.584595"
"$GPRMC,140146,A,2527.2193,N,07951.2286,W,1.3,34.8,250615,7.1,W"
"##MN-00 00 04 0114 01796 5809 440201 203772 196"
"176.584641"
"$GPRMC,140150,A,2527.2205,N,07951.2274,W,1.3,35.5,250615,7.1,W"
"##MN-00 00 04 0115 01795 5809 440189 203771 196"
"176.584688"
"$GPRMC,140154,A,2527.2216,N,07951.2265,W,1.3,35.6,250615,7.1,W"
"##MN-00 00 04 0117 01796 5810 440189 203770 196"
"176.584734"
"$GPRMC,140158,A,2527.2229,N,07951.2256,W,1.3,35.3,250615,7.1,W"
"##MN-00 00 06 0118 01796 5811 440217 203770 196"
"176.58478"
"$GPRMC,140202,A,2527.2241,N,07951.2246,W,1.3,35.1,250615,7.1,W"
"##MN-00 00 05 0119 01796 5812 440235 203770 196"
"176.584826"
"$GPRMC,140206,A,2527.2253,N,07951.2237,W,1.3,35.1,250615,7.1,W"
"##MN-00 00 05 0120 01797 5813 440247 203771 196"
"176.584873"
"$GPRMC,140210,A,2527.2263,N,07951.2225,W,1.3,35.1,250615,7.1,W"
"##MN-00 00 04 0122 01795 5814 440253 203771 196"
"176.584919"
"$GPRMC,140214,A,2527.2274,N,07951.2213,W,1.3,35.7,250615,7.1,W"
"##MN-00 00 04 0123 01795 5814 440262 203772 196"
"176.584965"
"$GPRMC,140218,A,2527.2282,N,07951.2201,W,1.3,36.4,250615,7.1,W"
"##MN-00 00 04 0124 01796 5815 440263 203774 196"
"176.585012"
"$GPRMC,140222,A,2527.2296,N,07951.2191,W,1.3,36.5,250615,7.1,W"
"##MN-00 00 05 0125 01796 5816 440270 203775 196"
"176.585058"
"$GPRMC,140226,A,2527.2307,N,07951.2183,W,1.4,36.3,250615,7.1,W"
"##MN-00 00 05 0126 01798 5817 440270 203775 196"
"176.585104"
"$GPRMC,140230,A,2527.2321,N,07951.2170,W,1.5,35.3,250615,7.1,W"
"##MN-00 00 04 0128 01797 5818 440273 203775 196"
"176.58515"
"$GPRMC,140234,A,2527.2335,N,07951.2158,W,1.5,35.2,250615,7.1,W"
"##MN-00 00 04 0129 01796 5819 440278 203775 196"
"176.585197"
"$GPRMC,140238,A,2527.2346,N,07951.2145,W,1.5,35.0,250615,7.1,W"
"##MN-00 00 05 0130 01800 5820 440281 203776 196"
"176.585243"
"$GPRMC,140242,A,2527.2359,N,07951.2134,W,1.4,35.4,250615,7.1,W"
"##MN-00 00 05 0131 01798 5821 440286 203777 196"
"176.585289"
"$GPRMC,140246,A,2527.2371,N,07951.2122,W,1.4,35.1,250615,7.1,W"
"##MN+00 00 05 0133 01798 5822 440295 203778 196"
"176.585336"
"$GPRMC,140250,A,2527.2385,N,07951.2112,W,1.5,35.4,250615,7.1,W"
"##MN+00 00 04 0134 01801 5822 440298 203777 196"
"176.585382"
"$GPRMC,140254,A,2527.2400,N,07951.2103,W,1.5,33.8,250615,7.0,W"
"##MN+00 00 05 0135 01802 5823 440297 203778 196"
"176.585428"
"$GPRMC,140258,A,2527.2412,N,07951.2091,W,1.4,33.4,250615,7.0,W"
"##MN-00 00 04 0136 01799 5824 440294 203778 196"
"176.585475"
"$GPRMC,140302,A,2527.2426,N,07951.2080,W,1.5,34.4,250615,7.0,W"
"##MN+00 00 04 0137 01800 5825 440282 203778 196"
"176.585521"
"$GPRMC,140306,A,2527.2439,N,07951.2068,W,1.5,35.6,250615,7.0,W"
"##MN+00 00 04 0138 01800 5826 440276 203778 196"
"176.585567"
"$GPRMC,140310,A,2527.2453,N,07951.2057,W,1.5,36.1,250615,7.0,W"
"##MN+00 00 06 0140 01802 5827 440245 203776 196"
"176.585613"
"#increment_net"
"$GPRMC,140314,A,2527.2466,N,07951.2046,W,1.5,36.2,250615,7.0,W"
"##MN-00 00 05 0141 01801 5828 440222 203775 196"
"176.58566"
"$GPRMC,140318,A,2527.2480,N,07951.2034,W,1.5,36.6,250615,7.0,W"
"##MN+00 00 04 0142 01800 5829 440220 203775 196"
"176.585706"
"$GPRMC,140322,A,2527.2493,N,07951.2022,W,1.5,37.5,250615,7.0,W"
"##MN+00 00 04 0143 01799 5830 440215 203774 196"
"176.585752"
"$GPRMC,140326,A,2527.2505,N,07951.2011,W,1.5,37.5,250615,7.0,W"
"##MN+00 00 04 0144 01800 5831 440210 203775 196"
"176.585799"
"$GPRMC,140330,A,2527.2518,N,07951.2000,W,1.5,37.6,250615,7.0,W"
"##MN-00 00 04 0146 01797 5831 440218 203774 196"
"176.585845"
"$GPRMC,140334,A,2527.2530,N,07951.1988,W,1.5,37.8,250615,7.0,W"
"##MN-00 00 04 0147 01797 5832 440212 203774 196"
"176.585891"
"$GPRMC,140338,A,2527.2544,N,07951.1977,W,1.5,37.4,250615,7.0,W"
"##MN-00 00 04 0148 01797 5833 440200 203774 196"
"176.585938"
"$GPRMC,140342,A,2527.2556,N,07951.1966,W,1.5,37.2,250615,7.0,W"
"##MN-00 00 04 0149 01796 5834 440197 203774 196"
"176.585984"
"$GPRMC,140346,A,2527.2570,N,07951.1956,W,1.5,37.0,250615,7.0,W"
"##MN-00 00 04 0151 01794 5835 440210 203775 196"
"176.58603"
"$GPRMC,140350,A,2527.2585,N,07951.1947,W,1.5,36.7,250615,7.0,W"
"##MN-00 00 04 0152 01793 5835 440248 203777 196"
"176.586076"
"$GPRMC,140354,A,2527.2598,N,07951.1937,W,1.5,36.9,250615,7.0,W"
"##MN-00 00 04 0153 01794 5836 440266 203778 196"
"176.586123"
"$GPRMC,140358,A,2527.2612,N,07951.1926,W,1.5,37.0,250615,7.0,W"
"##MN+00 00 04 0154 01793 5838 440268 203778 196"
"176.586169"
"$GPRMC,140402,A,2527.2627,N,07951.1916,W,1.5,36.2,250615,7.0,W"
"##MN+00 00 04 0155 01794 5838 440274 203778 196"
"176.586215"
"$GPRMC,140406,A,2527.2642,N,07951.1906,W,1.5,35.3,250615,7.0,W"
"##MN+00 00 06 0157 01798 5839 440280 203779 196"
"176.586262"
"#increment_net"
"$GPRMC,140410,A,2527.2657,N,07951.1897,W,1.5,34.4,250615,7.0,W"
"##MN-00 00 05 0158 01796 5840 440290 203778 196"
"176.586308"
"$GPRMC,140414,A,2527.2670,N,07951.1886,W,1.5,34.4,250615,7.0,W"
"##MN-00 00 04 0159 01797 5841 440293 203777 196"
"176.586354"
"$GPRMC,140418,A,2527.2682,N,07951.1875,W,1.5,34.7,250615,7.0,W"
"##MN-00 00 04 0160 01795 5842 440290 203778 196"
"176.5864"
"$GPRMC,140422,A,2527.2697,N,07951.1863,W,1.5,35.4,250615,7.0,W"
"##MN-00 00 04 0161 01796 5843 440283 203779 196"
"176.586447"
"$GPRMC,140426,A,2527.2711,N,07951.1853,W,1.5,35.8,250615,7.0,W"
"##MN-00 00 04 0163 01796 5844 440276 203779 196"
"176.586493"
"$GPRMC,140430,A,2527.2724,N,07951.1842,W,1.5,36.4,250615,7.0,W"
"##MN-00 00 04 0164 01792 5845 440264 203779 196"
"176.586539"
"$GPRMC,140434,A,2527.2737,N,07951.1832,W,1.5,36.1,250615,7.0,W"
"##MN-00 00 04 0165 01793 5846 440252 203779 196"
"176.586586"
"$GPRMC,140438,A,2527.2751,N,07951.1821,W,1.5,35.7,250615,7.0,W"
"##MN-00 00 04 0167 01793 5847 440248 203779 196"
"176.586632"
"$GPRMC,140442,A,2527.2765,N,07951.1810,W,1.5,35.8,250615,7.0,W"
"##MN-00 00 04 0168 01792 5847 440232 203779 196"
"176.586678"
"$GPRMC,140446,A,2527.2779,N,07951.1800,W,1.5,36.0,250615,7.0,W"
"##MN+00 00 04 0169 01792 5848 440208 203778 196"
"176.586725"
"$GPRMC,140450,A,2527.2791,N,07951.1789,W,1.5,35.8,250615,7.0,W"
"##MN+00 00 04 0171 01791 5849 440206 203778 196"
"176.586771"
"$GPRMC,140454,A,2527.2807,N,07951.1778,W,1.5,35.3,250615,7.0,W"
"##MN+00 00 05 0172 01791 5850 440224 203778 196"
"176.586829"
"$GPRMC,140458,A,2527.2820,N,07951.1768,W,1.5,35.5,250615,7.0,W"
"##MN+00 00 05 0173 01790 5851 440222 203777 196"
"176.586875"
"$GPRMC,140502,A,2527.2834,N,07951.1758,W,1.5,35.2,250615,7.0,W"
"##MN+00 00 05 0174 01789 5852 440225 203777 196"
"176.586921"
"$GPRMC,140506,A,2527.2849,N,07951.1748,W,1.5,35.1,250615,7.0,W"
"##MN+00 00 51 0175 01794 5852 440225 203777 196"
"176.586968"
"#increment_net"
"$GPRMC,140510,A,2527.2863,N,07951.1736,W,1.5,35.2,250615,7.0,W"
"##MN-00 00 05 0176 01792 5854 440222 203777 196"
"176.587014"
"$GPRMC,140514,A,2527.2876,N,07951.1726,W,1.5,35.7,250615,7.0,W"
"##MN-00 00 05 0178 01790 5854 440212 203777 196"
"176.58706"
"$GPRMC,140518,A,2527.2888,N,07951.1715,W,1.5,36.5,250615,7.0,W"
"##MN-00 00 05 0179 01790 5855 440201 203776 196"
"176.587106"
"$GPRMC,140522,A,2527.2902,N,07951.1703,W,1.4,36.7,250615,7.0,W"
"##MN-00 00 04 0180 01789 5856 440186 203776 196"
"176.587153"
"$GPRMC,140526,A,2527.2914,N,07951.1692,W,1.5,36.2,250615,7.0,W"
"##MN-00 00 05 0182 01786 5857 440177 203775 196"
"176.587199"
"$GPRMC,140530,A,2527.2927,N,07951.1680,W,1.4,36.2,250615,7.0,W"
"##MN-00 00 05 0183 01788 5858 440171 203775 196"
"176.587245"
"$GPRMC,140534,A,2527.2941,N,07951.1670,W,1.5,35.6,250615,7.0,W"
"##MN-00 00 05 0184 01786 5859 440167 203775 196"
"176.587292"
"$GPRMC,140538,A,2527.2953,N,07951.1659,W,1.5,35.1,250615,7.0,W"
"##MN+00 00 05 0186 01784 5860 440167 203776 196"
"176.587338"
"$GPRMC,140542,A,2527.2968,N,07951.1649,W,1.5,35.1,250615,7.0,W"
"##MN+00 00 05 0187 01787 5861 440167 203775 196"
"176.587384"
"$GPRMC,140546,A,2527.2982,N,07951.1637,W,1.5,34.8,250615,7.0,W"
"##MN+00 00 05 0188 01785 5862 440165 203774 196"
"176.587431"
"$GPRMC,140551,A,2527.2999,N,07951.1624,W,1.5,34.7,250615,7.0,W"
"##MN-00 00 05 0190 01786 5862 440163 203774 196"
"176.587477"
"$GPRMC,140555,A,2527.3011,N,07951.1614,W,1.5,34.3,250615,7.0,W"
"##MN+00 00 05 0191 01785 5863 440165 203775 196"
"176.587523"
"$GPRMC,140559,A,2527.3026,N,07951.1602,W,1.5,35.0,250615,7.0,W"
"##MN+00 00 05 0192 01783 5864 440177 203776 196"
"176.587569"
"$GPRMC,140602,A,2527.3036,N,07951.1593,W,1.5,35.5,250615,7.0,W"
"##MN+00 00 05 0194 01788 5865 440190 203777 196"
"176.587616"
"#increment_net"
"$GPRMC,140606,A,2527.3051,N,07951.1581,W,1.5,36.7,250615,7.0,W"
"##MN-00 00 06 0195 01790 5865 440197 203776 196"
"176.587662"
"$GPRMC,140610,A,2527.3065,N,07951.1570,W,1.5,37.0,250615,7.0,W"
"##MN-00 00 05 0197 01796 5866 440191 203774 196"
"176.587708"
"$GPRMC,140614,A,2527.3078,N,07951.1558,W,1.5,38.4,250615,7.0,W"
"##MN-00 00 05 0198 01801 5867 440222 203775 196"
"176.587755"
"$GPRMC,140619,A,2527.3093,N,07951.1544,W,1.5,39.6,250615,7.0,W"
"##MN-00 00 04 0200 01807 5868 440271 203778 196"
"176.587801"
"$GPRMC,140623,A,2527.3104,N,07951.1532,W,1.4,41.1,250615,7.0,W"
"##MN-00 00 05 0201 01812 5869 440286 203778 196"
"176.587847"
"$GPRMC,140627,A,2527.3118,N,07951.1523,W,1.5,42.7,250615,7.0,W"
"##MN-00 00 05 0203 01812 5870 440322 203780 196"
"176.587894"
"$GPRMC,140631,A,2527.3130,N,07951.1514,W,1.4,43.7,250615,7.0,W"
"##MN-00 00 04 0204 01814 5871 440335 203779 196"
"176.58794"
"$GPRMC,140635,A,2527.3141,N,07951.1502,W,1.5,45.0,250615,7.0,W"
"##MN-00 00 05 0206 01812 5872 440336 203780 196"
"176.587986"
"$GPRMC,140639,A,2527.3152,N,07951.1491,W,1.4,45.7,250615,7.0,W"
"##MN-00 00 04 0208 01813 5873 440340 203780 196"
"176.588032"
"$GPRMC,140643,A,2527.3162,N,07951.1478,W,1.3,46.2,250615,7.0,W"
"##MN-00 00 05 0209 01813 5873 440338 203782 196"
"176.588079"
"$GPRMC,140647,A,2527.3173,N,07951.1467,W,1.3,46.4,250615,7.0,W"
"##MN-00 00 05 0211 01812 5875 440329 203783 196"
"176.588125"
"$GPRMC,140651,A,2527.3183,N,07951.1455,W,1.3,46.9,250615,7.0,W"
"##MN-00 00 05 0213 01809 5875 440323 203783 196"
"176.588171"
"$GPRMC,140655,A,2527.3192,N,07951.1440,W,1.3,47.3,250615,7.0,W"
"##MN-00 00 06 0214 01811 5876 440303 203781 196"
"176.588218"
"$GPRMC,140659,A,2527.3202,N,07951.1427,W,1.3,47.9,250615,7.0,W"
"##MN-00 00 04 0216 01809 5877 440280 203780 196"
"176.588264"
"$GPRMC,140703,A,2527.3210,N,07951.1414,W,1.4,47.7,250615,7.0,W"
"##MN-00 00 04 0218 01807 5878 440260 203780 196"
"176.58831"
"$GPRMC,140707,A,2527.3220,N,07951.1402,W,1.3,48.2,250615,7.0,W"
"##MN-00 00 04 0220 01806 5878 440247 203780 196"
"176.588356"
"$GPRMC,140711,A,2527.3231,N,07951.1390,W,1.3,48.4,250615,7.0,W"
"##MN-00 00 05 0221 01802 5879 440244 203779 196"
"176.588403"
"$GPRMC,140715,A,2527.3239,N,07951.1375,W,1.3,48.7,250615,7.0,W"
"##MN-00 00 05 0223 01800 5880 440236 203778 196"
"176.588449"
"$GPRMC,140719,A,2527.3249,N,07951.1363,W,1.3,49.4,250615,7.0,W"
"##MN-00 00 06 0225 01799 5881 440233 203779 196"
"176.588495"
"$GPRMC,140723,A,2527.3257,N,07951.1349,W,1.3,49.1,250615,7.0,W"
"##MN-00 00 05 0226 01796 5882 440233 203780 196"
"176.588542"
"$GPRMC,140727,A,2527.3266,N,07951.1336,W,1.3,49.4,250615,7.0,W"
"##MN-00 00 04 0228 01792 5883 440223 203780 196"
"176.588588"
"$GPRMC,140731,A,2527.3274,N,07951.1323,W,1.3,49.3,250615,7.0,W"
"##MN-00 00 04 0229 01791 5883 440195 203779 196"
"176.588634"
"$GPRMC,140735,A,2527.3281,N,07951.1313,W,1.3,49.4,250615,7.0,W"
"##MN-00 00 05 0231 01785 5884 440171 203778 196"
"176.588681"
"$GPRMC,140739,A,2527.3290,N,07951.1298,W,1.3,49.5,250615,7.0,W"
"##MN-00 00 05 0233 01783 5885 440162 203777 196"
"176.588727"
"$GPRMC,140743,A,2527.3300,N,07951.1286,W,1.2,49.7,250615,7.0,W"
"##MN-00 00 05 0234 01781 5886 440160 203777 196"
"176.588773"
"$GPRMC,140747,A,2527.3310,N,07951.1274,W,1.2,49.6,250615,7.0,W"
"##MN-00 00 05 0236 01781 5887 440155 203776 196"
"176.588819"
"$GPRMC,140751,A,2527.3320,N,07951.1265,W,1.2,49.2,250615,7.0,W"
"##MN-00 00 06 0238 01777 5888 440155 203777 196"
"176.588866"
"$GPRMC,140755,A,2527.3329,N,07951.1257,W,1.3,49.1,250615,7.0,W"
"##MN-00 00 04 0239 01775 5889 440152 203777 196"
"176.588912"
"$GPRMC,140759,A,2527.3339,N,07951.1246,W,1.3,49.1,250615,7.0,W"
"##MN-00 00 04 0241 01772 5889 440156 203777 196"
"176.588958"
"$GPRMC,140803,A,2527.3347,N,07951.1233,W,1.3,49.5,250615,7.0,W"
"##MN-00 00 05 0243 01772 5890 440162 203777 196"
"176.589005"
"$GPRMC,140807,A,2527.3358,N,07951.1221,W,1.3,49.8,250615,7.0,W"
"##MN-00 00 04 0244 01771 5891 440153 203777 196"
"176.589051"
"$GPRMC,140811,A,2527.3367,N,07951.1209,W,1.3,50.5,250615,7.0,W"
"##MN-00 00 04 0246 01767 5892 440146 203777 196"
"176.589097"
"$GPRMC,140815,A,2527.3376,N,07951.1195,W,1.3,51.2,250615,7.0,W"
"##MN-00 00 04 0248 01765 5893 440145 203776 196"
"176.589144"
"$GPRMC,140819,A,2527.3383,N,07951.1179,W,1.3,51.8,250615,7.0,W"
"##MN-00 00 04 0249 01763 5894 440147 203776 196"
"176.58919"
"$GPRMC,140823,A,2527.3394,N,07951.1164,W,1.4,52.0,250615,7.0,W"
"##MN-00 00 05 0251 01758 5894 440151 203777 196"
"176.589236"
"$GPRMC,140827,A,2527.3405,N,07951.1148,W,1.4,52.3,250615,7.0,W"
"##MN-00 00 05 0253 01758 5895 440150 203777 196"
"176.589282"
"$GPRMC,140831,A,2527.3416,N,07951.1134,W,1.3,52.8,250615,7.0,W"
"##MN-00 00 05 0254 01754 5896 440148 203777 196"
"176.589329"
"$GPRMC,140835,A,2527.3426,N,07951.1120,W,1.3,52.7,250615,7.0,W"
"##MN-00 00 04 0256 01752 5896 440146 203777 196"
"176.589375"
"$GPRMC,140839,A,2527.3437,N,07951.1106,W,1.3,53.2,250615,7.0,W"
"##MN-00 00 05 0258 01746 5897 440149 203778 196"
"176.589421"
"$GPRMC,140843,A,2527.3445,N,07951.1092,W,1.3,53.0,250615,7.0,W"
"##MN-00 00 05 0259 01744 5898 440149 203779 196"
"176.589468"
"$GPRMC,140847,A,2527.3455,N,07951.1079,W,1.3,53.6,250615,7.0,W"
"##MN-00 00 05 0261 01741 5899 440145 203778 196"
"176.589514"
"$GPRMC,140851,A,2527.3463,N,07951.1066,W,1.3,52.8,250615,7.0,W"
"##MN-00 00 04 0263 01739 5899 440139 203778 196"
"176.58956"
"$GPRMC,140855,A,2527.3470,N,07951.1053,W,1.3,51.7,250615,7.0,W"
"##MN-00 00 04 0264 01736 5901 440137 203777 196"
"176.589606"
"$GPRMC,140859,A,2527.3481,N,07951.1040,W,1.3,48.6,250615,7.0,W"
"##MN-00 00 05 0266 01737 5901 440137 203777 196"
"176.589653"
"$GPRMC,140903,A,2527.3492,N,07951.1028,W,1.3,45.4,250615,7.0,W"
"##MN-00 00 05 0268 01737 5902 440138 203778 196"
"176.589699"
"$GPRMC,140907,A,2527.3503,N,07951.1018,W,1.4,42.3,250615,7.0,W"
"##MN-00 00 07 0269 01736 5903 440141 203778 196"
"176.589745"
"$GPRMC,140911,A,2527.3516,N,07951.1008,W,1.4,39.7,250615,7.0,W"
"##MN-00 00 07 0271 01738 5903 440144 203779 196"
"176.589792"
"$GPRMC,140915,A,2527.3530,N,07951.0997,W,1.4,38.2,250615,7.0,W"
"##MN-00 00 05 0272 01737 5904 440142 203779 196"
"176.589838"
"$GPRMC,140919,A,2527.3542,N,07951.0986,W,1.5,36.3,250615,7.0,W"
"##MN-00 00 05 0274 01738 5905 440140 203779 196"
"176.589884"
"$GPRMC,140923,A,2527.3557,N,07951.0975,W,1.5,35.4,250615,7.0,W"
"##MN-00 00 05 0275 01737 5906 440142 203779 196"
"176.589931"
"$GPRMC,140927,A,2527.3573,N,07951.0964,W,1.5,34.3,250615,7.0,W"
"##MN-00 00 05 0277 01734 5907 440147 203780 196"
"176.589977"
"$GPRMC,140931,A,2527.3588,N,07951.0953,W,1.5,32.9,250615,7.0,W"
"##MN-00 00 04 0278 01733 5908 440145 203780 196"
"176.590023"
"$GPRMC,140935,A,2527.3606,N,07951.0943,W,1.6,31.7,250615,7.0,W"
"##MN-00 00 04 0280 01732 5908 440142 203779 196"
"176.590081"
"$GPRMC,140939,A,2527.3622,N,07951.0934,W,1.6,30.3,250615,7.0,W"
"##MN-00 00 04 0281 01733 5909 440140 203779 196"
"176.590127"
"$GPRMC,140943,A,2527.3640,N,07951.0925,W,1.6,28.9,250615,7.0,W"
"##MN-00 00 04 0283 01732 5910 440140 203779 196"
"176.590174"
"$GPRMC,140947,A,2527.3658,N,07951.0915,W,1.7,27.6,250615,7.0,W"
"##MN-00 00 05 0284 01731 5911 440141 203779 196"
"176.59022"
"$GPRMC,140951,A,2527.3675,N,07951.0905,W,1.7,27.7,250615,7.0,W"
"##MN-00 00 05 0285 01731 5911 440138 203779 196"
"176.590266"
"$GPRMC,140955,A,2527.3693,N,07951.0895,W,1.7,28.0,250615,7.0,W"
"##MN-00 00 05 0287 01728 5912 440137 203779 196"
"176.590312"
"$GPRMC,140959,A,2527.3708,N,07951.0885,W,1.7,28.7,250615,7.0,W"
"##MN-00 00 05 0288 01726 5913 440141 203780 196"
"176.590359"
"$GPRMC,141003,A,2527.3726,N,07951.0875,W,1.7,29.1,250615,7.0,W"
"##MN-00 00 05 0290 01722 5913 440144 203781 196"
"176.590405"
"$GPRMC,141007,A,2527.3741,N,07951.0865,W,1.7,29.4,250615,7.0,W"
"##MN-00 00 04 0291 01721 5914 440143 203781 196"
"176.590451"
"$GPRMC,141011,A,2527.3759,N,07951.0855,W,1.7,29.7,250615,7.0,W"
"##MN-00 00 05 0292 01717 5915 440140 203781 196"
"176.590498"
"$GPRMC,141015,A,2527.3776,N,07951.0846,W,1.7,28.8,250615,7.0,W"
"##MN-00 00 05 0294 01716 5916 440148 203783 196"
"176.590544"
"$GPRMC,141019,A,2527.3794,N,07951.0835,W,1.7,28.3,250615,7.0,W"
"##MN-00 00 05 0295 01715 5917 440158 203784 196"
"176.59059"
"$GPRMC,141024,A,2527.3815,N,07951.0822,W,1.7,28.3,250615,7.0,W"
"##MN-00 00 05 0297 01713 5917 440159 203785 196"
"176.590637"
"$GPRMC,141028,A,2527.3831,N,07951.0812,W,1.7,28.9,250615,7.0,W"
"##MN-00 00 05 0298 01707 5918 440159 203785 196"
"176.590683"
"$GPRMC,141032,A,2527.3849,N,07951.0802,W,1.7,29.3,250615,7.0,W"
"##MN-00 00 05 0299 01704 5919 440161 203785 196"
"176.590729"
"$GPRMC,141036,A,2527.3864,N,07951.0790,W,1.7,30.5,250615,7.0,W"
"##MN-00 00 05 0301 01703 5920 440156 203785 196"
"176.590775"
"$GPRMC,141040,A,2527.3881,N,07951.0778,W,1.7,30.9,250615,7.0,W"
"##MN-00 00 05 0302 01698 5920 440154 203785 196"
"176.590822"
"$GPRMC,141044,A,2527.3899,N,07951.0768,W,1.7,30.8,250615,7.0,W"
"##MN-00 00 05 0304 01694 5921 440156 203785 196"
"176.590868"
"$GPRMC,141048,A,2527.3914,N,07951.0757,W,1.7,30.9,250615,7.0,W"
"##MN-00 00 04 0305 01690 5922 440149 203785 196"
"176.590914"
"$GPRMC,141052,A,2527.3932,N,07951.0746,W,1.7,31.3,250615,7.0,W"
"##MN-00 00 05 0307 01688 5923 440145 203784 196"
"176.590961"
"$GPRMC,141056,A,2527.3950,N,07951.0735,W,1.8,31.7,250615,7.0,W"
"##MN-00 00 05 0308 01683 5923 440143 203784 196"
"176.591007"
"$GPRMC,141100,A,2527.3968,N,07951.0723,W,1.8,31.9,250615,7.0,W"
"##MN-00 00 05 0309 01681 5924 440149 203785 196"
"176.591053"
"$GPRMC,141104,A,2527.3986,N,07951.0710,W,1.8,32.4,250615,7.0,W"
"##MN-00 00 05 0311 01675 5924 440148 203786 196"
"176.5911"
"$GPRMC,141108,A,2527.4004,N,07951.0698,W,1.8,32.6,250615,7.0,W"
"##MN-00 00 05 0312 01672 5925 440141 203784 196"
"176.591146"
"$GPRMC,141112,A,2527.4022,N,07951.0686,W,1.8,32.3,250615,7.0,W"
"##MN-00 00 05 0313 01668 5926 440134 203784 196"
"176.591192"
"$GPRMC,141116,A,2527.4040,N,07951.0674,W,1.8,32.1,250615,7.0,W"
"##MN-00 00 05 0315 01664 5927 440133 203784 196"
"176.591238"
"$GPRMC,141120,A,2527.4058,N,07951.0662,W,1.8,32.0,250615,7.0,W"
"##MN-00 00 05 0316 01660 5927 440137 203785 196"
"176.591285"
"$GPRMC,141124,A,2527.4073,N,07951.0648,W,1.8,32.3,250615,7.0,W"
"##MN-00 00 05 0317 01658 5928 440138 203785 196"
"176.591331"
"$GPRMC,141128,A,2527.4091,N,07951.0636,W,1.9,32.9,250615,7.0,W"
"##MN-00 00 05 0319 01655 5929 440135 203785 196"
"176.591377"
"$GPRMC,141132,A,2527.4109,N,07951.0623,W,1.9,33.3,250615,7.0,W"
"##MN-00 00 05 0320 01650 5930 440134 203785 196"
"176.591424"
"$GPRMC,141136,A,2527.4124,N,07951.0611,W,1.8,33.6,250615,7.0,W"
"##MN-00 00 05 0322 01648 5930 440137 203786 196"
"176.59147"
"$GPRMC,141140,A,2527.4142,N,07951.0598,W,1.8,32.8,250615,7.0,W"
"##MN-00 00 05 0323 01642 5931 440133 203786 196"
"176.591516"
"$GPRMC,141144,A,2527.4159,N,07951.0585,W,1.8,31.7,250615,7.0,W"
"##MN-00 00 05 0324 01634 5932 440130 203785 196"
"176.591563"
"$GPRMC,141148,A,2527.4175,N,07951.0572,W,1.9,31.4,250615,7.0,W"
"##MN-00 00 05 0325 01632 5932 440124 203785 196"
"176.591609"
"$GPRMC,141152,A,2527.4193,N,07951.0559,W,1.9,31.5,250615,7.0,W"
"##MN-00 00 05 0327 01631 5933 440127 203786 196"
"176.591655"
"$GPRMC,141156,A,2527.4211,N,07951.0547,W,1.9,31.7,250615,7.0,W"
"##MN-00 00 05 0328 01626 5933 440128 203787 196"
"176.591701"
"$GPRMC,141200,A,2527.4229,N,07951.0535,W,1.9,32.4,250615,7.0,W"
"##MN-00 00 05 0330 01623 5934 440134 203788 196"
"176.591748"
"$GPRMC,141204,A,2527.4245,N,07951.0520,W,1.9,32.8,250615,7.0,W"
"##MN-00 00 05 0331 01618 5935 440138 203789 196"
"176.591794"
"$GPRMC,141208,A,2527.4261,N,07951.0506,W,1.9,33.5,250615,7.0,W"
"##MN-00 00 05 0332 01616 5936 440141 203790 196"
"176.59184"
"$GPRMC,141212,A,2527.4279,N,07951.0494,W,1.9,33.9,250615,7.0,W"
"##MN-00 00 05 0334 01610 5936 440136 203790 196"
"176.591887"
"$GPRMC,141216,A,2527.4297,N,07951.0481,W,1.9,33.8,250615,7.0,W"
"##MN-00 00 05 0335 01604 5937 440135 203790 196"
"176.591933"
"$GPRMC,141220,A,2527.4314,N,07951.0468,W,1.8,33.9,250615,7.0,W"
"##MN-00 00 05 0337 01601 5938 440132 203790 196"
"176.591979"
"$GPRMC,141224,A,2527.4330,N,07951.0455,W,1.8,34.2,250615,7.0,W"
"##MN-00 00 05 0338 01597 5938 440124 203789 196"
"176.592025"
"$GPRMC,141228,A,2527.4348,N,07951.0443,W,1.9,34.8,250615,7.0,W"
"##MN-00 00 05 0339 01596 5939 440120 203789 196"
"176.592072"
"$GPRMC,141232,A,2527.4365,N,07951.0429,W,1.8,35.5,250615,7.0,W"
"##MN-00 00 05 0341 01590 5940 440112 203787 196"
"176.592118"
"$GPRMC,141236,A,2527.4383,N,07951.0415,W,1.8,35.9,250615,7.0,W"
"##MN-00 00 05 0342 01587 5940 440102 203786 196"
"176.592164"
"$GPRMC,141240,A,2527.4398,N,07951.0402,W,1.9,37.1,250615,7.0,W"
"##MN-00 00 05 0344 01582 5941 440100 203786 196"
"176.592211"
"$GPRMC,141244,A,2527.4416,N,07951.0388,W,1.8,37.7,250615,7.0,W"
"##MN-00 00 05 0345 01578 5942 440096 203785 196"
"176.592257"
"$GPRMC,141248,A,2527.4431,N,07951.0374,W,1.8,38.2,250615,7.0,W"
"##MN-00 00 06 0346 01570 5942 440092 203785 196"
"176.592303"
"$GPRMC,141252,A,2527.4449,N,07951.0359,W,1.8,38.3,250615,7.0,W"
"##MN-00 00 06 0348 01568 5943 440082 203783 196"
"176.59235"
"$GPRMC,141256,A,2527.4467,N,07951.0345,W,1.9,38.8,250615,7.0,W"
"##MN-00 00 05 0349 01561 5943 440073 203781 196"
"176.592396"
"$GPRMC,141300,A,2527.4485,N,07951.0331,W,1.9,38.5,250615,7.0,W"
"##MN-00 00 05 0350 01559 5944 440042 203773 196"
"176.592442"
"$GPRMC,141304,A,2527.4503,N,07951.0316,W,1.9,37.9,250615,7.0,W"
"##MN-00 00 06 0352 01556 5945 440038 203774 196"
"176.592488"
"$GPRMC,141308,A,2527.4523,N,07951.0303,W,2.0,36.8,250615,7.0,W"
"##MN-00 00 06 0353 01552 5945 440014 203771 196"
"176.592535"
"$GPRMC,141312,A,2527.4542,N,07951.0290,W,2.0,36.0,250615,7.0,W"
"##MN-00 00 06 0354 01548 5946 440009 203768 196"
"176.592581"
"$GPRMC,141316,A,2527.4561,N,07951.0276,W,2.0,35.5,250615,7.0,W"
"##MN-00 00 06 0356 01551 5947 440012 203770 196"
"176.592627"
"$GPRMC,141320,A,2527.4579,N,07951.0262,W,2.0,35.7,250615,7.0,W"
"##MN-00 00 07 0357 01549 5947 439993 203766 196"
