" Tow: 7cm-b   RVWS/WS15161"
" Date: 25/06/2015"
" Temperature Probe #  4762    Conductivity Probe #  710"
" Pressure Probe #  159"
" Flow Meter Calibration  4.71 (m/count)  "
"176.623275"
"$GPRMC,145727,A,2530.3237,N,07947.1312,W,1.2,51.2,250615,7.0,W"
"##MN-00 00 66 0374 01525 6535 948241 000677 195"
"176.623322"
"$GPRMC,145732,A,2530.3248,N,07947.1296,W,1.2,52.8,250615,7.0,W"
"##MN-00 00 70 0374 01524 6537 420856 827818 195"
"176.623368"
"$GPRMC,145736,A,2530.3256,N,07947.1283,W,1.2,54.3,250615,7.0,W"
"##MN-00 00 70 0374 01526 6538 420566 827817 195"
"176.623414"
"$GPRMC,145740,A,2530.3266,N,07947.1270,W,1.2,55.5,250615,7.0,W"
"##MN-00 00 70 0374 01525 6540 421030 827818 195"
"176.623461"
"$GPRMC,145744,A,2530.3273,N,07947.1258,W,1.2,55.5,250615,7.0,W"
"##MN-00 00 70 0374 01525 6542 420218 827818 195"
"176.623507"
"$GPRMC,145748,A,2530.3279,N,07947.1246,W,1.2,55.8,250615,7.0,W"
"##MN-00 00 70 0374 01523 6543 421235 827818 195"
"176.623553"
"$GPRMC,145752,A,2530.3288,N,07947.1234,W,1.2,55.8,250615,7.0,W"
"##MN-00 00 70 0374 01526 6545 422380 827817 195"
"176.6236"
"$GPRMC,145756,A,2530.3295,N,07947.1222,W,1.1,56.4,250615,7.0,W"
"##MN-00 00 66 0374 01527 6547 422535 827818 195"
"176.623646"
"$GPRMC,145800,A,2530.3302,N,07947.1209,W,1.1,56.9,250615,7.0,W"
"##MN-00 00 66 0374 01526 6548 422978 827817 195"
"176.623692"
"$GPRMC,145804,A,2530.3307,N,07947.1198,W,1.1,57.6,250615,7.0,W"
"##MN-00 00 66 0374 01526 6550 422697 827817 195"
"176.623738"
"$GPRMC,145808,A,2530.3315,N,07947.1186,W,1.1,57.6,250615,7.0,W"
"##MN-00 00 66 0374 01524 6552 422174 827817 195"
"176.623785"
"$GPRMC,145812,A,2530.3321,N,07947.1176,W,1.1,57.2,250615,7.0,W"
"##MN-00 00 66 0374 01525 6553 421190 827817 195"
"176.623831"
"$GPRMC,145816,A,2530.3328,N,07947.1166,W,1.0,56.5,250615,7.0,W"
"##MN-00 00 67 0374 01525 6555 421780 827817 195"
"176.623877"
"$GPRMC,145820,A,2530.3333,N,07947.1155,W,1.0,55.8,250615,7.0,W"
"##MN-00 00 66 0374 01526 6556 421448 827817 195"
"176.623935"
"$GPRMC,145824,A,2530.3342,N,07947.1144,W,1.0,55.0,250615,7.0,W"
"##MN-00 00 66 0374 01524 6559 422175 827817 195"
"176.623981"
"$GPRMC,145828,A,2530.3350,N,07947.1133,W,1.0,54.4,250615,7.0,W"
"##MN-00 00 66 0374 01525 6560 422858 827816 195"
"176.624028"
"$GPRMC,145832,A,2530.3358,N,07947.1122,W,1.0,53.4,250615,7.0,W"
"##MN-00 00 66 0374 01525 6562 421844 827816 195"
"176.624074"
"$GPRMC,145836,A,2530.3367,N,07947.1111,W,1.1,52.5,250615,7.0,W"
"##MN-00 00 66 0374 01524 6563 421579 827817 195"
"176.62412"
"$GPRMC,145840,A,2530.3375,N,07947.1098,W,1.2,52.0,250615,7.0,W"
"##MN-00 00 66 0374 01525 6565 422022 827816 195"
"176.624167"
"$GPRMC,145844,A,2530.3385,N,07947.1086,W,1.2,51.6,250615,7.0,W"
"##MN-00 00 66 0374 01527 6567 421718 827816 195"
"176.624213"
"$GPRMC,145848,A,2530.3394,N,07947.1074,W,1.2,51.5,250615,7.0,W"
"##MN-00 00 66 0374 01524 6569 421854 827817 195"
"176.624259"
"$GPRMC,145852,A,2530.3404,N,07947.1061,W,1.3,51.1,250615,7.0,W"
"##MN-00 00 65 0374 01524 6570 420833 827817 195"
"176.624306"
"$GPRMC,145856,A,2530.3415,N,07947.1046,W,1.3,51.2,250615,7.0,W"
"##MN-00 00 66 0374 01524 6572 420777 827816 195"
"176.624352"
"$GPRMC,145900,A,2530.3425,N,07947.1033,W,1.3,51.4,250615,7.0,W"
"##MN-00 00 66 0374 01525 6573 421006 827817 195"
"176.624398"
"$GPRMC,145904,A,2530.3434,N,07947.1019,W,1.3,51.7,250615,7.0,W"
"##MN-00 00 66 0374 01523 6575 420480 827816 195"
"176.624444"
"$GPRMC,145908,A,2530.3444,N,07947.1006,W,1.3,51.8,250615,7.0,W"
"##MN-00 00 66 0374 01524 6577 419437 827816 195"
"176.624491"
"$GPRMC,145912,A,2530.3452,N,07947.0993,W,1.3,52.4,250615,7.0,W"
"##MN-00 00 67 0374 01526 6579 419083 827816 195"
"176.624537"
"$GPRMC,145916,A,2530.3461,N,07947.0981,W,1.3,53.2,250615,7.0,W"
"##MN-00 00 66 0374 01524 6580 419319 827816 195"
"176.624583"
"$GPRMC,145920,A,2530.3469,N,07947.0967,W,1.3,53.7,250615,7.0,W"
"##MN-00 00 66 0374 01526 6582 419895 827816 195"
"176.62463"
"$GPRMC,145924,A,2530.3477,N,07947.0955,W,1.2,53.9,250615,7.0,W"
"##MN-00 00 67 0374 01525 6584 419391 827816 195"
"176.624676"
"$GPRMC,145928,A,2530.3484,N,07947.0943,W,1.2,53.3,250615,7.0,W"
"##MN-00 00 86 0374 01524 6586 418726 827815 195"
"176.624722"
"$GPRMC,145932,A,2530.3492,N,07947.0932,W,1.2,53.4,250615,7.0,W"
"##MN-00 00 85 0374 01523 6587 417663 827816 195"
"176.624769"
"$GPRMC,145936,A,2530.3501,N,07947.0921,W,1.1,52.8,250615,7.0,W"
"##MN-00 00 87 0374 01525 6589 417328 827816 195"
"176.624815"
"$GPRMC,145940,A,2530.3508,N,07947.0911,W,1.1,51.9,250615,7.0,W"
"##MN-00 00 84 0374 01525 6591 416982 827815 195"
"176.624861"
"$GPRMC,145944,A,2530.3516,N,07947.0900,W,1.1,52.1,250615,7.0,W"
"##MN-00 00 83 0374 01523 6592 417331 827814 195"
"176.624907"
"$GPRMC,145949,A,2530.3524,N,07947.0886,W,1.1,52.3,250615,7.0,W"
"##MN-00 00 82 0374 01524 6594 417773 827813 195"
"176.624954"
"$GPRMC,145952,A,2530.3528,N,07947.0878,W,1.0,52.6,250615,7.0,W"
"##MN-00 00 63 0374 01523 6596 418884 827815 195"
"176.625"
"$GPRMC,145957,A,2530.3538,N,07947.0865,W,1.0,51.9,250615,7.0,W"
"##MN-00 00 64 0374 01525 6598 419842 827814 195"
"176.625046"
"$GPRMC,150001,A,2530.3545,N,07947.0855,W,1.0,51.5,250615,7.0,W"
"##MN-00 00 46 0374 01524 6599 420598 827812 195"
"176.625093"
"$GPRMC,150005,A,2530.3550,N,07947.0843,W,1.0,52.0,250615,7.0,W"
"##MN-00 00 47 0374 01523 6601 421037 827812 195"
"176.625139"
"$GPRMC,150009,A,2530.3557,N,07947.0831,W,1.1,52.3,250615,7.0,W"
"##MN-00 00 47 0374 01524 6603 421677 827816 195"
"176.625185"
"$GPRMC,150013,A,2530.3564,N,07947.0819,W,1.1,52.6,250615,7.0,W"
"##MN-00 00 48 0374 01525 6605 424232 827815 195"
"176.625231"
"$GPRMC,150017,A,2530.3573,N,07947.0807,W,1.2,51.7,250615,7.0,W"
"##MN-00 00 49 0374 01525 6606 427514 827748 195"
"176.625278"
"$GPRMC,150021,A,2530.3582,N,07947.0795,W,1.2,50.8,250615,7.0,W"
"##MN-00 00 50 0374 01524 6608 429625 827816 195"
"176.625324"
"$GPRMC,150025,A,2530.3592,N,07947.0783,W,1.2,50.1,250615,7.0,W"
"##MN-00 00 50 0374 01525 6610 430887 827817 195"
"176.62537"
"$GPRMC,150029,A,2530.3599,N,07947.0774,W,1.2,48.0,250615,7.0,W"
"##MN-00 00 44 0375 01524 6611 434657 348582 195"
"176.625417"
"$GPRMC,150033,A,2530.3609,N,07947.0762,W,1.3,46.3,250615,7.0,W"
"##MN-00 00 04 0376 01523 6613 439758 263142 195"
"176.625463"
"$GPRMC,150037,A,2530.3621,N,07947.0752,W,1.3,44.1,250615,7.0,W"
"##MN-00 00 03 0376 01527 6615 439599 203932 195"
"176.625509"
"$GPRMC,150041,A,2530.3636,N,07947.0739,W,1.3,41.7,250615,7.0,W"
"##MN-00 00 06 0377 01523 6616 439863 203914 195"
"176.625556"
"$GPRMC,150045,A,2530.3651,N,07947.0729,W,1.4,38.5,250615,7.0,W"
"##MN-00 00 06 0378 01524 6618 439732 203860 195"
"176.625602"
"$GPRMC,150049,A,2530.3665,N,07947.0721,W,1.5,35.2,250615,7.0,W"
"##MN-00 00 04 0379 01523 6620 439736 203867 195"
"176.625648"
"$GPRMC,150053,A,2530.3682,N,07947.0712,W,1.5,31.8,250615,7.0,W"
"##MN-00 00 04 0380 01529 6621 439882 203920 195"
"176.625694"
"$GPRMC,150057,A,2530.3698,N,07947.0704,W,1.5,29.3,250615,7.0,W"
"##MN-00 00 04 0381 01530 6623 440106 203918 195"
"176.625741"
"$GPRMC,150101,A,2530.3714,N,07947.0696,W,1.6,28.1,250615,7.0,W"
"##MN-00 00 04 0382 01532 6624 440161 203917 195"
"176.625787"
"$GPRMC,150105,A,2530.3729,N,07947.0688,W,1.5,27.2,250615,7.0,W"
"##MN-00 00 04 0383 01537 6625 440413 204008 195"
"176.625833"
"$GPRMC,150109,A,2530.3744,N,07947.0680,W,1.5,26.4,250615,7.0,W"
"##MN-00 00 04 0384 01539 6626 440687 204072 195"
"176.62588"
"$GPRMC,150113,A,2530.3759,N,07947.0672,W,1.5,25.4,250615,7.0,W"
"##MN-00 00 04 0385 01545 6627 440996 204132 195"
"176.625926"
"$GPRMC,150117,A,2530.3776,N,07947.0664,W,1.5,25.2,250615,7.0,W"
"##MN-00 00 04 0386 01548 6628 441190 204137 195"
"176.625972"
"$GPRMC,150121,A,2530.3791,N,07947.0657,W,1.5,24.9,250615,7.0,W"
"##MN-00 00 04 0387 01550 6629 441260 204124 195"
"176.626019"
"$GPRMC,150125,A,2530.3806,N,07947.0650,W,1.5,24.3,250615,7.0,W"
"##MN-00 00 04 0388 01554 6630 441314 204153 195"
"176.626065"
"$GPRMC,150129,A,2530.3821,N,07947.0642,W,1.5,23.5,250615,7.0,W"
"##MN-00 00 04 0389 01557 6630 441391 204198 195"
"176.626111"
"$GPRMC,150133,A,2530.3838,N,07947.0636,W,1.5,23.1,250615,7.0,W"
"##MN-00 00 04 0389 01564 6631 441451 204220 195"
"176.626157"
"$GPRMC,150137,A,2530.3853,N,07947.0629,W,1.5,22.5,250615,7.0,W"
"##MN-00 00 04 0390 01567 6631 441476 204228 195"
"176.626204"
"$GPRMC,150141,A,2530.3868,N,07947.0623,W,1.5,22.0,250615,7.0,W"
"##MN-00 00 04 0391 01569 6632 441503 204229 195"
"176.62625"
"$GPRMC,150145,A,2530.3884,N,07947.0617,W,1.5,21.0,250615,7.0,W"
"##MN-00 00 04 0392 01573 6632 441512 204225 195"
"176.626296"
"$GPRMC,150149,A,2530.3900,N,07947.0611,W,1.5,20.5,250615,7.0,W"
"##MN-00 00 04 0393 01575 6632 441527 204231 195"
"176.626343"
"$GPRMC,150153,A,2530.3915,N,07947.0605,W,1.5,20.3,250615,7.0,W"
"##MN-00 00 04 0394 01581 6632 441522 204225 195"
"176.626389"
"$GPRMC,150157,A,2530.3931,N,07947.0598,W,1.5,20.9,250615,7.0,W"
"##MN-00 00 04 0395 01583 6631 441528 204222 195"
"176.626435"
"$GPRMC,150201,A,2530.3947,N,07947.0592,W,1.5,20.6,250615,7.0,W"
"##MN-00 00 04 0396 01588 6632 441551 204236 195"
"176.626481"
"$GPRMC,150205,A,2530.3961,N,07947.0585,W,1.5,20.7,250615,7.0,W"
"##MN-00 00 04 0397 01594 6632 441563 204236 195"
"176.626528"
"$GPRMC,150209,A,2530.3979,N,07947.0578,W,1.5,20.8,250615,7.0,W"
"##MN-00 00 04 0398 01594 6631 441578 204239 195"
"176.626574"
"$GPRMC,150213,A,2530.3994,N,07947.0574,W,1.5,20.5,250615,7.0,W"
"##MN-00 00 04 0398 01599 6631 441581 204236 195"
"176.62662"
"$GPRMC,150217,A,2530.4010,N,07947.0567,W,1.5,19.7,250615,7.0,W"
"##MN-00 00 04 0399 01602 6630 441578 204234 195"
"176.626667"
"$GPRMC,150221,A,2530.4026,N,07947.0562,W,1.5,18.9,250615,7.0,W"
"##MN-00 00 04 0400 01606 6630 441577 204234 195"
"176.626713"
"$GPRMC,150225,A,2530.4041,N,07947.0558,W,1.4,17.5,250615,7.0,W"
"##MN-00 00 04 0401 01609 6629 441591 204236 195"
"176.626759"
"$GPRMC,150229,A,2530.4058,N,07947.0552,W,1.4,15.8,250615,7.0,W"
"##MN-00 00 04 0402 01613 6629 441592 204236 195"
"176.626806"
"$GPRMC,150233,A,2530.4073,N,07947.0549,W,1.4,15.2,250615,7.0,W"
"##MN-00 00 04 0403 01616 6628 441604 204240 195"
"176.626852"
"$GPRMC,150237,A,2530.4088,N,07947.0545,W,1.4,14.4,250615,7.0,W"
"##MN-00 00 04 0404 01617 6628 441609 204238 195"
"176.626898"
"$GPRMC,150241,A,2530.4104,N,07947.0541,W,1.3,13.5,250615,7.0,W"
"##MN-00 00 04 0405 01623 6627 441614 204237 195"
"176.626944"
"$GPRMC,150245,A,2530.4117,N,07947.0538,W,1.3,12.8,250615,7.0,W"
"##MN-00 00 04 0406 01625 6627 441620 204239 195"
"176.626991"
"$GPRMC,150249,A,2530.4133,N,07947.0535,W,1.3,12.1,250615,7.1,W"
"##MN-00 00 04 0407 01628 6626 441623 204238 195"
"176.627037"
"$GPRMC,150253,A,2530.4148,N,07947.0531,W,1.3,11.1,250615,7.1,W"
"##MN-00 00 04 0407 01633 6625 441623 204238 195"
"176.627083"
"$GPRMC,150257,A,2530.4162,N,07947.0528,W,1.3,10.6,250615,7.1,W"
"##MN-00 00 04 0408 01636 6624 441632 204238 195"
"176.62713"
"$GPRMC,150301,A,2530.4177,N,07947.0524,W,1.3,10.5,250615,7.1,W"
"##MN-00 00 04 0409 01635 6623 441635 204240 195"
"176.627187"
"$GPRMC,150305,A,2530.4191,N,07947.0521,W,1.3,10.7,250615,7.1,W"
"##MN-00 00 04 0410 01639 6622 441631 204238 195"
"176.627234"
"$GPRMC,150309,A,2530.4206,N,07947.0517,W,1.3,10.7,250615,7.1,W"
"##MN-00 00 04 0411 01644 6622 441631 204238 195"
"176.62728"
"$GPRMC,150313,A,2530.4220,N,07947.0513,W,1.3,11.5,250615,7.1,W"
"##MN-00 00 04 0412 01645 6621 441636 204237 195"
"176.627326"
"$GPRMC,150317,A,2530.4235,N,07947.0509,W,1.3,11.3,250615,7.1,W"
"##MN-00 00 04 0413 01650 6620 441639 204238 195"
"176.627373"
"$GPRMC,150321,A,2530.4249,N,07947.0505,W,1.3,11.8,250615,7.1,W"
"##MN-00 00 04 0414 01653 6619 441644 204238 195"
"176.627419"
"$GPRMC,150325,A,2530.4264,N,07947.0502,W,1.3,12.1,250615,7.1,W"
"##MN-00 00 04 0415 01658 6618 441644 204236 195"
"176.627465"
"$GPRMC,150329,A,2530.4278,N,07947.0498,W,1.3,12.4,250615,7.1,W"
"##MN-00 00 04 0416 01661 6617 441643 204235 195"
"176.627512"
"$GPRMC,150333,A,2530.4293,N,07947.0494,W,1.3,12.4,250615,7.1,W"
"##MN-00 00 04 0417 01664 6616 441640 204234 195"
"176.627558"
"$GPRMC,150337,A,2530.4308,N,07947.0489,W,1.3,12.9,250615,7.1,W"
"##MN-00 00 04 0418 01667 6615 441637 204232 195"
"176.627604"
"$GPRMC,150341,A,2530.4323,N,07947.0484,W,1.3,14.2,250615,7.1,W"
"##MN-00 00 04 0419 01670 6614 441635 204230 195"
"176.62765"
"$GPRMC,150345,A,2530.4337,N,07947.0480,W,1.4,14.6,250615,7.1,W"
"##MN-00 00 04 0420 01675 6613 441632 204229 195"
"176.627697"
"$GPRMC,150349,A,2530.4352,N,07947.0476,W,1.3,14.2,250615,7.1,W"
"##MN-00 00 04 0421 01679 6612 441628 204227 195"
"176.627743"
"$GPRMC,150353,A,2530.4368,N,07947.0472,W,1.4,14.0,250615,7.1,W"
"##MN-00 00 04 0422 01683 6611 441625 204222 195"
"176.627789"
"$GPRMC,150357,A,2530.4384,N,07947.0470,W,1.4,13.2,250615,7.1,W"
"##MN-00 00 04 0423 01686 6610 441626 204220 195"
"176.627836"
"$GPRMC,150401,A,2530.4398,N,07947.0465,W,1.4,12.1,250615,7.1,W"
"##MN-00 00 04 0423 01686 6609 441626 204219 195"
"176.627882"
"$GPRMC,150405,A,2530.4415,N,07947.0461,W,1.4,11.8,250615,7.1,W"
"##MN-00 00 04 0424 01694 6608 441634 204222 195"
"176.627928"
"$GPRMC,150409,A,2530.4431,N,07947.0457,W,1.5,11.8,250615,7.1,W"
"##MN-00 00 04 0425 01698 6607 441636 204222 195"
"176.627975"
"$GPRMC,150413,A,2530.4446,N,07947.0453,W,1.5,11.6,250615,7.1,W"
"##MN-00 00 04 0426 01701 6606 441634 204221 195"
"176.628021"
"$GPRMC,150417,A,2530.4462,N,07947.0448,W,1.4,11.1,250615,7.1,W"
"##MN-00 00 04 0427 01706 6605 441631 204219 195"
"176.628067"
"$GPRMC,150422,A,2530.4481,N,07947.0444,W,1.5,12.2,250615,7.1,W"
"##MN-00 00 04 0428 01711 6603 441634 204219 195"
"176.628113"
"$GPRMC,150426,A,2530.4496,N,07947.0439,W,1.4,12.0,250615,7.1,W"
"##MN-00 00 04 0429 01714 6602 441633 204216 195"
"176.62816"
"$GPRMC,150430,A,2530.4513,N,07947.0437,W,1.5,11.4,250615,7.1,W"
"##MN-00 00 04 0430 01718 6601 441632 204208 195"
"176.628206"
"$GPRMC,150434,A,2530.4528,N,07947.0432,W,1.4,11.2,250615,7.1,W"
"##MN-00 00 04 0431 01721 6600 441635 204204 195"
"176.628252"
"$GPRMC,150438,A,2530.4543,N,07947.0429,W,1.5,10.4,250615,7.1,W"
"##MN-00 00 04 0431 01724 6599 441641 204203 195"
"176.628299"
"$GPRMC,150442,A,2530.4560,N,07947.0425,W,1.4,10.2,250615,7.1,W"
"##MN-00 00 04 0432 01728 6598 441642 204202 195"
"176.628345"
"$GPRMC,150446,A,2530.4575,N,07947.0422,W,1.4,11.0,250615,7.1,W"
"##MN-00 00 04 0433 01730 6596 441649 204200 195"
"176.628391"
"$GPRMC,150450,A,2530.4590,N,07947.0418,W,1.3,11.9,250615,7.1,W"
"##MN-00 00 04 0434 01733 6595 441655 204197 195"
"176.628438"
"$GPRMC,150454,A,2530.4604,N,07947.0413,W,1.3,12.9,250615,7.1,W"
"##MN-00 00 04 0435 01736 6594 441654 204195 195"
"176.628484"
"$GPRMC,150458,A,2530.4619,N,07947.0409,W,1.3,13.5,250615,7.1,W"
"##MN-00 00 05 0436 01740 6593 441644 204188 195"
"176.62853"
"$GPRMC,150502,A,2530.4633,N,07947.0405,W,1.3,14.5,250615,7.1,W"
"##MN-00 00 04 0437 01741 6592 441628 204184 195"
"176.628576"
"$GPRMC,150506,A,2530.4647,N,07947.0401,W,1.2,15.6,250615,7.1,W"
"##MN-00 00 05 0438 01740 6590 441611 204178 195"
"176.628623"
"$GPRMC,150510,A,2530.4659,N,07947.0394,W,1.2,16.6,250615,7.1,W"
"##MN-00 00 04 0439 01741 6589 441597 204169 195"
"176.628669"
"$GPRMC,150514,A,2530.4673,N,07947.0387,W,1.2,18.2,250615,7.1,W"
"##MN-00 00 04 0440 01744 6588 441588 204165 195"
"176.628715"
"$GPRMC,150518,A,2530.4688,N,07947.0382,W,1.2,18.9,250615,7.1,W"
"##MN-00 00 05 0441 01747 6586 441585 204164 195"
"176.628762"
"$GPRMC,150522,A,2530.4702,N,07947.0377,W,1.2,19.7,250615,7.1,W"
"##MN-00 00 05 0442 01747 6585 441585 204162 195"
"176.628808"
"$GPRMC,150526,A,2530.4715,N,07947.0372,W,1.2,19.9,250615,7.1,W"
"##MN-00 00 07 0443 01748 6584 441586 204162 195"
"176.628854"
"$GPRMC,150530,A,2530.4727,N,07947.0368,W,1.2,20.9,250615,7.1,W"
"##MN-00 00 04 0444 01750 6583 441586 204162 195"
"176.6289"
"$GPRMC,150534,A,2530.4742,N,07947.0361,W,1.2,21.6,250615,7.1,W"
"##MN-00 00 05 0445 01750 6582 441583 204162 195"
"176.628947"
"$GPRMC,150538,A,2530.4755,N,07947.0355,W,1.2,22.5,250615,7.1,W"
"##MN-00 00 04 0446 01755 6580 441589 204163 195"
"176.628993"
"$GPRMC,150542,A,2530.4767,N,07947.0349,W,1.2,23.1,250615,7.1,W"
"##MN-00 00 04 0447 01755 6579 441595 204165 195"
"176.629039"
"$GPRMC,150546,A,2530.4778,N,07947.0342,W,1.2,24.2,250615,7.1,W"
"##MN-00 00 05 0449 01759 6578 441594 204164 195"
"176.629086"
"$GPRMC,150550,A,2530.4791,N,07947.0337,W,1.2,24.6,250615,7.1,W"
"##MN-00 00 05 0450 01758 6576 441594 204164 195"
"176.629132"
"$GPRMC,150554,A,2530.4803,N,07947.0330,W,1.2,24.7,250615,7.1,W"
"##MN-00 00 04 0451 01759 6575 441601 204167 195"
"176.629178"
"$GPRMC,150558,A,2530.4814,N,07947.0324,W,1.2,24.5,250615,7.1,W"
"##MN-00 00 04 0452 01761 6574 441613 204168 195"
"176.629225"
"$GPRMC,150602,A,2530.4825,N,07947.0319,W,1.1,23.9,250615,7.1,W"
"##MN-00 00 04 0453 01761 6572 441618 204170 195"
"176.629271"
"$GPRMC,150606,A,2530.4839,N,07947.0315,W,1.2,22.5,250615,7.1,W"
"##MN-00 00 04 0454 01763 6571 441614 204168 195"
"176.629317"
"$GPRMC,150610,A,2530.4853,N,07947.0309,W,1.2,21.0,250615,7.1,W"
"##MN-00 00 05 0455 01766 6570 441619 204169 195"
"176.629363"
"$GPRMC,150614,A,2530.4867,N,07947.0305,W,1.2,19.3,250615,7.1,W"
"##MN-00 00 04 0456 01770 6569 441629 204172 195"
"176.62941"
"$GPRMC,150618,A,2530.4879,N,07947.0301,W,1.2,17.9,250615,7.1,W"
"##MN-00 00 04 0457 01772 6568 441642 204175 195"
"176.629456"
"$GPRMC,150622,A,2530.4893,N,07947.0295,W,1.2,16.7,250615,7.1,W"
"##MN+00 00 04 0458 01773 6566 441645 204177 195"
"176.629502"
"$GPRMC,150626,A,2530.4906,N,07947.0290,W,1.2,16.4,250615,7.1,W"
"##MN+00 00 04 0459 01770 6565 441654 204178 195"
"176.629549"
"$GPRMC,150630,A,2530.4919,N,07947.0287,W,1.2,16.6,250615,7.1,W"
"##MN+00 00 04 0460 01771 6564 441664 204180 195"
"176.629595"
"$GPRMC,150634,A,2530.4933,N,07947.0283,W,1.2,16.3,250615,7.1,W"
"##MN+00 00 05 0461 01770 6562 441665 204183 195"
"176.629641"
"$GPRMC,150638,A,2530.4946,N,07947.0279,W,1.2,15.0,250615,7.1,W"
"##MN+00 00 04 0462 01772 6561 441656 204180 195"
"176.629688"
"$GPRMC,150642,A,2530.4961,N,07947.0275,W,1.2,14.5,250615,7.1,W"
"##MN+00 00 04 0464 01773 6560 441631 204174 195"
"176.629734"
"$GPRMC,150646,A,2530.4973,N,07947.0270,W,1.3,14.8,250615,7.1,W"
"##MN-00 00 04 0465 01775 6558 441610 204166 195"
"176.62978"
"#increment_net"
"$GPRMC,150650,A,2530.4988,N,07947.0266,W,1.3,15.4,250615,7.1,W"
"##MN-00 00 04 0466 01773 6557 441603 204165 195"
"176.629826"
"$GPRMC,150654,A,2530.5002,N,07947.0262,W,1.2,15.9,250615,7.1,W"
"##MN-00 00 04 0467 01772 6555 441607 204167 195"
"176.629873"
"$GPRMC,150658,A,2530.5016,N,07947.0257,W,1.3,16.6,250615,7.1,W"
"##MN-00 00 05 0468 01772 6554 441608 204166 195"
"176.629919"
"$GPRMC,150702,A,2530.5029,N,07947.0252,W,1.3,17.4,250615,7.1,W"
"##MN-00 00 04 0469 01774 6553 441605 204165 195"
"176.629965"
"$GPRMC,150706,A,2530.5042,N,07947.0247,W,1.3,18.1,250615,7.1,W"
"##MN-00 00 04 0470 01772 6551 441596 204162 195"
"176.630012"
"$GPRMC,150710,A,2530.5056,N,07947.0242,W,1.3,17.8,250615,7.1,W"
"##MN-00 00 05 0471 01775 6550 441596 204162 195"
"176.630058"
"$GPRMC,150714,A,2530.5070,N,07947.0237,W,1.3,17.9,250615,7.1,W"
"##MN-00 00 04 0473 01774 6549 441596 204162 195"
"176.630104"
"$GPRMC,150718,A,2530.5087,N,07947.0233,W,1.3,17.6,250615,7.1,W"
"##MN+00 00 05 0474 01773 6548 441594 204161 195"
"176.63015"
"$GPRMC,150722,A,2530.5099,N,07947.0228,W,1.3,17.7,250615,7.1,W"
"##MN+00 00 05 0475 01773 6546 441599 204162 195"
"176.630197"
"$GPRMC,150726,A,2530.5113,N,07947.0223,W,1.3,17.7,250615,7.1,W"
"##MN+00 00 05 0476 01773 6545 441602 204162 195"
"176.630243"
"$GPRMC,150730,A,2530.5127,N,07947.0219,W,1.3,17.7,250615,7.1,W"
"##MN-00 00 04 0477 01773 6544 441601 204162 195"
"176.630289"
"$GPRMC,150734,A,2530.5141,N,07947.0215,W,1.3,17.2,250615,7.1,W"
"##MN+00 00 05 0478 01773 6543 441600 204162 195"
"176.630336"
"$GPRMC,150738,A,2530.5156,N,07947.0209,W,1.3,17.6,250615,7.1,W"
"##MN+00 00 04 0479 01775 6541 441605 204163 195"
"176.630382"
"$GPRMC,150742,A,2530.5170,N,07947.0205,W,1.2,17.7,250615,7.1,W"
"##MN+00 00 05 0480 01775 6540 441607 204164 195"
"176.63044"
"#increment_net"
"$GPRMC,150746,A,2530.5183,N,07947.0200,W,1.2,18.5,250615,7.1,W"
"##MN-00 00 04 0482 01773 6538 441607 204164 195"
"176.630486"
"$GPRMC,150750,A,2530.5200,N,07947.0194,W,1.3,19.6,250615,7.1,W"
"##MN-00 00 05 0482 01774 6537 441617 204167 195"
"176.630532"
"$GPRMC,150754,A,2530.5212,N,07947.0189,W,1.3,19.5,250615,7.1,W"
"##MN-00 00 06 0484 01774 6536 441608 204164 195"
"176.630579"
"$GPRMC,150758,A,2530.5222,N,07947.0184,W,1.3,19.6,250615,7.1,W"
"##MN-00 00 05 0485 01772 6535 441595 204161 195"
"176.630625"
"$GPRMC,150802,A,2530.5240,N,07947.0178,W,1.3,19.2,250615,7.1,W"
"##MN-00 00 05 0486 01771 6533 441601 204162 195"
"176.630671"
"$GPRMC,150806,A,2530.5257,N,07947.0173,W,1.3,18.9,250615,7.1,W"
"##MN-00 00 06 0487 01771 6532 441596 204161 195"
"176.630718"
"$GPRMC,150810,A,2530.5273,N,07947.0169,W,1.3,18.3,250615,7.1,W"
"##MN-00 00 06 0488 01772 6531 441591 204159 195"
"176.630764"
"$GPRMC,150814,A,2530.5291,N,07947.0164,W,1.3,18.1,250615,7.1,W"
"##MN-00 00 05 0489 01771 6530 441589 204159 195"
"176.63081"
"$GPRMC,150818,A,2530.5307,N,07947.0159,W,1.3,17.7,250615,7.1,W"
"##MN-00 00 05 0490 01772 6528 441587 204158 195"
"176.630856"
"$GPRMC,150822,A,2530.5322,N,07947.0153,W,1.3,18.0,250615,7.1,W"
"##MN+00 00 05 0491 01771 6527 441580 204157 195"
"176.630903"
"$GPRMC,150826,A,2530.5337,N,07947.0148,W,1.3,18.6,250615,7.1,W"
"##MN+00 00 05 0493 01772 6525 441577 204157 195"
"176.630949"
"$GPRMC,150830,A,2530.5352,N,07947.0142,W,1.3,19.1,250615,7.1,W"
"##MN+00 00 05 0494 01770 6524 441576 204155 195"
"176.630995"
"$GPRMC,150834,A,2530.5366,N,07947.0137,W,1.3,19.6,250615,7.1,W"
"##MN+00 00 05 0495 01771 6523 441576 204155 195"
"176.631042"
"$GPRMC,150838,A,2530.5381,N,07947.0132,W,1.3,19.3,250615,7.1,W"
"##MN+00 00 05 0496 01772 6522 441578 204155 195"
"176.631088"
"$GPRMC,150842,A,2530.5395,N,07947.0126,W,1.3,18.8,250615,7.1,W"
"##MN+00 00 05 0497 01772 6521 441578 204155 195"
"176.631134"
"#increment_net"
"$GPRMC,150846,A,2530.5410,N,07947.0121,W,1.3,19.2,250615,7.1,W"
"##MN-00 00 05 0498 01772 6519 441578 204155 195"
"176.631181"
"$GPRMC,150850,A,2530.5424,N,07947.0116,W,1.4,18.6,250615,7.1,W"
"##MN-00 00 05 0499 01771 6518 441579 204155 195"
"176.631227"
"$GPRMC,150855,A,2530.5442,N,07947.0110,W,1.4,17.1,250615,7.1,W"
"##MN-00 00 05 0500 01773 6517 441580 204156 195"
"176.631273"
"$GPRMC,150859,A,2530.5456,N,07947.0103,W,1.3,17.1,250615,7.1,W"
"##MN-00 00 05 0501 01771 6515 441580 204156 195"
"176.631319"
"$GPRMC,150903,A,2530.5470,N,07947.0096,W,1.4,17.6,250615,7.1,W"
"##MN-00 00 05 0502 01772 6514 441584 204156 195"
"176.631366"
"$GPRMC,150907,A,2530.5484,N,07947.0090,W,1.3,18.3,250615,7.1,W"
"##MN-00 00 05 0504 01770 6513 441581 204156 195"
"176.631412"
"$GPRMC,150911,A,2530.5497,N,07947.0084,W,1.3,18.2,250615,7.1,W"
"##MN-00 00 05 0505 01772 6512 441582 204156 195"
"176.631458"
"$GPRMC,150915,A,2530.5511,N,07947.0077,W,1.4,18.4,250615,7.1,W"
"##MN+00 00 05 0506 01770 6510 441582 204156 195"
"176.631505"
"$GPRMC,150919,A,2530.5526,N,07947.0070,W,1.4,18.3,250615,7.1,W"
"##MN+00 00 05 0507 01770 6509 441579 204156 195"
"176.631551"
"$GPRMC,150923,A,2530.5542,N,07947.0064,W,1.4,18.2,250615,7.1,W"
"##MN+00 00 05 0508 01771 6508 441578 204155 195"
"176.631597"
"$GPRMC,150927,A,2530.5557,N,07947.0058,W,1.4,18.4,250615,7.1,W"
"##MN-00 00 05 0509 01771 6506 441581 204156 195"
"176.631644"
"$GPRMC,150931,A,2530.5571,N,07947.0052,W,1.4,18.8,250615,7.1,W"
"##MN-00 00 05 0510 01773 6505 441581 204156 195"
"176.63169"
"$GPRMC,150935,A,2530.5587,N,07947.0046,W,1.4,18.7,250615,7.1,W"
"##MN+00 00 05 0512 01770 6504 441581 204156 194"
"176.631736"
"$GPRMC,150939,A,2530.5602,N,07947.0040,W,1.4,18.5,250615,7.1,W"
"##MN+00 00 05 0513 01772 6503 441580 204156 195"
"176.631782"
"$GPRMC,150943,A,2530.5616,N,07947.0035,W,1.4,18.7,250615,7.1,W"
"##MN+00 00 05 0514 01774 6502 441582 204156 195"
"176.631829"
"#increment_net"
"$GPRMC,150947,A,2530.5630,N,07947.0030,W,1.4,18.6,250615,7.1,W"
"##MN-00 00 05 0515 01773 6500 441581 204156 195"
"176.631875"
"$GPRMC,150951,A,2530.5645,N,07947.0025,W,1.4,18.5,250615,7.1,W"
"##MN-00 00 05 0516 01772 6499 441579 204156 195"
"176.631921"
"$GPRMC,150955,A,2530.5659,N,07947.0019,W,1.3,19.0,250615,7.1,W"
"##MN-00 00 05 0517 01773 6498 441577 204155 195"
"176.631968"
"$GPRMC,150959,A,2530.5674,N,07947.0013,W,1.3,19.6,250615,7.1,W"
"##MN-00 00 05 0518 01769 6496 441578 204156 195"
"176.632014"
"$GPRMC,151003,A,2530.5688,N,07947.0007,W,1.3,20.1,250615,7.1,W"
"##MN-00 00 05 0520 01770 6495 441579 204156 195"
"176.63206"
"$GPRMC,151007,A,2530.5703,N,07947.0000,W,1.4,20.6,250615,7.1,W"
"##MN+00 00 05 0521 01770 6494 441582 204157 195"
"176.632106"
"$GPRMC,151011,A,2530.5717,N,07946.9995,W,1.4,20.8,250615,7.1,W"
"##MN+00 00 05 0522 01768 6492 441582 204157 194"
"176.632153"
"$GPRMC,151015,A,2530.5732,N,07946.9990,W,1.3,20.8,250615,7.1,W"
"##MN+00 00 05 0523 01768 6491 441582 204156 194"
"176.632199"
"$GPRMC,151019,A,2530.5746,N,07946.9984,W,1.4,20.7,250615,7.1,W"
"##MN-00 00 05 0524 01769 6490 441580 204156 195"
"176.632245"
"$GPRMC,151023,A,2530.5761,N,07946.9979,W,1.4,20.8,250615,7.1,W"
"##MN-00 00 05 0526 01767 6489 441582 204156 195"
"176.632292"
"$GPRMC,151027,A,2530.5777,N,07946.9979,W,1.4,20.3,250615,7.1,W"
"##MN-00 00 05 0527 01766 6488 441578 204156 195"
"176.632338"
"$GPRMC,151031,A,2530.5793,N,07946.9975,W,1.4,19.9,250615,7.1,W"
"##MN+00 00 05 0528 01766 6487 441578 204156 195"
"176.632384"
"$GPRMC,151035,A,2530.5807,N,07946.9969,W,1.4,19.6,250615,7.1,W"
"##MN+00 00 05 0529 01769 6485 441579 204156 195"
"176.632431"
"$GPRMC,151039,A,2530.5822,N,07946.9963,W,1.3,19.9,250615,7.1,W"
"##MN+00 00 05 0530 01772 6484 441582 204157 194"
"176.632477"
"#increment_net"
"$GPRMC,151043,A,2530.5839,N,07946.9958,W,1.4,19.9,250615,7.1,W"
"##MN-00 00 05 0532 01775 6483 441583 204157 194"
"176.632523"
"$GPRMC,151047,A,2530.5854,N,07946.9951,W,1.4,20.8,250615,7.1,W"
"##MN-00 00 05 0533 01778 6482 441582 204156 195"
"176.632569"
"$GPRMC,151051,A,2530.5868,N,07946.9943,W,1.3,21.5,250615,7.1,W"
"##MN-00 00 03 0535 01784 6480 441579 204155 194"
"176.632616"
"$GPRMC,151055,A,2530.5882,N,07946.9935,W,1.3,22.7,250615,7.1,W"
"##MN-00 00 05 0536 01788 6479 441581 204154 195"
"176.632662"
"$GPRMC,151059,A,2530.5894,N,07946.9928,W,1.3,23.9,250615,7.1,W"
"##MN-00 00 05 0537 01792 6478 441588 204156 194"
"176.632708"
"$GPRMC,151103,A,2530.5909,N,07946.9920,W,1.3,25.4,250615,7.1,W"
"##MN-00 00 05 0539 01796 6477 441589 204156 194"
"176.632755"
"$GPRMC,151107,A,2530.5923,N,07946.9912,W,1.3,27.4,250615,7.1,W"
"##MN-00 00 05 0540 01797 6475 441604 204158 195"
"176.632801"
"$GPRMC,151111,A,2530.5936,N,07946.9905,W,1.3,28.5,250615,7.1,W"
"##MN-00 00 05 0542 01798 6474 441608 204159 194"
"176.632847"
"$GPRMC,151115,A,2530.5948,N,07946.9897,W,1.3,30.6,250615,7.1,W"
"##MN-00 00 04 0544 01794 6473 441606 204159 194"
"176.632894"
"$GPRMC,151119,A,2530.5959,N,07946.9889,W,1.2,31.1,250615,7.1,W"
"##MN-00 00 05 0545 01796 6472 441605 204158 194"
"176.63294"
"$GPRMC,151123,A,2530.5973,N,07946.9880,W,1.2,31.4,250615,7.1,W"
"##MN-00 00 04 0546 01794 6471 441600 204158 194"
"176.632986"
"$GPRMC,151127,A,2530.5984,N,07946.9873,W,1.3,31.4,250615,7.1,W"
"##MN-00 00 04 0548 01791 6469 441597 204157 194"
"176.633032"
"$GPRMC,151131,A,2530.5998,N,07946.9863,W,1.3,31.8,250615,7.1,W"
"##MN-00 00 04 0549 01791 6468 441595 204157 195"
"176.633079"
"$GPRMC,151135,A,2530.6010,N,07946.9854,W,1.3,32.3,250615,7.1,W"
"##MN-00 00 04 0551 01789 6467 441595 204157 194"
"176.633125"
"$GPRMC,151139,A,2530.6021,N,07946.9844,W,1.3,32.3,250615,7.1,W"
"##MN-00 00 05 0552 01788 6466 441595 204157 194"
"176.633171"
"$GPRMC,151143,A,2530.6034,N,07946.9832,W,1.3,33.4,250615,7.1,W"
"##MN-00 00 04 0554 01785 6465 441592 204157 194"
"176.633218"
"$GPRMC,151147,A,2530.6046,N,07946.9826,W,1.3,34.3,250615,7.1,W"
"##MN-00 00 04 0556 01782 6463 441593 204157 194"
"176.633264"
"$GPRMC,151151,A,2530.6057,N,07946.9815,W,1.3,35.4,250615,7.1,W"
"##MN-00 00 04 0557 01783 6462 441595 204158 194"
"176.63331"
"$GPRMC,151155,A,2530.6068,N,07946.9801,W,1.3,36.0,250615,7.1,W"
"##MN-00 00 04 0559 01777 6461 441594 204158 194"
"176.633356"
"$GPRMC,151159,A,2530.6079,N,07946.9794,W,1.3,36.5,250615,7.1,W"
"##MN-00 00 04 0560 01775 6460 441595 204158 194"
"176.633403"
"$GPRMC,151203,A,2530.6091,N,07946.9787,W,1.3,36.6,250615,7.1,W"
"##MN-00 00 05 0562 01772 6458 441597 204160 194"
"176.633449"
"$GPRMC,151207,A,2530.6103,N,07946.9779,W,1.3,36.8,250615,7.1,W"
"##MN-00 00 05 0563 01772 6457 441604 204164 194"
"176.633495"
"$GPRMC,151211,A,2530.6115,N,07946.9768,W,1.3,37.4,250615,7.1,W"
"##MN-00 00 05 0565 01769 6456 441612 204164 194"
"176.633542"
"$GPRMC,151215,A,2530.6128,N,07946.9757,W,1.4,38.1,250615,7.1,W"
"##MN-00 00 05 0566 01763 6455 441598 204160 194"
"176.633588"
"$GPRMC,151219,A,2530.6140,N,07946.9745,W,1.4,38.6,250615,7.1,W"
"##MN-00 00 04 0568 01762 6454 441605 204165 194"
"176.633634"
"$GPRMC,151223,A,2530.6153,N,07946.9733,W,1.4,39.0,250615,7.1,W"
"##MN-00 00 05 0569 01758 6453 441631 204176 194"
"176.633692"
"$GPRMC,151227,A,2530.6165,N,07946.9721,W,1.5,39.3,250615,7.1,W"
"##MN-00 00 04 0571 01756 6452 441645 204180 194"
"176.633738"
"$GPRMC,151231,A,2530.6176,N,07946.9708,W,1.4,39.9,250615,7.1,W"
"##MN-00 00 05 0572 01753 6450 441661 204187 194"
"176.633785"
"$GPRMC,151235,A,2530.6190,N,07946.9694,W,1.5,40.3,250615,7.1,W"
"##MN-00 00 05 0574 01749 6449 441683 204194 194"
"176.633831"
"$GPRMC,151239,A,2530.6204,N,07946.9681,W,1.5,40.5,250615,7.1,W"
"##MN-00 00 04 0575 01746 6448 441672 204195 194"
"176.633877"
"$GPRMC,151243,A,2530.6216,N,07946.9668,W,1.5,40.0,250615,7.1,W"
"##MN-00 00 04 0577 01742 6447 441660 204190 194"
"176.633924"
"$GPRMC,151247,A,2530.6229,N,07946.9654,W,1.5,40.3,250615,7.1,W"
"##MN-00 00 05 0578 01740 6446 441648 204188 194"
"176.63397"
"$GPRMC,151251,A,2530.6241,N,07946.9641,W,1.5,40.8,250615,7.1,W"
"##MN-00 00 04 0580 01735 6445 441629 204183 194"
"176.634016"
"$GPRMC,151255,A,2530.6255,N,07946.9628,W,1.6,41.1,250615,7.1,W"
"##MN-00 00 05 0581 01735 6443 441612 204179 194"
"176.634062"
"$GPRMC,151259,A,2530.6269,N,07946.9615,W,1.5,40.7,250615,7.1,W"
"##MN-00 00 04 0583 01729 6442 441591 204173 194"
"176.634109"
"$GPRMC,151303,A,2530.6281,N,07946.9601,W,1.6,41.0,250615,7.1,W"
"##MN-00 00 05 0584 01729 6441 441558 204167 194"
"176.634155"
"$GPRMC,151307,A,2530.6295,N,07946.9586,W,1.5,41.6,250615,7.1,W"
"##MN-00 00 05 0586 01725 6440 441549 204169 194"
"176.634201"
"$GPRMC,151311,A,2530.6309,N,07946.9573,W,1.5,42.0,250615,7.1,W"
"##MN-00 00 04 0587 01722 6439 441558 204174 194"
"176.634248"
"$GPRMC,151315,A,2530.6321,N,07946.9560,W,1.5,42.2,250615,7.1,W"
"##MN-00 00 05 0589 01717 6438 441575 204182 194"
"176.634294"
"$GPRMC,151319,A,2530.6335,N,07946.9547,W,1.5,41.7,250615,7.1,W"
"##MN-00 00 05 0590 01714 6437 441600 204193 194"
"176.63434"
"$GPRMC,151323,A,2530.6346,N,07946.9534,W,1.5,41.7,250615,7.1,W"
"##MN-00 00 05 0592 01709 6435 441610 204196 194"
"176.634387"
"$GPRMC,151327,A,2530.6360,N,07946.9521,W,1.5,41.4,250615,7.1,W"
"##MN-00 00 40 0594 01706 6434 441602 204194 194"
"176.634433"
"$GPRMC,151331,A,2530.6371,N,07946.9509,W,1.5,41.4,250615,7.1,W"
"##MN-00 00 05 0595 01702 6433 441598 204194 194"
"176.634479"
"$GPRMC,151336,A,2530.6386,N,07946.9494,W,1.5,41.5,250615,7.1,W"
"##MN-00 00 07 0597 01698 6432 441608 204197 194"
"176.634525"
"$GPRMC,151340,A,2530.6398,N,07946.9482,W,1.5,41.5,250615,7.1,W"
"##MN-00 00 05 0598 01694 6431 441610 204198 194"
"176.634572"
"$GPRMC,151344,A,2530.6410,N,07946.9469,W,1.5,41.3,250615,7.1,W"
"##MN-00 00 04 0600 01691 6430 441612 204202 194"
"176.634618"
"$GPRMC,151348,A,2530.6422,N,07946.9458,W,1.4,41.5,250615,7.1,W"
"##MN-00 00 06 0601 01689 6428 441613 204202 194"
"176.634664"
"$GPRMC,151352,A,2530.6433,N,07946.9446,W,1.4,41.1,250615,7.1,W"
"##MN-00 00 05 0603 01683 6428 441594 204198 194"
"176.634711"
"$GPRMC,151356,A,2530.6445,N,07946.9434,W,1.4,41.4,250615,7.1,W"
"##MN-00 00 05 0604 01680 6426 441592 204199 194"
"176.634757"
"$GPRMC,151400,A,2530.6457,N,07946.9426,W,1.5,41.6,250615,7.1,W"
"##MN-00 00 04 0606 01674 6425 441591 204201 194"
"176.634803"
"$GPRMC,151404,A,2530.6468,N,07946.9419,W,1.4,41.2,250615,7.1,W"
"##MN-00 00 06 0607 01673 6424 441596 204202 194"
"176.63485"
"$GPRMC,151408,A,2530.6480,N,07946.9409,W,1.5,41.3,250615,7.1,W"
"##MN-00 00 05 0609 01671 6423 441595 204203 194"
"176.634896"
"$GPRMC,151412,A,2530.6493,N,07946.9399,W,1.4,40.9,250615,7.1,W"
"##MN-00 00 05 0610 01666 6422 441614 204213 194"
"176.634942"
"$GPRMC,151416,A,2530.6504,N,07946.9388,W,1.4,40.8,250615,7.1,W"
"##MN-00 00 05 0612 01662 6421 441629 204219 194"
"176.634988"
"$GPRMC,151420,A,2530.6516,N,07946.9376,W,1.4,41.0,250615,7.1,W"
"##MN-00 00 05 0613 01659 6420 441630 204219 194"
"176.635035"
"$GPRMC,151424,A,2530.6529,N,07946.9363,W,1.5,40.6,250615,7.1,W"
"##MN-00 00 05 0615 01654 6419 441631 204220 194"
"176.635081"
"$GPRMC,151428,A,2530.6541,N,07946.9350,W,1.5,40.5,250615,7.1,W"
"##MN-00 00 05 0616 01653 6418 441630 204220 194"
"176.635127"
"$GPRMC,151432,A,2530.6555,N,07946.9337,W,1.5,40.7,250615,7.1,W"
"##MN-00 00 06 0618 01647 6417 441633 204222 194"
"176.635174"
"$GPRMC,151436,A,2530.6568,N,07946.9324,W,1.5,40.7,250615,7.1,W"
"##MN-00 00 05 0619 01646 6416 441631 204220 194"
"176.63522"
"$GPRMC,151440,A,2530.6581,N,07946.9311,W,1.5,41.4,250615,7.1,W"
"##MN-00 00 05 0621 01642 6414 441633 204223 194"
"176.635266"
"$GPRMC,151444,A,2530.6594,N,07946.9299,W,1.5,41.2,250615,7.1,W"
"##MN-00 00 06 0622 01639 6413 441635 204224 194"
"176.635313"
"$GPRMC,151448,A,2530.6606,N,07946.9285,W,1.5,41.0,250615,7.1,W"
"##MN-00 00 05 0624 01635 6412 441638 204226 194"
"176.635359"
"$GPRMC,151452,A,2530.6619,N,07946.9273,W,1.5,40.5,250615,7.1,W"
"##MN-00 00 05 0625 01633 6411 441654 204232 194"
"176.635405"
"$GPRMC,151456,A,2530.6633,N,07946.9261,W,1.5,40.8,250615,7.1,W"
"##MN-00 00 05 0627 01631 6410 441661 204236 194"
"176.635451"
"$GPRMC,151500,A,2530.6646,N,07946.9249,W,1.5,39.5,250615,7.1,W"
"##MN-00 00 05 0628 01624 6409 441677 204242 194"
"176.635498"
"$GPRMC,151504,A,2530.6659,N,07946.9237,W,1.5,39.5,250615,7.1,W"
"##MN-00 00 05 0630 01620 6408 441677 204243 194"
"176.635544"
"$GPRMC,151508,A,2530.6673,N,07946.9225,W,1.5,39.2,250615,7.1,W"
"##MN-00 00 06 0631 01621 6407 441676 204244 194"
"176.63559"
"$GPRMC,151512,A,2530.6686,N,07946.9213,W,1.5,39.3,250615,7.1,W"
"##MN-00 00 05 0633 01616 6406 441681 204245 194"
"176.635637"
"$GPRMC,151516,A,2530.6700,N,07946.9201,W,1.5,39.0,250615,7.1,W"
"##MN-00 00 05 0634 01611 6405 441684 204246 194"
"176.635683"
"$GPRMC,151520,A,2530.6713,N,07946.9189,W,1.5,39.2,250615,7.1,W"
"##MN-00 00 05 0636 01608 6404 441685 204246 194"
"176.635729"
"$GPRMC,151524,A,2530.6725,N,07946.9177,W,1.5,39.4,250615,7.1,W"
"##MN-00 00 05 0637 01605 6403 441681 204247 194"
"176.635775"
"$GPRMC,151528,A,2530.6739,N,07946.9165,W,1.5,39.0,250615,7.1,W"
"##MN-00 00 05 0639 01604 6402 441686 204248 194"
"176.635822"
"$GPRMC,151532,A,2530.6750,N,07946.9155,W,1.5,39.7,250615,7.1,W"
"##MN-00 00 05 0640 01599 6401 441679 204248 194"
"176.635868"
"$GPRMC,151536,A,2530.6764,N,07946.9145,W,1.5,39.5,250615,7.1,W"
"##MN-00 00 05 0642 01596 6400 441668 204247 194"
"176.635914"
"$GPRMC,151540,A,2530.6776,N,07946.9136,W,1.4,39.5,250615,7.1,W"
"##MN-00 00 05 0643 01590 6399 441664 204246 194"
"176.635961"
"$GPRMC,151544,A,2530.6787,N,07946.9123,W,1.4,39.1,250615,7.1,W"
"##MN-00 00 05 0645 01587 6398 441655 204244 194"
"176.636007"
"$GPRMC,151548,A,2530.6800,N,07946.9113,W,1.5,38.7,250615,7.1,W"
"##MN-00 00 05 0646 01583 6396 441642 204242 194"
"176.636053"
"$GPRMC,151552,A,2530.6812,N,07946.9102,W,1.5,39.4,250615,7.1,W"
"##MN-00 00 05 0647 01579 6396 441634 204241 194"
"176.6361"
"$GPRMC,151556,A,2530.6823,N,07946.9091,W,1.4,38.9,250615,7.1,W"
"##MN-00 00 05 0649 01574 6395 441624 204240 194"
"176.636146"
"$GPRMC,151600,A,2530.6836,N,07946.9080,W,1.4,38.9,250615,7.1,W"
"##MN-00 00 06 0651 01571 6394 441624 204242 194"
"176.636192"
"$GPRMC,151604,A,2530.6848,N,07946.9067,W,1.3,39.0,250615,7.1,W"
"##MN-00 00 05 0652 01568 6393 441630 204243 194"
"176.636238"
"$GPRMC,151608,A,2530.6859,N,07946.9056,W,1.3,39.4,250615,7.1,W"
"##MN-00 00 05 0654 01566 6392 441617 204242 194"
"176.636285"
"$GPRMC,151612,A,2530.6872,N,07946.9046,W,1.3,39.9,250615,7.1,W"
"##MN-00 00 05 0655 01562 6391 441602 204237 194"
"176.636331"
"$GPRMC,151616,A,2530.6884,N,07946.9033,W,1.4,40.7,250615,7.1,W"
"##MN-00 00 05 0657 01560 6390 441578 204233 194"
"176.636377"
"$GPRMC,151620,A,2530.6898,N,07946.9021,W,1.4,41.4,250615,7.1,W"
"##MN-00 00 06 0658 01553 6389 441574 204233 194"
"176.636424"
"$GPRMC,151624,A,2530.6911,N,07946.9008,W,1.5,41.4,250615,7.1,W"
"##MN-00 00 05 0660 01551 6388 441557 204226 194"
"176.63647"
"$GPRMC,151628,A,2530.6922,N,07946.8993,W,1.5,42.5,250615,7.1,W"
"##MN-00 00 05 0661 01549 6387 441510 204219 194"
"176.636516"
"$GPRMC,151632,A,2530.6934,N,07946.8979,W,1.5,42.9,250615,7.1,W"
"##MN-00 00 06 0663 01546 6386 441480 204212 194"
"176.636563"
"$GPRMC,151636,A,2530.6945,N,07946.8965,W,1.5,43.5,250615,7.1,W"
"##MN-00 00 06 0664 01540 6385 441442 204204 194"
"176.636609"
"$GPRMC,151640,A,2530.6956,N,07946.8951,W,1.5,43.9,250615,7.1,W"
"##MN-00 00 06 0666 01535 6384 441281 204162 194"
"176.636655"
"$GPRMC,151644,A,2530.6970,N,07946.8938,W,1.5,43.8,250615,7.1,W"
"##MN-00 00 06 0667 01531 6383 440742 204060 194"
"176.636701"
"$GPRMC,151648,A,2530.6982,N,07946.8924,W,1.6,43.2,250615,7.1,W"
"##MN-00 00 07 0669 01528 6382 440320 203988 194"
"176.636748"
"$GPRMC,151652,A,2530.6995,N,07946.8911,W,1.5,42.3,250615,7.1,W"
"##MN-00 00 07 0670 01527 6381 440091 203926 194"
"176.636794"
"$GPRMC,151656,A,2530.7007,N,07946.8899,W,1.5,41.4,250615,7.1,W"
"##MN-00 00 07 0672 01529 6380 440049 203927 194"
