" Tow: 7CM   RVWS/WS15161"
" Date: 25/06/2015"
" Temperature Probe #  4762    Conductivity Probe #  710"
" Pressure Probe #  188"
" Flow Meter Calibration  4.71 (m/count)  "
"176.84809"
"$GPRMC,202110,A,2551.0623,N,07948.2764,W,2.7,316.7,250615,7.1,"
"##MN-00 00 80 0000 02721 6726 593277 073921 198"
"176.848137"
"$GPRMC,202115,A,2551.0656,N,07948.2803,W,2.9,314.6,250615,7.1,"
"##MN-00 00 80 0000 02719 6727 470992 023865 198"
"176.848183"
"$GPRMC,202120,A,2551.0688,N,07948.2840,W,3.1,313.2,250615,7.1,"
"##MN-00 00 80 0000 02722 6729 553632 023861 198"
"176.848229"
"$GPRMC,202124,A,2551.0717,N,07948.2872,W,3.2,311.6,250615,7.1,"
"##MN-00 00 80 0000 02721 6731 207984 023860 198"
"176.848276"
"$GPRMC,202128,A,2551.0741,N,07948.2901,W,3.3,310.4,250615,7.1,"
"##MN-00 00 80 0000 02722 6733 740728 023839 198"
"176.848322"
"$GPRMC,202132,A,2551.0764,N,07948.2930,W,3.3,309.6,250615,7.1,"
"##MN-00 00 80 0000 02723 6735 339360 023864 198"
"176.848368"
"$GPRMC,202135,A,2551.0784,N,07948.2953,W,3.3,308.9,250615,7.1,"
"##MN-00 00 80 0000 02723 6737 754680 023852 198"
"176.848414"
"$GPRMC,202140,A,2551.0815,N,07948.2995,W,3.3,308.2,250615,7.1,"
"##MN-00 00 80 0000 02721 6739 600784 023859 198"
"176.848461"
"$GPRMC,202144,A,2551.0840,N,07948.3028,W,3.3,307.6,250615,7.1,"
"##MN-00 00 76 0000 02721 6741 649304 023860 198"
"176.848507"
"$GPRMC,202148,A,2551.0861,N,07948.3060,W,3.3,307.4,250615,7.1,"
"##MN-00 00 65 0000 02720 6742 379680 023846 198"
"176.848553"
"$GPRMC,202152,A,2551.0885,N,07948.3092,W,3.3,307.2,250615,7.1,"
"##MN-00 00 51 0000 02721 6744 751808 023861 198"
"176.8486"
"$GPRMC,202156,A,2551.0908,N,07948.3126,W,3.2,306.5,250615,7.1,"
"##MN-00 00 32 0000 02721 6746 599632 023852 198"
"176.848646"
"$GPRMC,202200,A,2551.0927,N,07948.3161,W,3.3,306.2,250615,7.1,"
"##MN-00 00 19 0000 02722 6747 880384 023855 198"
"176.848692"
"$GPRMC,202204,A,2551.0945,N,07948.3194,W,3.3,305.5,250615,7.1,"
"##MN-00 00 15 0000 02723 6749 204176 023854 198"
"176.848738"
"$GPRMC,202208,A,2551.0967,N,07948.3230,W,3.3,305.4,250615,7.1,"
"##MN-00 00 00 0000 02721 6751 656304 023844 198"
"176.848785"
"$GPRMC,202212,A,2551.0992,N,07948.3264,W,3.3,305.5,250615,7.1,"
"##MN-00 00 00 0000 02721 6753 464040 023856 198"
"176.848831"
"$GPRMC,202216,A,2551.1013,N,07948.3298,W,3.3,305.4,250615,7.1,"
"##MN-00 00 00 0000 02723 6754 351280 023842 198"
"176.848877"
"$GPRMC,202220,A,2551.1035,N,07948.3335,W,3.4,305.8,250615,7.1,"
"##MN-00 00 04 0000 02721 6756 006144 023832 198"
"176.848924"
"$GPRMC,202224,A,2551.1060,N,07948.3370,W,3.4,305.6,250615,7.1,"
"##MN-00 00 24 0000 02722 6758 527456 023840 198"
"176.84897"
"$GPRMC,202228,A,2551.1088,N,07948.3407,W,3.5,305.9,250615,7.1,"
"##MN-00 00 35 0000 02721 6760 531520 023852 198"
"176.849016"
"$GPRMC,202232,A,2551.1113,N,07948.3441,W,3.5,306.1,250615,7.1,"
"##MN-00 00 44 0000 02722 6761 290640 023848 198"
"176.849063"
"$GPRMC,202236,A,2551.1133,N,07948.3479,W,3.5,306.2,250615,7.1,"
"##MN-00 00 50 0000 02722 6763 371584 023862 198"
"176.849109"
"$GPRMC,202240,A,2551.1158,N,07948.3513,W,3.5,306.9,250615,7.1,"
"##MN-00 00 48 0000 02720 6765 059416 023844 198"
"176.849155"
"$GPRMC,202244,A,2551.1185,N,07948.3548,W,3.5,307.3,250615,7.1,"
"##MN-00 00 52 0000 02721 6766 067784 023856 198"
"176.849201"
"$GPRMC,202248,A,2551.1207,N,07948.3582,W,3.5,307.9,250615,7.1,"
"##MN-00 00 51 0000 02721 6768 071312 023854 198"
"176.849248"
"$GPRMC,202252,A,2551.1232,N,07948.3617,W,3.5,308.7,250615,7.1,"
"##MN-00 00 50 0000 02722 6770 115584 023851 198"
"176.849294"
"$GPRMC,202256,A,2551.1256,N,07948.3652,W,3.5,309.3,250615,7.1,"
"##MN-00 00 50 0000 02722 6771 722432 023852 198"
"176.84934"
"$GPRMC,202300,A,2551.1283,N,07948.3682,W,3.6,309.9,250615,7.1,"
"##MN-00 00 52 0001 02721 6773 602112 023852 198"
"176.849387"
"$GPRMC,202304,A,2551.1313,N,07948.3715,W,3.5,310.4,250615,7.1,"
"##MN-00 00 54 0002 02722 6774 641296 023861 198"
"176.849433"
"$GPRMC,202308,A,2551.1339,N,07948.3747,W,3.5,310.2,250615,7.1,"
"##MN-00 00 55 0003 02722 6776 359392 023848 198"
"176.849479"
"$GPRMC,202312,A,2551.1360,N,07948.3783,W,3.5,310.9,250615,7.1,"
"##MN-00 00 52 0004 02722 6778 560120 023849 198"
"176.849525"
"$GPRMC,202316,A,2551.1392,N,07948.3812,W,3.5,311.2,250615,7.1,"
"##MN-00 00 51 0005 02721 6779 879080 023828 198"
"176.849572"
"$GPRMC,202320,A,2551.1414,N,07948.3844,W,3.5,311.5,250615,7.1,"
"##MN-00 00 54 0006 02721 6781 635968 023828 198"
"176.849618"
"$GPRMC,202324,A,2551.1436,N,07948.3876,W,3.4,311.7,250615,7.1,"
"##MN-00 00 53 0006 02722 6782 393264 023837 198"
"176.849664"
"$GPRMC,202328,A,2551.1462,N,07948.3907,W,3.4,311.9,250615,7.1,"
"##MN-00 00 53 0007 02723 6784 389368 023828 198"
"176.849711"
"$GPRMC,202332,A,2551.1490,N,07948.3939,W,3.3,312.0,250615,7.1,"
"##MN-00 00 53 0008 02722 6785 584216 023838 198"
"176.849757"
"$GPRMC,202336,A,2551.1516,N,07948.3968,W,3.3,312.4,250615,7.1,"
"##MN-00 00 52 0009 02723 6787 863008 023851 198"
"176.849803"
"$GPRMC,202340,A,2551.1543,N,07948.3997,W,3.3,312.4,250615,7.1,"
"##MN-00 00 52 0010 02722 6788 214792 023843 198"
"176.84985"
"$GPRMC,202344,A,2551.1566,N,07948.4029,W,3.3,313.1,250615,7.1,"
"##MN-00 00 54 0011 02722 6789 941536 023824 198"
"176.849896"
"$GPRMC,202348,A,2551.1590,N,07948.4059,W,3.3,313.1,250615,7.1,"
"##MN-00 00 53 0012 02718 6791 375072 023824 198"
"176.849942"
"$GPRMC,202352,A,2551.1609,N,07948.4091,W,3.2,313.1,250615,7.1,"
"##MN-00 00 53 0013 02721 6792 290384 023818 198"
"176.849988"
"$GPRMC,202356,A,2551.1630,N,07948.4122,W,3.2,313.0,250615,7.1,"
"##MN-00 00 53 0014 02720 6793 010592 023812 198"
"176.850035"
"$GPRMC,202400,A,2551.1653,N,07948.4152,W,3.2,313.2,250615,7.1,"
"##MN-00 00 54 0015 02720 6795 636080 023806 198"
"176.850081"
"$GPRMC,202404,A,2551.1675,N,07948.4181,W,3.2,313.0,250615,7.1,"
"##MN-00 00 53 0016 02719 6795 524040 023813 198"
"176.850127"
"$GPRMC,202408,A,2551.1699,N,07948.4209,W,3.2,313.1,250615,7.1,"
"##MN-00 00 53 0017 02720 6796 329088 023805 198"
"176.850174"
"$GPRMC,202412,A,2551.1722,N,07948.4236,W,3.2,312.6,250615,7.1,"
"##MN-00 00 52 0018 02721 6798 621400 023805 198"
"176.85022"
"$GPRMC,202416,A,2551.1746,N,07948.4264,W,3.2,312.5,250615,7.1,"
"##MN-00 00 53 0019 02720 6799 419728 023808 198"
"176.850266"
"$GPRMC,202420,A,2551.1769,N,07948.4293,W,3.2,312.8,250615,7.1,"
"##MN-00 00 54 0020 02721 6799 168728 023816 198"
"176.850312"
"$GPRMC,202424,A,2551.1794,N,07948.4322,W,3.3,312.8,250615,7.1,"
"##MN-00 00 54 0021 02721 6800 645424 023836 198"
"176.850359"
"$GPRMC,202428,A,2551.1819,N,07948.4351,W,3.3,312.6,250615,7.1,"
"##MN-00 00 53 0022 02723 6801 562896 023845 198"
"176.850405"
"$GPRMC,202432,A,2551.1847,N,07948.4384,W,3.3,312.4,250615,7.1,"
"##MN-00 00 54 0023 02720 6802 644032 023795 198"
"176.850451"
"$GPRMC,202436,A,2551.1875,N,07948.4415,W,3.3,312.7,250615,7.1,"
"##MN-00 00 53 0024 02721 6803 558792 023806 198"
"176.850498"
"$GPRMC,202440,A,2551.1893,N,07948.4438,W,3.4,313.3,250615,7.1,"
"##MN-00 00 54 0025 02722 6804 149120 023814 198"
"176.850544"
"$GPRMC,202444,A,2551.1920,N,07948.4465,W,3.3,313.1,250615,7.1,"
"##MN-00 00 53 0026 02721 6804 509664 023807 198"
"176.85059"
"$GPRMC,202448,A,2551.1946,N,07948.4494,W,3.4,313.0,250615,7.1,"
"##MN-00 00 54 0027 02720 6805 785672 023811 198"
"176.850637"
"$GPRMC,202452,A,2551.1971,N,07948.4524,W,3.4,312.4,250615,7.1,"
"##MN-00 00 53 0028 02722 6805 133696 023809 198"
"176.850683"
"$GPRMC,202456,A,2551.2000,N,07948.4556,W,3.4,312.3,250615,7.1,"
"##MN-00 00 54 0029 02722 6806 496888 023813 198"
"176.850729"
"$GPRMC,202500,A,2551.2035,N,07948.4588,W,3.4,312.6,250615,7.1,"
"##MN-00 00 53 0030 02720 6807 124112 023810 198"
"176.850787"
"$GPRMC,202504,A,2551.2064,N,07948.4620,W,3.3,312.7,250615,7.1,"
"##MN-00 00 55 0031 02721 6807 524768 023809 198"
"176.850833"
"$GPRMC,202508,A,2551.2090,N,07948.4650,W,3.3,312.7,250615,7.1,"
"##MN-00 00 53 0032 02721 6808 111904 023820 198"
"176.85088"
"$GPRMC,202512,A,2551.2115,N,07948.4686,W,3.3,312.4,250615,7.1,"
"##MN-00 00 55 0032 02724 6808 227480 023841 198"
"176.850926"
"$GPRMC,202516,A,2551.2141,N,07948.4720,W,3.3,312.3,250615,7.1,"
"##MN-00 00 53 0033 02723 6808 588816 023828 198"
"176.850972"
"$GPRMC,202520,A,2551.2168,N,07948.4749,W,3.3,312.4,250615,7.1,"
"##MN-00 00 54 0034 02724 6809 226424 023816 198"
"176.851019"
"$GPRMC,202524,A,2551.2193,N,07948.4779,W,3.3,312.6,250615,7.1,"
"##MN-00 00 53 0035 02726 6809 909072 023794 198"
"176.851065"
"$GPRMC,202528,A,2551.2217,N,07948.4809,W,3.3,313.0,250615,7.1,"
"##MN-00 00 53 0036 02724 6809 865016 023810 198"
"176.851111"
"$GPRMC,202532,A,2551.2244,N,07948.4837,W,3.3,313.2,250615,7.1,"
"##MN-00 00 53 0037 02726 6809 577824 023812 198"
"176.851157"
"$GPRMC,202536,A,2551.2269,N,07948.4864,W,3.3,313.3,250615,7.1,"
"##MN-00 00 52 0038 02725 6809 089904 023806 198"
"176.851204"
"$GPRMC,202540,A,2551.2292,N,07948.4893,W,3.3,313.5,250615,7.1,"
"##MN-00 00 53 0039 02727 6810 411496 023805 198"
"176.85125"
"$GPRMC,202544,A,2551.2316,N,07948.4924,W,3.3,313.3,250615,7.1,"
"##MN-00 00 54 0040 02728 6810 081200 023799 198"
"176.851296"
"$GPRMC,202548,A,2551.2338,N,07948.4954,W,3.2,313.3,250615,7.1,"
"##MN-00 00 52 0041 02727 6809 317232 023817 198"
"176.851343"
"$GPRMC,202552,A,2551.2360,N,07948.4985,W,3.2,313.2,250615,7.1,"
"##MN-00 00 53 0042 02727 6809 067968 023802 198"
"176.851389"
"$GPRMC,202556,A,2551.2383,N,07948.5014,W,3.3,313.2,250615,7.1,"
"##MN-00 00 53 0043 02728 6809 064928 023814 198"
"176.851435"
"$GPRMC,202600,A,2551.2408,N,07948.5044,W,3.3,313.4,250615,7.1,"
"##MN-00 00 52 0044 02728 6809 304304 023817 198"
"176.851482"
"$GPRMC,202604,A,2551.2432,N,07948.5074,W,3.2,313.0,250615,7.1,"
"##MN-00 00 53 0045 02730 6809 048664 023829 198"
"176.851528"
"$GPRMC,202609,A,2551.2462,N,07948.5116,W,3.2,313.1,250615,7.1,"
"##MN-00 00 54 0046 02730 6809 048848 023830 198"
"176.851574"
"$GPRMC,202613,A,2551.2487,N,07948.5148,W,3.3,313.0,250615,7.1,"
"##MN-00 00 55 0047 02732 6808 857984 023828 198"
"176.85162"
"$GPRMC,202617,A,2551.2512,N,07948.5175,W,3.3,313.2,250615,7.1,"
"##MN-00 00 52 0048 02731 6808 045088 023820 198"
"176.851667"
"$GPRMC,202621,A,2551.2537,N,07948.5204,W,3.3,313.1,250615,7.1,"
"##MN-00 00 52 0049 02733 6808 040320 023809 198"
"176.851713"
"$GPRMC,202624,A,2551.2556,N,07948.5227,W,3.3,313.3,250615,7.1,"
"##MN-00 00 53 0050 02734 6807 279104 023810 198"
"176.851759"
"$GPRMC,202628,A,2551.2581,N,07948.5257,W,3.3,313.0,250615,7.1,"
"##MN-00 00 53 0051 02736 6807 031616 023811 198"
"176.851806"
"$GPRMC,202633,A,2551.2612,N,07948.5292,W,3.3,313.3,250615,7.1,"
"##MN-00 00 55 0052 02734 6807 152864 023817 198"
"176.851852"
"$GPRMC,202637,A,2551.2636,N,07948.5321,W,3.3,313.1,250615,7.1,"
"##MN-00 00 54 0053 02735 6806 831008 023808 198"
"176.851898"
"$GPRMC,202641,A,2551.2663,N,07948.5350,W,3.3,313.2,250615,7.1,"
"##MN-00 00 54 0054 02738 6806 667512 023824 198"
"176.851944"
"$GPRMC,202645,A,2551.2690,N,07948.5379,W,3.3,313.3,250615,7.1,"
"##MN-00 00 55 0055 02740 6806 015008 023829 198"
"176.851991"
"$GPRMC,202649,A,2551.2715,N,07948.5409,W,3.4,313.0,250615,7.1,"
"##MN-00 00 53 0056 02740 6805 254272 023817 198"
"176.852037"
"$GPRMC,202653,A,2551.2743,N,07948.5439,W,3.3,313.3,250615,7.1,"
"##MN-00 00 54 0057 02742 6804 007200 023825 198"
"176.852083"
"$GPRMC,202657,A,2551.2768,N,07948.5470,W,3.3,313.1,250615,7.1,"
"##MN-00 00 53 0058 02744 6803 526280 023837 198"
"176.85213"
"$GPRMC,202701,A,2551.2794,N,07948.5500,W,3.4,313.0,250615,7.1,"
"##MN-00 00 52 0059 02743 6803 640376 023845 198"
"176.852176"
"$GPRMC,202705,A,2551.2816,N,07948.5527,W,3.3,312.8,250615,7.1,"
"##MN-00 00 53 0059 02745 6802 238240 023832 198"
"176.852222"
"$GPRMC,202709,A,2551.2840,N,07948.5560,W,3.3,312.9,250615,7.1,"
"##MN-00 00 52 0060 02746 6801 760368 023847 198"
"176.852269"
"$GPRMC,202713,A,2551.2866,N,07948.5594,W,3.3,312.5,250615,7.1,"
"##MN-00 00 54 0061 02746 6801 800672 023828 198"
"176.852315"
"$GPRMC,202717,A,2551.2894,N,07948.5623,W,3.3,312.6,250615,7.1,"
"##MN-00 00 53 0062 02747 6800 035888 023838 198"
"176.852361"
"$GPRMC,202721,A,2551.2921,N,07948.5652,W,3.3,312.5,250615,7.1,"
"##MN-00 00 55 0063 02749 6799 023488 023836 198"
"176.852407"
"$GPRMC,202725,A,2551.2948,N,07948.5684,W,3.3,312.8,250615,7.1,"
"##MN-00 00 53 0064 02750 6798 742864 023833 198"
"176.852454"
"$GPRMC,202729,A,2551.2974,N,07948.5713,W,3.2,313.2,250615,7.1,"
"##MN-00 00 52 0065 02752 6798 218240 023836 198"
"176.8525"
"$GPRMC,202733,A,2551.3000,N,07948.5742,W,3.2,313.2,250615,7.1,"
"##MN-00 00 54 0066 02753 6797 896360 023842 198"
"176.852546"
"$GPRMC,202737,A,2551.3025,N,07948.5773,W,3.2,313.5,250615,7.1,"
"##MN-00 00 52 0067 02756 6796 331568 023830 198"
"176.852593"
"$GPRMC,202741,A,2551.3050,N,07948.5802,W,3.2,313.4,250615,7.1,"
"##MN-00 00 52 0068 02755 6795 765632 023847 198"
"176.852639"
"$GPRMC,202745,A,2551.3075,N,07948.5831,W,3.2,313.7,250615,7.1,"
"##MN-00 00 54 0069 02760 6794 003120 023839 198"
"176.852685"
"$GPRMC,202749,A,2551.3100,N,07948.5861,W,3.2,313.6,250615,7.1,"
"##MN-00 00 52 0070 02761 6794 998256 023832 198"
"176.852731"
"$GPRMC,202753,A,2551.3125,N,07948.5892,W,3.2,313.8,250615,7.1,"
"##MN-00 00 54 0071 02764 6793 589424 023846 198"
"176.852778"
"$GPRMC,202757,A,2551.3151,N,07948.5923,W,3.3,313.6,250615,7.1,"
"##MN-00 00 53 0072 02761 6792 424624 023853 198"
"176.852824"
"$GPRMC,202801,A,2551.3177,N,07948.5954,W,3.3,313.3,250615,7.1,"
"##MN-00 00 53 0073 02765 6790 464896 023837 198"
"176.85287"
"$GPRMC,202805,A,2551.3202,N,07948.5986,W,3.3,313.1,250615,7.1,"
"##MN-00 00 53 0074 02767 6790 425648 023843 198"
"176.852917"
"$GPRMC,202809,A,2551.3228,N,07948.6017,W,3.4,312.9,250615,7.1,"
"##MN-00 00 53 0075 02771 6789 986240 023847 198"
"176.852963"
"$GPRMC,202813,A,2551.3253,N,07948.6048,W,3.4,313.2,250615,7.1,"
"##MN-00 00 54 0076 02772 6787 980912 023842 198"
"176.853009"
"$GPRMC,202817,A,2551.3279,N,07948.6080,W,3.4,313.1,250615,7.1,"
"##MN-00 00 53 0077 02773 6787 856320 023834 198"
"176.853056"
"$GPRMC,202821,A,2551.3306,N,07948.6109,W,3.4,313.6,250615,7.1,"
"##MN-00 00 53 0078 02776 6785 568144 023846 198"
"176.853102"
"$GPRMC,202825,A,2551.3332,N,07948.6142,W,3.4,313.6,250615,7.1,"
"##MN-00 00 52 0079 02779 6784 970480 023845 198"
"176.853148"
"$GPRMC,202829,A,2551.3358,N,07948.6172,W,3.4,313.6,250615,7.1,"
"##MN-00 00 53 0080 02780 6783 962960 023850 198"
"176.853194"
"$GPRMC,202833,A,2551.3383,N,07948.6203,W,3.3,313.4,250615,7.1,"
"##MN-00 00 54 0081 02785 6782 399408 023841 198"
"176.853241"
"$GPRMC,202837,A,2551.3409,N,07948.6232,W,3.3,313.3,250615,7.1,"
"##MN-00 00 53 0082 02786 6781 837104 023849 198"
"176.853287"
"$GPRMC,202841,A,2551.3436,N,07948.6262,W,3.3,313.3,250615,7.1,"
"##MN-00 00 53 0083 02790 6780 949376 023851 198"
"176.853333"
"$GPRMC,202845,A,2551.3462,N,07948.6293,W,3.3,313.4,250615,7.1,"
"##MN-00 00 53 0084 02790 6779 948560 023837 198"
"176.85338"
"$GPRMC,202849,A,2551.3488,N,07948.6322,W,3.3,313.3,250615,7.1,"
"##MN-00 00 53 0085 02793 6778 941488 023858 198"
"176.853426"
"$GPRMC,202853,A,2551.3513,N,07948.6353,W,3.3,313.5,250615,7.1,"
"##MN-00 00 51 0086 02795 6777 530416 023873 198"
"176.853472"
"$GPRMC,202857,A,2551.3539,N,07948.6384,W,3.3,313.4,250615,7.1,"
"##MN-00 00 54 0087 02799 6775 930048 023871 198"
"176.853518"
"$GPRMC,202901,A,2551.3564,N,07948.6410,W,3.2,313.6,250615,7.1,"
"##MN-00 00 55 0088 02802 6774 930128 023872 198"
"176.853565"
"$GPRMC,202905,A,2551.3592,N,07948.6438,W,3.2,313.8,250615,7.1,"
"##MN-00 00 54 0089 02804 6773 915904 023845 198"
"176.853611"
"$GPRMC,202909,A,2551.3615,N,07948.6472,W,3.3,314.0,250615,7.1,"
"##MN-00 00 54 0090 02807 6772 936912 023864 198"
"176.853657"
"$GPRMC,202913,A,2551.3640,N,07948.6501,W,3.3,314.3,250615,7.1,"
"##MN+00 00 54 0091 02809 6770 649192 023856 198"
"176.853704"
"$GPRMC,202917,A,2551.3668,N,07948.6529,W,3.2,314.4,250615,7.1,"
"##MN+00 00 52 0092 02814 6769 921520 023857 198"
"176.85375"
"$GPRMC,202921,A,2551.3694,N,07948.6558,W,3.3,314.6,250615,7.1,"
"##MN+00 00 57 0093 02815 6768 515752 023848 198"
"176.853796"
"$GPRMC,202925,A,2551.3722,N,07948.6586,W,3.3,314.3,250615,7.1,"
"##MN-00 00 52 0094 02818 6767 911824 023862 198"
"176.853843"
"#increment_net"
"$GPRMC,202929,A,2551.3748,N,07948.6615,W,3.3,314.5,250615,7.1,"
"##MN-00 00 52 0095 02821 6765 909664 023852 198"
"176.853889"
"$GPRMC,202933,A,2551.3774,N,07948.6645,W,3.3,314.3,250615,7.1,"
"##MN-00 00 52 0096 02825 6764 903072 023871 198"
"176.853935"
"$GPRMC,202937,A,2551.3799,N,07948.6676,W,3.3,314.5,250615,7.1,"
"##MN-00 00 53 0097 02827 6763 902232 023852 198"
"176.853981"
"$GPRMC,202941,A,2551.3827,N,07948.6707,W,3.4,314.3,250615,7.1,"
"##MN-00 00 54 0098 02831 6761 657392 023869 198"
"176.854039"
"$GPRMC,202945,A,2551.3852,N,07948.6738,W,3.4,314.0,250615,7.1,"
"##MN-00 00 51 0099 02832 6760 892592 023864 198"
"176.854086"
"$GPRMC,202949,A,2551.3878,N,07948.6767,W,3.4,314.0,250615,7.1,"
"##MN-00 00 52 0100 02837 6758 891776 023867 198"
"176.854132"
"$GPRMC,202953,A,2551.3904,N,07948.6799,W,3.3,313.7,250615,7.1,"
"##MN-00 00 52 0101 02838 6757 599528 023894 198"
"176.854178"
"$GPRMC,202957,A,2551.3929,N,07948.6828,W,3.3,313.3,250615,7.1,"
"##MN-00 00 52 0102 02840 6756 474048 023897 198"
"176.854225"
"$GPRMC,203001,A,2551.3956,N,07948.6858,W,3.4,313.5,250615,7.1,"
"##MN-00 00 52 0104 02841 6754 632752 023887 198"
"176.854271"
"$GPRMC,203005,A,2551.3982,N,07948.6889,W,3.3,313.4,250615,7.1,"
"##MN-00 00 52 0105 02845 6753 874160 023892 198"
"176.854317"
"$GPRMC,203009,A,2551.4008,N,07948.6919,W,3.3,313.3,250615,7.1,"
"##MN-00 00 52 0106 02847 6752 877792 023877 198"
"176.854363"
"$GPRMC,203013,A,2551.4034,N,07948.6949,W,3.3,313.3,250615,7.1,"
"##MN-00 00 52 0107 02852 6750 872496 023866 198"
"176.85441"
"$GPRMC,203017,A,2551.4061,N,07948.6980,W,3.3,313.3,250615,7.1,"
"##MN-00 00 53 0108 02851 6749 315616 023860 198"
"176.854456"
"$GPRMC,203021,A,2551.4086,N,07948.7010,W,3.3,313.3,250615,7.1,"
"##MN-00 00 52 0109 02854 6748 870392 023861 198"
"176.854502"
"$GPRMC,203025,A,2551.4113,N,07948.7041,W,3.4,313.5,250615,7.1,"
"##MN-00 00 51 0110 02857 6746 865536 023870 198"
"176.854549"
"$GPRMC,203029,A,2551.4138,N,07948.7071,W,3.3,313.3,250615,7.1,"
"##MN-00 00 52 0111 02860 6745 335080 023865 198"
"176.854595"
"$GPRMC,203033,A,2551.4166,N,07948.7103,W,3.3,313.4,250615,7.1,"
"##MN-00 00 52 0112 02861 6743 063776 023876 198"
"176.854641"
"$GPRMC,203037,A,2551.4193,N,07948.7132,W,3.3,313.3,250615,7.1,"
"##MN-00 00 52 0113 02862 6742 455376 023874 198"
"176.854688"
"$GPRMC,203042,A,2551.4218,N,07948.7162,W,3.4,313.7,250615,7.1,"
"##MN-00 00 53 0114 02865 6740 447888 023867 198"
"176.854734"
"$GPRMC,203046,A,2551.4245,N,07948.7193,W,3.3,313.7,250615,7.1,"
"##MN-00 00 52 0115 02863 6739 288368 023878 198"
"176.85478"
"$GPRMC,203049,A,2551.4272,N,07948.7222,W,3.4,314.0,250615,7.1,"
"##MN-00 00 52 0116 02871 6737 845832 023866 198"
"176.854826"
"$GPRMC,203054,A,2551.4304,N,07948.7258,W,3.4,314.2,250615,7.1,"
"##MN-00 00 54 0117 02870 6736 602320 023878 198"
"176.854873"
"$GPRMC,203058,A,2551.4330,N,07948.7288,W,3.4,313.9,250615,7.1,"
"##MN-00 00 51 0118 02873 6735 433408 023871 198"
"176.854919"
"$GPRMC,203102,A,2551.4355,N,07948.7317,W,3.3,313.9,250615,7.1,"
"##MN-00 00 52 0119 02872 6733 830384 023884 198"
"176.854965"
"$GPRMC,203106,A,2551.4380,N,07948.7346,W,3.3,313.6,250615,7.1,"
"##MN-00 00 52 0121 02876 6732 817984 023911 198"
"176.855012"
"$GPRMC,203110,A,2551.4408,N,07948.7377,W,3.3,313.9,250615,7.1,"
"##MN-00 00 52 0122 02877 6730 818016 023907 198"
"176.855058"
"$GPRMC,203114,A,2551.4437,N,07948.7406,W,3.3,313.7,250615,7.1,"
"##MN+00 00 52 0123 02879 6729 539616 023890 198"
"176.855104"
"$GPRMC,203118,A,2551.4464,N,07948.7436,W,3.3,314.3,250615,7.1,"
"##MN+00 00 52 0124 02879 6727 818192 023904 198"
"176.85515"
"$GPRMC,203122,A,2551.4492,N,07948.7467,W,3.3,314.2,250615,7.1,"
"##MN+00 00 54 0125 02880 6726 818248 023888 198"
"176.855197"
"$GPRMC,203126,A,2551.4520,N,07948.7496,W,3.3,314.4,250615,7.1,"
"##MN-00 00 54 0126 02881 6724 418696 023876 198"
"176.855243"
"#increment_net"
"$GPRMC,203130,A,2551.4546,N,07948.7525,W,3.3,314.1,250615,7.1,"
"##MN-00 00 50 0127 02883 6722 818368 023873 198"
"176.855289"
"$GPRMC,203134,A,2551.4571,N,07948.7554,W,3.3,314.2,250615,7.1,"
"##MN-00 00 51 0128 02886 6721 817968 023871 198"
"176.855336"
"$GPRMC,203138,A,2551.4597,N,07948.7585,W,3.3,314.3,250615,7.1,"
"##MN-00 00 50 0129 02886 6719 576176 023868 198"
"176.855382"
"$GPRMC,203142,A,2551.4622,N,07948.7615,W,3.3,314.4,250615,7.1,"
"##MN-00 00 51 0130 02885 6718 125704 023879 198"
"176.855428"
"$GPRMC,203146,A,2551.4647,N,07948.7645,W,3.3,314.5,250615,7.1,"
"##MN-00 00 51 0131 02888 6716 564688 023894 198"
"176.855475"
"$GPRMC,203150,A,2551.4673,N,07948.7675,W,3.3,314.7,250615,7.1,"
"##MN-00 00 51 0132 02890 6715 797624 023873 198"
"176.855521"
"$GPRMC,203154,A,2551.4698,N,07948.7706,W,3.3,314.6,250615,7.1,"
"##MN-00 00 52 0133 02889 6714 802576 023883 198"
"176.855567"
"$GPRMC,203158,A,2551.4727,N,07948.7736,W,3.3,314.7,250615,7.1,"
"##MN-00 00 52 0134 02889 6712 786544 023891 198"
"176.855613"
"$GPRMC,203202,A,2551.4753,N,07948.7767,W,3.3,314.7,250615,7.1,"
"##MN-00 00 52 0135 02890 6710 512136 023890 198"
"176.85566"
"$GPRMC,203206,A,2551.4780,N,07948.7794,W,3.3,314.6,250615,7.1,"
"##MN-00 00 52 0136 02890 6709 549728 023886 198"
"176.855706"
"$GPRMC,203210,A,2551.4805,N,07948.7822,W,3.4,314.6,250615,7.1,"
"##MN-00 00 53 0137 02892 6707 779552 023876 198"
"176.855752"
"$GPRMC,203214,A,2551.4831,N,07948.7851,W,3.4,314.4,250615,7.1,"
"##MN-00 00 51 0138 02892 6706 221760 023890 198"
"176.855799"
"$GPRMC,203218,A,2551.4857,N,07948.7879,W,3.4,314.6,250615,7.1,"
"##MN-00 00 53 0139 02893 6704 645184 023908 198"
"176.855845"
"$GPRMC,203222,A,2551.4883,N,07948.7909,W,3.5,314.3,250615,7.1,"
"##MN-00 00 51 0140 02892 6703 762768 023905 198"
"176.855891"
"$GPRMC,203226,A,2551.4908,N,07948.7939,W,3.4,314.0,250615,7.1,"
"##MN-00 00 54 0141 02895 6701 608992 023903 198"
"176.855937"
"$GPRMC,203230,A,2551.4936,N,07948.7973,W,3.4,314.1,250615,7.1,"
"##MN-00 00 53 0143 02894 6700 761904 023893 198"
"176.855984"
"$GPRMC,203234,A,2551.4962,N,07948.8002,W,3.4,314.2,250615,7.1,"
"##MN-00 00 53 0144 02895 6698 643944 023909 198"
"176.85603"
"$GPRMC,203238,A,2551.4990,N,07948.8033,W,3.5,314.4,250615,7.1,"
"##MN-00 00 52 0145 02895 6697 362000 023906 198"
"176.856076"
"$GPRMC,203242,A,2551.5016,N,07948.8064,W,3.4,314.4,250615,7.1,"
"##MN-00 00 52 0146 02895 6695 757680 023901 198"
"176.856123"
"$GPRMC,203246,A,2551.5042,N,07948.8093,W,3.3,314.3,250615,7.1,"
"##MN-00 00 52 0147 02895 6694 484120 023909 198"
"176.856169"
"$GPRMC,203250,A,2551.5069,N,07948.8125,W,3.3,314.2,250615,7.1,"
"##MN-00 00 54 0148 02895 6692 762208 023894 198"
"176.856215"
"$GPRMC,203254,A,2551.5094,N,07948.8155,W,3.3,314.4,250615,7.1,"
"##MN-00 00 52 0149 02895 6690 361720 023890 198"
"176.856262"
"$GPRMC,203258,A,2551.5118,N,07948.8186,W,3.4,314.3,250615,7.1,"
"##MN-00 00 54 0150 02896 6689 511984 023896 198"
"176.856308"
"$GPRMC,203302,A,2551.5146,N,07948.8216,W,3.4,314.4,250615,7.1,"
"##MN-00 00 51 0151 02896 6688 473576 023895 198"
"176.856354"
"$GPRMC,203306,A,2551.5172,N,07948.8248,W,3.3,314.1,250615,7.1,"
"##MN-00 00 52 0152 02897 6686 746304 023893 198"
"176.8564"
"$GPRMC,203310,A,2551.5197,N,07948.8277,W,3.3,314.1,250615,7.1,"
"##MN-00 00 52 0153 02899 6684 744064 023892 198"
"176.856447"
"$GPRMC,203314,A,2551.5224,N,07948.8306,W,3.3,314.5,250615,7.1,"
"##MN-00 00 52 0154 02901 6683 741888 023896 198"
"176.856493"
"$GPRMC,203318,A,2551.5248,N,07948.8336,W,3.3,314.7,250615,7.1,"
"##MN+00 00 53 0155 02899 6681 615912 023891 198"
"176.856539"
"$GPRMC,203322,A,2551.5275,N,07948.8365,W,3.3,314.6,250615,7.1,"
"##MN+00 00 51 0156 02898 6680 734408 023900 198"
"176.856586"
"$GPRMC,203326,A,2551.5301,N,07948.8394,W,3.3,314.5,250615,7.1,"
"##MN+00 00 55 0157 02897 6678 731344 023901 198"
"176.856632"
"$GPRMC,203330,A,2551.5327,N,07948.8425,W,3.3,314.3,250615,7.1,"
"##MN-00 00 57 0158 02901 6677 334872 023906 198"
"176.856678"
"#increment_net"
"$GPRMC,203334,A,2551.5354,N,07948.8452,W,3.3,314.6,250615,7.1,"
"##MN-00 00 54 0159 02899 6675 718928 023901 198"
"176.856725"
"$GPRMC,203338,A,2551.5380,N,07948.8482,W,3.3,314.5,250615,7.1,"
"##MN-00 00 55 0160 02902 6673 719888 023908 198"
"176.856771"
"$GPRMC,203342,A,2551.5406,N,07948.8512,W,3.3,314.5,250615,7.1,"
"##MN-00 00 56 0161 02900 6672 144176 023915 198"
"176.856817"
"$GPRMC,203346,A,2551.5434,N,07948.8540,W,3.3,314.2,250615,7.1,"
"##MN-00 00 54 0163 02898 6670 587200 023912 198"
"176.856863"
"$GPRMC,203350,A,2551.5459,N,07948.8569,W,3.3,314.1,250615,7.1,"
"##MN-00 00 55 0164 02899 6669 956848 023911 198"
"176.85691"
"$GPRMC,203354,A,2551.5485,N,07948.8596,W,3.3,314.3,250615,7.1,"
"##MN-00 00 55 0165 02901 6667 705784 023904 198"
"176.856956"
"$GPRMC,203358,A,2551.5510,N,07948.8621,W,3.3,314.4,250615,7.1,"
"##MN-00 00 56 0166 02901 6666 428728 023913 198"
"176.857002"
"$GPRMC,203402,A,2551.5535,N,07948.8649,W,3.3,314.3,250615,7.1,"
"##MN-00 00 54 0167 02902 6664 468064 023913 198"
"176.857049"
"$GPRMC,203406,A,2551.5561,N,07948.8678,W,3.3,314.4,250615,7.1,"
"##MN-00 00 55 0168 02902 6662 829216 023920 198"
"176.857095"
"$GPRMC,203410,A,2551.5587,N,07948.8708,W,3.3,314.2,250615,7.1,"
"##MN-00 00 54 0169 02902 6661 705904 023920 198"
"176.857141"
"$GPRMC,203414,A,2551.5615,N,07948.8739,W,3.3,314.3,250615,7.1,"
"##MN-00 00 55 0170 02900 6660 707720 023910 198"
"176.857188"
"$GPRMC,203418,A,2551.5641,N,07948.8772,W,3.4,314.1,250615,7.1,"
"##MN-00 00 57 0171 02901 6658 706912 023900 198"
"176.857245"
"$GPRMC,203422,A,2551.5667,N,07948.8801,W,3.4,314.0,250615,7.1,"
"##MN-00 00 56 0172 02900 6657 702904 023909 198"
"176.857292"
"$GPRMC,203426,A,2551.5694,N,07948.8830,W,3.4,313.9,250615,7.1,"
"##MN-00 00 55 0173 02902 6655 141024 023906 198"
"176.857338"
"$GPRMC,203430,A,2551.5721,N,07948.8860,W,3.3,314.1,250615,7.1,"
"##MN-00 00 56 0174 02900 6654 696672 023899 198"
"176.857384"
"$GPRMC,203434,A,2551.5748,N,07948.8891,W,3.3,314.4,250615,7.1,"
"##MN-00 00 55 0175 02901 6652 455792 023908 198"
"176.857431"
"$GPRMC,203438,A,2551.5774,N,07948.8921,W,3.3,314.0,250615,7.1,"
"##MN-00 00 56 0176 02900 6650 411608 023916 198"
"176.857477"
"$GPRMC,203442,A,2551.5800,N,07948.8950,W,3.3,314.1,250615,7.1,"
"##MN-00 00 55 0177 02902 6648 564976 023918 198"
"176.857523"
"$GPRMC,203446,A,2551.5826,N,07948.8981,W,3.3,314.0,250615,7.1,"
"##MN-00 00 56 0178 02902 6647 687504 023912 198"
"176.857569"
"$GPRMC,203450,A,2551.5853,N,07948.9010,W,3.3,314.4,250615,7.1,"
"##MN-00 00 55 0179 02901 6646 402792 023919 198"
"176.857616"
"$GPRMC,203454,A,2551.5879,N,07948.9042,W,3.3,314.4,250615,7.1,"
"##MN-00 00 56 0180 02902 6644 439072 023908 198"
"176.857662"
"$GPRMC,203458,A,2551.5905,N,07948.9071,W,3.3,314.7,250615,7.1,"
"##MN-00 00 56 0181 02902 6643 398872 023910 198"
"176.857708"
"$GPRMC,203502,A,2551.5930,N,07948.9100,W,3.3,314.6,250615,7.1,"
"##MN-00 00 56 0182 02901 6641 675168 023908 198"
"176.857755"
"$GPRMC,203506,A,2551.5955,N,07948.9129,W,3.3,314.7,250615,7.1,"
"##MN-00 00 55 0183 02902 6640 273744 023913 198"
"176.857801"
"$GPRMC,203510,A,2551.5980,N,07948.9158,W,3.3,314.3,250615,7.1,"
"##MN-00 00 56 0184 02903 6638 670736 023909 198"
"176.857847"
"$GPRMC,203514,A,2551.6005,N,07948.9181,W,3.3,314.3,250615,7.1,"
"##MN-00 00 54 0185 02902 6637 263624 023917 198"
"176.857894"
"$GPRMC,203519,A,2551.6038,N,07948.9217,W,3.3,314.3,250615,7.1,"
"##MN-00 00 56 0186 02903 6635 782096 023939 198"
"176.85794"
"$GPRMC,203523,A,2551.6064,N,07948.9246,W,3.3,314.3,250615,7.1,"
"##MN-00 00 55 0187 02903 6634 094288 023928 198"
"176.857986"
"$GPRMC,203527,A,2551.6091,N,07948.9277,W,3.3,314.5,250615,7.1,"
"##MN+00 00 55 0188 02903 6632 657512 023917 198"
"176.858032"
"$GPRMC,203530,A,2551.6113,N,07948.9300,W,3.3,314.4,250615,7.1,"
"##MN+00 00 55 0189 02903 6631 636160 023921 198"
"176.858079"
"$GPRMC,203534,A,2551.6140,N,07948.9329,W,3.4,314.2,250615,7.1,"
"##MN+00 00 58 0190 02905 6629 654504 023920 198"
"176.858125"
"#increment_net"
"$GPRMC,203539,A,2551.6174,N,07948.9371,W,3.4,314.2,250615,7.1,"
"##MN-00 00 55 0191 02903 6627 647824 023913 198"
"176.858171"
"$GPRMC,203543,A,2551.6201,N,07948.9400,W,3.4,314.0,250615,7.1,"
"##MN-00 00 54 0192 02904 6626 776056 023938 198"
"176.858218"
"$GPRMC,203547,A,2551.6227,N,07948.9431,W,3.4,314.2,250615,7.1,"
"##MN-00 00 54 0193 02904 6624 252696 023924 198"
"176.858264"
"$GPRMC,203551,A,2551.6255,N,07948.9463,W,3.5,314.3,250615,7.1,"
"##MN-00 00 56 0195 02905 6623 342928 023923 198"
"176.85831"
"$GPRMC,203555,A,2551.6281,N,07948.9492,W,3.4,314.4,250615,7.1,"
"##MN-00 00 51 0196 02904 6621 251456 023914 198"
"176.858356"
"$GPRMC,203559,A,2551.6306,N,07948.9520,W,3.4,314.2,250615,7.1,"
"##MN-00 00 57 0197 02905 6620 411968 023903 198"
"176.858403"
"$GPRMC,203603,A,2551.6333,N,07948.9548,W,3.4,314.3,250615,7.1,"
"##MN-00 00 53 0198 02905 6618 369528 023893 198"
"176.858449"
"$GPRMC,203607,A,2551.6360,N,07948.9579,W,3.3,314.4,250615,7.1,"
"##MN-00 00 55 0199 02905 6617 408400 023896 198"
"176.858495"
"$GPRMC,203611,A,2551.6386,N,07948.9611,W,3.3,314.1,250615,7.1,"
"##MN-00 00 54 0200 02905 6615 358840 023893 198"
"176.858542"
"$GPRMC,203615,A,2551.6414,N,07948.9642,W,3.4,314.4,250615,7.1,"
"##MN-00 00 54 0201 02904 6614 885824 023885 198"
"176.858588"
"$GPRMC,203619,A,2551.6443,N,07948.9671,W,3.4,314.2,250615,7.1,"
"##MN-00 00 54 0202 02904 6612 512728 023899 198"
"176.858634"
"$GPRMC,203623,A,2551.6471,N,07948.9700,W,3.4,314.3,250615,7.1,"
"##MN-00 00 54 0203 02906 6611 352328 023884 198"
"176.858681"
"$GPRMC,203627,A,2551.6494,N,07948.9729,W,3.4,314.0,250615,7.1,"
"##MN-00 00 56 0204 02905 6609 628608 023901 198"
"176.858727"
"$GPRMC,203631,A,2551.6519,N,07948.9759,W,3.3,314.0,250615,7.1,"
"##MN-00 00 55 0205 02904 6608 750136 023897 198"
"176.858773"
"$GPRMC,203635,A,2551.6544,N,07948.9790,W,3.3,313.5,250615,7.1,"
"##MN-00 00 55 0206 02904 6606 382784 023882 198"
"176.858819"
"$GPRMC,203639,A,2551.6568,N,07948.9819,W,3.3,313.4,250615,7.1,"
"##MN-00 00 55 0207 02905 6605 349680 023883 198"
"176.858866"
"$GPRMC,203643,A,2551.6592,N,07948.9849,W,3.3,313.7,250615,7.1,"
"##MN-00 00 52 0208 02903 6603 064576 023894 198"
"176.858912"
"$GPRMC,203647,A,2551.6617,N,07948.9878,W,3.3,313.9,250615,7.1,"
"##MN-00 00 54 0209 02904 6602 496856 023886 198"
"176.858958"
"$GPRMC,203651,A,2551.6644,N,07948.9908,W,3.3,314.1,250615,7.1,"
"##MN-00 00 54 0210 02905 6601 467296 023893 198"
"176.859005"
"$GPRMC,203655,A,2551.6670,N,07948.9939,W,3.3,314.6,250615,7.1,"
"##MN-00 00 55 0211 02905 6599 864720 023885 198"
"176.859051"
"$GPRMC,203659,A,2551.6696,N,07948.9968,W,3.4,314.4,250615,7.1,"
"##MN-00 00 54 0212 02905 6597 857616 023906 198"
"176.859097"
"$GPRMC,203703,A,2551.6721,N,07949.0000,W,3.3,314.6,250615,7.1,"
"##MN-00 00 54 0213 02905 6596 042416 023899 198"
"176.859143"
"$GPRMC,203707,A,2551.6747,N,07949.0029,W,3.3,314.3,250615,7.1,"
"##MN-00 00 55 0214 02905 6595 593656 023910 198"
"176.85919"
"$GPRMC,203711,A,2551.6774,N,07949.0058,W,3.4,314.4,250615,7.1,"
"##MN-00 00 55 0216 02904 6593 347392 023915 198"
"176.859236"
"$GPRMC,203715,A,2551.6800,N,07949.0087,W,3.3,314.2,250615,7.1,"
"##MN-00 00 55 0217 02905 6592 199000 023920 198"
"176.859282"
"$GPRMC,203719,A,2551.6826,N,07949.0117,W,3.4,314.0,250615,7.1,"
"##MN-00 00 56 0218 02905 6590 036304 023905 198"
"176.859329"
"$GPRMC,203723,A,2551.6852,N,07949.0148,W,3.4,313.8,250615,7.1,"
"##MN-00 00 54 0219 02905 6589 846184 023919 198"
"176.859375"
"$GPRMC,203727,A,2551.6880,N,07949.0177,W,3.4,313.8,250615,7.1,"
"##MN-00 00 56 0220 02905 6587 601312 023911 198"
"176.859421"
"$GPRMC,203731,A,2551.6908,N,07949.0207,W,3.4,313.7,250615,7.1,"
"##MN-00 00 55 0221 02904 6586 844496 023917 198"
"176.859468"
"$GPRMC,203735,A,2551.6935,N,07949.0238,W,3.4,314.2,250615,7.1,"
"##MN-00 00 54 0222 02905 6584 043472 023920 198"
"176.859514"
"$GPRMC,203739,A,2551.6962,N,07949.0267,W,3.4,313.7,250615,7.1,"
"##MN-00 00 56 0223 02906 6583 353776 023907 198"
"176.85956"
"$GPRMC,203743,A,2551.6989,N,07949.0298,W,3.4,313.6,250615,7.1,"
"##MN-00 00 55 0224 02905 6582 441848 023897 198"
"176.859607"
"$GPRMC,203747,A,2551.7014,N,07949.0332,W,3.4,313.4,250615,7.1,"
"##MN-00 00 53 0225 02904 6580 846320 023898 198"
"176.859653"
"$GPRMC,203751,A,2551.7042,N,07949.0362,W,3.4,313.4,250615,7.1,"
"##MN-00 00 56 0226 02905 6579 195672 023899 198"
"176.859699"
"$GPRMC,203755,A,2551.7068,N,07949.0391,W,3.3,313.8,250615,7.1,"
"##MN-00 00 54 0227 02906 6577 720408 023892 198"
"176.859745"
"$GPRMC,203759,A,2551.7093,N,07949.0423,W,3.3,313.4,250615,7.1,"
"##MN-00 00 55 0228 02904 6576 033040 023904 198"
"176.859792"
"$GPRMC,203803,A,2551.7119,N,07949.0453,W,3.3,313.7,250615,7.1,"
"##MN-00 00 56 0229 02904 6575 317664 023900 198"
"176.859838"
"$GPRMC,203807,A,2551.7141,N,07949.0474,W,3.3,313.6,250615,7.1,"
"##MN-00 00 55 0230 02905 6573 022400 023893 198"
"176.859884"
"$GPRMC,203811,A,2551.7173,N,07949.0510,W,3.3,314.1,250615,7.1,"
"##MN-00 00 55 0231 02905 6572 583344 023899 198"
"176.859931"
"$GPRMC,203815,A,2551.7191,N,07949.0535,W,3.3,313.9,250615,7.1,"
"##MN-00 00 54 0232 02905 6570 025040 023901 198"
"176.859977"
"$GPRMC,203819,A,2551.7217,N,07949.0565,W,3.3,313.9,250615,7.1,"
"##MN-00 00 54 0233 02906 6568 826048 023908 198"
"176.860023"
"$GPRMC,203823,A,2551.7249,N,07949.0603,W,3.3,313.6,250615,7.1,"
"##MN-00 00 54 0234 02904 6567 576728 023897 198"
"176.860069"
"$GPRMC,203827,A,2551.7276,N,07949.0630,W,3.3,313.7,250615,7.1,"
"##MN-00 00 55 0235 02905 6566 011776 023902 198"
"176.860116"
"$GPRMC,203831,A,2551.7302,N,07949.0659,W,3.3,313.7,250615,7.1,"
"##MN-00 00 55 0237 02905 6564 296904 023909 198"
"176.860162"
"$GPRMC,203835,A,2551.7327,N,07949.0688,W,3.3,313.9,250615,7.1,"
"##MN-00 00 54 0238 02905 6563 019040 023913 198"
"176.860208"
"$GPRMC,203839,A,2551.7350,N,07949.0717,W,3.2,313.8,250615,7.1,"
"##MN-00 00 55 0239 02904 6562 691776 023912 198"
"176.860255"
"$GPRMC,203843,A,2551.7375,N,07949.0746,W,3.2,314.0,250615,7.1,"
"##MN-00 00 53 0240 02906 6560 323968 023903 198"
"176.860301"
"$GPRMC,203847,A,2551.7399,N,07949.0775,W,3.2,314.1,250615,7.1,"
"##MN-00 00 55 0241 02905 6559 156824 023904 198"
"176.860359"
"$GPRMC,203851,A,2551.7424,N,07949.0806,W,3.2,314.2,250615,7.1,"
"##MN-00 00 54 0242 02906 6557 284200 023902 198"
"176.860405"
"$GPRMC,203855,A,2551.7447,N,07949.0831,W,3.2,313.9,250615,7.1,"
"##MN-00 00 55 0243 02905 6556 568816 023900 198"
"176.860451"
"$GPRMC,203859,A,2551.7471,N,07949.0860,W,3.2,313.9,250615,7.1,"
"##MN-00 00 55 0244 02906 6555 526392 023908 198"
"176.860498"
"$GPRMC,203903,A,2551.7495,N,07949.0889,W,3.2,313.7,250615,7.1,"
"##MN-00 00 54 0245 02905 6553 793312 023905 198"
"176.860544"
"$GPRMC,203907,A,2551.7522,N,07949.0915,W,3.3,313.6,250615,7.1,"
"##MN-00 00 54 0246 02905 6552 268184 023914 198"
"176.86059"
"$GPRMC,203911,A,2551.7551,N,07949.0943,W,3.3,313.7,250615,7.1,"
"##MN-00 00 56 0247 02905 6551 790688 023925 198"
"176.860637"
"$GPRMC,203915,A,2551.7578,N,07949.0972,W,3.3,313.4,250615,7.1,"
"##MN-00 00 54 0248 02906 6549 790752 023912 198"
"176.860683"
"$GPRMC,203919,A,2551.7607,N,07949.1002,W,3.3,313.7,250615,7.1,"
"##MN-00 00 53 0249 02906 6548 537032 023913 198"
"176.860729"
"$GPRMC,203923,A,2551.7635,N,07949.1033,W,3.4,313.6,250615,7.1,"
"##MN-00 00 54 0250 02905 6547 283136 023918 198"
"176.860775"
"$GPRMC,203927,A,2551.7664,N,07949.1066,W,3.4,313.9,250615,7.1,"
"##MN-00 00 55 0251 02905 6545 798320 023933 198"
"176.860822"
"$GPRMC,203931,A,2551.7692,N,07949.1096,W,3.4,313.8,250615,7.1,"
"##MN-00 00 55 0252 02907 6544 029488 023929 198"
"176.860868"
"$GPRMC,203935,A,2551.7719,N,07949.1128,W,3.4,313.7,250615,7.1,"
"##MN+00 00 55 0253 02905 6542 416384 023924 198"
"176.860914"
"$GPRMC,203939,A,2551.7746,N,07949.1158,W,3.4,313.8,250615,7.1,"
"##MN+00 00 54 0254 02906 6541 031424 023921 198"
"176.860961"
"$GPRMC,203943,A,2551.7773,N,07949.1189,W,3.3,313.7,250615,7.1,"
"##MN+00 00 56 0255 02905 6540 418232 023900 198"
"176.861007"
"#increment_net"
"$GPRMC,203947,A,2551.7800,N,07949.1221,W,3.3,313.4,250615,7.1,"
"##MN-00 00 54 0256 02907 6538 537600 023907 198"
"176.861053"
"$GPRMC,203951,A,2551.7826,N,07949.1251,W,3.4,313.6,250615,7.1,"
"##MN-00 00 56 0257 02906 6537 781088 023892 198"
"176.8611"
"$GPRMC,203956,A,2551.7859,N,07949.1290,W,3.3,313.5,250615,7.1,"
"##MN-00 00 56 0258 02907 6535 665856 023894 198"
"176.861146"
"$GPRMC,203959,A,2551.7878,N,07949.1312,W,3.3,313.8,250615,7.1,"
"##MN-00 00 53 0259 02907 6534 781184 023899 198"
"176.861192"
"$GPRMC,204004,A,2551.7907,N,07949.1351,W,3.3,313.5,250615,7.1,"
"##MN-00 00 54 0260 02908 6533 663224 023918 198"
"176.861238"
"$GPRMC,204007,A,2551.7927,N,07949.1373,W,3.3,313.5,250615,7.1,"
"##MN-00 00 55 0261 02908 6532 019904 023904 198"
"176.861285"
"$GPRMC,204012,A,2551.7960,N,07949.1410,W,3.3,313.9,250615,7.1,"
"##MN-00 00 55 0262 02904 6531 649848 023907 198"
"176.861331"
"$GPRMC,204016,A,2551.7982,N,07949.1439,W,3.3,313.8,250615,7.1,"
"##MN-00 00 55 0263 02907 6529 522144 023907 198"
"176.861377"
"$GPRMC,204020,A,2551.8008,N,07949.1468,W,3.3,313.9,250615,7.1,"
"##MN-00 00 55 0264 02908 6528 399688 023907 198"
"176.861424"
"$GPRMC,204024,A,2551.8035,N,07949.1497,W,3.3,313.9,250615,7.1,"
"##MN-00 00 54 0266 02907 6527 763096 023916 198"
"176.86147"
"$GPRMC,204028,A,2551.8062,N,07949.1526,W,3.2,314.3,250615,7.1,"
"##MN-00 00 56 0267 02908 6525 519536 023912 198"
"176.861516"
"$GPRMC,204032,A,2551.8089,N,07949.1557,W,3.3,314.2,250615,7.1,"
"##MN-00 00 54 0268 02909 6524 513336 023906 198"
"176.861562"
"$GPRMC,204036,A,2551.8112,N,07949.1587,W,3.3,314.2,250615,7.1,"
"##MN-00 00 54 0269 02908 6523 764448 023917 198"
"176.861609"
"$GPRMC,204040,A,2551.8138,N,07949.1618,W,3.3,314.1,250615,7.1,"
"##MN-00 00 56 0270 02908 6522 636720 023919 198"
"176.861655"
"$GPRMC,204044,A,2551.8163,N,07949.1647,W,3.3,313.9,250615,7.1,"
"##MN-00 00 53 0271 02909 6520 266624 023920 198"
"176.861701"
"$GPRMC,204048,A,2551.8185,N,07949.1676,W,3.3,314.0,250615,7.1,"
"##MN-00 00 56 0272 02912 6519 638568 023918 198"
"176.861748"
"$GPRMC,204052,A,2551.8209,N,07949.1705,W,3.3,313.9,250615,7.1,"
"##MN-00 00 53 0273 02908 6517 631032 023916 198"
"176.861794"
"$GPRMC,204056,A,2551.8234,N,07949.1734,W,3.3,314.1,250615,7.1,"
"##MN-00 00 53 0274 02910 6516 498416 023928 198"
"176.86184"
"$GPRMC,204100,A,2551.8261,N,07949.1763,W,3.3,313.5,250615,7.1,"
"##MN-00 00 53 0275 02906 6515 503272 023913 198"
"176.861887"
"$GPRMC,204104,A,2551.8288,N,07949.1792,W,3.3,313.6,250615,7.1,"
"##MN-00 00 54 0276 02910 6514 993536 023916 198"
"176.861933"
"$GPRMC,204108,A,2551.8313,N,07949.1821,W,3.3,313.3,250615,7.1,"
"##MN-00 00 52 0277 02909 6512 621752 023932 198"
"176.861979"
"$GPRMC,204112,A,2551.8342,N,07949.1853,W,3.3,313.6,250615,7.1,"
"##MN-00 00 54 0278 02910 6511 241792 023938 198"
"176.862025"
"$GPRMC,204116,A,2551.8371,N,07949.1883,W,3.4,313.9,250615,7.1,"
"##MN-00 00 54 0279 02910 6510 739664 023948 198"
"176.862072"
"$GPRMC,204120,A,2551.8400,N,07949.1916,W,3.5,313.7,250615,7.1,"
"##MN-00 00 55 0280 02909 6508 729960 023944 198"
"176.862118"
"$GPRMC,204124,A,2551.8429,N,07949.1948,W,3.5,314.1,250615,7.1,"
"##MN-00 00 54 0281 02909 6508 480624 023939 198"
"176.862164"
"$GPRMC,204128,A,2551.8455,N,07949.1980,W,3.5,313.8,250615,7.1,"
"##MN-00 00 54 0282 02910 6506 480192 023933 198"
"176.862211"
"$GPRMC,204132,A,2551.8481,N,07949.2010,W,3.5,313.9,250615,7.1,"
"##MN-00 00 54 0283 02909 6505 236608 023944 198"
"176.862257"
"$GPRMC,204136,A,2551.8506,N,07949.2041,W,3.5,313.8,250615,7.1,"
"##MN-00 00 54 0284 02909 6503 478440 023935 198"
"176.862303"
"$GPRMC,204140,A,2551.8534,N,07949.2074,W,3.5,314.1,250615,7.1,"
"##MN-00 00 55 0285 02912 6502 492272 023936 198"
"176.86235"
"$GPRMC,204144,A,2551.8560,N,07949.2104,W,3.5,314.0,250615,7.1,"
"##MN-00 00 56 0286 02911 6501 473592 023946 198"
"176.862396"
"$GPRMC,204148,A,2551.8586,N,07949.2135,W,3.5,313.9,250615,7.1,"
"##MN+00 00 55 0287 02910 6500 987488 023940 198"
"176.862442"
"$GPRMC,204152,A,2551.8613,N,07949.2165,W,3.5,314.0,250615,7.1,"
"##MN+00 00 55 0288 02911 6499 480768 023932 198"
"176.862488"
"$GPRMC,204156,A,2551.8638,N,07949.2196,W,3.4,314.0,250615,7.1,"
"##MN+00 00 56 0289 02909 6497 480824 023918 198"
"176.862535"
"#increment_net"
"$GPRMC,204200,A,2551.8662,N,07949.2225,W,3.3,313.9,250615,7.1,"
"##MN-00 00 55 0290 02910 6496 480864 023904 198"
"176.862581"
"$GPRMC,204204,A,2551.8686,N,07949.2252,W,3.3,313.7,250615,7.1,"
"##MN-00 00 52 0291 02910 6495 359248 023909 198"
"176.862627"
"$GPRMC,204208,A,2551.8712,N,07949.2281,W,3.3,314.2,250615,7.1,"
"##MN-00 00 53 0292 02911 6494 978640 023909 198"
"176.862674"
"$GPRMC,204212,A,2551.8741,N,07949.2312,W,3.3,314.2,250615,7.1,"
"##MN-00 00 53 0293 02910 6492 480872 023905 198"
"176.86272"
"$GPRMC,204216,A,2551.8766,N,07949.2341,W,3.3,314.6,250615,7.1,"
"##MN-00 00 53 0295 02911 6491 480896 023913 198"
"176.862766"
"$GPRMC,204220,A,2551.8792,N,07949.2371,W,3.3,314.4,250615,7.1,"
"##MN-00 00 54 0296 02911 6490 605112 023923 198"
"176.862813"
"$GPRMC,204224,A,2551.8816,N,07949.2400,W,3.3,314.4,250615,7.1,"
"##MN-00 00 53 0297 02910 6489 472960 023925 198"
"176.862859"
"$GPRMC,204228,A,2551.8842,N,07949.2429,W,3.3,314.5,250615,7.1,"
"##MN-00 00 54 0298 02910 6487 469856 023920 198"
"176.862905"
"$GPRMC,204232,A,2551.8867,N,07949.2458,W,3.3,314.0,250615,7.1,"
"##MN-00 00 54 0299 02909 6486 466296 023929 198"
"176.862951"
"$GPRMC,204236,A,2551.8893,N,07949.2489,W,3.3,314.4,250615,7.1,"
"##MN-00 00 54 0300 02910 6485 464064 023917 198"
"176.862998"
"$GPRMC,204240,A,2551.8920,N,07949.2518,W,3.3,314.4,250615,7.1,"
"##MN-00 00 53 0301 02910 6484 462312 023925 198"
"176.863044"
"$GPRMC,204244,A,2551.8953,N,07949.2550,W,3.3,314.3,250615,7.1,"
"##MN-00 00 53 0302 02911 6483 462336 023932 198"
"176.86309"
"$GPRMC,204248,A,2551.8979,N,07949.2580,W,3.3,314.1,250615,7.1,"
"##MN-00 00 55 0303 02909 6482 461448 023920 198"
"176.863137"
"$GPRMC,204252,A,2551.9004,N,07949.2612,W,3.3,314.1,250615,7.1,"
"##MN-00 00 54 0304 02910 6480 456976 023931 198"
"176.863183"
"$GPRMC,204256,A,2551.9030,N,07949.2644,W,3.3,313.8,250615,7.1,"
"##MN-00 00 54 0305 02910 6479 455184 023934 198"
"176.863229"
"$GPRMC,204300,A,2551.9059,N,07949.2675,W,3.4,313.7,250615,7.1,"
"##MN-00 00 54 0306 02909 6478 454320 023935 198"
"176.863275"
"$GPRMC,204304,A,2551.9088,N,07949.2707,W,3.5,314.0,250615,7.1,"
"##MN-00 00 53 0307 02910 6477 453496 023937 198"
"176.863322"
"$GPRMC,204308,A,2551.9116,N,07949.2738,W,3.5,313.8,250615,7.1,"
"##MN-00 00 55 0308 02908 6476 459672 023936 198"
"176.863368"
"$GPRMC,204312,A,2551.9142,N,07949.2767,W,3.5,314.1,250615,7.1,"
"##MN-00 00 53 0309 02909 6475 947760 023944 198"
"176.863414"
"$GPRMC,204316,A,2551.9170,N,07949.2797,W,3.5,314.2,250615,7.1,"
"##MN-00 00 54 0310 02909 6473 449960 023942 198"
"176.863461"
"$GPRMC,204320,A,2551.9196,N,07949.2825,W,3.5,314.3,250615,7.1,"
"##MN-00 00 55 0311 02909 6472 448208 023933 198"
"176.863507"
"$GPRMC,204324,A,2551.9221,N,07949.2855,W,3.5,314.2,250615,7.1,"
"##MN-00 00 52 0312 02908 6471 445552 023943 198"
"176.863565"
"$GPRMC,204328,A,2551.9247,N,07949.2887,W,3.5,314.3,250615,7.1,"
"##MN-00 00 53 0313 02909 6470 447360 023934 198"
"176.863611"
"$GPRMC,204332,A,2551.9275,N,07949.2917,W,3.5,314.3,250615,7.1,"
"##MN-00 00 55 0314 02907 6469 443344 023942 198"
"176.863657"
"$GPRMC,204336,A,2551.9303,N,07949.2949,W,3.5,314.5,250615,7.1,"
"##MN-00 00 53 0315 02908 6468 440240 023941 198"
"176.863704"
"$GPRMC,204340,A,2551.9329,N,07949.2980,W,3.5,314.4,250615,7.1,"
"##MN-00 00 54 0316 02907 6466 438488 023945 198"
"176.86375"
"$GPRMC,204344,A,2551.9357,N,07949.3010,W,3.5,314.1,250615,7.1,"
"##MN-00 00 54 0317 02907 6465 430032 023952 198"
"176.863796"
"$GPRMC,204348,A,2551.9383,N,07949.3039,W,3.5,314.2,250615,7.1,"
"##MN-00 00 54 0318 02908 6464 430512 023947 198"
"176.863843"
"$GPRMC,204352,A,2551.9411,N,07949.3069,W,3.4,314.7,250615,7.1,"
"##MN+00 00 54 0319 02907 6463 429136 023942 198"
"176.863889"
"$GPRMC,204356,A,2551.9435,N,07949.3100,W,3.4,314.3,250615,7.1,"
"##MN+00 00 54 0320 02909 6462 424256 023968 198"
"176.863935"
"$GPRMC,204400,A,2551.9462,N,07949.3129,W,3.3,314.8,250615,7.1,"
"##MN+00 00 52 0321 02907 6461 424712 023972 198"
"176.863981"
"$GPRMC,204404,A,2551.9488,N,07949.3158,W,3.3,314.5,250615,7.1,"
"##MN-00 00 49 0322 02907 6460 425216 023961 198"
"176.864028"
"#increment_net"
"$GPRMC,204408,A,2551.9511,N,07949.3186,W,3.3,314.5,250615,7.1,"
"##MN-00 00 51 0324 02907 6459 424320 023960 198"
"176.864074"
"$GPRMC,204412,A,2551.9536,N,07949.3217,W,3.2,314.6,250615,7.1,"
"##MN-00 00 50 0325 02907 6457 679904 023973 198"
"176.86412"
"$GPRMC,204416,A,2551.9563,N,07949.3248,W,3.3,314.6,250615,7.1,"
"##MN-00 00 51 0326 02905 6456 304152 023968 198"
"176.864167"
"$GPRMC,204420,A,2551.9592,N,07949.3277,W,3.3,315.1,250615,7.1,"
"##MN-00 00 49 0327 02905 6455 424464 023949 198"
"176.864213"
"$GPRMC,204424,A,2551.9619,N,07949.3309,W,3.4,315.0,250615,7.1,"
"##MN-00 00 50 0328 02906 6454 680880 023931 198"
"176.864259"
"$GPRMC,204428,A,2551.9644,N,07949.3338,W,3.3,315.1,250615,7.1,"
"##MN-00 00 49 0329 02907 6453 672472 023923 198"
"176.864306"
"$GPRMC,204432,A,2551.9672,N,07949.3370,W,3.3,314.8,250615,7.1,"
"##MN-00 00 50 0330 02908 6452 182176 023924 198"
"176.864352"
"$GPRMC,204437,A,2551.9706,N,07949.3410,W,3.3,315.1,250615,7.1,"
"##MN-00 00 52 0331 02906 6450 421800 023924 198"
"176.864398"
"$GPRMC,204441,A,2551.9738,N,07949.3440,W,3.3,315.0,250615,7.1,"
"##MN-00 00 49 0332 02908 6450 684432 023914 198"
"176.864444"
"$GPRMC,204444,A,2551.9758,N,07949.3461,W,3.4,315.2,250615,7.1,"
"##MN-00 00 51 0333 02907 6448 423128 023908 198"
"176.864491"
"$GPRMC,204448,A,2551.9785,N,07949.3490,W,3.4,315.0,250615,7.1,"
"##MN-00 00 51 0334 02906 6447 924992 023896 198"
"176.864537"
"$GPRMC,204452,A,2551.9813,N,07949.3519,W,3.5,314.9,250615,7.1,"
"##MN-00 00 50 0335 02905 6446 424960 023914 198"
"176.864583"
"$GPRMC,204457,A,2551.9847,N,07949.3555,W,3.5,314.6,250615,7.1,"
"##MN-00 00 51 0336 02907 6445 420096 023927 198"
"176.86463"
"$GPRMC,204500,A,2551.9868,N,07949.3578,W,3.5,314.3,250615,7.1,"
"##MN-00 00 51 0337 02907 6444 178720 023928 198"
"176.864676"
"$GPRMC,204505,A,2551.9903,N,07949.3616,W,3.5,314.3,250615,7.1,"
"##MN-00 00 51 0338 02908 6443 663712 023921 198"
"176.864722"
"$GPRMC,204508,A,2551.9924,N,07949.3641,W,3.5,314.5,250615,7.1,"
"##MN-00 00 50 0339 02908 6442 170768 023931 198"
"176.864769"
"$GPRMC,204512,A,2551.9951,N,07949.3672,W,3.5,314.5,250615,7.1,"
"##MN-00 00 50 0340 02906 6441 658392 023940 198"
"176.864815"
"$GPRMC,204517,A,2551.9987,N,07949.3712,W,3.5,314.4,250615,7.1,"
"##MN-00 00 50 0341 02906 6440 409520 023934 198"
"176.864861"
"$GPRMC,204521,A,2552.0015,N,07949.3743,W,3.5,314.8,250615,7.1,"
"##MN-00 00 51 0342 02907 6439 408144 023921 198"
"176.864907"
"$GPRMC,204525,A,2552.0040,N,07949.3772,W,3.5,314.6,250615,7.1,"
"##MN-00 00 50 0343 02907 6438 405536 023923 198"
"176.864954"
"$GPRMC,204529,A,2552.0066,N,07949.3801,W,3.4,314.8,250615,7.1,"
"##MN-00 00 49 0344 02907 6436 154752 023938 198"
"176.865"
"$GPRMC,204533,A,2552.0092,N,07949.3830,W,3.3,314.6,250615,7.1,"
"##MN-00 00 51 0345 02906 6435 408632 023920 198"
"176.865046"
"$GPRMC,204537,A,2552.0114,N,07949.3853,W,3.4,314.6,250615,7.1,"
"##MN-00 00 51 0346 02906 6435 399728 023929 198"
"176.865093"
"$GPRMC,204541,A,2552.0148,N,07949.3891,W,3.3,314.5,250615,7.1,"
"##MN-00 00 51 0347 02907 6434 402400 023943 198"
"176.865139"
"$GPRMC,204545,A,2552.0179,N,07949.3923,W,3.3,314.9,250615,7.1,"
"##MN-00 00 50 0348 02907 6432 897568 023930 198"
"176.865185"
"$GPRMC,204549,A,2552.0207,N,07949.3952,W,3.4,315.2,250615,7.1,"
"##MN-00 00 51 0349 02908 6431 396656 023922 198"
"176.865232"
"$GPRMC,204553,A,2552.0236,N,07949.3983,W,3.3,315.3,250615,7.1,"
"##MN-00 00 51 0350 02908 6430 397072 023939 198"
"176.865278"
"$GPRMC,204557,A,2552.0260,N,07949.4010,W,3.3,315.4,250615,7.1,"
"##MN-00 00 50 0352 02910 6429 396232 023939 198"
"176.865324"
"$GPRMC,204601,A,2552.0280,N,07949.4036,W,3.3,315.5,250615,7.1,"
"##MN+00 00 49 0353 02909 6428 390432 023943 198"
"176.86537"
"$GPRMC,204605,A,2552.0309,N,07949.4068,W,3.3,315.5,250615,7.1,"
"##MN+00 00 49 0354 02908 6427 162016 023926 198"
"176.865417"
"$GPRMC,204609,A,2552.0338,N,07949.4098,W,3.3,315.4,250615,7.1,"
"##MN+00 00 52 0355 02907 6426 388680 023942 198"
"176.865463"
"$GPRMC,204613,A,2552.0365,N,07949.4129,W,3.3,315.3,250615,7.1,"
"##MN-00 00 52 0356 02908 6425 900320 023930 198"
"176.865509"
"$GPRMC,204617,A,2552.0391,N,07949.4158,W,3.3,315.3,250615,7.1,"
"##MN-00 00 51 0357 02909 6424 387864 023939 198"
"176.865556"
"#increment_net"
"$GPRMC,204621,A,2552.0417,N,07949.4189,W,3.4,315.3,250615,7.1,"
"##MN-00 00 54 0358 02909 6423 386512 023931 198"
"176.865602"
"$GPRMC,204625,A,2552.0446,N,07949.4220,W,3.4,315.0,250615,7.1,"
"##MN-00 00 50 0359 02907 6422 386080 023935 198"
"176.865648"
"$GPRMC,204629,A,2552.0471,N,07949.4249,W,3.4,315.1,250615,7.1,"
"##MN-00 00 51 0360 02907 6421 384752 023938 198"
"176.865694"
"$GPRMC,204633,A,2552.0496,N,07949.4277,W,3.3,314.9,250615,7.1,"
"##MN-00 00 51 0361 02910 6420 382560 023931 198"
"176.865741"
"$GPRMC,204637,A,2552.0522,N,07949.4306,W,3.3,314.9,250615,7.1,"
"##MN-00 00 51 0362 02909 6419 376336 023931 198"
"176.865787"
"$GPRMC,204641,A,2552.0550,N,07949.4335,W,3.4,315.0,250615,7.1,"
"##MN-00 00 54 0363 02909 6418 375008 023931 198"
"176.865833"
"$GPRMC,204645,A,2552.0576,N,07949.4366,W,3.5,314.9,250615,7.1,"
"##MN-00 00 52 0364 02911 6417 370552 023944 198"
"176.86588"
"$GPRMC,204649,A,2552.0605,N,07949.4397,W,3.5,315.0,250615,7.1,"
"##MN-00 00 54 0365 02907 6416 368736 023949 198"
"176.865926"
"$GPRMC,204653,A,2552.0634,N,07949.4426,W,3.5,314.9,250615,7.1,"
"##MN-00 00 54 0366 02909 6415 363872 023943 198"
"176.865972"
"$GPRMC,204657,A,2552.0661,N,07949.4456,W,3.5,315.2,250615,7.1,"
"##MN-00 00 54 0367 02906 6414 375904 023950 198"
"176.866019"
"$GPRMC,204701,A,2552.0688,N,07949.4487,W,3.5,314.9,250615,7.1,"
"##MN-00 00 54 0368 02907 6413 367912 023940 198"
"176.866065"
"$GPRMC,204705,A,2552.0717,N,07949.4517,W,3.5,314.8,250615,7.1,"
"##MN-00 00 51 0369 02908 6412 367952 023934 198"
"176.866111"
"$GPRMC,204709,A,2552.0745,N,07949.4548,W,3.5,314.6,250615,7.1,"
"##MN-00 00 52 0370 02906 6411 367976 023951 198"
"176.866157"
"$GPRMC,204713,A,2552.0771,N,07949.4578,W,3.4,315.1,250615,7.1,"
"##MN-00 00 52 0371 02907 6410 367992 023949 198"
"176.866204"
"$GPRMC,204717,A,2552.0800,N,07949.4608,W,3.4,314.9,250615,7.1,"
"##MN-00 00 53 0372 02907 6409 368032 023965 198"
"176.86625"
"$GPRMC,204721,A,2552.0822,N,07949.4636,W,3.4,315.0,250615,7.1,"
"##MN-00 00 51 0373 02907 6408 248648 023951 198"
"176.866296"
"$GPRMC,204725,A,2552.0847,N,07949.4665,W,3.3,314.8,250615,7.1,"
"##MN-00 00 54 0374 02906 6407 368032 023950 198"
"176.866343"
"$GPRMC,204729,A,2552.0876,N,07949.4697,W,3.3,314.6,250615,7.1,"
"##MN-00 00 53 0375 02906 6406 615544 023943 198"
"176.866389"
"$GPRMC,204733,A,2552.0898,N,07949.4725,W,3.3,314.6,250615,7.1,"
"##MN-00 00 50 0376 02905 6405 368016 023945 198"
"176.866435"
"$GPRMC,204737,A,2552.0927,N,07949.4755,W,3.3,314.9,250615,7.1,"
"##MN-00 00 53 0377 02904 6404 368032 023944 198"
"176.866481"
"$GPRMC,204741,A,2552.0955,N,07949.4787,W,3.3,314.8,250615,7.1,"
"##MN-00 00 53 0378 02906 6403 368000 023931 198"
"176.866528"
"$GPRMC,204745,A,2552.0980,N,07949.4814,W,3.3,315.1,250615,7.1,"
"##MN-00 00 52 0379 02906 6402 246864 023934 198"
"176.866574"
"$GPRMC,204749,A,2552.1008,N,07949.4845,W,3.3,314.9,250615,7.1,"
"##MN-00 00 53 0380 02905 6401 363624 023922 198"
"176.86662"
"$GPRMC,204753,A,2552.1035,N,07949.4874,W,3.3,314.8,250615,7.1,"
"##MN-00 00 51 0381 02904 6400 378784 023925 198"
"176.866667"
"$GPRMC,204757,A,2552.1060,N,07949.4904,W,3.3,314.6,250615,7.1,"
"##MN-00 00 54 0382 02903 6399 615200 023923 198"
"176.866713"
"$GPRMC,204801,A,2552.1086,N,07949.4933,W,3.3,314.7,250615,7.1,"
"##MN-00 00 53 0383 02906 6398 366320 023938 198"
"176.866759"
"$GPRMC,204805,A,2552.1114,N,07949.4962,W,3.3,314.8,250615,7.1,"
"##MN-00 00 54 0384 02905 6397 359632 023932 198"
"176.866817"
"$GPRMC,204809,A,2552.1140,N,07949.4990,W,3.3,314.7,250615,7.1,"
"##MN-00 00 52 0385 02907 6397 363680 023945 198"
"176.866863"
"$GPRMC,204813,A,2552.1167,N,07949.5018,W,3.3,314.7,250615,7.1,"
"##MN-00 00 52 0386 02906 6396 358328 023950 198"
"176.86691"
"$GPRMC,204817,A,2552.1194,N,07949.5047,W,3.3,314.9,250615,7.1,"
"##MN-00 00 53 0387 02905 6395 356544 023932 198"
"176.866956"
"$GPRMC,204821,A,2552.1221,N,07949.5076,W,3.4,314.9,250615,7.1,"
"##MN+00 00 54 0388 02905 6394 232736 023951 198"
"176.867002"
"$GPRMC,204825,A,2552.1248,N,07949.5105,W,3.4,314.9,250615,7.1,"
"##MN+00 00 53 0389 02904 6393 603712 023934 198"
"176.867049"
"$GPRMC,204829,A,2552.1277,N,07949.5135,W,3.4,315.0,250615,7.1,"
"##MN+00 00 57 0391 02906 6392 099184 023944 198"
"176.867095"
"$GPRMC,204833,A,2552.1306,N,07949.5166,W,3.5,314.8,250615,7.1,"
"##MN-00 00 52 0392 02905 6391 361112 023916 198"
"176.867141"
"$GPRMC,204837,A,2552.1335,N,07949.5197,W,3.5,314.6,250615,7.1,"
"##MN-00 00 51 0393 02907 6390 341520 023903 198"
"176.867188"
"#increment_net"
"$GPRMC,204841,A,2552.1362,N,07949.5229,W,3.5,314.0,250615,7.1,"
"##MN-00 00 50 0394 02906 6389 353576 023898 198"
"176.867234"
"$GPRMC,204845,A,2552.1389,N,07949.5261,W,3.5,313.6,250615,7.1,"
"##MN-00 00 48 0395 02906 6388 337936 023885 198"
"176.86728"
"$GPRMC,204849,A,2552.1414,N,07949.5293,W,3.5,313.3,250615,7.1,"
"##MN-00 00 51 0396 02907 6387 349528 023881 198"
"176.867326"
"$GPRMC,204853,A,2552.1442,N,07949.5325,W,3.5,313.2,250615,7.1,"
"##MN-00 00 51 0398 02909 6386 345568 023891 198"
"176.867373"
"$GPRMC,204858,A,2552.1474,N,07949.5365,W,3.5,312.7,250615,7.1,"
"##MN+00 00 50 0399 02911 6386 341536 023883 198"
"176.867419"
"$GPRMC,204901,A,2552.1492,N,07949.5387,W,3.4,312.3,250615,7.1,"
"##MN+00 00 50 0400 02912 6384 341584 023886 198"
"176.867465"
"$GPRMC,204905,A,2552.1512,N,07949.5416,W,3.4,312.1,250615,7.1,"
"##MN+00 00 46 0401 02914 6383 341584 023891 198"
"176.867512"
"$GPRMC,204910,A,2552.1544,N,07949.5455,W,3.4,312.0,250615,7.1,"
"##MN-00 00 49 0402 02917 6383 338472 023890 198"
"176.867558"
"$GPRMC,204913,A,2552.1568,N,07949.5480,W,3.4,312.2,250615,7.1,"
"##MN-00 00 50 0403 02916 6381 336336 023880 198"
"176.867604"
"$GPRMC,204917,A,2552.1598,N,07949.5511,W,3.3,312.0,250615,7.1,"
"##MN-00 00 45 0404 02920 6381 339912 023887 198"
"176.86765"
"$GPRMC,204922,A,2552.1631,N,07949.5550,W,3.3,311.9,250615,7.1,"
"##MN-00 00 49 0406 02921 6380 338128 023890 198"
"176.867697"
"$GPRMC,204926,A,2552.1651,N,07949.5581,W,3.3,311.9,250615,7.1,"
"##MN-00 00 46 0407 02920 6379 337664 023872 198"
"176.867743"
"$GPRMC,204930,A,2552.1671,N,07949.5611,W,3.3,312.0,250615,7.1,"
"##MN-00 00 48 0408 02923 6378 335440 023892 198"
"176.867789"
"$GPRMC,204934,A,2552.1695,N,07949.5640,W,3.3,311.6,250615,7.1,"
"##MN-00 00 46 0409 02926 6377 323840 023880 198"
"176.867836"
"$GPRMC,204938,A,2552.1716,N,07949.5669,W,3.3,311.8,250615,7.1,"
"##MN-00 00 41 0410 02928 6376 331888 023886 198"
"176.867882"
"$GPRMC,204942,A,2552.1743,N,07949.5701,W,3.3,311.3,250615,7.1,"
"##MN-00 00 47 0412 02928 6375 342592 023886 198"
"176.867928"
"$GPRMC,204946,A,2552.1772,N,07949.5730,W,3.3,311.5,250615,7.1,"
"##MN-00 00 47 0413 02929 6375 328752 023880 198"
"176.867975"
"$GPRMC,204950,A,2552.1797,N,07949.5760,W,3.3,311.7,250615,7.1,"
"##MN-00 00 48 0414 02931 6374 326544 023898 198"
"176.868021"
"$GPRMC,204954,A,2552.1825,N,07949.5791,W,3.3,311.7,250615,7.1,"
"##MN-00 00 51 0415 02932 6373 327032 023882 198"
"176.868067"
"$GPRMC,204958,A,2552.1851,N,07949.5824,W,3.3,312.1,250615,7.1,"
"##MN-00 00 46 0417 02930 6372 329280 023896 198"
"176.868113"
"$GPRMC,205002,A,2552.1870,N,07949.5846,W,3.4,311.7,250615,7.1,"
"##MN-00 00 46 0418 02932 6371 323480 023879 198"
"176.86816"
"$GPRMC,205006,A,2552.1905,N,07949.5885,W,3.4,312.2,250615,7.1,"
"##MN-00 00 48 0419 02931 6371 315888 023888 198"
"176.868206"
"$GPRMC,205010,A,2552.1931,N,07949.5919,W,3.5,312.3,250615,7.1,"
"##MN-00 00 49 0420 02930 6370 831536 023897 198"
"176.868252"
"$GPRMC,205014,A,2552.1958,N,07949.5951,W,3.5,312.1,250615,7.1,"
"##MN-00 00 48 0422 02930 6369 318592 023900 198"
"176.868299"
"$GPRMC,205018,A,2552.1985,N,07949.5983,W,3.5,312.1,250615,7.1,"
"##MN-00 00 45 0423 02930 6368 313248 023893 198"
"176.868345"
"$GPRMC,205022,A,2552.2011,N,07949.6017,W,3.5,312.5,250615,7.1,"
"##MN-00 00 46 0424 02930 6367 315048 023907 198"
"176.868391"
"$GPRMC,205026,A,2552.2039,N,07949.6051,W,3.6,313.0,250615,7.1,"
"##MN-00 00 49 0425 02927 6366 314112 023905 198"
"176.868438"
"$GPRMC,205030,A,2552.2067,N,07949.6084,W,3.6,312.9,250615,7.1,"
"##MN-00 00 48 0426 02926 6365 187232 023906 198"
"176.868484"
"$GPRMC,205034,A,2552.2093,N,07949.6116,W,3.7,313.2,250615,7.1,"
"##MN-00 00 50 0428 02927 6364 310640 023912 198"
"176.86853"
"$GPRMC,205038,A,2552.2122,N,07949.6152,W,3.8,313.3,250615,7.1,"
"##MN-00 00 48 0429 02923 6363 312448 023908 198"
"176.868576"
"$GPRMC,205042,A,2552.2155,N,07949.6189,W,3.8,313.7,250615,7.1,"
"##MN-00 00 44 0430 02922 6363 303088 023914 198"
"176.868623"
"$GPRMC,205046,A,2552.2188,N,07949.6226,W,3.9,314.1,250615,7.1,"
"##MN-00 00 46 0431 02922 6362 328464 023913 198"
"176.868669"
"$GPRMC,205050,A,2552.2220,N,07949.6262,W,4.0,314.1,250615,7.1,"
"##MN-00 00 46 0433 02921 6361 310680 023914 198"
"176.868715"
"$GPRMC,205054,A,2552.2253,N,07949.6298,W,4.1,314.6,250615,7.1,"
"##MN-00 00 48 0434 02921 6360 296416 023913 198"
"176.868762"
"$GPRMC,205058,A,2552.2285,N,07949.6334,W,4.2,314.8,250615,7.1,"
"##MN-00 00 51 0435 02920 6359 314704 023904 198"
"176.868808"
"$GPRMC,205102,A,2552.2320,N,07949.6373,W,4.2,314.9,250615,7.1,"
"##MN-00 00 45 0436 02918 6358 319648 023881 198"
"176.868854"
"$GPRMC,205106,A,2552.2356,N,07949.6410,W,4.3,315.1,250615,7.1,"
"##MN-00 00 48 0438 02916 6357 308984 023881 198"
"176.8689"
"$GPRMC,205110,A,2552.2393,N,07949.6449,W,4.3,315.4,250615,7.1,"
"##MN-00 00 45 0439 02914 6357 567680 023893 198"
"176.868947"
"$GPRMC,205114,A,2552.2430,N,07949.6489,W,4.4,315.7,250615,7.1,"
"##MN-00 00 45 0440 02913 6356 311664 023873 198"
"176.868993"
"$GPRMC,205118,A,2552.2475,N,07949.6528,W,4.5,316.4,250615,7.1,"
"##MN-00 00 47 0441 02909 6355 187392 023889 198"
"176.869039"
"$GPRMC,205122,A,2552.2516,N,07949.6565,W,4.6,316.4,250615,7.1,"
"##MN-00 00 45 0442 02910 6354 309024 023883 198"
"176.869086"
"$GPRMC,205126,A,2552.2556,N,07949.6602,W,4.6,316.7,250615,7.1,"
"##MN-00 00 49 0444 02909 6353 315752 023870 198"
"176.869132"
"$GPRMC,205130,A,2552.2595,N,07949.6638,W,4.6,316.8,250615,7.1,"
"##MN-00 00 47 0445 02904 6353 305504 023880 198"
"176.869178"
"$GPRMC,205134,A,2552.2634,N,07949.6674,W,4.7,316.9,250615,7.1,"
"##MN-00 00 50 0446 02906 6352 314824 023875 198"
"176.869225"
"$GPRMC,205138,A,2552.2671,N,07949.6716,W,4.7,317.2,250615,7.1,"
"##MN-00 00 48 0447 02903 6351 311696 023889 198"
"176.869271"
"$GPRMC,205142,A,2552.2711,N,07949.6753,W,4.8,317.7,250615,7.1,"
"##MN-00 00 47 0449 02900 6350 310808 023884 198"
"176.869317"
"$GPRMC,205146,A,2552.2751,N,07949.6792,W,4.8,318.1,250615,7.1,"
"##MN-00 00 51 0450 02896 6350 305432 023887 198"
"176.869363"
"$GPRMC,205150,A,2552.2791,N,07949.6832,W,4.9,318.3,250615,7.1,"
"##MN-00 00 49 0451 02897 6349 813040 023884 198"
"176.86941"
"$GPRMC,205154,A,2552.2833,N,07949.6875,W,4.9,318.7,250615,7.1,"
"##MN-00 00 50 0453 02893 6348 305440 023881 198"
"176.869456"
"$GPRMC,205158,A,2552.2876,N,07949.6918,W,5.0,319.1,250615,7.1,"
"##MN-00 00 50 0454 02889 6347 304528 023888 198"
"176.869502"
"$GPRMC,205202,A,2552.2917,N,07949.6962,W,5.1,319.4,250615,7.1,"
"##MN-00 00 49 0455 02887 6346 302288 023886 198"
"176.869549"
"$GPRMC,205206,A,2552.2961,N,07949.7002,W,5.1,319.6,250615,7.1,"
"##MN-00 00 50 0456 02885 6346 300992 023900 198"
"176.869595"
"$GPRMC,205210,A,2552.3006,N,07949.7045,W,5.1,320.0,250615,7.1,"
"##MN-00 00 48 0458 02884 6345 298768 023883 198"
"176.869641"
"$GPRMC,205214,A,2552.3053,N,07949.7082,W,5.2,321.0,250615,7.1,"
"##MN-00 00 46 0459 02882 6344 297520 023878 198"
"176.869687"
"$GPRMC,205218,A,2552.3098,N,07949.7121,W,5.2,321.1,250615,7.1,"
"##MN-00 00 50 0460 02878 6343 297912 023893 198"
"176.869734"
"$GPRMC,205222,A,2552.3145,N,07949.7160,W,5.3,321.4,250615,7.1,"
