" Tow: 7CS-B   RVWS/WS15161"
" Date: 25/06/2015"
" Temperature Probe #  4762    Conductivity Probe #  710"
" Pressure Probe #  159"
" Flow Meter Calibration  4.71 (m/count)  "
"176.693762"
"$GPRMC,163857,A,2537.3279,N,07949.3505,W,4.2,313.7,250615,7.1,"
"##MN-00 00 87 0890 01533 5967 963347 802077 194"
"176.693808"
"$GPRMC,163902,A,2537.3321,N,07949.3555,W,4.3,313.7,250615,7.1,"
"##MN-00 00 87 0890 01531 5968 402368 827719 194"
"176.693854"
"$GPRMC,163906,A,2537.3354,N,07949.3595,W,4.4,313.7,250615,7.1,"
"##MN-00 00 87 0890 01531 5969 402238 827720 194"
"176.6939"
"$GPRMC,163910,A,2537.3387,N,07949.3634,W,4.4,313.5,250615,7.1,"
"##MN-00 00 87 0890 01532 5970 402645 827788 194"
"176.693947"
"$GPRMC,163914,A,2537.3419,N,07949.3670,W,4.4,313.0,250615,7.1,"
"##MN-00 00 87 0890 01532 5971 403178 827718 194"
"176.694005"
"$GPRMC,163918,A,2537.3454,N,07949.3707,W,4.4,312.8,250615,7.1,"
"##MN-00 00 87 0890 01533 5972 403106 827786 194"
"176.694051"
"$GPRMC,163922,A,2537.3488,N,07949.3746,W,4.4,312.8,250615,7.1,"
"##MN-00 00 87 0890 01533 5973 402879 827787 194"
"176.694097"
"$GPRMC,163926,A,2537.3523,N,07949.3786,W,4.5,313.1,250615,7.1,"
"##MN-00 00 87 0890 01531 5974 402099 827787 194"
"176.694144"
"$GPRMC,163930,A,2537.3557,N,07949.3826,W,4.5,312.6,250615,7.1,"
"##MN-00 00 87 0890 01532 5975 400784 827787 194"
"176.69419"
"$GPRMC,163934,A,2537.3591,N,07949.3867,W,4.5,312.8,250615,7.1,"
"##MN-00 00 87 0890 01532 5976 400075 827786 194"
"176.694236"
"$GPRMC,163938,A,2537.3625,N,07949.3909,W,4.5,312.4,250615,7.1,"
"##MN-00 00 82 0890 01534 5977 400231 827719 194"
"176.694282"
"$GPRMC,163942,A,2537.3658,N,07949.3950,W,4.5,312.1,250615,7.1,"
"##MN-00 00 73 0890 01533 5979 400708 827785 194"
"176.694329"
"$GPRMC,163946,A,2537.3693,N,07949.3992,W,4.5,311.8,250615,7.1,"
"##MN-00 00 60 0890 01532 5979 401973 827781 194"
"176.694375"
"$GPRMC,163950,A,2537.3718,N,07949.4022,W,4.5,311.6,250615,7.1,"
"##MN-00 00 54 0890 01534 5981 405052 827779 194"
"176.694421"
"$GPRMC,163954,A,2537.3752,N,07949.4064,W,4.5,311.4,250615,7.1,"
"##MN-00 00 55 0890 01531 5982 407868 827709 194"
"176.694468"
"$GPRMC,163958,A,2537.3786,N,07949.4105,W,4.5,311.6,250615,7.1,"
"##MN-00 00 55 0890 01532 5983 409962 827777 194"
"176.694514"
"$GPRMC,164002,A,2537.3817,N,07949.4147,W,4.5,311.1,250615,7.1,"
"##MN-00 00 55 0890 01533 5984 411544 827712 194"
"176.69456"
"$GPRMC,164006,A,2537.3849,N,07949.4188,W,4.5,311.1,250615,7.1,"
"##MN-00 00 56 0890 01532 5985 413024 827782 194"
"176.694606"
"$GPRMC,164010,A,2537.3889,N,07949.4239,W,4.4,310.9,250615,7.1,"
"##MN-00 00 56 0890 01532 5987 413884 827773 194"
"176.694653"
"$GPRMC,164014,A,2537.3922,N,07949.4281,W,4.4,311.2,250615,7.1,"
"##MN-00 00 56 0890 01533 5988 414517 827776 194"
"176.694699"
"$GPRMC,164018,A,2537.3949,N,07949.4310,W,4.4,311.9,250615,7.1,"
"##MN-00 00 55 0890 01534 5989 414928 827779 194"
"176.694745"
"$GPRMC,164022,A,2537.3990,N,07949.4357,W,4.4,312.7,250615,7.1,"
"##MN-00 00 04 0891 01534 5990 433543 208344 194"
"176.694792"
"$GPRMC,164026,A,2537.4023,N,07949.4395,W,4.3,313.1,250615,7.1,"
"##MN-00 00 04 0892 01534 5992 435845 202668 194"
"176.694838"
"$GPRMC,164030,A,2537.4057,N,07949.4433,W,4.3,314.1,250615,7.1,"
"##MN-00 00 07 0893 01534 5993 436128 202759 194"
"176.694884"
"$GPRMC,164034,A,2537.4091,N,07949.4470,W,4.3,315.0,250615,7.1,"
"##MN-00 00 07 0894 01535 5994 436267 202945 194"
"176.694931"
"$GPRMC,164038,A,2537.4128,N,07949.4506,W,4.3,316.4,250615,7.1,"
"##MN-00 00 06 0895 01533 5995 436399 203015 194"
"176.694977"
"$GPRMC,164042,A,2537.4164,N,07949.4541,W,4.3,317.6,250615,7.1,"
"##MN-00 00 04 0896 01534 5997 436479 202967 194"
"176.695023"
"$GPRMC,164046,A,2537.4200,N,07949.4575,W,4.3,318.4,250615,7.1,"
"##MN-00 00 05 0897 01536 5998 436557 202930 194"
"176.695069"
"$GPRMC,164050,A,2537.4236,N,07949.4610,W,4.3,319.3,250615,7.1,"
"##MN-00 00 05 0898 01541 5999 436809 202930 194"
"176.695116"
"$GPRMC,164055,A,2537.4283,N,07949.4653,W,4.3,319.8,250615,7.1,"
"##MN-00 00 05 0899 01544 6000 437000 202989 194"
"176.695162"
"$GPRMC,164059,A,2537.4319,N,07949.4687,W,4.3,320.3,250615,7.1,"
"##MN-00 00 05 0901 01547 6002 437137 203138 194"
"176.695208"
"$GPRMC,164102,A,2537.4347,N,07949.4714,W,4.3,320.5,250615,7.1,"
"##MN-00 00 05 0902 01548 6002 437354 203179 194"
"176.695255"
"$GPRMC,164107,A,2537.4393,N,07949.4755,W,4.3,321.1,250615,7.1,"
"##MN-00 00 05 0903 01549 6004 437781 203229 194"
"176.695301"
"$GPRMC,164111,A,2537.4431,N,07949.4784,W,4.3,321.3,250615,7.1,"
"##MN-00 00 05 0904 01551 6005 438458 203297 194"
"176.695347"
"$GPRMC,164115,A,2537.4467,N,07949.4819,W,4.3,321.5,250615,7.1,"
"##MN-00 00 05 0905 01556 6006 438851 203389 194"
"176.695393"
"$GPRMC,164119,A,2537.4506,N,07949.4855,W,4.3,321.8,250615,7.1,"
"##MN-00 00 05 0906 01555 6007 439326 203575 194"
"176.69544"
"$GPRMC,164123,A,2537.4543,N,07949.4884,W,4.3,321.7,250615,7.1,"
"##MN-00 00 05 0907 01561 6008 439649 203622 194"
"176.695486"
"$GPRMC,164127,A,2537.4582,N,07949.4914,W,4.3,321.8,250615,7.1,"
"##MN-00 00 05 0908 01563 6009 439814 203665 194"
"176.695532"
"$GPRMC,164131,A,2537.4619,N,07949.4946,W,4.3,321.7,250615,7.1,"
"##MN-00 00 05 0909 01568 6010 439896 203637 194"
"176.695579"
"$GPRMC,164135,A,2537.4658,N,07949.4978,W,4.3,321.9,250615,7.1,"
"##MN-00 00 05 0910 01572 6011 439972 203661 194"
"176.695625"
"$GPRMC,164139,A,2537.4695,N,07949.5011,W,4.3,322.1,250615,7.1,"
"##MN-00 00 06 0911 01573 6012 440035 203706 194"
"176.695671"
"$GPRMC,164143,A,2537.4733,N,07949.5043,W,4.3,322.4,250615,7.1,"
"##MN-00 00 05 0912 01575 6013 440083 203764 194"
"176.695718"
"$GPRMC,164147,A,2537.4773,N,07949.5080,W,4.2,322.3,250615,7.1,"
"##MN-00 00 05 0913 01578 6014 440108 203788 194"
"176.695764"
"$GPRMC,164151,A,2537.4811,N,07949.5116,W,4.2,322.2,250615,7.1,"
"##MN-00 00 05 0915 01582 6015 440148 203766 194"
"176.69581"
"$GPRMC,164155,A,2537.4846,N,07949.5146,W,4.2,322.5,250615,7.1,"
"##MN-00 00 05 0916 01585 6016 440171 203802 194"
"176.695856"
"$GPRMC,164159,A,2537.4883,N,07949.5174,W,4.2,322.2,250615,7.1,"
"##MN-00 00 05 0917 01588 6016 440200 203786 194"
"176.695903"
"$GPRMC,164203,A,2537.4919,N,07949.5207,W,4.1,321.7,250615,7.1,"
"##MN-00 00 05 0918 01592 6017 440221 203823 194"
"176.695949"
"$GPRMC,164207,A,2537.4955,N,07949.5239,W,4.1,321.9,250615,7.1,"
"##MN-00 00 05 0919 01594 6018 440251 203833 194"
"176.695995"
"$GPRMC,164211,A,2537.4988,N,07949.5269,W,4.1,321.8,250615,7.1,"
"##MN-00 00 05 0920 01597 6019 440270 203837 194"
"176.696042"
"$GPRMC,164215,A,2537.5024,N,07949.5300,W,4.0,322.1,250615,7.1,"
"##MN-00 00 05 0921 01599 6020 440289 203838 194"
"176.696088"
"$GPRMC,164219,A,2537.5060,N,07949.5332,W,4.2,321.8,250615,7.1,"
"##MN-00 00 05 0922 01602 6020 440300 203855 194"
"176.696134"
"$GPRMC,164223,A,2537.5096,N,07949.5361,W,4.2,322.1,250615,7.1,"
"##MN-00 00 05 0923 01605 6021 440309 203857 194"
"176.696181"
"$GPRMC,164227,A,2537.5132,N,07949.5392,W,4.1,322.2,250615,7.1,"
"##MN-00 00 05 0924 01609 6022 440317 203852 194"
"176.696227"
"$GPRMC,164231,A,2537.5171,N,07949.5426,W,4.1,322.3,250615,7.1,"
"##MN-00 00 05 0925 01612 6022 440327 203859 194"
"176.696273"
"$GPRMC,164235,A,2537.5208,N,07949.5459,W,4.1,322.4,250615,7.1,"
"##MN-00 00 05 0926 01615 6023 440344 203862 194"
"176.696319"
"$GPRMC,164239,A,2537.5247,N,07949.5491,W,4.2,322.6,250615,7.1,"
"##MN-00 00 05 0927 01617 6024 440347 203862 194"
"176.696366"
"$GPRMC,164243,A,2537.5286,N,07949.5524,W,4.2,322.4,250615,7.1,"
"##MN-00 00 05 0928 01619 6024 440347 203867 194"
"176.696412"
"$GPRMC,164247,A,2537.5324,N,07949.5556,W,4.2,322.4,250615,7.1,"
"##MN-00 00 05 0929 01622 6025 440357 203867 194"
"176.696458"
"$GPRMC,164251,A,2537.5363,N,07949.5587,W,4.2,322.2,250615,7.1,"
"##MN-00 00 05 0930 01626 6026 440368 203868 194"
"176.696505"
"$GPRMC,164255,A,2537.5399,N,07949.5619,W,4.2,322.2,250615,7.1,"
"##MN-00 00 05 0931 01629 6026 440368 203869 194"
"176.696551"
"$GPRMC,164259,A,2537.5435,N,07949.5650,W,4.2,322.3,250615,7.1,"
"##MN-00 00 05 0933 01632 6027 440372 203869 194"
"176.696597"
"$GPRMC,164303,A,2537.5471,N,07949.5681,W,4.2,322.3,250615,7.1,"
"##MN-00 00 06 0934 01632 6027 440375 203870 194"
"176.696644"
"$GPRMC,164307,A,2537.5506,N,07949.5712,W,4.2,322.4,250615,7.1,"
"##MN-00 00 06 0935 01631 6028 440383 203872 194"
"176.69669"
"$GPRMC,164311,A,2537.5544,N,07949.5744,W,4.1,322.4,250615,7.1,"
"##MN-00 00 06 0936 01631 6029 440389 203876 194"
"176.696736"
"$GPRMC,164315,A,2537.5579,N,07949.5774,W,4.2,322.4,250615,7.1,"
"##MN-00 00 06 0937 01631 6029 440387 203876 194"
"176.696782"
"$GPRMC,164319,A,2537.5613,N,07949.5805,W,4.2,322.7,250615,7.1,"
"##MN+00 00 06 0938 01633 6030 440380 203877 194"
"176.696829"
"$GPRMC,164323,A,2537.5654,N,07949.5838,W,4.1,322.9,250615,7.1,"
"##MN+00 00 06 0939 01634 6030 440378 203876 194"
"176.696875"
"$GPRMC,164327,A,2537.5692,N,07949.5870,W,4.1,323.0,250615,7.1,"
"##MN+00 00 06 0940 01635 6031 440381 203875 194"
"176.696921"
"$GPRMC,164331,A,2537.5732,N,07949.5900,W,4.1,323.4,250615,7.1,"
"##MN-00 00 06 0942 01637 6032 440380 203876 194"
"176.696968"
"$GPRMC,164335,A,2537.5773,N,07949.5928,W,4.2,323.5,250615,7.1,"
"##MN-00 00 06 0943 01637 6032 440377 203875 194"
"176.697014"
"$GPRMC,164339,A,2537.5808,N,07949.5957,W,4.2,323.0,250615,7.1,"
"##MN-00 00 06 0944 01637 6033 440379 203876 194"
"176.69706"
"$GPRMC,164343,A,2537.5847,N,07949.5988,W,4.2,323.2,250615,7.1,"
"##MN-00 00 06 0945 01636 6033 440376 203876 194"
"176.697107"
"$GPRMC,164347,A,2537.5886,N,07949.6019,W,4.2,323.1,250615,7.1,"
"##MN-00 00 06 0946 01637 6033 440373 203875 194"
"176.697153"
"$GPRMC,164351,A,2537.5923,N,07949.6051,W,4.2,323.5,250615,7.1,"
"##MN-00 00 06 0947 01639 6034 440369 203875 194"
"176.697199"
"$GPRMC,164355,A,2537.5961,N,07949.6081,W,4.2,323.3,250615,7.1,"
"##MN+00 00 06 0948 01637 6035 440369 203874 194"
"176.697257"
"$GPRMC,164359,A,2537.5999,N,07949.6113,W,4.2,323.5,250615,7.1,"
"##MN+00 00 06 0949 01636 6036 440370 203874 194"
"176.697303"
"$GPRMC,164403,A,2537.6037,N,07949.6145,W,4.2,323.4,250615,7.1,"
"##MN+00 00 06 0950 01641 6036 440375 203874 194"
"176.69735"
"$GPRMC,164407,A,2537.6075,N,07949.6178,W,4.2,323.5,250615,7.1,"
"##MN-00 00 06 0952 01637 6036 440372 203874 194"
"176.697396"
"#increment_net"
"$GPRMC,164411,A,2537.6111,N,07949.6210,W,4.2,323.5,250615,7.1,"
"##MN-00 00 06 0953 01641 6037 440376 203874 194"
"176.697442"
"$GPRMC,164415,A,2537.6150,N,07949.6240,W,4.2,323.3,250615,7.1,"
"##MN-00 00 06 0954 01637 6037 440372 203873 194"
"176.697488"
"$GPRMC,164419,A,2537.6186,N,07949.6272,W,4.2,323.3,250615,7.1,"
"##MN-00 00 06 0955 01638 6038 440377 203874 194"
"176.697535"
"$GPRMC,164423,A,2537.6223,N,07949.6304,W,4.2,323.3,250615,7.1,"
"##MN-00 00 06 0956 01640 6038 440378 203875 194"
"176.697581"
"$GPRMC,164427,A,2537.6261,N,07949.6333,W,4.2,323.3,250615,7.1,"
"##MN-00 00 06 0957 01641 6039 440377 203874 194"
"176.697627"
"$GPRMC,164431,A,2537.6298,N,07949.6360,W,4.2,323.1,250615,7.1,"
"##MN-00 00 06 0958 01639 6039 440371 203873 194"
"176.697674"
"$GPRMC,164435,A,2537.6335,N,07949.6395,W,4.2,323.5,250615,7.1,"
"##MN-00 00 06 0960 01638 6040 440371 203873 194"
"176.69772"
"$GPRMC,164439,A,2537.6368,N,07949.6425,W,4.2,323.5,250615,7.1,"
"##MN+00 00 06 0961 01640 6040 440366 203872 194"
"176.697766"
"$GPRMC,164443,A,2537.6409,N,07949.6460,W,4.2,323.6,250615,7.1,"
"##MN+00 00 06 0962 01641 6040 440363 203871 194"
"176.697812"
"$GPRMC,164447,A,2537.6446,N,07949.6490,W,4.2,323.1,250615,7.1,"
"##MN+00 00 06 0963 01639 6041 440355 203870 194"
"176.697859"
"$GPRMC,164451,A,2537.6482,N,07949.6517,W,4.2,323.5,250615,7.1,"
"##MN-00 00 06 0964 01640 6041 440349 203869 194"
"176.697905"
"$GPRMC,164455,A,2537.6516,N,07949.6546,W,4.2,323.5,250615,7.1,"
"##MN+00 00 06 0965 01640 6041 440346 203868 194"
"176.697951"
"$GPRMC,164459,A,2537.6555,N,07949.6572,W,4.1,323.6,250615,7.1,"
"##MN+00 00 06 0966 01645 6042 440351 203870 194"
"176.697998"
"$GPRMC,164503,A,2537.6595,N,07949.6608,W,4.1,323.3,250615,7.1,"
"##MN+00 00 06 0967 01641 6043 440355 203868 194"
"176.698044"
"#increment_net"
"$GPRMC,164507,A,2537.6631,N,07949.6638,W,4.1,323.0,250615,7.1,"
"##MN-00 00 06 0969 01641 6043 440357 203869 194"
"176.69809"
"$GPRMC,164511,A,2537.6669,N,07949.6669,W,4.1,323.3,250615,7.1,"
"##MN-00 00 06 0970 01639 6043 440351 203868 194"
"176.698137"
"$GPRMC,164515,A,2537.6707,N,07949.6701,W,4.1,322.9,250615,7.1,"
"##MN-00 00 06 0971 01638 6044 440346 203868 194"
"176.698183"
"$GPRMC,164519,A,2537.6743,N,07949.6730,W,4.1,322.8,250615,7.1,"
"##MN-00 00 06 0972 01638 6044 440347 203867 194"
"176.698229"
"$GPRMC,164523,A,2537.6782,N,07949.6760,W,4.1,322.9,250615,7.1,"
"##MN-00 00 06 0973 01638 6044 440342 203866 194"
"176.698275"
"$GPRMC,164527,A,2537.6819,N,07949.6792,W,4.1,322.9,250615,7.1,"
"##MN-00 00 06 0974 01636 6045 440339 203867 194"
"176.698322"
"$GPRMC,164531,A,2537.6858,N,07949.6821,W,4.2,323.1,250615,7.1,"
"##MN-00 00 06 0975 01636 6045 440344 203868 194"
"176.698368"
"$GPRMC,164535,A,2537.6895,N,07949.6853,W,4.2,323.0,250615,7.1,"
"##MN+00 00 06 0977 01634 6046 440349 203869 194"
"176.698414"
"$GPRMC,164540,A,2537.6944,N,07949.6893,W,4.2,323.3,250615,7.1,"
"##MN+00 00 06 0978 01635 6046 440345 203869 194"
"176.698461"
"$GPRMC,164544,A,2537.6981,N,07949.6923,W,4.2,322.9,250615,7.1,"
"##MN+00 00 06 0979 01636 6047 440346 203869 194"
"176.698507"
"$GPRMC,164548,A,2537.7018,N,07949.6954,W,4.2,323.3,250615,7.1,"
"##MN-00 00 06 0980 01635 6047 440342 203869 194"
"176.698553"
"$GPRMC,164552,A,2537.7057,N,07949.6985,W,4.2,323.1,250615,7.1,"
"##MN-00 00 06 0981 01637 6048 440342 203868 194"
"176.698599"
"$GPRMC,164556,A,2537.7094,N,07949.7016,W,4.2,323.5,250615,7.1,"
"##MN+00 00 06 0982 01637 6048 440347 203868 194"
"176.698646"
"$GPRMC,164600,A,2537.7132,N,07949.7046,W,4.3,323.5,250615,7.1,"
"##MN+00 00 06 0983 01635 6048 440346 203869 194"
"176.698692"
"$GPRMC,164604,A,2537.7169,N,07949.7077,W,4.3,323.5,250615,7.1,"
"##MN+00 00 06 0984 01642 6049 440347 203868 194"
"176.698738"
"#increment_net"
"$GPRMC,164608,A,2537.7208,N,07949.7108,W,4.3,323.5,250615,7.1,"
"##MN-00 00 06 0985 01642 6049 440345 203868 194"
"176.698785"
"$GPRMC,164612,A,2537.7245,N,07949.7139,W,4.2,323.3,250615,7.1,"
"##MN-00 00 06 0987 01637 6049 440344 203867 194"
"176.698831"
"$GPRMC,164616,A,2537.7282,N,07949.7171,W,4.2,323.0,250615,7.1,"
"##MN-00 00 06 0988 01639 6050 440342 203867 194"
"176.698877"
"$GPRMC,164620,A,2537.7320,N,07949.7201,W,4.2,323.1,250615,7.1,"
"##MN-00 00 06 0989 01637 6050 440339 203866 194"
"176.698924"
"$GPRMC,164624,A,2537.7357,N,07949.7233,W,4.2,323.5,250615,7.1,"
"##MN-00 00 06 0990 01637 6050 440339 203866 194"
"176.69897"
"$GPRMC,164628,A,2537.7396,N,07949.7263,W,4.2,323.5,250615,7.1,"
"##MN-00 00 06 0991 01637 6051 440341 203867 194"
"176.699016"
"$GPRMC,164632,A,2537.7435,N,07949.7295,W,4.2,323.5,250615,7.1,"
"##MN+00 00 06 0992 01636 6051 440346 203867 194"
"176.699063"
"$GPRMC,164636,A,2537.7473,N,07949.7327,W,4.2,323.9,250615,7.1,"
"##MN+00 00 06 0994 01638 6052 440347 203868 194"
"176.699109"
"$GPRMC,164640,A,2537.7511,N,07949.7359,W,4.2,323.6,250615,7.1,"
"##MN+00 00 06 0995 01634 6052 440351 203869 194"
"176.699155"
"$GPRMC,164644,A,2537.7548,N,07949.7392,W,4.2,323.9,250615,7.1,"
"##MN-00 00 06 0996 01636 6052 440354 203870 194"
"176.699201"
"$GPRMC,164648,A,2537.7585,N,07949.7424,W,4.2,323.5,250615,7.1,"
"##MN-00 00 06 0997 01636 6053 440350 203869 194"
"176.699248"
"$GPRMC,164652,A,2537.7623,N,07949.7454,W,4.2,323.8,250615,7.1,"
"##MN+00 00 06 0998 01637 6053 440343 203869 194"
"176.699294"
"$GPRMC,164656,A,2537.7657,N,07949.7485,W,4.2,323.5,250615,7.1,"
"##MN+00 00 06 1000 01635 6054 440342 203868 194"
"176.69934"
"$GPRMC,164700,A,2537.7695,N,07949.7514,W,4.1,323.6,250615,7.1,"
"##MN+00 00 06 1001 01640 6054 440341 203867 194"
"176.699387"
"#increment_net"
"$GPRMC,164704,A,2537.7732,N,07949.7543,W,4.2,323.6,250615,7.1,"
"##MN-00 00 05 1002 01639 6054 440342 203868 194"
"176.699433"
"$GPRMC,164708,A,2537.7769,N,07949.7572,W,4.2,323.5,250615,7.1,"
"##MN-00 00 06 1003 01635 6054 440339 203868 194"
"176.699479"
"$GPRMC,164712,A,2537.7809,N,07949.7605,W,4.2,323.2,250615,7.1,"
"##MN-00 00 47 1004 01638 6055 440341 203869 194"
"176.699525"
"$GPRMC,164716,A,2537.7848,N,07949.7634,W,4.2,323.5,250615,7.1,"
"##MN-00 00 06 1005 01638 6055 440339 203869 194"
"176.699572"
"$GPRMC,164720,A,2537.7884,N,07949.7663,W,4.2,323.4,250615,7.1,"
"##MN-00 00 06 1007 01637 6056 440347 203871 194"
"176.699618"
"$GPRMC,164724,A,2537.7921,N,07949.7695,W,4.2,323.4,250615,7.1,"
"##MN-00 00 06 1008 01637 6056 440347 203872 194"
"176.699664"
"$GPRMC,164728,A,2537.7961,N,07949.7727,W,4.2,323.4,250615,7.1,"
"##MN-00 00 05 1009 01636 6056 440354 203873 194"
"176.699711"
"$GPRMC,164732,A,2537.8000,N,07949.7757,W,4.2,323.6,250615,7.1,"
"##MN+00 00 05 1010 01637 6056 440353 203874 194"
"176.699757"
"$GPRMC,164736,A,2537.8039,N,07949.7789,W,4.1,323.4,250615,7.1,"
"##MN+00 00 06 1011 01637 6057 440347 203873 194"
"176.699803"
"$GPRMC,164740,A,2537.8076,N,07949.7818,W,4.2,324.0,250615,7.1,"
"##MN+00 00 06 1012 01635 6057 440346 203873 194"
"176.69985"
"$GPRMC,164744,A,2537.8112,N,07949.7850,W,4.2,323.4,250615,7.1,"
"##MN-00 00 06 1014 01636 6057 440342 203873 194"
"176.699896"
"$GPRMC,164748,A,2537.8149,N,07949.7879,W,4.2,323.2,250615,7.1,"
"##MN-00 00 06 1015 01635 6058 440350 203875 194"
"176.699942"
"$GPRMC,164752,A,2537.8187,N,07949.7910,W,4.2,323.3,250615,7.1,"
"##MN+00 00 06 1016 01636 6058 440353 203876 194"
"176.699988"
"$GPRMC,164756,A,2537.8224,N,07949.7939,W,4.2,323.2,250615,7.1,"
"##MN+00 00 06 1017 01633 6058 440361 203876 194"
"176.700035"
"$GPRMC,164800,A,2537.8260,N,07949.7970,W,4.2,323.5,250615,7.1,"
"##MN+00 00 07 1018 01640 6058 440369 203877 194"
"176.700081"
"#increment_net"
"$GPRMC,164804,A,2537.8299,N,07949.8002,W,4.2,323.6,250615,7.1,"
"##MN-00 00 08 1020 01643 6059 440370 203878 194"
"176.700127"
"$GPRMC,164808,A,2537.8336,N,07949.8031,W,4.2,323.3,250615,7.1,"
"##MN-00 00 06 1021 01647 6059 440373 203878 194"
"176.700174"
"$GPRMC,164812,A,2537.8373,N,07949.8065,W,4.2,323.0,250615,7.1,"
"##MN-00 00 06 1023 01653 6059 440383 203881 194"
"176.70022"
"$GPRMC,164816,A,2537.8411,N,07949.8096,W,4.2,322.3,250615,7.1,"
"##MN-00 00 05 1024 01660 6060 440395 203882 194"
"176.700266"
"$GPRMC,164820,A,2537.8447,N,07949.8132,W,4.2,321.6,250615,7.1,"
"##MN-00 00 05 1026 01662 6060 440398 203881 194"
"176.700313"
"$GPRMC,164824,A,2537.8483,N,07949.8166,W,4.2,320.9,250615,7.1,"
"##MN-00 00 05 1027 01661 6060 440398 203882 194"
"176.700359"
"$GPRMC,164828,A,2537.8519,N,07949.8197,W,4.2,320.5,250615,7.1,"
"##MN-00 00 05 1029 01662 6061 440398 203881 194"
"176.700405"
"$GPRMC,164832,A,2537.8556,N,07949.8230,W,4.2,320.0,250615,7.1,"
"##MN-00 00 05 1030 01657 6061 440397 203881 194"
"176.700463"
"$GPRMC,164836,A,2537.8591,N,07949.8262,W,4.2,319.9,250615,7.1,"
"##MN-00 00 05 1032 01655 6061 440398 203882 194"
"176.700509"
"$GPRMC,164840,A,2537.8628,N,07949.8296,W,4.2,319.9,250615,7.1,"
"##MN-00 00 05 1033 01651 6062 440397 203883 194"
"176.700556"
"$GPRMC,164844,A,2537.8667,N,07949.8332,W,4.3,319.8,250615,7.1,"
"##MN-00 00 05 1035 01651 6062 440399 203883 194"
"176.700602"
"$GPRMC,164848,A,2537.8705,N,07949.8367,W,4.2,319.6,250615,7.1,"
"##MN-00 00 05 1036 01648 6062 440399 203883 194"
"176.700648"
"$GPRMC,164852,A,2537.8744,N,07949.8403,W,4.2,319.5,250615,7.1,"
"##MN-00 00 05 1038 01643 6062 440398 203883 194"
"176.700694"
"$GPRMC,164856,A,2537.8781,N,07949.8439,W,4.3,319.5,250615,7.1,"
"##MN-00 00 05 1040 01641 6063 440396 203883 194"
"176.700741"
"$GPRMC,164900,A,2537.8819,N,07949.8473,W,4.2,319.4,250615,7.1,"
"##MN-00 00 05 1041 01637 6063 440393 203883 194"
"176.700787"
"$GPRMC,164904,A,2537.8855,N,07949.8508,W,4.3,319.7,250615,7.1,"
"##MN-00 00 06 1043 01634 6063 440386 203882 194"
"176.700833"
"$GPRMC,164908,A,2537.8892,N,07949.8542,W,4.2,319.3,250615,7.1,"
"##MN-00 00 05 1044 01631 6063 440382 203882 194"
"176.70088"
"$GPRMC,164912,A,2537.8927,N,07949.8577,W,4.3,319.2,250615,7.1,"
"##MN-00 00 05 1046 01628 6064 440378 203880 194"
"176.700926"
"$GPRMC,164916,A,2537.8962,N,07949.8609,W,4.3,318.9,250615,7.1,"
"##MN-00 00 06 1047 01625 6064 440371 203879 194"
"176.700972"
"$GPRMC,164920,A,2537.8997,N,07949.8645,W,4.3,319.0,250615,7.1,"
"##MN-00 00 05 1049 01623 6064 440366 203878 194"
"176.701018"
"$GPRMC,164924,A,2537.9033,N,07949.8679,W,4.3,318.9,250615,7.1,"
"##MN-00 00 05 1050 01616 6065 440358 203877 194"
"176.701065"
"$GPRMC,164928,A,2537.9069,N,07949.8714,W,4.3,319.0,250615,7.1,"
"##MN-00 00 05 1052 01614 6065 440347 203875 194"
"176.701111"
"$GPRMC,164932,A,2537.9105,N,07949.8748,W,4.3,319.1,250615,7.1,"
"##MN-00 00 06 1054 01610 6065 440334 203873 194"
"176.701157"
"$GPRMC,164936,A,2537.9141,N,07949.8783,W,4.3,319.0,250615,7.1,"
"##MN-00 00 05 1055 01608 6065 440324 203871 194"
"176.701204"
"$GPRMC,164940,A,2537.9177,N,07949.8819,W,4.3,319.0,250615,7.1,"
"##MN-00 00 06 1057 01602 6065 440318 203869 194"
"176.70125"
"$GPRMC,164944,A,2537.9213,N,07949.8853,W,4.3,318.9,250615,7.1,"
"##MN-00 00 06 1058 01597 6066 440309 203868 194"
"176.701296"
"$GPRMC,164948,A,2537.9250,N,07949.8888,W,4.3,318.7,250615,7.1,"
"##MN-00 00 07 1060 01597 6066 440296 203866 194"
"176.701343"
"$GPRMC,164952,A,2537.9286,N,07949.8923,W,4.3,319.0,250615,7.1,"
"##MN-00 00 05 1061 01594 6066 440290 203864 194"
"176.701389"
"$GPRMC,164956,A,2537.9323,N,07949.8957,W,4.3,319.2,250615,7.1,"
"##MN-00 00 05 1063 01592 6067 440283 203863 194"
"176.701435"
"$GPRMC,165000,A,2537.9362,N,07949.8993,W,4.4,319.2,250615,7.1,"
"##MN-00 00 05 1064 01588 6067 440281 203863 194"
"176.701482"
"$GPRMC,165004,A,2537.9401,N,07949.9028,W,4.4,318.8,250615,7.1,"
"##MN-00 00 05 1066 01583 6067 440274 203861 194"
"176.701528"
"$GPRMC,165008,A,2537.9438,N,07949.9062,W,4.4,318.8,250615,7.1,"
"##MN-00 00 05 1068 01580 6067 440259 203858 194"
"176.701574"
"$GPRMC,165012,A,2537.9475,N,07949.9097,W,4.3,318.9,250615,7.1,"
"##MN-00 00 05 1069 01574 6068 440240 203854 194"
"176.70162"
"$GPRMC,165016,A,2537.9510,N,07949.9131,W,4.4,319.0,250615,7.1,"
"##MN-00 00 05 1071 01573 6068 440207 203847 194"
"176.701667"
"$GPRMC,165020,A,2537.9547,N,07949.9166,W,4.3,318.7,250615,7.1,"
"##MN-00 00 05 1072 01569 6068 440173 203844 194"
"176.701713"
"$GPRMC,165024,A,2537.9585,N,07949.9201,W,4.3,318.8,250615,7.1,"
"##MN-00 00 05 1074 01564 6069 440157 203839 194"
"176.701759"
"$GPRMC,165028,A,2537.9619,N,07949.9235,W,4.3,318.6,250615,7.1,"
"##MN-00 00 05 1075 01562 6069 440137 203834 194"
"176.701806"
"$GPRMC,165033,A,2537.9665,N,07949.9279,W,4.3,318.6,250615,7.1,"
"##MN-00 00 05 1077 01556 6069 440096 203825 194"
"176.701852"
"$GPRMC,165037,A,2537.9701,N,07949.9315,W,4.3,318.7,250615,7.1,"
"##MN-00 00 05 1078 01553 6069 440034 203815 194"
"176.701898"
"$GPRMC,165041,A,2537.9735,N,07949.9351,W,4.3,318.3,250615,7.1,"
"##MN-00 00 06 1080 01550 6069 439973 203800 194"
"176.701944"
"$GPRMC,165045,A,2537.9771,N,07949.9387,W,4.3,318.2,250615,7.1,"
"##MN-00 00 05 1082 01545 6070 439834 203770 194"
"176.701991"
"$GPRMC,165049,A,2537.9806,N,07949.9423,W,4.3,318.1,250615,7.1,"
"##MN-00 00 06 1083 01543 6070 439379 203668 194"
"176.702037"
"$GPRMC,165053,A,2537.9842,N,07949.9459,W,4.3,318.0,250615,7.1,"
"##MN-00 00 06 1085 01539 6070 438867 203579 194"
"176.702083"
"$GPRMC,165057,A,2537.9878,N,07949.9494,W,4.3,318.0,250615,7.1,"
"##MN-00 00 06 1086 01540 6070 438322 203467 194"
"176.70213"
"$GPRMC,165101,A,2537.9915,N,07949.9530,W,4.3,318.4,250615,7.1,"
"##MN-00 00 06 1088 01540 6071 438159 203442 194"
"176.702176"
"$GPRMC,165105,A,2537.9951,N,07949.9566,W,4.3,318.1,250615,7.1,"
"##MN-00 00 06 1089 01540 6071 438099 203444 194"
"176.702222"
"$GPRMC,165109,A,2537.9988,N,07949.9599,W,4.3,317.7,250615,7.1,"
"##MN-00 00 06 1091 01541 6071 438195 203433 194"
