" Tow: 7CS-A   RVWS/WS15161"
" Date: 25/06/2015"
" Temperature Probe #  4762    Conductivity Probe #  710"
" Pressure Probe #  159"
" Flow Meter Calibration  4.71 (m/count)  "
"176.656424"
"$GPRMC,154511,A,2533.3985,N,07946.2830,W,5.4,346.2,250615,7.1,"
"##MN-00 00 54 0692 01520 6727 000009 756878 194"
"176.65647"
"$GPRMC,154516,A,2533.4052,N,07946.2852,W,5.1,344.7,250615,7.1,"
"##MN-00 00 54 0692 01522 6728 407945 827802 194"
"176.656516"
"$GPRMC,154520,A,2533.4104,N,07946.2870,W,5.0,343.8,250615,7.1,"
"##MN-00 00 54 0692 01520 6729 408088 827802 194"
"176.656562"
"$GPRMC,154524,A,2533.4153,N,07946.2888,W,4.8,343.2,250615,7.1,"
"##MN-00 00 54 0692 01522 6731 408587 827801 194"
"176.656609"
"$GPRMC,154528,A,2533.4202,N,07946.2905,W,4.7,342.9,250615,7.1,"
"##MN-00 00 54 0692 01521 6732 409283 827802 194"
"176.656655"
"$GPRMC,154532,A,2533.4247,N,07946.2923,W,4.5,342.3,250615,7.1,"
"##MN-00 00 54 0692 01521 6734 409878 827802 194"
"176.656701"
"$GPRMC,154536,A,2533.4294,N,07946.2941,W,4.3,342.0,250615,7.1,"
"##MN-00 00 54 0692 01518 6735 410970 827803 194"
"176.656748"
"$GPRMC,154540,A,2533.4337,N,07946.2962,W,4.2,340.9,250615,7.1,"
"##MN-00 00 54 0692 01519 6736 411903 827802 194"
"176.656794"
"$GPRMC,154544,A,2533.4380,N,07946.2984,W,4.1,338.6,250615,7.1,"
"##MN-00 00 54 0692 01522 6737 412588 827802 194"
"176.65684"
"$GPRMC,154548,A,2533.4420,N,07946.3006,W,4.0,335.5,250615,7.1,"
"##MN-00 00 55 0692 01521 6739 413290 827734 194"
"176.656887"
"$GPRMC,154552,A,2533.4459,N,07946.3031,W,4.0,332.1,250615,7.1,"
"##MN-00 00 54 0692 01520 6740 413093 827802 194"
"176.656933"
"$GPRMC,154556,A,2533.4498,N,07946.3058,W,3.9,328.5,250615,7.1,"
"##MN-00 00 55 0692 01520 6742 412604 827802 194"
"176.656979"
"$GPRMC,154600,A,2533.4534,N,07946.3086,W,3.9,325.3,250615,7.1,"
"##MN-00 00 54 0692 01521 6743 412229 827802 194"
"176.657025"
"$GPRMC,154604,A,2533.4568,N,07946.3116,W,3.9,322.6,250615,7.1,"
"##MN-00 00 56 0692 01520 6745 412021 827802 194"
"176.657072"
"$GPRMC,154608,A,2533.4601,N,07946.3145,W,3.9,320.6,250615,7.1,"
"##MN-00 00 69 0692 01521 6746 411497 827802 194"
"176.657118"
"$GPRMC,154612,A,2533.4636,N,07946.3179,W,3.8,319.0,250615,7.1,"
"##MN-00 00 69 0692 01521 6747 411107 827734 194"
"176.657164"
"$GPRMC,154616,A,2533.4666,N,07946.3213,W,3.9,317.8,250615,7.1,"
"##MN-00 00 69 0692 01521 6749 410615 827802 194"
"176.657211"
"$GPRMC,154620,A,2533.4698,N,07946.3248,W,3.9,316.3,250615,7.1,"
"##MN-00 00 69 0692 01520 6750 410193 827802 194"
"176.657257"
"$GPRMC,154624,A,2533.4731,N,07946.3284,W,3.9,315.7,250615,7.1,"
"##MN-00 00 69 0692 01521 6752 409583 827802 194"
"176.657303"
"$GPRMC,154628,A,2533.4760,N,07946.3322,W,4.0,314.2,250615,7.1,"
"##MN-00 00 72 0692 01521 6753 409567 827803 194"
"176.65735"
"$GPRMC,154632,A,2533.4789,N,07946.3361,W,4.0,313.3,250615,7.1,"
"##MN-00 00 65 0692 01522 6754 409687 827802 194"
"176.657396"
"$GPRMC,154636,A,2533.4820,N,07946.3400,W,4.1,312.8,250615,7.1,"
"##MN-00 00 54 0692 01521 6756 410568 827804 194"
"176.657442"
"$GPRMC,154640,A,2533.4850,N,07946.3439,W,4.2,312.4,250615,7.1,"
"##MN-00 00 54 0692 01520 6757 412555 827802 194"
"176.657488"
"$GPRMC,154644,A,2533.4882,N,07946.3479,W,4.2,311.6,250615,7.1,"
"##MN-00 00 50 0692 01521 6759 413822 827802 194"
"176.657535"
"$GPRMC,154648,A,2533.4915,N,07946.3520,W,4.2,311.3,250615,7.1,"
"##MN-00 00 52 0692 01521 6760 415358 827802 194"
"176.657581"
"$GPRMC,154652,A,2533.4946,N,07946.3560,W,4.3,311.2,250615,7.1,"
"##MN-00 00 52 0692 01519 6762 417377 827801 194"
"176.657627"
"$GPRMC,154656,A,2533.4977,N,07946.3599,W,4.3,311.5,250615,7.1,"
"##MN-00 00 52 0692 01520 6764 418969 827801 194"
"176.657674"
"$GPRMC,154700,A,2533.5009,N,07946.3639,W,4.3,311.3,250615,7.1,"
"##MN-00 00 54 0692 01522 6765 420731 827801 194"
"176.65772"
"$GPRMC,154704,A,2533.5042,N,07946.3679,W,4.3,311.5,250615,7.1,"
"##MN-00 00 53 0692 01522 6766 421743 827800 194"
"176.657766"
"$GPRMC,154708,A,2533.5074,N,07946.3718,W,4.3,311.8,250615,7.1,"
"##MN-00 00 54 0692 01519 6768 422312 827800 194"
"176.657813"
"$GPRMC,154712,A,2533.5107,N,07946.3759,W,4.3,312.2,250615,7.1,"
"##MN-00 00 55 0692 01521 6770 422643 827800 194"
"176.657859"
"$GPRMC,154716,A,2533.5139,N,07946.3798,W,4.3,312.7,250615,7.1,"
"##MN-00 00 48 0693 01521 6771 431076 265065 194"
"176.657905"
"$GPRMC,154720,A,2533.5172,N,07946.3838,W,4.2,313.3,250615,7.1,"
"##MN-00 00 06 0694 01521 6773 438991 203539 194"
"176.657951"
"$GPRMC,154724,A,2533.5204,N,07946.3873,W,4.2,314.0,250615,7.1,"
"##MN-00 00 09 0695 01520 6774 439046 203645 194"
"176.657998"
"$GPRMC,154728,A,2533.5237,N,07946.3909,W,4.1,314.8,250615,7.1,"
"##MN-00 00 09 0696 01520 6776 439067 203663 194"
"176.658044"
"$GPRMC,154732,A,2533.5272,N,07946.3943,W,4.1,316.1,250615,7.1,"
"##MN-00 00 08 0696 01519 6777 439298 203807 194"
"176.65809"
"$GPRMC,154736,A,2533.5305,N,07946.3975,W,4.1,317.6,250615,7.1,"
"##MN-00 00 06 0697 01522 6779 439405 203928 194"
"176.658137"
"$GPRMC,154740,A,2533.5340,N,07946.4007,W,4.0,318.6,250615,7.1,"
"##MN-00 00 07 0698 01523 6780 439440 203827 194"
"176.658183"
"$GPRMC,154744,A,2533.5374,N,07946.4039,W,4.0,319.1,250615,7.1,"
"##MN-00 00 07 0699 01523 6781 439615 203838 194"
"176.658241"
"$GPRMC,154748,A,2533.5410,N,07946.4069,W,4.0,319.7,250615,7.1,"
"##MN-00 00 07 0700 01529 6783 439736 203845 194"
"176.658287"
"$GPRMC,154752,A,2533.5445,N,07946.4104,W,4.0,320.3,250615,7.1,"
"##MN-00 00 07 0701 01530 6784 439772 203888 194"
"176.658333"
"$GPRMC,154756,A,2533.5481,N,07946.4140,W,4.0,320.8,250615,7.1,"
"##MN-00 00 07 0701 01533 6785 439852 203874 194"
"176.65838"
"$GPRMC,154800,A,2533.5517,N,07946.4173,W,4.0,321.2,250615,7.1,"
"##MN-00 00 07 0702 01535 6785 440337 203882 194"
"176.658426"
"$GPRMC,154804,A,2533.5553,N,07946.4201,W,4.0,321.4,250615,7.1,"
"##MN-00 00 07 0703 01537 6786 440727 203896 194"
"176.658472"
"$GPRMC,154808,A,2533.5589,N,07946.4228,W,4.0,322.0,250615,7.1,"
"##MN-00 00 07 0705 01540 6787 440951 203957 194"
"176.658519"
"$GPRMC,154812,A,2533.5625,N,07946.4259,W,4.1,322.0,250615,7.1,"
"##MN-00 00 07 0706 01541 6787 441156 204020 194"
"176.658565"
"$GPRMC,154816,A,2533.5662,N,07946.4288,W,4.1,322.3,250615,7.1,"
"##MN-00 00 07 0707 01545 6787 441313 204116 194"
"176.658611"
"$GPRMC,154820,A,2533.5698,N,07946.4321,W,4.2,322.4,250615,7.1,"
"##MN-00 00 07 0708 01549 6788 441421 204134 194"
"176.658657"
"$GPRMC,154824,A,2533.5735,N,07946.4350,W,4.2,323.1,250615,7.1,"
"##MN-00 00 07 0709 01549 6788 441535 204200 194"
"176.658704"
"$GPRMC,154828,A,2533.5775,N,07946.4386,W,4.2,323.4,250615,7.1,"
"##MN-00 00 07 0710 01554 6788 441649 204207 194"
"176.65875"
"$GPRMC,154832,A,2533.5815,N,07946.4419,W,4.2,323.7,250615,7.1,"
"##MN-00 00 07 0711 01556 6788 441701 204254 194"
"176.658796"
"$GPRMC,154836,A,2533.5854,N,07946.4451,W,4.2,323.7,250615,7.1,"
"##MN-00 00 06 0712 01561 6788 441757 204273 194"
"176.658843"
"$GPRMC,154840,A,2533.5893,N,07946.4483,W,4.3,323.9,250615,7.1,"
"##MN-00 00 06 0713 01560 6788 441780 204273 194"
"176.658889"
"$GPRMC,154844,A,2533.5933,N,07946.4513,W,4.3,324.1,250615,7.1,"
"##MN-00 00 07 0714 01565 6787 441802 204281 194"
"176.658935"
"$GPRMC,154848,A,2533.5972,N,07946.4542,W,4.3,324.7,250615,7.1,"
"##MN-00 00 07 0715 01568 6786 441821 204298 194"
"176.658981"
"$GPRMC,154852,A,2533.6012,N,07946.4571,W,4.3,324.9,250615,7.1,"
"##MN-00 00 07 0716 01570 6786 441829 204300 194"
"176.659028"
"$GPRMC,154856,A,2533.6052,N,07946.4602,W,4.3,325.1,250615,7.1,"
"##MN-00 00 06 0717 01577 6786 441842 204307 194"
"176.659074"
"$GPRMC,154900,A,2533.6092,N,07946.4632,W,4.4,325.0,250615,7.1,"
"##MN-00 00 07 0718 01578 6785 441855 204314 194"
"176.65912"
"$GPRMC,154904,A,2533.6132,N,07946.4664,W,4.4,325.4,250615,7.1,"
"##MN-00 00 06 0719 01582 6784 441863 204312 194"
"176.659167"
"$GPRMC,154908,A,2533.6172,N,07946.4694,W,4.4,325.5,250615,7.1,"
"##MN-00 00 06 0720 01584 6784 441877 204328 194"
"176.659213"
"$GPRMC,154912,A,2533.6212,N,07946.4725,W,4.4,325.8,250615,7.1,"
"##MN-00 00 06 0721 01586 6783 441889 204330 194"
"176.659259"
"$GPRMC,154916,A,2533.6254,N,07946.4756,W,4.4,325.8,250615,7.1,"
"##MN-00 00 06 0722 01589 6782 441900 204336 194"
"176.659306"
"$GPRMC,154920,A,2533.6295,N,07946.4787,W,4.4,326.3,250615,7.1,"
"##MN-00 00 05 0723 01593 6781 441905 204341 194"
"176.659352"
"$GPRMC,154924,A,2533.6335,N,07946.4814,W,4.4,326.3,250615,7.1,"
"##MN-00 00 06 0724 01599 6781 441899 204335 194"
"176.659398"
"$GPRMC,154928,A,2533.6375,N,07946.4842,W,4.4,326.4,250615,7.1,"
"##MN-00 00 05 0725 01599 6779 441901 204342 194"
"176.659444"
"$GPRMC,154932,A,2533.6418,N,07946.4877,W,4.4,326.4,250615,7.1,"
"##MN-00 00 05 0726 01602 6779 441904 204338 194"
"176.659491"
"$GPRMC,154937,A,2533.6471,N,07946.4921,W,4.5,326.6,250615,7.1,"
"##MN-00 00 06 0727 01603 6778 441912 204340 194"
"176.659537"
"$GPRMC,154941,A,2533.6512,N,07946.4953,W,4.5,326.7,250615,7.1,"
"##MN-00 00 05 0728 01604 6776 441924 204340 194"
"176.659583"
"$GPRMC,154945,A,2533.6555,N,07946.4983,W,4.6,326.7,250615,7.1,"
"##MN-00 00 06 0729 01611 6776 441934 204342 194"
"176.65963"
"$GPRMC,154949,A,2533.6597,N,07946.5014,W,4.6,326.7,250615,7.1,"
"##MN-00 00 06 0731 01613 6775 441950 204342 194"
"176.659676"
"$GPRMC,154953,A,2533.6639,N,07946.5043,W,4.5,326.6,250615,7.1,"
"##MN-00 00 06 0732 01615 6773 441958 204345 194"
"176.659722"
"$GPRMC,154957,A,2533.6682,N,07946.5072,W,4.6,326.6,250615,7.1,"
"##MN-00 00 06 0733 01617 6772 441964 204343 194"
"176.659769"
"$GPRMC,155001,A,2533.6725,N,07946.5102,W,4.6,326.6,250615,7.1,"
"##MN-00 00 06 0734 01622 6771 441963 204348 194"
"176.659815"
"$GPRMC,155005,A,2533.6769,N,07946.5134,W,4.6,326.6,250615,7.1,"
"##MN-00 00 06 0735 01623 6769 441963 204347 194"
"176.659861"
"$GPRMC,155009,A,2533.6814,N,07946.5163,W,4.5,327.1,250615,7.1,"
"##MN+00 00 06 0736 01624 6768 441967 204347 194"
"176.659907"
"$GPRMC,155013,A,2533.6859,N,07946.5195,W,4.6,327.4,250615,7.1,"
"##MN+00 00 06 0737 01626 6767 441966 204350 194"
"176.659954"
"$GPRMC,155017,A,2533.6904,N,07946.5224,W,4.6,327.7,250615,7.1,"
"##MN+00 00 06 0738 01622 6766 441964 204350 194"
"176.66"
"$GPRMC,155021,A,2533.6949,N,07946.5254,W,4.6,328.3,250615,7.1,"
"##MN+00 00 06 0739 01626 6764 441964 204350 194"
"176.660046"
"$GPRMC,155025,A,2533.6996,N,07946.5285,W,4.6,328.6,250615,7.1,"
"##MN+00 00 06 0740 01621 6763 441956 204349 194"
"176.660093"
"$GPRMC,155029,A,2533.7042,N,07946.5314,W,4.7,328.9,250615,7.1,"
"##MN+00 00 06 0741 01628 6761 441957 204348 194"
"176.660139"
"#increment_net"
"$GPRMC,155033,A,2533.7086,N,07946.5344,W,4.7,329.1,250615,7.1,"
"##MN-00 00 07 0742 01627 6761 441954 204346 194"
"176.660185"
"$GPRMC,155037,A,2533.7133,N,07946.5373,W,4.8,329.4,250615,7.1,"
"##MN-00 00 06 0743 01625 6759 441945 204344 194"
"176.660231"
"$GPRMC,155041,A,2533.7179,N,07946.5404,W,4.8,329.9,250615,7.1,"
"##MN-00 00 06 0744 01627 6757 441936 204344 194"
"176.660278"
"$GPRMC,155045,A,2533.7226,N,07946.5431,W,4.8,330.2,250615,7.1,"
"##MN-00 00 06 0745 01626 6756 441934 204343 194"
"176.660324"
"$GPRMC,155049,A,2533.7274,N,07946.5455,W,4.8,330.2,250615,7.1,"
"##MN-00 00 06 0747 01627 6755 441934 204343 194"
"176.66037"
"$GPRMC,155053,A,2533.7323,N,07946.5485,W,4.8,330.1,250615,7.1,"
"##MN-00 00 06 0748 01626 6753 441934 204342 194"
"176.660417"
"$GPRMC,155057,A,2533.7370,N,07946.5514,W,4.8,330.5,250615,7.1,"
"##MN-00 00 06 0749 01627 6752 441919 204338 194"
"176.660463"
"$GPRMC,155101,A,2533.7415,N,07946.5546,W,4.9,330.5,250615,7.1,"
"##MN-00 00 06 0750 01627 6750 441909 204335 194"
"176.660509"
"$GPRMC,155105,A,2533.7462,N,07946.5575,W,4.9,330.8,250615,7.1,"
"##MN-00 00 06 0751 01627 6749 441904 204335 194"
"176.660556"
"$GPRMC,155109,A,2533.7509,N,07946.5604,W,4.9,331.0,250615,7.1,"
"##MN+00 00 06 0752 01628 6747 441911 204335 194"
"176.660602"
"$GPRMC,155113,A,2533.7560,N,07946.5634,W,4.9,331.0,250615,7.1,"
"##MN+00 00 06 0753 01626 6746 441909 204336 194"
"176.660648"
"$GPRMC,155117,A,2533.7610,N,07946.5665,W,4.9,331.4,250615,7.1,"
"##MN+00 00 06 0754 01628 6744 441912 204335 194"
"176.660694"
"$GPRMC,155121,A,2533.7659,N,07946.5697,W,4.9,331.6,250615,7.1,"
"##MN+00 00 06 0756 01627 6743 441909 204335 194"
"176.660741"
"$GPRMC,155125,A,2533.7708,N,07946.5726,W,5.0,331.9,250615,7.1,"
"##MN+00 00 06 0757 01628 6741 441908 204335 194"
"176.660787"
"$GPRMC,155129,A,2533.7757,N,07946.5756,W,5.0,331.9,250615,7.1,"
"##MN+00 00 07 0758 01632 6740 441912 204334 194"
"176.660833"
"#increment_net"
"$GPRMC,155133,A,2533.7807,N,07946.5787,W,5.0,332.3,250615,7.1,"
"##MN-00 00 06 0759 01631 6738 441918 204335 194"
"176.66088"
"$GPRMC,155137,A,2533.7856,N,07946.5816,W,5.0,332.4,250615,7.1,"
"##MN-00 00 06 0760 01629 6737 441909 204336 194"
"176.660926"
"$GPRMC,155141,A,2533.7906,N,07946.5845,W,5.0,332.3,250615,7.1,"
"##MN-00 00 06 0761 01628 6735 441910 204335 194"
"176.660972"
"$GPRMC,155145,A,2533.7957,N,07946.5865,W,5.0,332.7,250615,7.1,"
"##MN-00 00 06 0762 01628 6734 441906 204334 194"
"176.661019"
"$GPRMC,155149,A,2533.8008,N,07946.5892,W,5.0,333.1,250615,7.1,"
"##MN-00 00 06 0763 01628 6732 441905 204332 194"
"176.661065"
"$GPRMC,155153,A,2533.8060,N,07946.5921,W,5.1,333.2,250615,7.1,"
"##MN-00 00 06 0764 01627 6730 441893 204331 194"
"176.661111"
"$GPRMC,155157,A,2533.8111,N,07946.5948,W,5.1,333.4,250615,7.1,"
"##MN-00 00 06 0765 01627 6729 441881 204329 194"
"176.661157"
"$GPRMC,155201,A,2533.8163,N,07946.5976,W,5.1,333.7,250615,7.1,"
"##MN+00 00 06 0766 01626 6727 441879 204327 194"
"176.661204"
"$GPRMC,155205,A,2533.8214,N,07946.6004,W,5.1,333.8,250615,7.1,"
"##MN+00 00 06 0767 01625 6726 441872 204326 194"
"176.66125"
"$GPRMC,155209,A,2533.8266,N,07946.6033,W,5.1,333.9,250615,7.1,"
"##MN+00 00 06 0768 01629 6724 441869 204325 194"
"176.661296"
"$GPRMC,155213,A,2533.8318,N,07946.6060,W,5.1,333.8,250615,7.1,"
"##MN-00 00 06 0769 01625 6723 441865 204325 194"
"176.661343"
"$GPRMC,155217,A,2533.8369,N,07946.6087,W,5.1,333.9,250615,7.1,"
"##MN-00 00 06 0770 01626 6721 441860 204324 194"
"176.661389"
"$GPRMC,155221,A,2533.8422,N,07946.6114,W,5.1,334.4,250615,7.1,"
"##MN-00 00 07 0771 01625 6719 441856 204323 194"
"176.661435"
"$GPRMC,155225,A,2533.8473,N,07946.6143,W,5.1,334.1,250615,7.1,"
"##MN+00 00 07 0772 01625 6718 441852 204322 194"
"176.661493"
"$GPRMC,155229,A,2533.8527,N,07946.6174,W,5.1,334.0,250615,7.1,"
"##MN+00 00 07 0773 01625 6716 441847 204319 194"
"176.661539"
"$GPRMC,155233,A,2533.8578,N,07946.6201,W,5.1,333.6,250615,7.1,"
"##MN+00 00 06 0774 01629 6714 441845 204318 194"
"176.661586"
"#increment_net"
"$GPRMC,155237,A,2533.8628,N,07946.6226,W,5.0,333.5,250615,7.1,"
"##MN-00 00 07 0775 01628 6713 441846 204317 194"
"176.661632"
"$GPRMC,155241,A,2533.8676,N,07946.6253,W,5.0,333.4,250615,7.1,"
"##MN-00 00 06 0776 01630 6711 441850 204317 194"
"176.661678"
"$GPRMC,155245,A,2533.8726,N,07946.6279,W,5.0,332.9,250615,7.1,"
"##MN-00 00 06 0778 01626 6710 441844 204317 194"
"176.661725"
"$GPRMC,155249,A,2533.8776,N,07946.6304,W,5.0,332.8,250615,7.1,"
"##MN-00 00 06 0779 01624 6708 441846 204317 194"
"176.661771"
"$GPRMC,155253,A,2533.8826,N,07946.6330,W,5.0,332.8,250615,7.1,"
"##MN-00 00 06 0780 01623 6707 441841 204318 194"
"176.661817"
"$GPRMC,155257,A,2533.8875,N,07946.6358,W,5.0,332.8,250615,7.1,"
"##MN-00 00 06 0781 01626 6705 441847 204318 194"
"176.661863"
"$GPRMC,155301,A,2533.8924,N,07946.6385,W,5.0,332.8,250615,7.1,"
"##MN+00 00 06 0782 01625 6703 441846 204318 194"
"176.66191"
"$GPRMC,155305,A,2533.8972,N,07946.6413,W,5.0,332.5,250615,7.1,"
"##MN+00 00 06 0783 01623 6701 441838 204318 194"
"176.661956"
"$GPRMC,155309,A,2533.9022,N,07946.6442,W,4.9,332.2,250615,7.1,"
"##MN+00 00 06 0784 01623 6700 441845 204319 194"
"176.662002"
"$GPRMC,155313,A,2533.9070,N,07946.6474,W,4.9,332.2,250615,7.1,"
"##MN-00 00 06 0785 01627 6698 441851 204319 194"
"176.662049"
"$GPRMC,155317,A,2533.9117,N,07946.6503,W,4.9,332.3,250615,7.1,"
"##MN-00 00 06 0786 01627 6696 441836 204319 194"
"176.662095"
"$GPRMC,155321,A,2533.9164,N,07946.6532,W,4.9,332.1,250615,7.1,"
"##MN-00 00 06 0787 01626 6695 441840 204319 194"
"176.662141"
"$GPRMC,155325,A,2533.9213,N,07946.6561,W,4.9,331.8,250615,7.1,"
"##MN+00 00 06 0788 01626 6693 441844 204319 194"
"176.662187"
"$GPRMC,155329,A,2533.9258,N,07946.6590,W,4.8,331.6,250615,7.1,"
"##MN+00 00 06 0789 01627 6691 441845 204320 194"
"176.662234"
"$GPRMC,155333,A,2533.9307,N,07946.6615,W,4.8,331.6,250615,7.1,"
"##MN+00 00 49 0790 01629 6690 441862 204318 194"
"176.66228"
"$GPRMC,155337,A,2533.9352,N,07946.6644,W,4.8,331.4,250615,7.1,"
"##MN-00 00 07 0791 01629 6688 441861 204316 194"
"176.662326"
"#increment_net"
"$GPRMC,155342,A,2533.9409,N,07946.6678,W,4.8,331.0,250615,7.1,"
"##MN-00 00 06 0793 01629 6686 441853 204315 194"
"176.662373"
"$GPRMC,155346,A,2533.9456,N,07946.6706,W,4.8,330.9,250615,7.1,"
"##MN-00 00 07 0794 01628 6685 441839 204315 194"
"176.662419"
"$GPRMC,155349,A,2533.9489,N,07946.6728,W,4.7,330.3,250615,7.1,"
"##MN-00 00 07 0795 01627 6683 441846 204315 194"
"176.662465"
"$GPRMC,155353,A,2533.9534,N,07946.6757,W,4.7,330.4,250615,7.1,"
"##MN-00 00 07 0796 01628 6681 441838 204314 194"
"176.662512"
"$GPRMC,155357,A,2533.9578,N,07946.6788,W,4.6,330.1,250615,7.1,"
"##MN-00 00 06 0797 01626 6680 441836 204311 194"
"176.662558"
"$GPRMC,155402,A,2533.9635,N,07946.6819,W,4.6,330.0,250615,7.1,"
"##MN-00 00 06 0798 01626 6678 441828 204309 194"
"176.662604"
"$GPRMC,155406,A,2533.9679,N,07946.6847,W,4.6,329.9,250615,7.1,"
"##MN-00 00 06 0799 01626 6676 441819 204308 194"
"176.66265"
"$GPRMC,155410,A,2533.9723,N,07946.6876,W,4.6,330.0,250615,7.1,"
"##MN+00 00 06 0800 01629 6675 441824 204307 194"
"176.662697"
"$GPRMC,155414,A,2533.9767,N,07946.6904,W,4.6,329.7,250615,7.1,"
"##MN+00 00 06 0801 01626 6673 441822 204346 194"
"176.662743"
"$GPRMC,155418,A,2533.9810,N,07946.6934,W,4.6,329.7,250615,7.1,"
"##MN+00 00 06 0802 01626 6671 441823 204359 194"
"176.662789"
"$GPRMC,155422,A,2533.9854,N,07946.6963,W,4.6,329.6,250615,7.1,"
"##MN-00 00 06 0803 01629 6669 441811 204304 194"
"176.662836"
"$GPRMC,155426,A,2533.9897,N,07946.6992,W,4.5,329.2,250615,7.1,"
"##MN-00 00 06 0805 01628 6668 441807 204303 194"
"176.662882"
"$GPRMC,155430,A,2533.9940,N,07946.7020,W,4.5,329.0,250615,7.1,"
"##MN-00 00 06 0806 01628 6666 441807 204302 194"
"176.662928"
"$GPRMC,155434,A,2533.9984,N,07946.7053,W,4.5,328.9,250615,7.1,"
"##MN+00 00 06 0807 01627 6664 441804 204303 194"
"176.662975"
"$GPRMC,155438,A,2534.0026,N,07946.7084,W,4.5,329.0,250615,7.1,"
"##MN+00 00 06 0808 01626 6663 441809 204302 194"
"176.663021"
"$GPRMC,155442,A,2534.0069,N,07946.7113,W,4.5,329.0,250615,7.1,"
"##MN+00 00 07 0809 01633 6661 441806 204299 194"
"176.663067"
"$GPRMC,155446,A,2534.0110,N,07946.7140,W,4.4,328.8,250615,7.1,"
"##MN-00 00 07 0810 01633 6660 441795 204296 194"
"176.663113"
"#increment_net"
"$GPRMC,155450,A,2534.0153,N,07946.7168,W,4.4,328.5,250615,7.1,"
"##MN-00 00 06 0811 01639 6658 441782 204293 194"
"176.66316"
"$GPRMC,155454,A,2534.0193,N,07946.7197,W,4.4,328.0,250615,7.1,"
"##MN-00 00 06 0813 01644 6656 441782 204291 194"
"176.663206"
"$GPRMC,155458,A,2534.0236,N,07946.7230,W,4.4,327.5,250615,7.1,"
"##MN-00 00 06 0814 01651 6655 441794 204293 194"
"176.663252"
"$GPRMC,155502,A,2534.0276,N,07946.7261,W,4.4,326.6,250615,7.1,"
"##MN-00 00 06 0816 01655 6653 441794 204298 194"
"176.663299"
"$GPRMC,155506,A,2534.0315,N,07946.7288,W,4.4,326.1,250615,7.1,"
"##MN-00 00 06 0817 01658 6651 441835 204302 194"
"176.663345"
"$GPRMC,155510,A,2534.0354,N,07946.7320,W,4.4,325.2,250615,7.1,"
"##MN-00 00 06 0818 01660 6650 441844 204300 194"
"176.663391"
"$GPRMC,155514,A,2534.0392,N,07946.7349,W,4.3,324.5,250615,7.1,"
"##MN-00 00 06 0820 01660 6648 441837 204297 194"
"176.663437"
"$GPRMC,155518,A,2534.0431,N,07946.7381,W,4.3,324.1,250615,7.1,"
"##MN-00 00 06 0821 01659 6646 441844 204296 194"
"176.663484"
"$GPRMC,155522,A,2534.0470,N,07946.7410,W,4.3,323.8,250615,7.1,"
"##MN-00 00 07 0823 01658 6645 441845 204295 194"
"176.66353"
"$GPRMC,155526,A,2534.0508,N,07946.7444,W,4.3,323.6,250615,7.1,"
"##MN-00 00 46 0824 01656 6643 441838 204295 194"
"176.663576"
"$GPRMC,155530,A,2534.0547,N,07946.7478,W,4.3,323.1,250615,7.1,"
"##MN-00 00 06 0826 01651 6641 441840 204294 194"
"176.663623"
"$GPRMC,155534,A,2534.0584,N,07946.7508,W,4.3,322.7,250615,7.1,"
"##MN-00 00 06 0827 01648 6640 441836 204295 194"
"176.663669"
"$GPRMC,155538,A,2534.0623,N,07946.7540,W,4.2,322.5,250615,7.1,"
"##MN-00 00 06 0828 01645 6638 441819 204294 194"
"176.663715"
"$GPRMC,155542,A,2534.0659,N,07946.7576,W,4.2,321.9,250615,7.1,"
"##MN-00 00 06 0830 01641 6636 441809 204292 194"
"176.663762"
"$GPRMC,155546,A,2534.0698,N,07946.7608,W,4.2,321.6,250615,7.1,"
"##MN-00 00 06 0831 01638 6634 441799 204290 194"
"176.663808"
"$GPRMC,155550,A,2534.0735,N,07946.7641,W,4.2,321.6,250615,7.1,"
"##MN-00 00 07 0833 01635 6633 441779 204285 194"
"176.663854"
"$GPRMC,155554,A,2534.0771,N,07946.7673,W,4.2,321.6,250615,7.1,"
"##MN-00 00 06 0834 01633 6631 441762 204282 194"
"176.6639"
"$GPRMC,155558,A,2534.0808,N,07946.7704,W,4.2,321.6,250615,7.1,"
"##MN-00 00 05 0836 01627 6630 441754 204282 194"
"176.663947"
"$GPRMC,155602,A,2534.0844,N,07946.7735,W,4.3,321.2,250615,7.1,"
"##MN-00 00 06 0837 01626 6628 441750 204280 194"
"176.663993"
"$GPRMC,155606,A,2534.0880,N,07946.7772,W,4.3,321.1,250615,7.1,"
"##MN-00 00 06 0839 01618 6627 441744 204278 194"
"176.664039"
"$GPRMC,155610,A,2534.0916,N,07946.7807,W,4.2,320.9,250615,7.1,"
"##MN-00 00 06 0840 01615 6625 441740 204277 194"
"176.664086"
"$GPRMC,155614,A,2534.0952,N,07946.7840,W,4.3,320.8,250615,7.1,"
"##MN-00 00 06 0841 01611 6623 441737 204277 194"
"176.664132"
"$GPRMC,155618,A,2534.0988,N,07946.7870,W,4.3,320.7,250615,7.1,"
"##MN-00 00 06 0843 01605 6622 441729 204276 194"
"176.664178"
"$GPRMC,155622,A,2534.1027,N,07946.7904,W,4.3,320.8,250615,7.1,"
"##MN-00 00 06 0845 01602 6620 441713 204273 194"
"176.664225"
"$GPRMC,155626,A,2534.1064,N,07946.7938,W,4.3,320.5,250615,7.1,"
"##MN-00 00 06 0846 01598 6618 441692 204270 194"
"176.664271"
"$GPRMC,155630,A,2534.1104,N,07946.7971,W,4.3,320.8,250615,7.1,"
"##MN-00 00 06 0848 01595 6616 441677 204268 194"
"176.664317"
"$GPRMC,155634,A,2534.1142,N,07946.8006,W,4.3,320.7,250615,7.1,"
"##MN-00 00 06 0849 01590 6615 441675 204268 194"
"176.664363"
"$GPRMC,155638,A,2534.1179,N,07946.8038,W,4.4,320.9,250615,7.1,"
"##MN-00 00 06 0851 01586 6613 441682 204270 194"
"176.66441"
"$GPRMC,155642,A,2534.1216,N,07946.8068,W,4.4,321.1,250615,7.1,"
"##MN-00 00 06 0852 01584 6612 441676 204269 194"
"176.664456"
"$GPRMC,155646,A,2534.1255,N,07946.8101,W,4.4,321.3,250615,7.1,"
"##MN-00 00 06 0854 01580 6610 441679 204270 194"
"176.664502"
"$GPRMC,155650,A,2534.1292,N,07946.8136,W,4.3,321.5,250615,7.1,"
"##MN-00 00 06 0855 01576 6608 441674 204269 194"
"176.664549"
"$GPRMC,155654,A,2534.1333,N,07946.8170,W,4.4,321.3,250615,7.1,"
"##MN-00 00 06 0857 01571 6606 441655 204265 194"
"176.664595"
"$GPRMC,155658,A,2534.1371,N,07946.8204,W,4.5,321.9,250615,7.1,"
"##MN-00 00 06 0859 01568 6605 441631 204262 194"
"176.664641"
"$GPRMC,155702,A,2534.1411,N,07946.8241,W,4.5,322.1,250615,7.1,"
"##MN-00 00 06 0860 01565 6603 441601 204254 194"
"176.664688"
"$GPRMC,155706,A,2534.1451,N,07946.8277,W,4.5,322.2,250615,7.1,"
"##MN-00 00 06 0862 01562 6602 441563 204247 194"
"176.664745"
"$GPRMC,155710,A,2534.1493,N,07946.8313,W,4.5,322.5,250615,7.1,"
"##MN-00 00 07 0863 01556 6600 441544 204244 194"
"176.664792"
"$GPRMC,155714,A,2534.1534,N,07946.8347,W,4.6,323.0,250615,7.1,"
"##MN-00 00 06 0865 01554 6598 441530 204244 194"
"176.664838"
"$GPRMC,155718,A,2534.1577,N,07946.8383,W,4.6,323.6,250615,7.1,"
"##MN-00 00 07 0866 01551 6597 441501 204239 194"
"176.664884"
"$GPRMC,155722,A,2534.1620,N,07946.8417,W,4.7,323.9,250615,7.1,"
"##MN-00 00 07 0868 01548 6595 441475 204231 194"
"176.664931"
"$GPRMC,155726,A,2534.1662,N,07946.8450,W,4.7,323.9,250615,7.1,"
"##MN-00 00 07 0869 01544 6594 441415 204215 194"
"176.664977"
"$GPRMC,155730,A,2534.1706,N,07946.8486,W,4.8,324.2,250615,7.1,"
"##MN-00 00 07 0871 01542 6592 441306 204197 194"
"176.665023"
"$GPRMC,155734,A,2534.1750,N,07946.8519,W,4.8,324.6,250615,7.1,"
"##MN-00 00 07 0872 01535 6590 441202 204170 194"
"176.665069"
"$GPRMC,155738,A,2534.1794,N,07946.8552,W,4.9,325.0,250615,7.1,"
"##MN-00 00 07 0874 01532 6589 440875 204082 194"
"176.665116"
"$GPRMC,155742,A,2534.1837,N,07946.8587,W,4.9,325.2,250615,7.1,"
"##MN-00 00 07 0875 01528 6588 440265 203985 194"
"176.665162"
"$GPRMC,155746,A,2534.1884,N,07946.8620,W,4.9,325.4,250615,7.1,"
"##MN-00 00 07 0877 01525 6585 439788 203890 194"
"176.665208"
"$GPRMC,155750,A,2534.1931,N,07946.8653,W,5.0,325.9,250615,7.1,"
"##MN-00 00 08 0878 01524 6584 439470 203802 194"
"176.665255"
"$GPRMC,155754,A,2534.1978,N,07946.8685,W,5.0,326.3,250615,7.1,"
"##MN-00 00 08 0880 01524 6583 439039 203735 194"
