" Tow: 7CS   RVWS/WS15161"
" Date: 25/06/2015"
" Temperature Probe #  4762    Conductivity Probe #  710"
" Pressure Probe #  188"
" Flow Meter Calibration  4.71 (m/count)  "
"176.80515"
"$GPRMC,191921,A,2547.0583,N,07948.0108,W,4.6,314.0,250615,7.1,"
"##MN-00 00 80 0000 02751 8159 416058 000020 199"
"176.805197"
"$GPRMC,191926,A,2547.0626,N,07948.0160,W,4.7,313.9,250615,7.1,"
"##MN-00 00 80 0000 02750 8161 592640 023568 199"
"176.805243"
"$GPRMC,191930,A,2547.0663,N,07948.0204,W,4.8,313.5,250615,7.1,"
"##MN-00 00 80 0000 02749 8163 995200 023596 199"
"176.805289"
"$GPRMC,191934,A,2547.0699,N,07948.0249,W,4.8,313.4,250615,7.1,"
"##MN-00 00 80 0000 02749 8165 492216 023579 199"
"176.805336"
"$GPRMC,191938,A,2547.0737,N,07948.0293,W,4.8,313.1,250615,7.1,"
"##MN-00 00 80 0000 02750 8167 599952 023571 199"
"176.805382"
"$GPRMC,191942,A,2547.0773,N,07948.0337,W,4.9,313.0,250615,7.1,"
"##MN-00 00 80 0000 02748 8169 396448 023585 199"
"176.805428"
"$GPRMC,191946,A,2547.0807,N,07948.0383,W,4.9,312.8,250615,7.1,"
"##MN-00 00 78 0000 02750 8171 411376 023583 199"
"176.805475"
"$GPRMC,191950,A,2547.0844,N,07948.0426,W,4.9,312.8,250615,7.1,"
"##MN-00 00 79 0000 02748 8173 510344 023590 199"
"176.805521"
"$GPRMC,191954,A,2547.0880,N,07948.0473,W,4.9,312.7,250615,7.1,"
"##MN-00 00 80 0000 02751 8175 015456 023580 199"
"176.805567"
"$GPRMC,191958,A,2547.0916,N,07948.0517,W,4.9,312.2,250615,7.1,"
"##MN-00 00 80 0000 02748 8177 413352 023553 199"
"176.805613"
"$GPRMC,192002,A,2547.0956,N,07948.0561,W,4.9,312.4,250615,7.1,"
"##MN-00 00 78 0000 02751 8178 809680 023564 199"
"176.80566"
"$GPRMC,192006,A,2547.0994,N,07948.0607,W,4.8,312.2,250615,7.1,"
"##MN-00 00 77 0000 02751 8180 613992 023594 199"
"176.805718"
"$GPRMC,192010,A,2547.1031,N,07948.0650,W,4.8,311.8,250615,7.1,"
"##MN-00 00 74 0000 02750 8183 418320 023589 199"
"176.805764"
"$GPRMC,192014,A,2547.1067,N,07948.0694,W,4.8,311.6,250615,7.1,"
"##MN-00 00 63 0000 02751 8184 713104 023566 199"
"176.80581"
"$GPRMC,192018,A,2547.1102,N,07948.0738,W,4.8,311.5,250615,7.1,"
"##MN-00 00 49 0000 02751 8186 222336 023580 199"
"176.805856"
"$GPRMC,192022,A,2547.1136,N,07948.0781,W,4.8,311.0,250615,7.1,"
"##MN-00 00 41 0000 02749 8188 030432 023541 199"
"176.805903"
"$GPRMC,192026,A,2547.1172,N,07948.0825,W,4.8,311.1,250615,7.1,"
"##MN-00 00 34 0000 02750 8190 533376 023579 199"
"176.805949"
"$GPRMC,192030,A,2547.1205,N,07948.0868,W,4.7,311.1,250615,7.1,"
"##MN-00 00 29 0000 02750 0000 840944 023569 199"
"176.805995"
"$GPRMC,192034,A,2547.1238,N,07948.0912,W,4.6,310.9,250615,7.1,"
"##MN-00 00 20 0000 02749 0002 733872 023562 199"
"176.806042"
"$GPRMC,192038,A,2547.1272,N,07948.0955,W,4.6,310.7,250615,7.1,"
"##MN-00 00 11 0000 02750 0004 445696 023562 199"
"176.806088"
"$GPRMC,192043,A,2547.1313,N,07948.1011,W,4.6,310.5,250615,7.1,"
"##MN-00 00 01 0000 02751 0006 320432 023538 199"
"176.806134"
"$GPRMC,192046,A,2547.1339,N,07948.1044,W,4.6,310.5,250615,7.1,"
"##MN-00 00 00 0000 02751 0008 002592 023559 199"
"176.806181"
"$GPRMC,192050,A,2547.1373,N,07948.1085,W,4.6,310.8,250615,7.1,"
"##MN-00 00 00 0000 02752 0009 249080 023565 199"
"176.806227"
"$GPRMC,192054,A,2547.1407,N,07948.1129,W,4.6,310.8,250615,7.1,"
"##MN-00 00 00 0000 02750 0011 007488 023538 199"
"176.806273"
"$GPRMC,192058,A,2547.1440,N,07948.1174,W,4.6,310.8,250615,7.1,"
"##MN-00 00 20 0000 02751 0013 664616 023541 199"
"176.806319"
"$GPRMC,192102,A,2547.1475,N,07948.1217,W,4.7,311.2,250615,7.1,"
"##MN-00 00 27 0000 02749 0015 014576 023537 199"
"176.806366"
"$GPRMC,192107,A,2547.1519,N,07948.1272,W,4.7,311.5,250615,7.1,"
"##MN-00 00 43 0000 02751 0017 466800 023531 199"
"176.806412"
"$GPRMC,192111,A,2547.1552,N,07948.1316,W,4.8,311.7,250615,7.1,"
"##MN-00 00 47 0000 02748 0020 032592 023557 199"
"176.806458"
"$GPRMC,192115,A,2547.1588,N,07948.1360,W,4.8,312.1,250615,7.1,"
"##MN-00 00 48 0000 02749 0021 669672 023541 199"
"176.806505"
"$GPRMC,192119,A,2547.1624,N,07948.1402,W,4.8,312.6,250615,7.1,"
"##MN-00 00 53 0000 02751 0023 670048 023554 199"
"176.806551"
"$GPRMC,192123,A,2547.1662,N,07948.1445,W,4.8,313.1,250615,7.1,"
"##MN-00 00 53 0000 02750 0025 566272 023526 199"
"176.806597"
"$GPRMC,192127,A,2547.1703,N,07948.1485,W,4.8,314.0,250615,7.1,"
"##MN-00 00 58 0000 02748 0027 001824 023555 199"
"176.806643"
"$GPRMC,192131,A,2547.1740,N,07948.1526,W,4.8,314.6,250615,7.1,"
"##MN-00 00 53 0000 02746 0029 449448 023549 199"
"176.80669"
"$GPRMC,192135,A,2547.1776,N,07948.1568,W,4.8,314.8,250615,7.1,"
"##MN-00 00 52 0000 02747 0031 423264 023558 199"
"176.806736"
"$GPRMC,192139,A,2547.1815,N,07948.1608,W,4.7,315.0,250615,7.1,"
"##MN-00 00 51 0000 02748 0032 716496 023571 199"
"176.806782"
"$GPRMC,192143,A,2547.1854,N,07948.1647,W,4.7,315.6,250615,7.1,"
"##MN-00 00 53 0000 02746 0034 199888 023550 199"
"176.806829"
"$GPRMC,192147,A,2547.1890,N,07948.1689,W,4.6,315.8,250615,7.1,"
"##MN-00 00 54 0000 02745 0036 578104 023561 199"
"176.806875"
"$GPRMC,192151,A,2547.1927,N,07948.1730,W,4.7,316.0,250615,7.1,"
"##MN-00 00 55 0000 02744 0037 165280 023572 199"
"176.806921"
"$GPRMC,192155,A,2547.1953,N,07948.1759,W,4.6,315.9,250615,7.1,"
"##MN-00 00 53 0000 02747 0039 449168 023545 199"
"176.806968"
"$GPRMC,192159,A,2547.1991,N,07948.1797,W,4.6,316.0,250615,7.1,"
"##MN-00 00 54 0000 02746 0040 744528 023560 199"
"176.807014"
"$GPRMC,192203,A,2547.2036,N,07948.1846,W,4.6,316.3,250615,7.1,"
"##MN-00 00 55 0000 02745 0042 518960 023571 199"
"176.80706"
"$GPRMC,192207,A,2547.2074,N,07948.1883,W,4.6,316.3,250615,7.1,"
"##MN-00 00 54 0000 02745 0043 295232 023557 199"
"176.807106"
"$GPRMC,192211,A,2547.2101,N,07948.1913,W,4.5,316.3,250615,7.1,"
"##MN-00 00 54 0000 02745 0044 582424 023561 199"
"176.807153"
"$GPRMC,192215,A,2547.2148,N,07948.1962,W,4.5,316.3,250615,7.1,"
"##MN-00 00 54 0000 02745 0045 465664 023566 199"
"176.807199"
"$GPRMC,192219,A,2547.2184,N,07948.1999,W,4.5,316.4,250615,7.1,"
"##MN-00 00 55 0000 02745 0046 145648 023542 199"
"176.807245"
"$GPRMC,192223,A,2547.2220,N,07948.2037,W,4.5,316.6,250615,7.1,"
"##MN-00 00 54 0000 02743 0047 436688 023568 199"
"176.807292"
"$GPRMC,192227,A,2547.2256,N,07948.2074,W,4.5,316.6,250615,7.1,"
"##MN-00 00 55 0000 02743 0048 627056 023584 199"
"176.807338"
"$GPRMC,192231,A,2547.2295,N,07948.2111,W,4.5,316.7,250615,7.1,"
"##MN-00 00 55 0000 02744 0049 408320 023555 199"
"176.807384"
"$GPRMC,192235,A,2547.2332,N,07948.2150,W,4.5,316.5,250615,7.1,"
"##MN-00 00 54 0000 02743 0050 388960 023572 199"
"176.807431"
"$GPRMC,192239,A,2547.2368,N,07948.2187,W,4.5,316.7,250615,7.1,"
"##MN-00 00 55 0000 02743 0050 566912 023597 199"
"176.807477"
"$GPRMC,192243,A,2547.2404,N,07948.2225,W,4.4,316.6,250615,7.1,"
"##MN-00 00 54 0000 02742 0051 355224 023574 199"
"176.807523"
"$GPRMC,192247,A,2547.2440,N,07948.2263,W,4.5,316.6,250615,7.1,"
"##MN-00 00 54 0000 02744 0051 218880 023574 199"
"176.807569"
"$GPRMC,192251,A,2547.2477,N,07948.2301,W,4.5,316.7,250615,7.1,"
"##MN-00 00 55 0000 02743 0052 280712 023581 199"
"176.807616"
"$GPRMC,192255,A,2547.2509,N,07948.2341,W,4.5,316.7,250615,7.1,"
"##MN-00 00 54 0000 02741 0052 513376 023615 199"
"176.807662"
"$GPRMC,192259,A,2547.2545,N,07948.2379,W,4.5,316.9,250615,7.1,"
"##MN-00 00 55 0000 02742 0052 716264 023595 199"
"176.807708"
"$GPRMC,192303,A,2547.2581,N,07948.2417,W,4.5,317.0,250615,7.1,"
"##MN-00 00 54 0000 02739 0052 066992 023573 199"
"176.807755"
"$GPRMC,192307,A,2547.2618,N,07948.2457,W,4.6,317.2,250615,7.1,"
"##MN-00 00 54 0000 02741 0052 048296 023602 199"
"176.807801"
"$GPRMC,192311,A,2547.2656,N,07948.2496,W,4.6,317.3,250615,7.1,"
"##MN-00 00 55 0000 02741 0052 033952 023577 199"
"176.807847"
"$GPRMC,192315,A,2547.2693,N,07948.2536,W,4.6,317.4,250615,7.1,"
"##MN-00 00 54 0000 02739 0052 452720 023582 199"
"176.807894"
"$GPRMC,192319,A,2547.2730,N,07948.2573,W,4.6,317.6,250615,7.1,"
"##MN-00 00 53 0000 02741 0051 222224 023583 199"
"176.80794"
"$GPRMC,192323,A,2547.2769,N,07948.2612,W,4.6,317.4,250615,7.1,"
"##MN-00 00 54 0000 02742 0051 832136 023590 199"
"176.807986"
"$GPRMC,192327,A,2547.2807,N,07948.2650,W,4.6,317.5,250615,7.1,"
"##MN-00 00 55 0000 02742 0050 605280 023572 199"
"176.808032"
"$GPRMC,192331,A,2547.2844,N,07948.2688,W,4.6,317.4,250615,7.1,"
"##MN-00 00 55 0000 02740 0049 495704 023561 199"
"176.808079"
"$GPRMC,192335,A,2547.2881,N,07948.2725,W,4.6,317.5,250615,7.1,"
"##MN-00 00 55 0000 02740 0049 000864 023557 199"
"176.808125"
"$GPRMC,192339,A,2547.2919,N,07948.2764,W,4.6,317.2,250615,7.1,"
"##MN-00 00 54 0000 02740 0048 670232 023564 199"
"176.808171"
"$GPRMC,192343,A,2547.2957,N,07948.2803,W,4.6,317.3,250615,7.1,"
"##MN-00 00 54 0000 02741 0047 354256 023573 199"
"176.808218"
"$GPRMC,192347,A,2547.2995,N,07948.2840,W,4.6,317.0,250615,7.1,"
"##MN-00 00 55 0000 02742 0045 962120 023550 199"
"176.808264"
"$GPRMC,192351,A,2547.3033,N,07948.2879,W,4.6,317.0,250615,7.1,"
"##MN-00 00 55 0000 02741 0044 958400 023535 199"
"176.80831"
"$GPRMC,192355,A,2547.3071,N,07948.2917,W,4.6,317.1,250615,7.1,"
"##MN-00 00 55 0000 02741 0043 916392 023554 199"
"176.808356"
"$GPRMC,192359,A,2547.3107,N,07948.2956,W,4.6,316.5,250615,7.1,"
"##MN-00 00 54 0000 02742 0042 915296 023552 199"
"176.808403"
"$GPRMC,192403,A,2547.3143,N,07948.2993,W,4.5,316.3,250615,7.1,"
"##MN-00 00 55 0000 02739 0040 915552 023557 199"
"176.808449"
"$GPRMC,192407,A,2547.3177,N,07948.3031,W,4.5,316.0,250615,7.1,"
"##MN-00 00 55 0000 02741 0038 481264 023547 199"
"176.808495"
"$GPRMC,192411,A,2547.3214,N,07948.3069,W,4.4,315.8,250615,7.1,"
"##MN-00 00 54 0000 02743 0036 884944 023538 199"
"176.808542"
"$GPRMC,192415,A,2547.3249,N,07948.3108,W,4.4,315.9,250615,7.1,"
"##MN-00 00 54 0000 02743 0035 552944 023539 199"
"176.808588"
"$GPRMC,192419,A,2547.3282,N,07948.3147,W,4.4,315.7,250615,7.1,"
"##MN-00 00 55 0000 02742 0033 860480 023536 199"
"176.808634"
"$GPRMC,192423,A,2547.3314,N,07948.3190,W,4.3,316.0,250615,7.1,"
"##MN-00 00 55 0000 02742 0031 847392 023517 199"
"176.808681"
"$GPRMC,192427,A,2547.3347,N,07948.3228,W,4.4,315.8,250615,7.1,"
"##MN-00 00 52 0000 02743 0029 830736 023520 199"
"176.808727"
"$GPRMC,192431,A,2547.3379,N,07948.3267,W,4.3,316.2,250615,7.1,"
"##MN-00 00 54 0000 02747 0027 920640 023531 199"
"176.808773"
"$GPRMC,192435,A,2547.3412,N,07948.3306,W,4.3,316.0,250615,7.1,"
"##MN-00 00 52 0000 02745 0025 803568 023523 199"
"176.808819"
"$GPRMC,192439,A,2547.3448,N,07948.3342,W,4.3,316.1,250615,7.1,"
"##MN-00 00 54 0000 02745 0022 773032 023512 199"
"176.808866"
"$GPRMC,192443,A,2547.3487,N,07948.3374,W,4.3,316.5,250615,7.1,"
"##MN-00 00 54 0000 02745 0020 831744 023510 199"
"176.808912"
"$GPRMC,192447,A,2547.3523,N,07948.3410,W,4.3,316.6,250615,7.1,"
"##MN-00 00 54 0000 02746 0018 762848 023515 199"
"176.80897"
"$GPRMC,192451,A,2547.3557,N,07948.3446,W,4.3,316.7,250615,7.1,"
"##MN-00 00 54 0000 02749 0015 747472 023526 199"
"176.809016"
"$GPRMC,192455,A,2547.3593,N,07948.3483,W,4.3,316.9,250615,7.1,"
"##MN-00 00 54 0000 02746 0013 639992 023517 198"
"176.809062"
"$GPRMC,192459,A,2547.3628,N,07948.3522,W,4.3,317.1,250615,7.1,"
"##MN-00 00 54 0000 02748 0010 743440 023508 198"
"176.809109"
"$GPRMC,192503,A,2547.3662,N,07948.3558,W,4.4,317.2,250615,7.1,"
"##MN-00 00 54 0000 02749 0007 717392 023505 198"
"176.809155"
"$GPRMC,192507,A,2547.3698,N,07948.3595,W,4.4,316.9,250615,7.1,"
"##MN+00 00 53 0000 02750 0005 697520 023526 198"
"176.809201"
"$GPRMC,192511,A,2547.3736,N,07948.3634,W,4.4,317.2,250615,7.1,"
"##MN+00 00 54 0000 02748 0002 691536 023492 198"
"176.809248"
"$GPRMC,192515,A,2547.3773,N,07948.3671,W,4.5,317.2,250615,7.1,"
"##MN+00 00 55 0000 02750 8191 662384 023498 199"
"176.809294"
"$GPRMC,192519,A,2547.3810,N,07948.3710,W,4.4,317.0,250615,7.1,"
"##MN-00 00 53 0000 02750 8188 369464 023508 198"
"176.80934"
"$GPRMC,192523,A,2547.3848,N,07948.3746,W,4.5,317.2,250615,7.1,"
"##MN-00 00 54 0000 02750 8185 658208 023503 199"
"176.809387"
"$GPRMC,192528,A,2547.3895,N,07948.3794,W,4.5,317.1,250615,7.1,"
"##MN-00 00 52 0000 02749 8181 638424 023530 199"
"176.809433"
"$GPRMC,192531,A,2547.3924,N,07948.3822,W,4.5,317.3,250615,7.1,"
"##MN-00 00 53 0000 02751 8179 635520 023514 199"
"176.809479"
"$GPRMC,192536,A,2547.3969,N,07948.3867,W,4.5,317.5,250615,7.1,"
"##MN-00 00 53 0000 02750 8175 630880 023525 199"
"176.809525"
"$GPRMC,192540,A,2547.4008,N,07948.3903,W,4.5,317.5,250615,7.1,"
"##MN-00 00 54 0000 02752 8172 408992 023526 199"
"176.809572"
"$GPRMC,192544,A,2547.4043,N,07948.3941,W,4.4,317.4,250615,7.1,"
"##MN-00 00 52 0000 02750 8169 810392 023539 199"
"176.809618"
"$GPRMC,192548,A,2547.4079,N,07948.3978,W,4.4,317.1,250615,7.1,"
"##MN-00 00 54 0000 02752 8165 581120 023547 199"
"176.809664"
"$GPRMC,192552,A,2547.4113,N,07948.4014,W,4.3,317.0,250615,7.1,"
"##MN-00 00 53 0000 02751 8162 688784 023523 198"
"176.809711"
"$GPRMC,192556,A,2547.4149,N,07948.4050,W,4.3,316.9,250615,7.1,"
"##MN-00 00 52 0000 02753 8158 368688 023533 199"
"176.809757"
"$GPRMC,192559,A,2547.4177,N,07948.4080,W,4.3,317.2,250615,7.1,"
"##MN-00 00 54 0000 02754 8155 876704 023535 199"
"176.809803"
"$GPRMC,192604,A,2547.4220,N,07948.4129,W,4.2,316.9,250615,7.1,"
"##MN-00 00 52 0000 02756 8151 764736 023536 199"
"176.80985"
"$GPRMC,192608,A,2547.4254,N,07948.4165,W,4.2,316.7,250615,7.1,"
"##MN-00 00 52 0000 02755 8148 521856 023553 199"
"176.809896"
"$GPRMC,192612,A,2547.4286,N,07948.4199,W,4.2,316.5,250615,7.1,"
"##MN-00 00 52 0000 02754 8144 534944 023541 199"
"176.809942"
"$GPRMC,192616,A,2547.4322,N,07948.4231,W,4.2,316.4,250615,7.1,"
"##MN-00 00 54 0000 02756 8141 516016 023532 199"
"176.809988"
"$GPRMC,192620,A,2547.4355,N,07948.4263,W,4.1,316.1,250615,7.1,"
"##MN-00 00 53 0000 02757 8137 721760 023549 198"
"176.810035"
"$GPRMC,192624,A,2547.4390,N,07948.4296,W,4.1,315.9,250615,7.1,"
"##MN-00 00 51 0000 02756 8133 388576 023551 199"
"176.810081"
"$GPRMC,192628,A,2547.4426,N,07948.4332,W,4.0,316.0,250615,7.1,"
"##MN-00 00 52 0000 02758 8129 442960 023568 198"
"176.810127"
"$GPRMC,192632,A,2547.4459,N,07948.4368,W,4.0,315.6,250615,7.1,"
"##MN-00 00 51 0000 02758 8125 692592 023537 199"
"176.810174"
"$GPRMC,192636,A,2547.4492,N,07948.4404,W,4.0,315.7,250615,7.1,"
"##MN-00 00 53 0000 02758 8121 457968 023542 198"
"176.81022"
"$GPRMC,192640,A,2547.4525,N,07948.4440,W,4.0,315.6,250615,7.1,"
"##MN-00 00 52 0000 02759 8117 783912 023557 198"
"176.810266"
"$GPRMC,192644,A,2547.4565,N,07948.4477,W,4.0,315.9,250615,7.1,"
"##MN-00 00 51 0000 02759 8113 657680 023563 199"
"176.810313"
"$GPRMC,192648,A,2547.4599,N,07948.4516,W,4.1,316.3,250615,7.1,"
"##MN-00 00 54 0000 02758 8109 120160 023563 199"
"176.810359"
"$GPRMC,192652,A,2547.4632,N,07948.4552,W,4.2,316.4,250615,7.1,"
"##MN-00 00 53 0000 02761 8105 208000 023548 198"
"176.810405"
"$GPRMC,192656,A,2547.4665,N,07948.4586,W,4.2,316.4,250615,7.1,"
"##MN-00 00 52 0000 02763 8101 507440 023556 198"
"176.810451"
"$GPRMC,192700,A,2547.4698,N,07948.4620,W,4.2,316.4,250615,7.1,"
"##MN-00 00 52 0000 02762 8097 846080 023557 198"
"176.810498"
"$GPRMC,192704,A,2547.4731,N,07948.4651,W,4.3,316.6,250615,7.1,"
"##MN+00 00 52 0000 02763 8093 268992 023559 198"
"176.810544"
"$GPRMC,192708,A,2547.4764,N,07948.4687,W,4.3,316.7,250615,7.1,"
"##MN+00 00 53 0000 02762 8089 400032 023552 198"
"176.81059"
"$GPRMC,192712,A,2547.4799,N,07948.4722,W,4.3,317.0,250615,7.1,"
"##MN+00 00 55 0000 02763 8085 571616 023559 198"
"176.810637"
"#increment_net"
"$GPRMC,192716,A,2547.4832,N,07948.4758,W,4.3,316.7,250615,7.1,"
"##MN-00 00 52 0000 02764 8080 124256 023536 198"
"176.810683"
"$GPRMC,192720,A,2547.4865,N,07948.4798,W,4.3,316.8,250615,7.1,"
"##MN-00 00 52 0000 02764 8076 345168 023558 198"
"176.810729"
"$GPRMC,192724,A,2547.4897,N,07948.4834,W,4.3,316.9,250615,7.1,"
"##MN-00 00 54 0000 02765 8072 332864 023567 199"
"176.810775"
"$GPRMC,192728,A,2547.4930,N,07948.4870,W,4.3,316.9,250615,7.1,"
"##MN-00 00 54 0000 02765 8067 321384 023552 198"
"176.810822"
"$GPRMC,192732,A,2547.4965,N,07948.4910,W,4.2,316.9,250615,7.1,"
"##MN-00 00 52 0000 02766 8063 310800 023575 198"
"176.810868"
"$GPRMC,192736,A,2547.5001,N,07948.4946,W,4.2,317.0,250615,7.1,"
"##MN-00 00 54 0000 02768 8059 526536 023573 198"
"176.810914"
"$GPRMC,192740,A,2547.5034,N,07948.4983,W,4.2,316.6,250615,7.1,"
"##MN-00 00 54 0000 02766 8054 296832 023555 198"
"176.810961"
"$GPRMC,192744,A,2547.5066,N,07948.5022,W,4.2,316.4,250615,7.1,"
"##MN-00 00 54 0000 02766 8050 284032 023572 198"
"176.811007"
"$GPRMC,192748,A,2547.5099,N,07948.5054,W,4.2,316.5,250615,7.1,"
"##MN-00 00 53 0000 02767 8046 273936 023583 198"
"176.811053"
"$GPRMC,192752,A,2547.5135,N,07948.5090,W,4.2,316.4,250615,7.1,"
"##MN-00 00 53 0000 02766 8041 149032 023588 199"
"176.8111"
"$GPRMC,192756,A,2547.5168,N,07948.5124,W,4.2,316.5,250615,7.1,"
"##MN-00 00 54 0000 02768 8037 702736 023594 198"
"176.811146"
"$GPRMC,192800,A,2547.5204,N,07948.5159,W,4.1,316.6,250615,7.1,"
"##MN-00 00 52 0000 02768 8032 242248 023587 198"
"176.811192"
"$GPRMC,192804,A,2547.5237,N,07948.5192,W,4.0,316.8,250615,7.1,"
"##MN-00 00 52 0000 02770 8028 235280 023575 198"
"176.811238"
"$GPRMC,192808,A,2547.5273,N,07948.5228,W,4.0,316.6,250615,7.1,"
"##MN-00 00 53 0000 02770 8023 634632 023592 198"
"176.811285"
"$GPRMC,192812,A,2547.5307,N,07948.5264,W,4.0,316.6,250615,7.1,"
"##MN-00 00 53 0000 02771 8019 215072 023605 198"
"176.811331"
"$GPRMC,192816,A,2547.5338,N,07948.5296,W,3.9,316.5,250615,7.1,"
"##MN-00 00 55 0000 02772 8014 205840 023599 198"
"176.811377"
"$GPRMC,192820,A,2547.5370,N,07948.5329,W,4.0,316.8,250615,7.1,"
"##MN-00 00 54 0000 02774 8010 877488 023603 198"
"176.811424"
"$GPRMC,192824,A,2547.5403,N,07948.5361,W,3.9,316.7,250615,7.1,"
"##MN-00 00 53 0000 02772 8005 186048 023602 198"
"176.81147"
"$GPRMC,192828,A,2547.5435,N,07948.5394,W,3.9,316.6,250615,7.1,"
"##MN-00 00 52 0000 02772 8001 178208 023588 198"
"176.811516"
"$GPRMC,192832,A,2547.5468,N,07948.5426,W,3.9,316.2,250615,7.1,"
"##MN-00 00 54 0000 02773 7996 169840 023600 198"
"176.811563"
"$GPRMC,192836,A,2547.5499,N,07948.5459,W,3.9,316.1,250615,7.1,"
"##MN-00 00 54 0000 02773 7992 158848 023599 198"
"176.811609"
"$GPRMC,192840,A,2547.5529,N,07948.5491,W,3.8,316.1,250615,7.1,"
"##MN-00 00 54 0000 02772 7987 559960 023591 198"
"176.811655"
"$GPRMC,192844,A,2547.5560,N,07948.5524,W,3.8,316.0,250615,7.1,"
"##MN-00 00 52 0000 02774 7982 369504 023608 198"
"176.811701"
"$GPRMC,192848,A,2547.5591,N,07948.5556,W,3.8,315.9,250615,7.1,"
"##MN-00 00 54 0000 02775 7978 131160 023608 198"
"176.811748"
"$GPRMC,192852,A,2547.5620,N,07948.5589,W,3.8,316.3,250615,7.1,"
"##MN-00 00 54 0000 02773 7973 585216 023593 198"
"176.811794"
"$GPRMC,192856,A,2547.5651,N,07948.5621,W,3.8,316.0,250615,7.1,"
"##MN-00 00 52 0000 02775 7968 114936 023598 198"
"176.81184"
"$GPRMC,192900,A,2547.5681,N,07948.5655,W,3.8,316.0,250615,7.1,"
"##MN-00 00 54 0000 02774 7964 924144 023589 198"
"176.811887"
"$GPRMC,192904,A,2547.5713,N,07948.5688,W,3.8,315.9,250615,7.1,"
"##MN-00 00 53 0000 02777 7959 326296 023597 198"
"176.811933"
"$GPRMC,192908,A,2547.5743,N,07948.5722,W,3.8,315.9,250615,7.1,"
"##MN-00 00 53 0000 02777 7954 906576 023602 198"
"176.811979"
"$GPRMC,192912,A,2547.5775,N,07948.5755,W,3.8,315.9,250615,7.1,"
"##MN-00 00 51 0000 02777 7950 077088 023623 198"
"176.812025"
"$GPRMC,192916,A,2547.5807,N,07948.5788,W,3.8,316.0,250615,7.1,"
"##MN+00 00 54 0000 02778 7945 073648 023618 198"
"176.812072"
"$GPRMC,192920,A,2547.5836,N,07948.5821,W,3.8,315.6,250615,7.1,"
"##MN+00 00 51 0000 02778 7941 177192 023604 198"
"176.812118"
"$GPRMC,192924,A,2547.5868,N,07948.5856,W,3.9,315.6,250615,7.1,"
"##MN+00 00 55 0000 02777 7936 055184 023608 198"
"176.812164"
"#increment_net"
"$GPRMC,192928,A,2547.5900,N,07948.5889,W,3.9,315.6,250615,7.1,"
"##MN-00 00 55 0000 02778 7931 045944 023618 198"
"176.812222"
"#increment_net"
"$GPRMC,192932,A,2547.5930,N,07948.5923,W,3.9,315.6,250615,7.1,"
"##MN-00 00 56 0000 02778 7926 035792 023603 198"
"176.812268"
"$GPRMC,192936,A,2547.5952,N,07948.5950,W,3.9,315.1,250615,7.1,"
"##MN-00 00 55 0000 02779 7922 024696 023635 198"
"176.812315"
"$GPRMC,192940,A,2547.5992,N,07948.5993,W,4.0,315.2,250615,7.1,"
"##MN-00 00 55 0000 02778 7917 017232 023629 198"
"176.812361"
"$GPRMC,192944,A,2547.6023,N,07948.6026,W,3.9,314.8,250615,7.1,"
"##MN-00 00 55 0000 02780 7912 016456 023619 198"
"176.812407"
"$GPRMC,192948,A,2547.6052,N,07948.6060,W,3.9,315.3,250615,7.1,"
"##MN-00 00 57 0000 02782 7908 466448 023619 198"
"176.812454"
"$GPRMC,192952,A,2547.6082,N,07948.6095,W,3.9,315.3,250615,7.1,"
"##MN-00 00 56 0000 02782 7903 521392 023624 198"
"176.8125"
"$GPRMC,192956,A,2547.6110,N,07948.6128,W,3.8,315.2,250615,7.1,"
"##MN-00 00 57 0000 02782 7898 037728 023631 198"
"176.812546"
"$GPRMC,193000,A,2547.6139,N,07948.6163,W,3.8,315.1,250615,7.1,"
"##MN-00 00 56 0000 02781 7893 617016 023620 198"
"176.812593"
"$GPRMC,193004,A,2547.6168,N,07948.6196,W,3.7,315.1,250615,7.1,"
"##MN-00 00 56 0000 02783 7889 784208 023652 198"
"176.812639"
"$GPRMC,193008,A,2547.6198,N,07948.6228,W,3.7,315.6,250615,7.1,"
"##MN-00 00 57 0000 02783 7884 009616 023645 198"
"176.812685"
"$GPRMC,193012,A,2547.6226,N,07948.6261,W,3.7,315.6,250615,7.1,"
"##MN-00 00 54 0000 02783 7879 009664 023644 198"
"176.812732"
"$GPRMC,193016,A,2547.6254,N,07948.6291,W,3.6,315.5,250615,7.1,"
"##MN-00 00 55 0000 02784 7875 705056 023637 198"
"176.812778"
"$GPRMC,193020,A,2547.6283,N,07948.6322,W,3.6,315.4,250615,7.1,"
"##MN-00 00 56 0000 02784 7870 756048 023634 198"
"176.812824"
"$GPRMC,193024,A,2547.6310,N,07948.6351,W,3.6,315.0,250615,7.1,"
"##MN-00 00 56 0000 02785 7865 570792 023652 198"
"176.81287"
"$GPRMC,193028,A,2547.6339,N,07948.6380,W,3.6,315.1,250615,7.1,"
"##MN-00 00 56 0000 02784 7860 559312 023634 198"
"176.812917"
"$GPRMC,193033,A,2547.6374,N,07948.6420,W,3.5,314.6,250615,7.1,"
"##MN-00 00 55 0000 02785 7855 134528 023668 198"
"176.812963"
"$GPRMC,193037,A,2547.6400,N,07948.6450,W,3.5,314.8,250615,7.1,"
"##MN-00 00 56 0000 02784 7850 544368 023677 198"
"176.813009"
"$GPRMC,193041,A,2547.6429,N,07948.6481,W,3.5,315.0,250615,7.1,"
"##MN-00 00 54 0000 02785 7846 135616 023677 198"
"176.813056"
"$GPRMC,193045,A,2547.6456,N,07948.6511,W,3.5,314.8,250615,7.1,"
"##MN-00 00 55 0000 02786 7841 766536 023642 198"
"176.813102"
"$GPRMC,193049,A,2547.6486,N,07948.6542,W,3.5,315.1,250615,7.1,"
"##MN-00 00 55 0000 02787 7836 812112 023644 198"
"176.813148"
"$GPRMC,193053,A,2547.6514,N,07948.6572,W,3.5,314.9,250615,7.1,"
"##MN-00 00 56 0000 02787 7831 455664 023660 198"
"176.813194"
"$GPRMC,193057,A,2547.6543,N,07948.6604,W,3.6,315.0,250615,7.1,"
"##MN-00 00 56 0000 02787 7827 566368 023644 198"
"176.813241"
"$GPRMC,193101,A,2547.6569,N,07948.6638,W,3.6,314.7,250615,7.1,"
"##MN-00 00 55 0000 02788 7822 904432 023667 198"
"176.813287"
"$GPRMC,193105,A,2547.6597,N,07948.6671,W,3.6,314.6,250615,7.1,"
"##MN-00 00 55 0000 02788 7817 896048 023666 198"
"176.813333"
"$GPRMC,193109,A,2547.6627,N,07948.6705,W,3.6,314.8,250615,7.1,"
"##MN-00 00 55 0000 02788 7812 781288 023657 198"
"176.81338"
"$GPRMC,193113,A,2547.6656,N,07948.6738,W,3.7,314.9,250615,7.1,"
"##MN+00 00 55 0000 02785 7808 897168 023673 198"
"176.813426"
"$GPRMC,193117,A,2547.6686,N,07948.6770,W,3.7,315.2,250615,7.1,"
"##MN+00 00 55 0000 02788 7803 708872 023662 198"
"176.813472"
"$GPRMC,193121,A,2547.6716,N,07948.6803,W,3.7,314.9,250615,7.1,"
"##MN+00 00 56 0000 02789 7798 874992 023670 198"
"176.813519"
"#increment_net"
"$GPRMC,193125,A,2547.6746,N,07948.6835,W,3.7,315.1,250615,7.1,"
"##MN-00 00 54 0000 02787 7793 753128 023644 198"
"176.813565"
"$GPRMC,193129,A,2547.6775,N,07948.6869,W,3.7,314.9,250615,7.1,"
"##MN-00 00 55 0001 02789 7788 273760 023670 198"
"176.813611"
"$GPRMC,193133,A,2547.6807,N,07948.6902,W,3.7,314.8,250615,7.1,"
"##MN-00 00 55 0001 02789 7784 844024 023671 198"
"176.813657"
"$GPRMC,193137,A,2547.6834,N,07948.6934,W,3.7,314.8,250615,7.1,"
"##MN-00 00 54 0001 02789 7779 840592 023671 198"
"176.813704"
"$GPRMC,193141,A,2547.6863,N,07948.6966,W,3.7,314.7,250615,7.1,"
"##MN-00 00 54 0001 02790 7774 840768 023674 198"
"176.81375"
"$GPRMC,193145,A,2547.6893,N,07948.6999,W,3.6,314.6,250615,7.1,"
"##MN-00 00 54 0001 02789 7769 428064 023666 198"
"176.813796"
"$GPRMC,193149,A,2547.6920,N,07948.7031,W,3.6,314.7,250615,7.1,"
"##MN-00 00 54 0001 02793 7765 591680 023668 198"
"176.813843"
"$GPRMC,193153,A,2547.6949,N,07948.7059,W,3.6,315.3,250615,7.1,"
"##MN-00 00 55 0001 02790 7760 817032 023676 198"
"176.813889"
"$GPRMC,193157,A,2547.6982,N,07948.7089,W,3.6,315.2,250615,7.1,"
"##MN-00 00 54 0001 02790 7755 811776 023664 198"
"176.813935"
"$GPRMC,193201,A,2547.7010,N,07948.7118,W,3.5,314.9,250615,7.1,"
"##MN-00 00 53 0001 02791 7750 506680 023677 198"
"176.813981"
"$GPRMC,193205,A,2547.7039,N,07948.7147,W,3.4,315.2,250615,7.1,"
"##MN-00 00 53 0001 02792 7745 784240 023689 198"
"176.814028"
"$GPRMC,193209,A,2547.7065,N,07948.7176,W,3.4,314.9,250615,7.1,"
"##MN-00 00 54 0001 02792 7741 784368 023703 198"
"176.814074"
"$GPRMC,193213,A,2547.7093,N,07948.7205,W,3.3,314.6,250615,7.1,"
"##MN-00 00 53 0001 02792 7736 552112 023696 198"
"176.81412"
"$GPRMC,193217,A,2547.7119,N,07948.7233,W,3.3,314.4,250615,7.1,"
"##MN-00 00 54 0001 02791 7731 783680 023684 198"
"176.814167"
"$GPRMC,193221,A,2547.7140,N,07948.7265,W,3.3,314.3,250615,7.1,"
"##MN-00 00 55 0001 02793 7727 776624 023684 198"
"176.814213"
"$GPRMC,193225,A,2547.7166,N,07948.7292,W,3.3,314.6,250615,7.1,"
"##MN-00 00 56 0001 02794 7722 883192 023681 198"
"176.814259"
"$GPRMC,193229,A,2547.7191,N,07948.7321,W,3.3,314.3,250615,7.1,"
"##MN-00 00 55 0001 02794 7718 757152 023685 198"
"176.814306"
"$GPRMC,193233,A,2547.7217,N,07948.7349,W,3.3,313.9,250615,7.1,"
"##MN-00 00 55 0001 02793 7713 752344 023680 198"
"176.814352"
"$GPRMC,193237,A,2547.7242,N,07948.7378,W,3.3,313.8,250615,7.1,"
"##MN-00 00 53 0001 02792 7708 972128 023708 198"
"176.814398"
"$GPRMC,193241,A,2547.7266,N,07948.7407,W,3.2,313.7,250615,7.1,"
"##MN-00 00 53 0001 02793 7704 437544 023717 198"
"176.814444"
"$GPRMC,193245,A,2547.7291,N,07948.7436,W,3.2,313.4,250615,7.1,"
"##MN-00 00 54 0001 02793 7699 728976 023717 198"
"176.814491"
"$GPRMC,193249,A,2547.7318,N,07948.7468,W,3.3,313.2,250615,7.1,"
"##MN-00 00 55 0001 02793 7694 727744 023734 198"
"176.814537"
"$GPRMC,193253,A,2547.7346,N,07948.7500,W,3.3,313.4,250615,7.1,"
"##MN-00 00 56 0002 02794 7689 727360 023710 198"
"176.814583"
"$GPRMC,193257,A,2547.7374,N,07948.7533,W,3.4,313.4,250615,7.1,"
"##MN-00 00 54 0002 02792 7685 723968 023706 198"
"176.81463"
"$GPRMC,193301,A,2547.7401,N,07948.7563,W,3.4,313.3,250615,7.1,"
"##MN-00 00 54 0002 02792 7680 712352 023713 198"
"176.814676"
"$GPRMC,193305,A,2547.7430,N,07948.7594,W,3.5,313.1,250615,7.1,"
"##MN-00 00 53 0003 02793 7676 703552 023695 198"
"176.814722"
"$GPRMC,193309,A,2547.7455,N,07948.7624,W,3.5,313.2,250615,7.1,"
"##MN-00 00 55 0004 02792 7671 700032 023715 198"
"176.814769"
"$GPRMC,193313,A,2547.7483,N,07948.7655,W,3.5,313.2,250615,7.1,"
"##MN-00 00 56 0004 02795 7666 513040 023721 198"
"176.814815"
"$GPRMC,193317,A,2547.7509,N,07948.7686,W,3.6,313.4,250615,7.1,"
"##MN-00 00 56 0005 02792 7662 906960 023730 198"
"176.814861"
"$GPRMC,193321,A,2547.7536,N,07948.7715,W,3.5,313.3,250615,7.1,"
"##MN-00 00 56 0006 02794 7657 671728 023729 198"
"176.814907"
"$GPRMC,193325,A,2547.7562,N,07948.7747,W,3.5,313.2,250615,7.1,"
"##MN-00 00 54 0007 02794 7653 555232 023751 198"
"176.814954"
"$GPRMC,193329,A,2547.7588,N,07948.7778,W,3.5,313.4,250615,7.1,"
"##MN-00 00 56 0008 02794 7648 671984 023719 198"
"176.815"
"$GPRMC,193333,A,2547.7613,N,07948.7807,W,3.5,313.5,250615,7.1,"
"##MN-00 00 56 0009 02795 7643 782952 023725 198"
"176.815046"
"$GPRMC,193337,A,2547.7639,N,07948.7837,W,3.5,313.6,250615,7.1,"
"##MN-00 00 55 0010 02794 7639 655104 023726 198"
"176.815093"
"$GPRMC,193341,A,2547.7664,N,07948.7865,W,3.4,313.1,250615,7.1,"
"##MN-00 00 54 0011 02795 7635 358928 023734 198"
"176.815139"
"$GPRMC,193345,A,2547.7690,N,07948.7895,W,3.4,314.0,250615,7.1,"
"##MN-00 00 53 0011 02794 7630 410400 023742 198"
"176.815185"
"$GPRMC,193349,A,2547.7717,N,07948.7924,W,3.3,314.2,250615,7.1,"
"##MN-00 00 54 0012 02795 7625 635744 023735 198"
"176.815231"
"$GPRMC,193353,A,2547.7742,N,07948.7955,W,3.3,313.9,250615,7.1,"
"##MN-00 00 54 0013 02795 7621 860368 023752 198"
"176.815278"
"$GPRMC,193357,A,2547.7768,N,07948.7985,W,3.3,313.9,250615,7.1,"
"##MN-00 00 55 0014 02795 7616 614944 023749 198"
"176.815324"
"$GPRMC,193401,A,2547.7794,N,07948.8014,W,3.3,313.9,250615,7.1,"
"##MN-00 00 56 0015 02794 7612 615392 023772 198"
"176.81537"
"$GPRMC,193405,A,2547.7820,N,07948.8046,W,3.3,314.1,250615,7.1,"
"##MN-00 00 57 0016 02794 7607 325920 023785 198"
"176.815417"
"$GPRMC,193409,A,2547.7845,N,07948.8076,W,3.3,314.4,250615,7.1,"
"##MN-00 00 54 0017 02797 7603 615568 023741 198"
"176.815475"
"$GPRMC,193413,A,2547.7870,N,07948.8108,W,3.3,314.0,250615,7.1,"
"##MN-00 00 55 0018 02793 7599 613408 023745 198"
"176.815521"
"$GPRMC,193417,A,2547.7896,N,07948.8139,W,3.3,313.8,250615,7.1,"
"##MN-00 00 54 0018 02796 7594 836704 023761 198"
"176.815567"
"$GPRMC,193421,A,2547.7921,N,07948.8169,W,3.3,313.6,250615,7.1,"
"##MN-00 00 57 0019 02794 7589 477720 023758 198"
"176.815613"
"$GPRMC,193425,A,2547.7948,N,07948.8199,W,3.3,313.8,250615,7.1,"
"##MN-00 00 55 0020 02795 7585 588272 023756 198"
"176.81566"
"$GPRMC,193429,A,2547.7974,N,07948.8230,W,3.3,313.8,250615,7.1,"
"##MN-00 00 56 0021 02796 7580 582960 023763 198"
"176.815706"
"$GPRMC,193433,A,2547.8000,N,07948.8259,W,3.4,313.5,250615,7.1,"
"##MN-00 00 52 0022 02795 7576 805824 023760 198"
"176.815752"
"$GPRMC,193437,A,2547.8026,N,07948.8293,W,3.4,313.2,250615,7.1,"
"##MN-00 00 54 0023 02795 7572 795112 023753 198"
"176.815799"
"$GPRMC,193441,A,2547.8054,N,07948.8325,W,3.4,313.1,250615,7.1,"
"##MN-00 00 55 0024 02795 7567 558256 023769 198"
"176.815845"
"$GPRMC,193445,A,2547.8080,N,07948.8357,W,3.4,313.1,250615,7.1,"
"##MN-00 00 56 0025 02794 7563 442552 023793 198"
"176.815891"
"$GPRMC,193449,A,2547.8109,N,07948.8389,W,3.4,312.8,250615,7.1,"
"##MN-00 00 56 0026 02794 7558 794936 023763 198"
"176.815938"
"$GPRMC,193453,A,2547.8137,N,07948.8419,W,3.5,313.5,250615,7.1,"
"##MN-00 00 55 0026 02794 7554 556672 023778 198"
"176.815984"
"$GPRMC,193457,A,2547.8163,N,07948.8451,W,3.5,313.4,250615,7.1,"
"##MN-00 00 54 0027 02795 7550 543848 023777 198"
"176.81603"
"$GPRMC,193501,A,2547.8190,N,07948.8483,W,3.5,313.7,250615,7.1,"
"##MN-00 00 54 0028 02796 7545 535472 023777 198"
"176.816076"
"$GPRMC,193506,A,2547.8221,N,07948.8524,W,3.5,313.5,250615,7.1,"
"##MN-00 00 55 0029 02794 7541 531960 023787 198"
"176.816123"
"$GPRMC,193510,A,2547.8245,N,07948.8555,W,3.5,313.3,250615,7.1,"
"##MN+00 00 55 0030 02795 7537 996976 023786 198"
"176.816169"
"$GPRMC,193514,A,2547.8275,N,07948.8584,W,3.5,313.2,250615,7.1,"
"##MN+00 00 55 0031 02795 7532 513872 023789 198"
"176.816215"
"$GPRMC,193518,A,2547.8306,N,07948.8614,W,3.5,313.5,250615,7.1,"
"##MN+00 00 57 0032 02796 7528 740592 023802 198"
"176.816262"
"#increment_net"
"$GPRMC,193522,A,2547.8332,N,07948.8645,W,3.4,313.4,250615,7.1,"
"##MN-00 00 54 0033 02794 7524 738816 023810 198"
"176.816308"
"$GPRMC,193526,A,2547.8358,N,07948.8678,W,3.4,313.1,250615,7.1,"
"##MN-00 00 57 0034 02796 7519 268608 023811 198"
"176.816354"
"$GPRMC,193530,A,2547.8385,N,07948.8708,W,3.4,313.1,250615,7.1,"
"##MN-00 00 55 0035 02795 7515 739352 023799 198"
"176.8164"
"$GPRMC,193534,A,2547.8411,N,07948.8739,W,3.3,313.4,250615,7.1,"
"##MN-00 00 56 0036 02795 7511 491376 023790 198"
"176.816447"
"$GPRMC,193538,A,2547.8437,N,07948.8768,W,3.3,313.8,250615,7.1,"
"##MN-00 00 56 0036 02795 7506 497696 023802 198"
"176.816493"
"$GPRMC,193542,A,2547.8462,N,07948.8797,W,3.3,313.5,250615,7.1,"
"##MN-00 00 55 0037 02794 7502 487040 023802 198"
"176.816539"
"$GPRMC,193546,A,2547.8488,N,07948.8826,W,3.3,314.2,250615,7.1,"
"##MN-00 00 56 0038 02794 7498 598480 023819 198"
"176.816586"
"$GPRMC,193550,A,2547.8516,N,07948.8856,W,3.3,314.1,250615,7.1,"
"##MN-00 00 54 0039 02795 7493 474720 023814 198"
"176.816632"
"$GPRMC,193554,A,2547.8542,N,07948.8887,W,3.3,313.8,250615,7.1,"
"##MN-00 00 55 0039 02795 7489 350504 023826 198"
"176.816678"
"$GPRMC,193558,A,2547.8568,N,07948.8917,W,3.3,313.7,250615,7.1,"
"##MN-00 00 55 0040 02794 7485 461360 023818 198"
"176.816725"
"$GPRMC,193602,A,2547.8595,N,07948.8947,W,3.3,313.8,250615,7.1,"
"##MN-00 00 53 0041 02795 7481 449928 023823 198"
"176.816771"
"$GPRMC,193606,A,2547.8620,N,07948.8975,W,3.3,313.7,250615,7.1,"
"##MN-00 00 55 0042 02796 7477 446440 023811 198"
"176.816817"
"$GPRMC,193610,A,2547.8646,N,07948.9007,W,3.4,314.0,250615,7.1,"
"##MN-00 00 57 0043 02794 7472 445584 023822 198"
"176.816863"
"$GPRMC,193614,A,2547.8671,N,07948.9039,W,3.4,313.5,250615,7.1,"
"##MN-00 00 53 0044 02796 7468 446544 023818 198"
"176.81691"
"$GPRMC,193618,A,2547.8698,N,07948.9071,W,3.5,313.4,250615,7.1,"
"##MN-00 00 54 0045 02795 7464 921360 023808 198"
"176.816956"
"$GPRMC,193622,A,2547.8727,N,07948.9101,W,3.5,313.4,250615,7.1,"
"##MN-00 00 56 0046 02795 7460 321584 023813 198"
"176.817002"
"$GPRMC,193626,A,2547.8754,N,07948.9134,W,3.5,313.2,250615,7.1,"
"##MN-00 00 57 0047 02793 7455 907248 023812 198"
"176.817049"
"$GPRMC,193630,A,2547.8780,N,07948.9166,W,3.5,313.0,250615,7.1,"
"##MN-00 00 55 0048 02795 7451 427240 023804 198"
"176.817095"
"$GPRMC,193634,A,2547.8806,N,07948.9198,W,3.5,313.3,250615,7.1,"
"##MN-00 00 56 0049 02795 7447 419184 023812 198"
"176.817141"
"$GPRMC,193638,A,2547.8831,N,07948.9231,W,3.5,313.7,250615,7.1,"
"##MN-00 00 56 0050 02796 7443 131128 023824 198"
"176.817187"
"$GPRMC,193642,A,2547.8859,N,07948.9263,W,3.5,314.0,250615,7.1,"
"##MN-00 00 56 0051 02796 7439 174432 023829 198"
"176.817234"
"$GPRMC,193646,A,2547.8885,N,07948.9293,W,3.5,313.5,250615,7.1,"
"##MN-00 00 55 0052 02794 7435 521864 023834 198"
"176.81728"
"$GPRMC,193650,A,2547.8907,N,07948.9325,W,3.5,313.5,250615,7.1,"
"##MN-00 00 55 0053 02794 7431 865712 023861 198"
"176.817326"
"$GPRMC,193654,A,2547.8936,N,07948.9355,W,3.5,313.3,250615,7.1,"
"##MN-00 00 56 0053 02792 7427 391984 023828 198"
"176.817373"
"$GPRMC,193658,A,2547.8965,N,07948.9383,W,3.4,313.7,250615,7.1,"
"##MN-00 00 57 0054 02793 7423 870432 023825 198"
"176.817419"
"$GPRMC,193702,A,2547.8990,N,07948.9415,W,3.4,313.5,250615,7.1,"
"##MN-00 00 55 0055 02794 7418 628112 023814 198"
"176.817465"
"$GPRMC,193706,A,2547.9016,N,07948.9445,W,3.4,313.6,250615,7.1,"
"##MN-00 00 54 0056 02794 7414 389032 023820 198"
"176.817512"
"$GPRMC,193710,A,2547.9041,N,07948.9476,W,3.4,313.4,250615,7.1,"
"##MN-00 00 56 0057 02795 7410 858176 023815 198"
"176.817558"
"$GPRMC,193714,A,2547.9066,N,07948.9506,W,3.4,313.6,250615,7.1,"
"##MN-00 00 56 0058 02796 7407 351720 023828 198"
"176.817604"
"$GPRMC,193718,A,2547.9092,N,07948.9537,W,3.3,313.4,250615,7.1,"
"##MN-00 00 54 0059 02796 7403 656160 023824 198"
"176.81765"
"$GPRMC,193722,A,2547.9117,N,07948.9566,W,3.3,313.2,250615,7.1,"
"##MN-00 00 56 0060 02794 7398 721080 023851 198"
"176.817697"
"$GPRMC,193726,A,2547.9142,N,07948.9595,W,3.3,313.9,250615,7.1,"
"##MN-00 00 55 0061 02796 7394 600032 023837 198"
"176.817743"
"$GPRMC,193730,A,2547.9167,N,07948.9624,W,3.3,313.9,250615,7.1,"
"##MN-00 00 56 0062 02793 7390 473576 023859 198"
"176.817789"
"$GPRMC,193734,A,2547.9195,N,07948.9654,W,3.3,313.9,250615,7.1,"
"##MN+00 00 55 0063 02795 7386 584960 023846 198"
"176.817836"
"$GPRMC,193738,A,2547.9221,N,07948.9684,W,3.2,313.7,250615,7.1,"
"##MN+00 00 55 0064 02795 7382 053176 023880 198"
"176.817882"
"$GPRMC,193742,A,2547.9249,N,07948.9715,W,3.3,313.7,250615,7.1,"
"##MN+00 00 56 0064 02794 7378 574400 023872 198"
"176.817928"
"$GPRMC,193746,A,2547.9275,N,07948.9743,W,3.3,313.6,250615,7.1,"
"##MN-00 00 55 0065 02794 7375 454168 023835 198"
"176.817975"
"$GPRMC,193750,A,2547.9301,N,07948.9773,W,3.3,313.7,250615,7.1,"
"##MN-00 00 54 0066 02794 7370 937592 023835 198"
"176.818021"
"#increment_net"
"$GPRMC,193754,A,2547.9326,N,07948.9803,W,3.3,313.7,250615,7.1,"
"##MN-00 00 54 0067 02792 7367 728688 023835 198"
"176.818067"
"$GPRMC,193758,A,2547.9352,N,07948.9834,W,3.3,313.5,250615,7.1,"
"##MN-00 00 53 0068 02793 7363 761640 023848 198"
"176.818113"
"$GPRMC,193802,A,2547.9380,N,07948.9863,W,3.4,313.7,250615,7.1,"
"##MN-00 00 54 0069 02795 7358 517256 023865 198"
"176.81816"
"$GPRMC,193806,A,2547.9408,N,07948.9895,W,3.4,313.5,250615,7.1,"
"##MN-00 00 53 0070 02795 7355 464192 023838 198"
"176.818206"
"$GPRMC,193810,A,2547.9435,N,07948.9925,W,3.4,313.6,250615,7.1,"
"##MN-00 00 54 0071 02794 7351 463440 023865 198"
"176.818252"
"$GPRMC,193814,A,2547.9463,N,07948.9957,W,3.5,313.8,250615,7.1,"
"##MN-00 00 54 0072 02794 7347 792272 023857 198"
"176.818299"
"$GPRMC,193818,A,2547.9492,N,07948.9989,W,3.5,313.7,250615,7.1,"
"##MN-00 00 56 0073 02794 7343 134360 023858 198"
"176.818345"
"$GPRMC,193822,A,2547.9518,N,07949.0018,W,3.5,313.8,250615,7.1,"
"##MN-00 00 55 0074 02793 7339 888496 023873 198"
"176.818391"
"$GPRMC,193826,A,2547.9546,N,07949.0050,W,3.5,313.8,250615,7.1,"
"##MN-00 00 55 0075 02793 7335 045008 023884 198"
"176.818437"
"$GPRMC,193830,A,2547.9574,N,07949.0081,W,3.5,314.3,250615,7.1,"
"##MN-00 00 55 0076 02792 7332 516224 023875 198"
"176.818484"
"$GPRMC,193834,A,2547.9599,N,07949.0113,W,3.5,313.9,250615,7.1,"
"##MN-00 00 54 0077 02793 7328 759520 023881 198"
"176.81853"
"$GPRMC,193838,A,2547.9625,N,07949.0145,W,3.5,314.0,250615,7.1,"
"##MN-00 00 56 0078 02792 7324 519032 023882 198"
"176.818576"
"$GPRMC,193842,A,2547.9651,N,07949.0177,W,3.5,313.8,250615,7.1,"
"##MN-00 00 55 0079 02791 7320 760480 023865 198"
"176.818623"
"$GPRMC,193846,A,2547.9676,N,07949.0206,W,3.4,313.8,250615,7.1,"
"##MN-00 00 55 0080 02790 7316 755200 023863 198"
"176.818681"
"$GPRMC,193850,A,2547.9702,N,07949.0235,W,3.3,313.8,250615,7.1,"
"##MN-00 00 56 0081 02793 7313 826944 023859 198"
"176.818727"
"$GPRMC,193854,A,2547.9731,N,07949.0265,W,3.4,313.9,250615,7.1,"
"##MN-00 00 56 0082 02793 7309 177056 023876 198"
"176.818773"
"$GPRMC,193858,A,2547.9756,N,07949.0294,W,3.4,313.9,250615,7.1,"
"##MN-00 00 56 0082 02792 7305 736608 023858 198"
"176.818819"
"$GPRMC,193902,A,2547.9782,N,07949.0325,W,3.3,313.8,250615,7.1,"
"##MN-00 00 56 0083 02792 7301 014240 023886 198"
"176.818866"
"$GPRMC,193906,A,2547.9809,N,07949.0354,W,3.3,313.6,250615,7.1,"
"##MN-00 00 54 0084 02793 7297 488568 023879 198"
"176.818912"
"$GPRMC,193910,A,2547.9834,N,07949.0384,W,3.3,313.8,250615,7.1,"
"##MN-00 00 55 0085 02793 7294 718800 023875 198"
"176.818958"
"$GPRMC,193914,A,2547.9861,N,07949.0413,W,3.3,313.5,250615,7.1,"
"##MN-00 00 55 0086 02793 7290 685096 023871 198"
"176.819005"
"$GPRMC,193918,A,2547.9886,N,07949.0444,W,3.3,313.5,250615,7.1,"
"##MN-00 00 55 0087 02791 7287 833912 023892 198"
"176.819051"
"$GPRMC,193922,A,2547.9914,N,07949.0473,W,3.3,313.2,250615,7.1,"
"##MN-00 00 56 0088 02792 7283 948880 023913 198"
"176.819097"
"$GPRMC,193926,A,2547.9940,N,07949.0503,W,3.3,313.2,250615,7.1,"
"##MN-00 00 55 0089 02793 7279 987264 023897 198"
"176.819144"
"$GPRMC,193930,A,2547.9966,N,07949.0535,W,3.3,313.4,250615,7.1,"
"##MN-00 00 55 0090 02793 7275 135488 023865 198"
"176.81919"
"$GPRMC,193935,A,2548.0000,N,07949.0574,W,3.3,313.3,250615,7.1,"
"##MN-00 00 54 0091 02792 7272 869816 023872 198"
"176.819236"
"$GPRMC,193939,A,2548.0026,N,07949.0604,W,3.4,313.5,250615,7.1,"
"##MN-00 00 57 0092 02793 7268 297880 023874 198"
"176.819282"
"$GPRMC,193943,A,2548.0052,N,07949.0634,W,3.4,313.4,250615,7.1,"
"##MN-00 00 57 0093 02792 7265 687152 023876 198"
"176.819329"
"$GPRMC,193947,A,2548.0081,N,07949.0666,W,3.5,313.8,250615,7.1,"
"##MN-00 00 55 0094 02793 7261 851200 023888 198"
"176.819375"
"$GPRMC,193950,A,2548.0100,N,07949.0690,W,3.5,313.5,250615,7.1,"
"##MN-00 00 55 0095 02792 7257 450400 023878 198"
"176.819421"
"$GPRMC,193955,A,2548.0135,N,07949.0731,W,3.5,313.7,250615,7.1,"
"##MN-00 00 57 0096 02792 7254 803144 023876 198"
"176.819468"
"$GPRMC,193959,A,2548.0160,N,07949.0764,W,3.5,313.3,250615,7.1,"
"##MN+00 00 56 0097 02792 7250 115424 023894 198"
"176.819514"
"$GPRMC,194003,A,2548.0186,N,07949.0796,W,3.5,313.5,250615,7.1,"
"##MN+00 00 55 0098 02793 7246 672760 023885 198"
"176.81956"
"$GPRMC,194007,A,2548.0212,N,07949.0828,W,3.5,313.4,250615,7.1,"
"##MN+00 00 56 0098 02792 7243 508400 023897 198"
"176.819606"
"$GPRMC,194011,A,2548.0240,N,07949.0857,W,3.5,313.4,250615,7.1,"
"##MN-00 00 51 0099 02792 7239 576048 023897 198"
"176.819653"
"#increment_net"
"$GPRMC,194015,A,2548.0266,N,07949.0887,W,3.5,313.6,250615,7.1,"
"##MN-00 00 51 0100 02792 7236 780736 023893 198"
"176.819699"
"$GPRMC,194019,A,2548.0294,N,07949.0921,W,3.5,313.6,250615,7.1,"
"##MN-00 00 50 0101 02792 7232 894320 023901 198"
"176.819745"
"$GPRMC,194023,A,2548.0320,N,07949.0954,W,3.5,313.8,250615,7.1,"
"##MN-00 00 51 0102 02790 7228 332152 023900 198"
"176.819792"
"$GPRMC,194027,A,2548.0345,N,07949.0986,W,3.5,313.6,250615,7.1,"
"##MN-00 00 52 0103 02791 7225 525584 023864 198"
"176.819838"
"$GPRMC,194031,A,2548.0374,N,07949.1015,W,3.5,314.0,250615,7.1,"
"##MN-00 00 54 0104 02792 7222 408096 023870 198"
"176.819884"
"$GPRMC,194035,A,2548.0401,N,07949.1044,W,3.4,313.9,250615,7.1,"
"##MN-00 00 50 0105 02790 7218 122120 023887 198"
"176.819931"
"$GPRMC,194039,A,2548.0430,N,07949.1071,W,3.4,313.9,250615,7.1,"
"##MN-00 00 52 0106 02793 7214 642432 023886 198"
"176.819977"
"$GPRMC,194043,A,2548.0457,N,07949.1099,W,3.4,313.9,250615,7.1,"
"##MN-00 00 53 0107 02789 7211 806248 023876 198"
"176.820023"
"$GPRMC,194047,A,2548.0482,N,07949.1128,W,3.3,313.9,250615,7.1,"
"##MN-00 00 52 0108 02790 7207 993288 023893 198"
"176.820069"
"$GPRMC,194051,A,2548.0507,N,07949.1157,W,3.3,313.6,250615,7.1,"
"##MN-00 00 51 0109 02791 7204 311136 023902 198"
"176.820116"
"$GPRMC,194055,A,2548.0533,N,07949.1186,W,3.3,313.8,250615,7.1,"
"##MN-00 00 51 0110 02790 7201 344176 023908 198"
"176.820162"
"$GPRMC,194059,A,2548.0558,N,07949.1215,W,3.3,313.9,250615,7.1,"
"##MN-00 00 54 0111 02791 7197 380784 023891 198"
"176.820208"
"$GPRMC,194103,A,2548.0583,N,07949.1246,W,3.3,314.2,250615,7.1,"
"##MN-00 00 51 0112 02790 7193 460408 023899 198"
"176.820255"
"$GPRMC,194107,A,2548.0609,N,07949.1275,W,3.3,313.9,250615,7.1,"
"##MN-00 00 51 0112 02790 7190 574480 023889 198"
"176.820301"
"$GPRMC,194111,A,2548.0634,N,07949.1304,W,3.3,314.4,250615,7.1,"
"##MN-00 00 51 0113 02789 7187 570528 023887 198"
"176.820347"
"$GPRMC,194115,A,2548.0661,N,07949.1334,W,3.3,314.3,250615,7.1,"
"##MN-00 00 52 0114 02790 7183 794192 023915 198"
"176.820393"
"$GPRMC,194119,A,2548.0687,N,07949.1366,W,3.4,314.6,250615,7.1,"
"##MN-00 00 52 0115 02791 7180 997600 023917 198"
"176.82044"
"$GPRMC,194123,A,2548.0710,N,07949.1395,W,3.3,314.1,250615,7.1,"
"##MN-00 00 51 0116 02790 7177 438376 023919 198"
"176.820486"
"$GPRMC,194127,A,2548.0738,N,07949.1427,W,3.4,314.2,250615,7.1,"
"##MN-00 00 51 0117 02790 7173 698120 023907 198"
"176.820532"
"$GPRMC,194131,A,2548.0764,N,07949.1457,W,3.4,314.6,250615,7.1,"
"##MN-00 00 49 0118 02791 7170 341440 023891 198"
"176.820579"
"$GPRMC,194135,A,2548.0790,N,07949.1488,W,3.4,314.4,250615,7.1,"
"##MN-00 00 50 0119 02791 7166 792280 023895 198"
"176.820625"
"$GPRMC,194139,A,2548.0820,N,07949.1518,W,3.4,314.6,250615,7.1,"
"##MN-00 00 51 0120 02792 7163 511568 023891 198"
"176.820671"
"$GPRMC,194143,A,2548.0851,N,07949.1548,W,3.4,314.5,250615,7.1,"
"##MN-00 00 52 0121 02791 7160 497296 023887 198"
"176.820718"
"$GPRMC,194147,A,2548.0880,N,07949.1579,W,3.5,314.2,250615,7.1,"
"##MN-00 00 52 0122 02792 7156 539672 023898 198"
"176.820764"
"$GPRMC,194151,A,2548.0914,N,07949.1611,W,3.5,314.3,250615,7.1,"
"##MN-00 00 51 0123 02791 7153 269744 023886 198"
"176.82081"
"$GPRMC,194155,A,2548.0941,N,07949.1645,W,3.5,314.8,250615,7.1,"
"##MN-00 00 51 0124 02792 7150 514312 023879 198"
"176.820856"
"$GPRMC,194159,A,2548.0967,N,07949.1677,W,3.5,314.8,250615,7.1,"
"##MN-00 00 51 0125 02792 7147 600768 023885 198"
"176.820903"
"$GPRMC,194203,A,2548.0992,N,07949.1709,W,3.5,315.0,250615,7.1,"
"##MN-00 00 52 0126 02790 7143 365328 023853 198"
"176.820949"
"$GPRMC,194207,A,2548.1020,N,07949.1741,W,3.5,315.0,250615,7.1,"
"##MN-00 00 53 0127 02790 7140 389800 023832 198"
"176.820995"
"$GPRMC,194211,A,2548.1046,N,07949.1770,W,3.5,314.9,250615,7.1,"
"##MN+00 00 49 0128 02790 7137 524808 023817 198"
"176.821042"
"$GPRMC,194215,A,2548.1075,N,07949.1799,W,3.5,314.8,250615,7.1,"
"##MN+00 00 50 0129 02789 7133 809136 023776 198"
"176.821088"
"$GPRMC,194219,A,2548.1104,N,07949.1828,W,3.5,314.6,250615,7.1,"
"##MN+00 00 54 0130 02791 7130 880272 023784 198"
"176.821134"
"$GPRMC,194223,A,2548.1133,N,07949.1857,W,3.5,314.6,250615,7.1,"
"##MN-00 00 53 0131 02791 7127 193800 023792 198"
"176.821181"
"$GPRMC,194227,A,2548.1160,N,07949.1887,W,3.5,314.5,250615,7.1,"
"##MN-00 00 54 0131 02790 7124 672528 023780 198"
"176.821227"
"#increment_net"
"$GPRMC,194231,A,2548.1186,N,07949.1918,W,3.4,314.1,250615,7.1,"
"##MN-00 00 51 0132 02793 7121 539088 023752 198"
"176.821273"
"$GPRMC,194235,A,2548.1211,N,07949.1947,W,3.3,314.6,250615,7.1,"
"##MN-00 00 55 0133 02792 7117 627480 023741 198"
"176.821319"
"$GPRMC,194239,A,2548.1236,N,07949.1977,W,3.3,314.1,250615,7.1,"
"##MN-00 00 53 0134 02789 7114 541160 023750 198"
"176.821366"
"$GPRMC,194243,A,2548.1262,N,07949.2009,W,3.3,314.1,250615,7.1,"
"##MN-00 00 53 0135 02791 7111 982928 023735 198"
"176.821412"
"$GPRMC,194247,A,2548.1288,N,07949.2038,W,3.3,313.8,250615,7.1,"
"##MN-00 00 55 0136 02792 7107 881032 023736 198"
"176.821458"
"$GPRMC,194251,A,2548.1313,N,07949.2066,W,3.3,314.1,250615,7.1,"
"##MN-00 00 54 0137 02792 7104 863520 023740 198"
"176.821505"
"$GPRMC,194255,A,2548.1339,N,07949.2095,W,3.3,313.7,250615,7.1,"
"##MN-00 00 55 0138 02789 7101 442480 023732 198"
"176.821551"
"$GPRMC,194259,A,2548.1364,N,07949.2124,W,3.3,313.9,250615,7.1,"
"##MN-00 00 54 0139 02790 7098 076664 023741 198"
"176.821597"
"$GPRMC,194303,A,2548.1391,N,07949.2153,W,3.3,314.0,250615,7.1,"
"##MN-00 00 55 0140 02792 7095 004592 023745 198"
"176.821644"
"$GPRMC,194307,A,2548.1417,N,07949.2182,W,3.3,314.1,250615,7.1,"
"##MN-00 00 52 0141 02791 7092 357424 023732 198"
"176.82169"
"$GPRMC,194311,A,2548.1447,N,07949.2215,W,3.3,314.2,250615,7.1,"
"##MN-00 00 55 0142 02790 7089 189008 023741 198"
"176.821736"
"$GPRMC,194315,A,2548.1476,N,07949.2244,W,3.3,314.3,250615,7.1,"
"##MN-00 00 52 0143 02790 7086 356016 023741 198"
"176.821794"
"$GPRMC,194319,A,2548.1504,N,07949.2272,W,3.4,314.4,250615,7.1,"
"##MN-00 00 56 0144 02791 7083 955928 023752 198"
"176.82184"
"$GPRMC,194323,A,2548.1530,N,07949.2301,W,3.4,314.3,250615,7.1,"
"##MN-00 00 54 0145 02791 7080 025344 023766 198"
"176.821887"
"$GPRMC,194327,A,2548.1559,N,07949.2332,W,3.5,314.3,250615,7.1,"
"##MN-00 00 53 0146 02790 7077 567912 023767 198"
"176.821933"
"$GPRMC,194331,A,2548.1587,N,07949.2363,W,3.5,314.3,250615,7.1,"
"##MN-00 00 54 0146 02789 7073 718272 023771 198"
"176.821979"
"$GPRMC,194335,A,2548.1615,N,07949.2395,W,3.5,314.7,250615,7.1,"
"##MN-00 00 54 0147 02790 7071 758256 023763 198"
"176.822025"
"$GPRMC,194339,A,2548.1638,N,07949.2424,W,3.5,314.7,250615,7.1,"
"##MN-00 00 55 0148 02789 7067 263480 023744 198"
"176.822072"
"$GPRMC,194343,A,2548.1667,N,07949.2456,W,3.5,314.9,250615,7.1,"
"##MN-00 00 54 0149 02788 7064 234496 023740 198"
"176.822118"
"$GPRMC,194347,A,2548.1696,N,07949.2486,W,3.5,315.1,250615,7.1,"
"##MN-00 00 55 0150 02791 7061 749928 023747 198"
"176.822164"
"$GPRMC,194351,A,2548.1722,N,07949.2515,W,3.5,315.3,250615,7.1,"
"##MN-00 00 53 0151 02791 7059 789776 023739 198"
"176.822211"
"$GPRMC,194355,A,2548.1750,N,07949.2547,W,3.5,315.3,250615,7.1,"
"##MN-00 00 52 0152 02788 7055 341968 023749 198"
"176.822257"
"$GPRMC,194359,A,2548.1779,N,07949.2579,W,3.5,315.1,250615,7.1,"
"##MN-00 00 56 0153 02791 7052 216864 023756 198"
"176.822303"
"$GPRMC,194403,A,2548.1810,N,07949.2612,W,3.5,314.9,250615,7.1,"
"##MN-00 00 53 0154 02790 7049 898952 023744 198"
"176.82235"
"$GPRMC,194408,A,2548.1846,N,07949.2650,W,3.5,314.6,250615,7.1,"
"##MN-00 00 56 0155 02790 7046 016128 023759 198"
"176.822396"
"$GPRMC,194412,A,2548.1873,N,07949.2681,W,3.5,314.5,250615,7.1,"
"##MN-00 00 55 0156 02789 7043 013024 023749 198"
"176.822442"
"$GPRMC,194416,A,2548.1902,N,07949.2711,W,3.6,314.8,250615,7.1,"
"##MN-00 00 55 0157 02788 7040 006384 023741 198"
"176.822488"
"$GPRMC,194420,A,2548.1928,N,07949.2742,W,3.5,314.9,250615,7.1,"
"##MN-00 00 55 0158 02788 7037 006432 023755 198"
"176.822535"
"$GPRMC,194424,A,2548.1956,N,07949.2774,W,3.5,315.1,250615,7.1,"
"##MN+00 00 55 0159 02789 7034 600616 023753 198"
"176.822581"
"$GPRMC,194428,A,2548.1985,N,07949.2803,W,3.5,315.1,250615,7.1,"
"##MN+00 00 55 0160 02789 7031 993168 023766 198"
"176.822627"
"$GPRMC,194432,A,2548.2010,N,07949.2833,W,3.5,315.1,250615,7.1,"
"##MN+00 00 55 0161 02790 7028 987392 023786 198"
"176.822674"
"$GPRMC,194436,A,2548.2036,N,07949.2865,W,3.4,314.6,250615,7.1,"
"##MN-00 00 54 0162 02787 7025 987888 023792 198"
"176.82272"
"$GPRMC,194440,A,2548.2061,N,07949.2897,W,3.4,314.7,250615,7.1,"
"##MN-00 00 50 0163 02790 7022 706328 023773 198"
"176.822766"
"#increment_net"
"$GPRMC,194444,A,2548.2081,N,07949.2919,W,3.3,314.0,250615,7.1,"
"##MN-00 00 53 0164 02789 7020 749264 023769 198"
"176.822812"
"$GPRMC,194448,A,2548.2112,N,07949.2956,W,3.4,313.8,250615,7.1,"
"##MN-00 00 51 0165 02789 7017 985736 023752 198"
"176.822859"
"$GPRMC,194452,A,2548.2130,N,07949.2978,W,3.3,313.4,250615,7.1,"
"##MN-00 00 49 0166 02790 7014 980928 023743 198"
"176.822905"
"$GPRMC,194456,A,2548.2162,N,07949.3016,W,3.3,313.0,250615,7.1,"
"##MN-00 00 50 0167 02790 7011 977368 023759 198"
"176.822951"
"$GPRMC,194500,A,2548.2187,N,07949.3046,W,3.3,312.8,250615,7.1,"
"##MN-00 00 54 0169 02791 7008 409744 023741 198"
"176.822998"
"$GPRMC,194504,A,2548.2212,N,07949.3076,W,3.3,312.5,250615,7.1,"
"##MN-00 00 47 0170 02792 7005 969864 023746 198"
"176.823044"
"$GPRMC,194508,A,2548.2237,N,07949.3107,W,3.3,312.2,250615,7.1,"
"##MN-00 00 51 0171 02792 7003 967296 023758 198"
"176.82309"
"$GPRMC,194512,A,2548.2258,N,07949.3132,W,3.4,312.0,250615,7.1,"
"##MN-00 00 50 0172 02791 7000 961520 023755 198"
"176.823137"
"$GPRMC,194516,A,2548.2289,N,07949.3169,W,3.4,312.0,250615,7.1,"
"##MN-00 00 51 0173 02794 6997 959736 023748 198"
"176.823183"
"$GPRMC,194520,A,2548.2314,N,07949.3204,W,3.4,311.9,250615,7.1,"
"##MN-00 00 48 0175 02795 6994 719280 023755 198"
"176.823229"
"$GPRMC,194524,A,2548.2335,N,07949.3226,W,3.5,311.8,250615,7.1,"
"##MN-00 00 49 0176 02793 6991 550824 023740 198"
"176.823275"
"$GPRMC,194528,A,2548.2372,N,07949.3266,W,3.5,311.8,250615,7.1,"
"##MN-00 00 49 0177 02793 6988 950880 023760 198"
"176.823322"
"$GPRMC,194532,A,2548.2399,N,07949.3298,W,3.5,311.9,250615,7.1,"
"##MN-00 00 51 0178 02794 6985 665768 023750 198"
"176.823368"
"$GPRMC,194536,A,2548.2425,N,07949.3329,W,3.6,312.0,250615,7.1,"
"##MN-00 00 46 0179 02795 6983 944736 023761 198"
"176.823414"
"$GPRMC,194540,A,2548.2451,N,07949.3361,W,3.6,311.6,250615,7.1,"
"##MN-00 00 45 0181 02792 6980 935848 023774 198"
"176.823461"
"$GPRMC,194544,A,2548.2480,N,07949.3394,W,3.6,311.7,250615,7.1,"
"##MN-00 00 50 0182 02798 6977 931376 023786 198"
"176.823507"
"$GPRMC,194548,A,2548.2508,N,07949.3428,W,3.6,311.1,250615,7.1,"
"##MN-00 00 49 0183 02793 6974 931432 023783 198"
"176.823553"
"$GPRMC,194552,A,2548.2534,N,07949.3461,W,3.6,311.3,250615,7.1,"
"##MN-00 00 52 0184 02792 6972 811712 023781 198"
"176.823599"
"$GPRMC,194556,A,2548.2563,N,07949.3493,W,3.6,311.1,250615,7.1,"
"##MN-00 00 49 0185 02794 6969 932400 023789 198"
"176.823646"
"$GPRMC,194600,A,2548.2588,N,07949.3526,W,3.6,310.9,250615,7.1,"
"##MN-00 00 48 0187 02792 6966 931088 023768 198"
"176.823692"
"$GPRMC,194604,A,2548.2614,N,07949.3559,W,3.6,311.1,250615,7.1,"
"##MN-00 00 50 0188 02794 6963 927104 023758 198"
"176.823738"
"$GPRMC,194608,A,2548.2639,N,07949.3591,W,3.6,311.1,250615,7.1,"
"##MN-00 00 51 0189 02792 6961 521760 023753 198"
"176.823785"
"$GPRMC,194612,A,2548.2667,N,07949.3624,W,3.5,311.5,250615,7.1,"
"##MN-00 00 51 0190 02790 6958 919184 023759 198"
"176.823831"
"$GPRMC,194616,A,2548.2693,N,07949.3656,W,3.5,311.6,250615,7.1,"
"##MN-00 00 44 0191 02791 6956 513344 023755 198"
"176.823877"
"$GPRMC,194620,A,2548.2719,N,07949.3689,W,3.5,311.7,250615,7.1,"
"##MN-00 00 51 0193 02791 6953 912096 023759 198"
"176.823924"
"$GPRMC,194624,A,2548.2744,N,07949.3721,W,3.5,311.7,250615,7.1,"
"##MN-00 00 48 0194 02791 6950 630496 023752 198"
"176.82397"
"$GPRMC,194628,A,2548.2771,N,07949.3754,W,3.5,311.8,250615,7.1,"
"##MN-00 00 48 0195 02789 6947 907664 023764 198"
"176.824016"
"$GPRMC,194632,A,2548.2797,N,07949.3786,W,3.5,311.8,250615,7.1,"
"##MN-00 00 46 0196 02790 6944 903712 023754 198"
"176.824063"
"$GPRMC,194636,A,2548.2822,N,07949.3819,W,3.5,311.5,250615,7.1,"
"##MN-00 00 48 0198 02788 6942 903296 023766 198"
"176.824109"
"$GPRMC,194640,A,2548.2845,N,07949.3851,W,3.4,311.4,250615,7.1,"
"##MN-00 00 50 0199 02788 6939 897936 023756 198"
"176.824155"
"$GPRMC,194644,A,2548.2870,N,07949.3883,W,3.5,311.1,250615,7.1,"
"##MN-00 00 49 0200 02786 6937 894408 023776 198"
"176.824201"
"$GPRMC,194648,A,2548.2892,N,07949.3913,W,3.4,311.4,250615,7.1,"
"##MN-00 00 50 0201 02786 6934 892656 023763 198"
"176.824248"
"$GPRMC,194652,A,2548.2919,N,07949.3945,W,3.5,311.1,250615,7.1,"
"##MN-00 00 52 0202 02785 6931 769376 023771 198"
"176.824294"
"$GPRMC,194656,A,2548.2943,N,07949.3977,W,3.5,311.0,250615,7.1,"
"##MN-00 00 51 0204 02782 6929 318848 023789 198"
"176.82434"
"$GPRMC,194700,A,2548.2968,N,07949.4008,W,3.5,310.9,250615,7.1,"
"##MN-00 00 47 0205 02784 6926 876272 023814 198"
"176.824387"
"$GPRMC,194704,A,2548.2999,N,07949.4043,W,3.5,311.1,250615,7.1,"
"##MN-00 00 49 0206 02783 6924 874144 023813 198"
"176.824433"
"$GPRMC,194708,A,2548.3022,N,07949.4073,W,3.5,311.4,250615,7.1,"
"##MN-00 00 50 0207 02781 6921 875480 023807 198"
"176.824479"
"$GPRMC,194712,A,2548.3047,N,07949.4107,W,3.5,311.5,250615,7.1,"
"##MN-00 00 48 0208 02779 6919 875072 023808 198"
"176.824525"
"$GPRMC,194716,A,2548.3075,N,07949.4140,W,3.5,311.8,250615,7.1,"
"##MN-00 00 48 0210 02779 6916 875056 023804 198"
"176.824572"
"$GPRMC,194720,A,2548.3104,N,07949.4173,W,3.6,311.6,250615,7.1,"
"##MN-00 00 48 0211 02777 6913 875968 023807 198"
"176.824618"
"$GPRMC,194724,A,2548.3130,N,07949.4205,W,3.5,311.7,250615,7.1,"
"##MN-00 00 50 0212 02775 6911 754928 023793 198"
"176.824664"
"$GPRMC,194728,A,2548.3154,N,07949.4236,W,3.5,311.4,250615,7.1,"
"##MN-00 00 49 0213 02775 6908 872480 023781 198"
"176.824711"
"$GPRMC,194732,A,2548.3178,N,07949.4268,W,3.6,311.5,250615,7.1,"
"##MN-00 00 51 0214 02774 6906 075968 023781 198"
"176.824757"
"$GPRMC,194736,A,2548.3206,N,07949.4301,W,3.6,311.2,250615,7.1,"
"##MN-00 00 50 0216 02773 6903 859168 023787 198"
"176.824803"
"$GPRMC,194740,A,2548.3231,N,07949.4335,W,3.6,311.0,250615,7.1,"
"##MN-00 00 49 0217 02771 6901 860032 023786 198"
"176.82485"
"$GPRMC,194744,A,2548.3256,N,07949.4368,W,3.6,310.7,250615,7.1,"
"##MN-00 00 48 0218 02769 6898 457360 023796 198"
"176.824896"
"$GPRMC,194748,A,2548.3282,N,07949.4400,W,3.6,311.0,250615,7.1,"
"##MN-00 00 51 0219 02768 6895 856512 023783 198"
"176.824942"
"$GPRMC,194752,A,2548.3311,N,07949.4433,W,3.6,311.2,250615,7.1,"
"##MN-00 00 48 0221 02767 6893 852016 023791 198"
"176.825"
"$GPRMC,194756,A,2548.3339,N,07949.4466,W,3.6,311.3,250615,7.1,"
"##MN-00 00 49 0222 02767 6891 847520 023797 198"
"176.825046"
"$GPRMC,194800,A,2548.3365,N,07949.4499,W,3.5,311.3,250615,7.1,"
"##MN-00 00 49 0223 02763 6888 846656 023803 198"
"176.825093"
"$GPRMC,194804,A,2548.3393,N,07949.4534,W,3.5,311.2,250615,7.1,"
"##MN-00 00 51 0224 02764 6886 846560 023798 198"
"176.825139"
"$GPRMC,194808,A,2548.3419,N,07949.4566,W,3.5,311.0,250615,7.1,"
"##MN-00 00 51 0225 02761 6883 845184 023800 198"
"176.825185"
"$GPRMC,194812,A,2548.3445,N,07949.4600,W,3.5,311.2,250615,7.1,"
"##MN-00 00 47 0226 02759 6881 839240 023799 198"
