" Tow: 7E-GELZO   RVWS/WS15161"
" Date: 19/06/2015"
" Temperature Probe #  4762    Conductivity Probe #  710"
" Pressure Probe #  159"
" Flow Meter Calibration  4.71 (m/count)  "
"170.965301"
"$GPRMC,230958,A,2519.2883,N,07922.7977,W,1.3,155.0,190615,7.3,"
"##MN-00 00 67 0000 01525 6463 421074 826844 198"
"170.965347"
"$GPRMC,231003,A,2519.2867,N,07922.7969,W,1.3,155.8,190615,7.3,"
"##MN-00 00 67 0000 01527 6463 427461 826073 198"
"170.965394"
"$GPRMC,231007,A,2519.2853,N,07922.7964,W,1.3,156.2,190615,7.3,"
"##MN-00 00 67 0000 01528 6463 427503 826413 198"
"170.96544"
"$GPRMC,231011,A,2519.2841,N,07922.7959,W,1.2,157.2,190615,7.3,"
"##MN-00 00 67 0000 01526 6462 427723 826628 198"
"170.965486"
"$GPRMC,231015,A,2519.2828,N,07922.7955,W,1.2,158.8,190615,7.3,"
"##MN-00 00 07 0000 01528 6463 436298 228958 198"
"170.965532"
"$GPRMC,231019,A,2519.2817,N,07922.7953,W,1.1,160.8,190615,7.3,"
"##MN-00 00 12 0000 01529 6463 438684 205898 198"
"170.965579"
"$GPRMC,231023,A,2519.2807,N,07922.7951,W,1.0,163.6,190615,7.3,"
"##MN-00 00 13 0000 01529 6463 438740 204412 198"
"170.965625"
"$GPRMC,231027,A,2519.2798,N,07922.7950,W,1.0,166.8,190615,7.3,"
"##MN-00 00 14 0000 01529 6463 438801 203461 198"
"170.965671"
"$GPRMC,231031,A,2519.2787,N,07922.7951,W,0.9,170.4,190615,7.3,"
"##MN-00 00 13 0000 01529 6463 438883 203507 198"
"170.965718"
"$GPRMC,231035,A,2519.2780,N,07922.7952,W,0.9,174.6,190615,7.3,"
"##MN-00 00 13 0000 01528 6463 438922 203578 198"
"170.965775"
"$GPRMC,231039,A,2519.2771,N,07922.7953,W,0.8,178.8,190615,7.3,"
"##MN-00 00 14 0000 01530 6463 438975 203549 198"
"170.965822"
"$GPRMC,231043,A,2519.2766,N,07922.7955,W,0.7,182.8,190615,7.3,"
"##MN-00 00 14 0000 01534 6463 438984 203532 198"
"170.965868"
"$GPRMC,231047,A,2519.2758,N,07922.7959,W,0.7,186.7,190615,7.3,"
"##MN-00 00 14 0000 01536 6463 438987 203567 198"
"170.965914"
"$GPRMC,231051,A,2519.2752,N,07922.7960,W,0.6,191.0,190615,7.3,"
"##MN-00 00 14 0000 01538 6463 438998 203568 198"
"170.965961"
"$GPRMC,231055,A,2519.2745,N,07922.7962,W,0.6,194.4,190615,7.3,"
"##MN-00 00 14 0000 01542 6463 439002 203580 198"
"170.966007"
"$GPRMC,231059,A,2519.2738,N,07922.7966,W,0.6,197.5,190615,7.3,"
"##MN-00 00 14 0000 01544 6463 439032 203593 198"
"170.966053"
"$GPRMC,231103,A,2519.2731,N,07922.7970,W,0.6,200.2,190615,7.3,"
"##MN-00 00 13 0000 01545 6463 439084 203594 198"
"170.9661"
"$GPRMC,231107,A,2519.2724,N,07922.7973,W,0.6,203.2,190615,7.3,"
"##MN-00 00 13 0000 01551 6462 439081 203591 198"
"170.966146"
"$GPRMC,231111,A,2519.2719,N,07922.7978,W,0.7,205.7,190615,7.3,"
"##MN-00 00 13 0000 01552 6462 439044 203597 198"
"170.966192"
"$GPRMC,231115,A,2519.2712,N,07922.7982,W,0.7,208.2,190615,7.3,"
"##MN-00 00 13 0000 01556 6462 439009 203584 198"
"170.966238"
"$GPRMC,231119,A,2519.2705,N,07922.7988,W,0.7,208.6,190615,7.3,"
"##MN-00 00 12 0000 01559 6462 438991 203587 198"
"170.966285"
"$GPRMC,231124,A,2519.2697,N,07922.7992,W,0.6,210.7,190615,7.3,"
"##MN-00 00 11 0000 01565 6461 439001 203597 198"
"170.966331"
"$GPRMC,231128,A,2519.2692,N,07922.7996,W,0.6,211.5,190615,7.3,"
"##MN-00 00 12 0000 01564 6461 438968 203587 198"
"170.966377"
"$GPRMC,231132,A,2519.2686,N,07922.7999,W,0.5,211.2,190615,7.3,"
"##MN-00 00 13 0000 01566 6460 438943 203581 198"
"170.966424"
"$GPRMC,231136,A,2519.2680,N,07922.8003,W,0.5,210.6,190615,7.3,"
"##MN-00 00 12 0000 01568 6460 438937 203581 198"
"170.96647"
"$GPRMC,231139,A,2519.2676,N,07922.8006,W,0.5,209.5,190615,7.3,"
"##MN-00 00 12 0000 01575 6460 438926 203580 198"
"170.966516"
"$GPRMC,231144,A,2519.2670,N,07922.8010,W,0.4,207.3,190615,7.3,"
"##MN-00 00 12 0000 01578 6459 438902 203578 198"
"170.966563"
"$GPRMC,231148,A,2519.2666,N,07922.8011,W,0.3,203.0,190615,7.3,"
"##MN-00 00 12 0000 01581 6459 438951 203586 198"
"170.966609"
"$GPRMC,231152,A,2519.2664,N,07922.8010,W,0.2,199.7,190615,7.3,"
"##MN-00 00 13 0000 01584 6458 438994 203595 198"
"170.966655"
"$GPRMC,231156,A,2519.2661,N,07922.8008,W,0.2,192.1,190615,7.3,"
"##MN-00 00 13 0000 01587 6457 439097 203604 198"
"170.966701"
"$GPRMC,231200,A,2519.2661,N,07922.8004,W,0.2,184.5,190615,7.3,"
"##MN-00 00 12 0000 01591 6457 439226 203611 198"
"170.966748"
"$GPRMC,231204,A,2519.2661,N,07922.8000,W,0.3,172.6,190615,7.3,"
"##MN-00 00 12 0000 01598 6457 439337 203636 198"
"170.966794"
"$GPRMC,231208,A,2519.2661,N,07922.7995,W,0.3,152.9,190615,7.3,"
"##MN-00 00 12 0000 01597 6456 439411 203668 198"
"170.96684"
"$GPRMC,231212,A,2519.2661,N,07922.7991,W,0.3,142.0,190615,7.3,"
"##MN-00 00 12 0000 01599 6456 439436 203669 198"
"170.966887"
"$GPRMC,231216,A,2519.2661,N,07922.7986,W,0.3,129.1,190615,7.3,"
"##MN-00 00 12 0000 01606 6455 439455 203668 198"
"170.966933"
"$GPRMC,231220,A,2519.2664,N,07922.7981,W,0.3,121.1,190615,7.3,"
"##MN-00 00 11 0000 01611 6454 439462 203670 198"
"170.966979"
"$GPRMC,231224,A,2519.2664,N,07922.7975,W,0.4,108.8,190615,7.3,"
"##MN-00 00 12 0000 01613 6454 439521 203676 198"
"170.967025"
"$GPRMC,231228,A,2519.2665,N,07922.7968,W,0.4,100.2,190615,7.3,"
"##MN-00 00 12 0000 01615 6453 439688 203721 198"
"170.967072"
"$GPRMC,231232,A,2519.2668,N,07922.7961,W,0.4,91.7,190615,7.3,W"
"##MN-00 00 11 0000 01618 6452 439672 203723 198"
"170.967118"
"$GPRMC,231236,A,2519.2670,N,07922.7952,W,0.5,85.9,190615,7.3,W"
"##MN-00 00 11 0000 01621 6452 439657 203720 198"
"170.967164"
"$GPRMC,231240,A,2519.2672,N,07922.7944,W,0.5,80.5,190615,7.3,W"
"##MN-00 00 11 0000 01626 6451 439604 203720 198"
"170.967211"
"$GPRMC,231244,A,2519.2675,N,07922.7936,W,0.6,76.5,190615,7.3,W"
"##MN-00 00 11 0000 01630 6451 439596 203718 198"
"170.967257"
"$GPRMC,231248,A,2519.2679,N,07922.7929,W,0.5,74.6,190615,7.3,W"
"##MN-00 00 61 0000 01631 6450 439590 203715 198"
"170.967303"
"$GPRMC,231252,A,2519.2682,N,07922.7921,W,0.6,72.2,190615,7.3,W"
"##MN-00 00 10 0000 01633 6450 439629 203724 198"
"170.96735"
"$GPRMC,231256,A,2519.2683,N,07922.7913,W,0.6,71.8,190615,7.3,W"
"##MN-00 00 61 0000 01636 6449 439784 203746 198"
"170.967396"
"$GPRMC,231300,A,2519.2685,N,07922.7906,W,0.6,72.4,190615,7.3,W"
"##MN-00 00 61 0000 01639 6448 439811 203743 198"
"170.967442"
"$GPRMC,231304,A,2519.2686,N,07922.7899,W,0.6,74.3,190615,7.3,W"
"##MN-00 00 62 0000 01639 6447 439723 203745 198"
"170.967488"
"$GPRMC,231308,A,2519.2688,N,07922.7891,W,0.6,76.1,190615,7.3,W"
"##MN-00 00 11 0000 01641 6446 439739 203745 198"
"170.967535"
"$GPRMC,231312,A,2519.2687,N,07922.7883,W,0.5,78.2,190615,7.3,W"
"##MN-00 00 10 0000 01645 6446 439731 203749 198"
"170.967581"
"$GPRMC,231316,A,2519.2688,N,07922.7876,W,0.5,79.4,190615,7.3,W"
"##MN-00 00 11 0000 01646 6445 439827 203754 198"
"170.967627"
"$GPRMC,231320,A,2519.2690,N,07922.7870,W,0.5,79.2,190615,7.3,W"
"##MN-00 00 11 0000 01650 6444 440088 203792 198"
"170.967674"
"$GPRMC,231324,A,2519.2693,N,07922.7862,W,0.5,78.2,190615,7.3,W"
"##MN-00 00 11 0000 01652 6443 440707 203862 198"
"170.96772"
"$GPRMC,231328,A,2519.2696,N,07922.7854,W,0.6,77.1,190615,7.3,W"
"##MN-00 00 10 0000 01658 6443 441271 203966 198"
"170.967766"
"$GPRMC,231332,A,2519.2697,N,07922.7848,W,0.6,75.7,190615,7.3,W"
"##MN-00 00 11 0000 01661 6442 441693 204099 198"
"170.967813"
"$GPRMC,231336,A,2519.2699,N,07922.7840,W,0.6,74.8,190615,7.3,W"
"##MN-00 00 12 0000 01664 6441 441778 204146 198"
"170.967859"
"$GPRMC,231340,A,2519.2703,N,07922.7832,W,0.6,74.4,190615,7.3,W"
"##MN-00 00 12 0000 01666 6440 441896 204146 198"
"170.967905"
"$GPRMC,231344,A,2519.2704,N,07922.7824,W,0.6,75.4,190615,7.3,W"
"##MN-00 00 12 0000 01667 6440 441915 204160 198"
"170.967951"
"$GPRMC,231348,A,2519.2704,N,07922.7815,W,0.7,77.4,190615,7.3,W"
"##MN-00 00 11 0000 01669 6439 441920 204190 198"
"170.967998"
"$GPRMC,231352,A,2519.2705,N,07922.7804,W,0.8,79.6,190615,7.3,W"
"##MN-00 00 12 0000 01669 6438 441923 204206 198"
"170.968044"
"$GPRMC,231356,A,2519.2705,N,07922.7793,W,0.8,83.0,190615,7.3,W"
"##MN-00 00 10 0000 01674 6438 441901 204200 198"
"170.96809"
"$GPRMC,231400,A,2519.2705,N,07922.7782,W,0.9,85.1,190615,7.3,W"
"##MN-00 00 10 0000 01673 6437 441878 204201 198"
"170.968137"
"$GPRMC,231404,A,2519.2707,N,07922.7770,W,0.9,86.7,190615,7.3,W"
"##MN-00 00 11 0000 01674 6436 441858 204203 198"
"170.968183"
"$GPRMC,231408,A,2519.2707,N,07922.7758,W,1.0,88.1,190615,7.3,W"
"##MN-00 00 10 0000 01674 6435 441827 204194 198"
"170.968229"
"$GPRMC,231412,A,2519.2705,N,07922.7744,W,1.0,89.1,190615,7.3,W"
"##MN-00 00 10 0000 01675 6435 441814 204201 198"
"170.968275"
"$GPRMC,231416,A,2519.2705,N,07922.7731,W,1.0,91.2,190615,7.3,W"
"##MN+00 00 10 0000 01673 6433 441825 204204 198"
"170.968322"
"$GPRMC,231420,A,2519.2704,N,07922.7718,W,1.1,93.1,190615,7.3,W"
"##MN+00 00 10 0000 01674 6433 441841 204207 198"
"170.968368"
"$GPRMC,231424,A,2519.2702,N,07922.7704,W,1.1,94.5,190615,7.3,W"
"##MN+00 00 10 0000 01674 6432 441841 204211 198"
"170.968414"
"$GPRMC,231428,A,2519.2701,N,07922.7691,W,1.1,95.3,190615,7.3,W"
"##MN-00 00 10 0000 01675 6431 441880 204220 198"
"170.968461"
"$GPRMC,231432,A,2519.2698,N,07922.7677,W,1.1,96.3,190615,7.3,W"
"##MN-00 00 10 0000 01676 6430 441858 204210 198"
"170.968507"
"$GPRMC,231436,A,2519.2697,N,07922.7663,W,1.1,97.6,190615,7.3,W"
"##MN-00 00 10 0000 01678 6429 441797 204206 198"
"170.968553"
"$GPRMC,231440,A,2519.2695,N,07922.7648,W,1.1,98.1,190615,7.3,W"
"##MN-00 00 10 0000 01677 6429 441797 204203 198"
"170.9686"
"$GPRMC,231444,A,2519.2693,N,07922.7634,W,1.1,99.4,190615,7.3,W"
"##MN-00 00 10 0000 01680 6427 441817 204205 198"
"170.968646"
"$GPRMC,231448,A,2519.2691,N,07922.7620,W,1.1,100.0,190615,7.3,"
"##MN-00 00 10 0000 01679 6427 441787 204202 198"
"170.968692"
"$GPRMC,231452,A,2519.2687,N,07922.7606,W,1.1,100.8,190615,7.3,"
"##MN-00 00 11 0000 01679 6426 441779 204198 198"
"170.968738"
"$GPRMC,231456,A,2519.2681,N,07922.7590,W,1.1,102.1,190615,7.3,"
"##MN-00 00 10 0000 01681 6425 441782 204199 198"
"170.968785"
"$GPRMC,231500,A,2519.2677,N,07922.7576,W,1.1,102.8,190615,7.3,"
"##MN-00 00 10 0000 01684 6424 441887 204217 198"
"170.968831"
"$GPRMC,231504,A,2519.2673,N,07922.7562,W,1.1,104.1,190615,7.3,"
"##MN-00 00 10 0000 01684 6423 442004 204238 198"
"170.968889"
"$GPRMC,231508,A,2519.2671,N,07922.7549,W,1.0,104.7,190615,7.3,"
"##MN-00 00 10 0000 01688 6423 442163 204267 198"
"170.968935"
"$GPRMC,231512,A,2519.2666,N,07922.7535,W,1.1,104.8,190615,7.3,"
"##MN-00 00 10 0000 01690 6422 442353 204290 198"
"170.968982"
"$GPRMC,231516,A,2519.2664,N,07922.7522,W,1.1,104.3,190615,7.3,"
"##MN+00 00 10 0000 01690 6421 442545 204310 198"
"170.969028"
"$GPRMC,231520,A,2519.2661,N,07922.7509,W,1.1,103.9,190615,7.3,"
"##MN+00 00 10 0000 01690 6420 442676 204349 198"
"170.969074"
"$GPRMC,231524,A,2519.2658,N,07922.7496,W,1.1,103.6,190615,7.3,"
"##MN+00 00 61 0000 01696 6419 442710 204390 198"
"170.96912"
"$GPRMC,231528,A,2519.2657,N,07922.7483,W,1.0,103.0,190615,7.3,"
"##MN-00 00 09 0000 01695 6418 442892 204436 198"
"170.969167"
"$GPRMC,231532,A,2519.2656,N,07922.7471,W,1.1,101.9,190615,7.3,"
"##MN-00 00 10 0000 01693 6417 442928 204421 198"
"170.969213"
"$GPRMC,231536,A,2519.2654,N,07922.7458,W,1.1,101.1,190615,7.3,"
"##MN-00 00 60 0000 01694 6416 442848 204410 198"
"170.969259"
"#increment_net"
"$GPRMC,231540,A,2519.2651,N,07922.7444,W,1.1,100.0,190615,7.3,"
"##MN-00 00 61 0000 01693 6416 442892 204417 198"
"170.969306"
"$GPRMC,231544,A,2519.2650,N,07922.7431,W,1.1,99.4,190615,7.3,W"
"##MN-00 00 61 0000 01693 6415 442945 204430 198"
"170.969352"
"$GPRMC,231548,A,2519.2648,N,07922.7417,W,1.1,98.3,190615,7.3,W"
"##MN-00 00 61 0000 01693 6414 443045 204450 198"
"170.969398"
"$GPRMC,231552,A,2519.2645,N,07922.7403,W,1.1,97.8,190615,7.3,W"
"##MN-00 00 61 0000 01695 6412 443101 204459 198"
"170.969444"
"$GPRMC,231556,A,2519.2645,N,07922.7389,W,1.1,97.3,190615,7.3,W"
"##MN-00 00 57 0000 01692 6412 443050 204445 198"
"170.969491"
"$GPRMC,231600,A,2519.2643,N,07922.7376,W,1.1,96.9,190615,7.3,W"
"##MN-00 00 60 0000 01693 6411 442996 204440 198"
"170.969537"
"$GPRMC,231604,A,2519.2643,N,07922.7364,W,1.0,96.8,190615,7.3,W"
"##MN-00 00 61 0000 01691 6410 442972 204433 198"
"170.969583"
"$GPRMC,231608,A,2519.2642,N,07922.7352,W,1.0,96.7,190615,7.3,W"
"##MN-00 00 09 0000 01691 6409 442927 204429 198"
"170.96963"
"$GPRMC,231612,A,2519.2639,N,07922.7341,W,1.0,97.6,190615,7.3,W"
"##MN-00 00 61 0000 01685 6408 442997 204445 198"
"170.969676"
"$GPRMC,231616,A,2519.2638,N,07922.7327,W,1.0,98.6,190615,7.3,W"
"##MN-00 00 09 0000 01685 6407 442997 204435 198"
"170.969722"
"$GPRMC,231621,A,2519.2635,N,07922.7312,W,1.0,98.8,190615,7.3,W"
"##MN-00 00 09 0000 01685 6406 442854 204415 198"
"170.969769"
"$GPRMC,231625,A,2519.2633,N,07922.7300,W,1.0,99.0,190615,7.3,W"
"##MN-00 00 09 0000 01683 6405 442618 204363 198"
"170.969815"
"$GPRMC,231629,A,2519.2632,N,07922.7288,W,1.0,98.6,190615,7.3,W"
"##MN-00 00 10 0000 01682 6404 442329 204312 198"
"170.969861"
"$GPRMC,231633,A,2519.2631,N,07922.7276,W,1.0,98.7,190615,7.3,W"
"##MN-00 00 10 0000 01680 6404 442216 204303 198"
"170.969907"
"$GPRMC,231637,A,2519.2628,N,07922.7264,W,1.0,98.7,190615,7.3,W"
"##MN-00 00 61 0000 01679 6403 442084 204291 198"
"170.969954"
"$GPRMC,231641,A,2519.2626,N,07922.7251,W,1.0,99.0,190615,7.3,W"
"##MN-00 00 61 0000 01678 6402 442029 204257 198"
"170.97"
"$GPRMC,231645,A,2519.2625,N,07922.7239,W,1.0,99.2,190615,7.3,W"
"##MN-00 00 09 0000 01674 6401 442072 204261 198"
"170.970046"
"$GPRMC,231649,A,2519.2623,N,07922.7226,W,1.0,98.8,190615,7.3,W"
"##MN-00 00 09 0000 01675 6400 441999 204244 198"
"170.970093"
"$GPRMC,231653,A,2519.2621,N,07922.7213,W,1.0,98.5,190615,7.3,W"
"##MN-00 00 09 0000 01674 6399 441887 204225 198"
"170.970139"
"$GPRMC,231657,A,2519.2619,N,07922.7201,W,1.0,98.5,190615,7.3,W"
"##MN-00 00 10 0000 01672 6398 441854 204222 198"
"170.970185"
"$GPRMC,231701,A,2519.2617,N,07922.7190,W,1.0,97.6,190615,7.3,W"
"##MN-00 00 10 0000 01671 6397 441880 204228 198"
"170.970231"
"$GPRMC,231705,A,2519.2616,N,07922.7177,W,1.0,97.4,190615,7.3,W"
"##MN-00 00 10 0000 01670 6396 441848 204222 198"
"170.970278"
"$GPRMC,231709,A,2519.2614,N,07922.7165,W,1.0,97.7,190615,7.3,W"
"##MN-00 00 10 0000 01668 6396 441804 204217 198"
"170.970324"
"$GPRMC,231713,A,2519.2614,N,07922.7152,W,1.0,97.2,190615,7.3,W"
"##MN-00 00 10 0000 01667 6394 441768 204205 198"
"170.97037"
"$GPRMC,231717,A,2519.2610,N,07922.7141,W,1.0,97.7,190615,7.3,W"
"##MN-00 00 09 0000 01666 6394 441821 204212 198"
"170.970417"
"$GPRMC,231721,A,2519.2609,N,07922.7129,W,1.0,97.6,190615,7.3,W"
"##MN-00 00 10 0000 01665 6393 441868 204218 198"
"170.970463"
"$GPRMC,231725,A,2519.2609,N,07922.7118,W,1.0,97.4,190615,7.3,W"
"##MN-00 00 10 0000 01664 6392 441860 204217 198"
"170.970509"
"$GPRMC,231729,A,2519.2607,N,07922.7105,W,1.0,96.7,190615,7.3,W"
"##MN-00 00 10 0000 01661 6391 441776 204202 198"
"170.970556"
"$GPRMC,231733,A,2519.2607,N,07922.7092,W,1.0,96.5,190615,7.3,W"
"##MN-00 00 11 0000 01664 6390 441908 204226 198"
"170.970602"
"$GPRMC,231737,A,2519.2604,N,07922.7079,W,1.0,96.4,190615,7.3,W"
"##MN-00 00 10 0000 01660 6389 441671 204151 198"
"170.970648"
"$GPRMC,231741,A,2519.2603,N,07922.7066,W,1.0,95.7,190615,7.3,W"
"##MN-00 00 10 0000 01658 6389 441370 204108 198"
"170.970694"
"$GPRMC,231745,A,2519.2603,N,07922.7054,W,1.0,95.0,190615,7.3,W"
"##MN-00 00 10 0000 01657 6388 441209 204083 198"
"170.970741"
"$GPRMC,231749,A,2519.2603,N,07922.7042,W,1.0,94.0,190615,7.3,W"
"##MN-00 00 10 0000 01655 6387 441160 204087 198"
"170.970787"
"$GPRMC,231753,A,2519.2600,N,07922.7029,W,1.0,93.6,190615,7.3,W"
"##MN-00 00 10 0000 01652 6386 441513 204132 198"
"170.970833"
"$GPRMC,231757,A,2519.2598,N,07922.7016,W,1.0,93.7,190615,7.3,W"
"##MN-00 00 10 0000 01651 6385 441452 204126 198"
"170.97088"
"$GPRMC,231801,A,2519.2597,N,07922.7003,W,1.0,93.6,190615,7.3,W"
"##MN-00 00 10 0000 01649 6384 441482 204136 198"
"170.970926"
"$GPRMC,231805,A,2519.2596,N,07922.6991,W,1.0,93.9,190615,7.3,W"
"##MN-00 00 61 0000 01649 6383 441490 204135 198"
"170.970972"
"$GPRMC,231809,A,2519.2596,N,07922.6979,W,1.0,94.0,190615,7.3,W"
"##MN-00 00 08 0000 01648 6382 441496 204140 198"
"170.971019"
"$GPRMC,231813,A,2519.2594,N,07922.6966,W,1.0,94.7,190615,7.3,W"
"##MN-00 00 61 0000 01645 6381 441552 204152 198"
"170.971065"
"$GPRMC,231817,A,2519.2592,N,07922.6954,W,1.0,95.6,190615,7.3,W"
"##MN-00 00 09 0000 01645 6380 441549 204152 198"
"170.971111"
"$GPRMC,231821,A,2519.2592,N,07922.6942,W,0.9,96.6,190615,7.3,W"
"##MN-00 00 09 0000 01643 6380 441519 204145 198"
"170.971157"
"$GPRMC,231825,A,2519.2589,N,07922.6930,W,0.9,97.0,190615,7.3,W"
"##MN-00 00 09 0000 01642 6379 441451 204127 198"
"170.971204"
"$GPRMC,231829,A,2519.2587,N,07922.6918,W,0.9,97.5,190615,7.3,W"
"##MN-00 00 10 0000 01639 6377 441201 204064 198"
"170.97125"
"$GPRMC,231833,A,2519.2587,N,07922.6905,W,0.9,97.9,190615,7.3,W"
"##MN-00 00 10 0000 01640 6377 440883 204025 198"
"170.971296"
"$GPRMC,231837,A,2519.2585,N,07922.6894,W,0.9,97.8,190615,7.3,W"
"##MN-00 00 10 0000 01637 6376 440872 204019 198"
"170.971343"
"$GPRMC,231841,A,2519.2584,N,07922.6882,W,1.0,98.1,190615,7.3,W"
"##MN-00 00 10 0000 01634 6375 440897 204015 198"
"170.971389"
"$GPRMC,231845,A,2519.2581,N,07922.6871,W,0.9,97.5,190615,7.3,W"
"##MN-00 00 10 0000 01634 6375 440894 204002 198"
"170.971435"
"$GPRMC,231849,A,2519.2579,N,07922.6861,W,0.9,97.5,190615,7.3,W"
"##MN-00 00 10 0000 01632 6374 441058 204033 198"
"170.971481"
"$GPRMC,231853,A,2519.2578,N,07922.6850,W,0.9,96.9,190615,7.3,W"
"##MN-00 00 10 0000 01629 6373 440877 203992 198"
"170.971528"
"$GPRMC,231857,A,2519.2576,N,07922.6839,W,0.9,95.7,190615,7.3,W"
"##MN-00 00 10 0000 01629 6372 440797 203997 198"
"170.971574"
"$GPRMC,231901,A,2519.2576,N,07922.6827,W,0.9,95.3,190615,7.3,W"
"##MN+00 00 11 0000 01629 6371 440832 203999 198"
"170.97162"
"$GPRMC,231905,A,2519.2576,N,07922.6813,W,1.0,94.6,190615,7.3,W"
"##MN+00 00 60 0000 01626 6370 440914 204001 198"
"170.971667"
"$GPRMC,231909,A,2519.2574,N,07922.6801,W,1.0,93.6,190615,7.3,W"
"##MN+00 00 10 0000 01627 6370 440927 204017 198"
"170.971713"
"$GPRMC,231913,A,2519.2574,N,07922.6788,W,1.0,93.0,190615,7.3,W"
"##MN-00 00 10 0000 01627 6369 440961 204020 198"
"170.971759"
"$GPRMC,231917,A,2519.2574,N,07922.6774,W,1.0,92.1,190615,7.3,W"
"##MN-00 00 10 0000 01624 6368 440885 203994 198"
"170.971806"
"$GPRMC,231921,A,2519.2574,N,07922.6760,W,1.1,91.7,190615,7.3,W"
"##MN-00 00 10 0000 01623 6367 440679 203938 198"
"170.971852"
"$GPRMC,231925,A,2519.2573,N,07922.6747,W,1.0,91.2,190615,7.3,W"
"##MN-00 00 10 0000 01622 6366 440484 203908 198"
"170.971898"
"$GPRMC,231929,A,2519.2573,N,07922.6733,W,1.0,90.8,190615,7.3,W"
"##MN-00 00 10 0000 01618 6365 440391 203901 198"
"170.971944"
"$GPRMC,231933,A,2519.2571,N,07922.6720,W,1.1,90.7,190615,7.3,W"
"##MN-00 00 10 0000 01617 6365 440382 203898 198"
"170.971991"
"$GPRMC,231937,A,2519.2570,N,07922.6707,W,1.1,90.6,190615,7.3,W"
"##MN-00 00 10 0000 01614 6364 440523 203937 198"
"170.972037"
"$GPRMC,231941,A,2519.2570,N,07922.6693,W,1.0,91.1,190615,7.3,W"
"##MN-00 00 10 0000 01615 6363 440488 203912 198"
"170.972083"
"$GPRMC,231945,A,2519.2569,N,07922.6680,W,1.0,92.3,190615,7.3,W"
"##MN-00 00 10 0000 01613 6362 440109 203831 198"
"170.972141"
"$GPRMC,231949,A,2519.2573,N,07922.6670,W,1.0,93.8,190615,7.3,W"
"##MN-00 00 10 0000 01611 6361 439972 203807 198"
"170.972188"
"$GPRMC,231953,A,2519.2574,N,07922.6663,W,1.0,94.9,190615,7.3,W"
"##MN-00 00 10 0000 01609 6361 440011 203822 198"
"170.972234"
"$GPRMC,231957,A,2519.2570,N,07922.6649,W,1.0,96.9,190615,7.3,W"
"##MN-00 00 10 0000 01607 6360 439969 203806 198"
"170.97228"
"$GPRMC,232001,A,2519.2567,N,07922.6635,W,0.9,98.0,190615,7.3,W"
"##MN-00 00 10 0000 01602 6359 439918 203793 198"
"170.972326"
"$GPRMC,232005,A,2519.2562,N,07922.6622,W,0.9,99.2,190615,7.3,W"
"##MN+00 00 10 0000 01600 6358 439834 203776 198"
"170.972373"
"$GPRMC,232009,A,2519.2563,N,07922.6615,W,0.9,99.8,190615,7.3,W"
"##MN+00 00 60 0000 01605 6358 439765 203751 198"
"170.972419"
"$GPRMC,232013,A,2519.2566,N,07922.6604,W,1.0,99.7,190615,7.3,W"
"##MN+00 00 09 0000 01602 6357 439776 203754 198"
"170.972465"
"$GPRMC,232017,A,2519.2565,N,07922.6592,W,1.0,98.7,190615,7.3,W"
"##MN-00 00 10 0000 01600 6356 439787 203754 198"
"170.972512"
"$GPRMC,232021,A,2519.2561,N,07922.6578,W,1.0,98.1,190615,7.3,W"
"##MN-00 00 10 0000 01599 6356 439746 203743 198"
"170.972558"
"$GPRMC,232025,A,2519.2558,N,07922.6564,W,1.0,97.2,190615,7.3,W"
"##MN-00 00 10 0000 01597 6355 439695 203740 198"
"170.972604"
"$GPRMC,232029,A,2519.2556,N,07922.6548,W,1.0,96.4,190615,7.3,W"
"##MN-00 00 10 0000 01593 6354 439837 203783 198"
"170.97265"
"#increment_net"
"$GPRMC,232034,A,2519.2552,N,07922.6530,W,1.0,94.9,190615,7.3,W"
"##MN-00 00 10 0000 01592 6353 439913 203775 198"
"170.972697"
"$GPRMC,232037,A,2519.2551,N,07922.6520,W,1.0,93.9,190615,7.3,W"
"##MN-00 00 10 0000 01589 6352 439813 203757 198"
"170.972743"
"$GPRMC,232041,A,2519.2551,N,07922.6507,W,1.0,92.6,190615,7.3,W"
"##MN-00 00 10 0000 01588 6351 439851 203783 198"
"170.972789"
"$GPRMC,232046,A,2519.2551,N,07922.6490,W,1.0,90.7,190615,7.3,W"
"##MN-00 00 10 0000 01587 6351 439903 203788 198"
"170.972836"
"$GPRMC,232050,A,2519.2549,N,07922.6478,W,1.0,90.2,190615,7.3,W"
"##MN-00 00 10 0000 01584 6350 439887 203767 198"
"170.972882"
"$GPRMC,232053,A,2519.2549,N,07922.6469,W,1.0,90.3,190615,7.3,W"
"##MN-00 00 11 0000 01584 6349 439836 203759 198"
"170.972928"
"$GPRMC,232058,A,2519.2549,N,07922.6458,W,1.0,90.2,190615,7.3,W"
"##MN-00 00 10 0000 01580 6349 439718 203723 198"
"170.972975"
"$GPRMC,232102,A,2519.2556,N,07922.6450,W,1.0,90.9,190615,7.3,W"
"##MN-00 00 11 0000 01581 6347 439590 203702 198"
"170.973021"
"$GPRMC,232106,A,2519.2560,N,07922.6441,W,1.0,92.1,190615,7.3,W"
"##MN-00 00 10 0000 01580 6347 439552 203700 198"
"170.973067"
"$GPRMC,232109,A,2519.2562,N,07922.6433,W,1.0,92.9,190615,7.3,W"
"##MN-00 00 10 0000 01576 6347 439581 203715 198"
"170.973113"
"$GPRMC,232114,A,2519.2562,N,07922.6422,W,1.0,93.9,190615,7.3,W"
"##MN-00 00 11 0000 01576 6345 439589 203711 198"
"170.97316"
"$GPRMC,232118,A,2519.2563,N,07922.6410,W,1.0,94.9,190615,7.3,W"
"##MN-00 00 10 0000 01573 6345 439561 203699 198"
"170.973206"
"$GPRMC,232122,A,2519.2563,N,07922.6395,W,1.0,95.1,190615,7.3,W"
"##MN-00 00 11 0000 01573 6344 439506 203691 198"
"170.973252"
"$GPRMC,232126,A,2519.2563,N,07922.6382,W,1.0,95.2,190615,7.3,W"
"##MN-00 00 10 0000 01572 6343 439508 203696 198"
"170.973299"
"$GPRMC,232130,A,2519.2562,N,07922.6369,W,1.0,94.3,190615,7.3,W"
"##MN-00 00 10 0000 01571 6343 439533 203699 198"
"170.973345"
"$GPRMC,232134,A,2519.2561,N,07922.6354,W,1.0,92.9,190615,7.3,W"
"##MN-00 00 10 0000 01570 6342 439525 203693 198"
"170.973391"
"$GPRMC,232138,A,2519.2562,N,07922.6339,W,1.0,91.8,190615,7.3,W"
"##MN-00 00 11 0000 01567 6342 439505 203690 198"
"170.973437"
"$GPRMC,232142,A,2519.2560,N,07922.6325,W,1.0,91.1,190615,7.3,W"
"##MN-00 00 11 0000 01566 6341 439508 203701 198"
"170.973484"
"$GPRMC,232146,A,2519.2560,N,07922.6314,W,1.0,90.6,190615,7.3,W"
"##MN-00 00 10 0000 01566 6340 439562 203704 198"
"170.97353"
"$GPRMC,232150,A,2519.2560,N,07922.6303,W,0.9,90.7,190615,7.3,W"
"##MN-00 00 11 0000 01563 6340 439546 203699 198"
"170.973576"
"$GPRMC,232154,A,2519.2558,N,07922.6289,W,0.9,91.0,190615,7.3,W"
"##MN-00 00 10 0000 01562 6339 439520 203693 198"
"170.973623"
"$GPRMC,232158,A,2519.2556,N,07922.6275,W,1.0,91.6,190615,7.3,W"
"##MN-00 00 11 0000 01559 6338 439478 203679 198"
"170.973669"
"$GPRMC,232202,A,2519.2553,N,07922.6262,W,1.0,92.8,190615,7.3,W"
"##MN-00 00 10 0000 01559 6338 439462 203690 198"
"170.973715"
"$GPRMC,232206,A,2519.2552,N,07922.6249,W,1.0,93.4,190615,7.3,W"
"##MN-00 00 10 0000 01556 6337 439486 203683 198"
"170.973762"
"$GPRMC,232210,A,2519.2552,N,07922.6240,W,0.9,94.3,190615,7.3,W"
"##MN-00 00 11 0000 01554 6336 439447 203677 198"
"170.973808"
"$GPRMC,232214,A,2519.2551,N,07922.6233,W,1.0,94.3,190615,7.3,W"
"##MN-00 00 11 0000 01555 6336 439477 203687 198"
"170.973854"
"$GPRMC,232218,A,2519.2552,N,07922.6225,W,1.0,93.9,190615,7.3,W"
"##MN-00 00 11 0000 01551 6335 439492 203688 198"
"170.9739"
"$GPRMC,232222,A,2519.2552,N,07922.6214,W,0.9,93.6,190615,7.3,W"
"##MN-00 00 10 0000 01550 6334 439494 203692 198"
"170.973947"
"$GPRMC,232226,A,2519.2551,N,07922.6196,W,0.9,93.5,190615,7.3,W"
"##MN-00 00 11 0000 01550 6333 439519 203692 198"
"170.973993"
"$GPRMC,232230,A,2519.2549,N,07922.6184,W,0.9,93.6,190615,7.3,W"
"##MN-00 00 11 0000 01550 6333 439492 203688 198"
"170.974039"
"$GPRMC,232234,A,2519.2549,N,07922.6171,W,0.9,93.9,190615,7.3,W"
"##MN-00 00 11 0000 01549 6332 439490 203686 198"
"170.974086"
"$GPRMC,232238,A,2519.2548,N,07922.6156,W,0.9,94.3,190615,7.3,W"
"##MN-00 00 11 0000 01547 6332 439477 203683 198"
"170.974132"
"$GPRMC,232242,A,2519.2545,N,07922.6143,W,0.9,94.2,190615,7.3,W"
"##MN-00 00 11 0000 01546 6331 439469 203683 198"
"170.974178"
"$GPRMC,232246,A,2519.2545,N,07922.6131,W,0.9,93.6,190615,7.3,W"
"##MN-00 00 11 0000 01542 6330 439471 203687 198"
"170.974225"
"$GPRMC,232250,A,2519.2542,N,07922.6118,W,1.0,92.9,190615,7.3,W"
"##MN-00 00 11 0000 01541 6330 439503 203699 198"
"170.974271"
"$GPRMC,232254,A,2519.2542,N,07922.6106,W,1.0,92.3,190615,7.3,W"
"##MN-00 00 11 0000 01541 6329 439546 203700 198"
"170.974317"
"$GPRMC,232258,A,2519.2542,N,07922.6094,W,1.0,91.6,190615,7.3,W"
"##MN-00 00 11 0000 01538 6329 439523 203694 198"
"170.974363"
"$GPRMC,232302,A,2519.2542,N,07922.6081,W,1.0,90.9,190615,7.3,W"
"##MN-00 00 11 0000 01538 6328 439523 203692 198"
"170.97441"
"$GPRMC,232306,A,2519.2542,N,07922.6067,W,1.0,90.3,190615,7.3,W"
"##MN-00 00 11 0000 01537 6328 439478 203682 198"
"170.974456"
"$GPRMC,232310,A,2519.2542,N,07922.6058,W,1.0,90.0,190615,7.3,W"
"##MN-00 00 11 0000 01535 6327 439434 203674 198"
"170.974502"
"$GPRMC,232314,A,2519.2542,N,07922.6048,W,1.0,90.6,190615,7.3,W"
"##MN-00 00 11 0000 01536 6326 439435 203679 198"
"170.974549"
"$GPRMC,232318,A,2519.2542,N,07922.6036,W,1.0,90.0,190615,7.3,W"
"##MN-00 00 11 0000 01533 6326 439466 203687 198"
"170.974595"
"$GPRMC,232322,A,2519.2542,N,07922.6024,W,1.0,90.8,190615,7.3,W"
"##MN-00 00 11 0000 01533 6325 439488 203692 198"
"170.974641"
"$GPRMC,232326,A,2519.2542,N,07922.6013,W,1.0,90.8,190615,7.3,W"
"##MN-00 00 11 0000 01532 6324 439528 203699 198"
"170.974687"
"$GPRMC,232330,A,2519.2542,N,07922.6002,W,1.0,91.5,190615,7.3,W"
"##MN-00 00 11 0000 01529 6324 439515 203694 198"
"170.974734"
"$GPRMC,232334,A,2519.2542,N,07922.5989,W,1.0,91.8,190615,7.3,W"
"##MN+00 00 11 0000 01530 6323 439489 203691 198"
"170.97478"
"$GPRMC,232338,A,2519.2542,N,07922.5973,W,1.0,92.2,190615,7.3,W"
"##MN+00 00 11 0000 01530 6323 439480 203689 198"
"170.974826"
"$GPRMC,232342,A,2519.2541,N,07922.5959,W,1.0,92.6,190615,7.3,W"
"##MN+00 00 11 0000 01531 6322 439498 203693 198"
"170.974873"
"$GPRMC,232346,A,2519.2541,N,07922.5946,W,1.0,93.1,190615,7.3,W"
"##MN+00 00 11 0000 01532 6321 439515 203695 198"
"170.974919"
"$GPRMC,232350,A,2519.2540,N,07922.5932,W,1.0,93.5,190615,7.3,W"
"##MN+00 00 11 0000 01531 6321 439498 203692 198"
"170.974965"
"$GPRMC,232354,A,2519.2540,N,07922.5919,W,1.0,94.4,190615,7.3,W"
"##MN+00 00 61 0000 01532 6320 439479 203688 198"
"170.975012"
"#increment_net"
"$GPRMC,232358,A,2519.2538,N,07922.5906,W,1.0,95.0,190615,7.3,W"
"##MN-00 00 61 0000 01530 6320 439490 203692 198"
"170.975058"
"$GPRMC,232402,A,2519.2538,N,07922.5892,W,1.1,95.3,190615,7.3,W"
"##MN+00 00 61 0000 01529 6319 439526 203696 198"
"170.975104"
"$GPRMC,232406,A,2519.2535,N,07922.5879,W,1.1,95.4,190615,7.3,W"
"##MN+00 00 62 0000 01530 6319 439539 203700 198"
"170.97515"
"$GPRMC,232410,A,2519.2533,N,07922.5866,W,1.1,95.5,190615,7.3,W"
"##MN+00 00 11 0000 01529 6318 439560 203705 198"
"170.975197"
"$GPRMC,232414,A,2519.2532,N,07922.5853,W,1.1,95.0,190615,7.3,W"
"##MN+00 00 12 0000 01529 6317 439530 203700 198"
"170.975243"
"$GPRMC,232418,A,2519.2531,N,07922.5840,W,1.1,95.0,190615,7.3,W"
"##MN+00 00 61 0000 01529 6317 439549 203709 198"
"170.975289"
"$GPRMC,232422,A,2519.2531,N,07922.5827,W,1.1,95.2,190615,7.3,W"
"##MN+00 00 61 0000 01530 6316 439508 203700 198"
"170.975336"
"#increment_net"
"$GPRMC,232426,A,2519.2531,N,07922.5815,W,1.1,94.3,190615,7.3,W"
"##MN+00 00 62 0000 01531 6316 439480 203694 198"
"170.975394"
"$GPRMC,232430,A,2519.2533,N,07922.5801,W,1.1,94.0,190615,7.3,W"
"##MN+00 00 62 0000 01530 6315 439476 203696 198"
"170.97544"
"$GPRMC,232434,A,2519.2533,N,07922.5788,W,1.1,93.5,190615,7.3,W"
"##MN+00 00 62 0000 01528 6315 439465 203691 198"
"170.975486"
"$GPRMC,232438,A,2519.2533,N,07922.5776,W,1.1,94.0,190615,7.3,W"
"##MN+00 00 62 0000 01530 6314 439439 203689 198"
"170.975532"
"$GPRMC,232442,A,2519.2527,N,07922.5762,W,1.1,94.3,190615,7.3,W"
"##MN+00 00 62 0000 01528 6313 439452 203694 198"
"170.975579"
"$GPRMC,232446,A,2519.2527,N,07922.5748,W,1.0,93.7,190615,7.3,W"
"##MN+00 00 11 0000 01532 6313 439442 203688 198"
