" Tow: 7EM-A   RVWS/WS15161"
" Date: 19/06/2015"
" Temperature Probe #  4762    Conductivity Probe #  710"
" Pressure Probe #  159"
" Flow Meter Calibration  4.71 (m/count)  "
"170.665058"
"$GPRMC,155735,A,2514.3766,N,07914.1295,W,4.4,265.0,190615,7.4,"
"##MN-00 00 87 0000 01537 4961 426520 827787 198"
"170.665104"
"$GPRMC,155740,A,2514.3759,N,07914.1363,W,4.4,264.1,190615,7.4,"
"##MN-00 00 87 0000 01537 4956 427571 827863 198"
"170.66515"
"$GPRMC,155745,A,2514.3750,N,07914.1434,W,4.5,263.9,190615,7.4,"
"##MN-00 00 87 0000 01537 4950 427610 827863 198"
"170.665197"
"$GPRMC,155749,A,2514.3745,N,07914.1489,W,4.4,263.7,190615,7.4,"
"##MN-00 00 87 0000 01538 4944 427534 827863 198"
"170.665243"
"$GPRMC,155753,A,2514.3738,N,07914.1543,W,4.4,263.3,190615,7.4,"
"##MN-00 00 87 0000 01535 4939 426875 827863 198"
"170.665289"
"$GPRMC,155757,A,2514.3732,N,07914.1597,W,4.4,263.3,190615,7.4,"
"##MN-00 00 87 0000 01539 4933 427513 827863 198"
"170.665336"
"$GPRMC,155801,A,2514.3727,N,07914.1647,W,4.3,263.3,190615,7.4,"
"##MN-00 00 87 0000 01537 4928 428194 827863 198"
"170.665382"
"$GPRMC,155805,A,2514.3721,N,07914.1699,W,4.3,263.5,190615,7.4,"
"##MN-00 00 87 0000 01538 4922 428359 827862 198"
"170.665428"
"$GPRMC,155809,A,2514.3716,N,07914.1749,W,4.2,263.7,190615,7.4,"
"##MN-00 00 87 0000 01539 4916 428658 827862 198"
"170.665475"
"$GPRMC,155813,A,2514.3712,N,07914.1799,W,4.2,264.5,190615,7.4,"
"##MN-00 00 87 0000 01537 4911 429554 827862 198"
"170.665521"
"$GPRMC,155817,A,2514.3706,N,07914.1850,W,4.2,265.0,190615,7.4,"
"##MN-00 00 87 0000 01538 4905 429902 827862 198"
"170.665567"
"$GPRMC,155821,A,2514.3702,N,07914.1898,W,4.1,265.2,190615,7.4,"
"##MN-00 00 87 0000 01537 4900 430061 827862 198"
"170.665613"
"$GPRMC,155825,A,2514.3701,N,07914.1947,W,4.1,265.6,190615,7.4,"
"##MN-00 00 87 0000 01536 4894 430165 827861 198"
"170.66566"
"$GPRMC,155829,A,2514.3698,N,07914.1998,W,4.1,266.1,190615,7.4,"
"##MN-00 00 87 0000 01541 4888 430612 827861 198"
"170.665706"
"$GPRMC,155833,A,2514.3696,N,07914.2046,W,4.0,266.2,190615,7.4,"
"##MN-00 00 87 0000 01536 4882 430418 827861 198"
"170.665752"
"$GPRMC,155837,A,2514.3694,N,07914.2095,W,4.0,267.2,190615,7.4,"
"##MN-00 00 87 0000 01537 4877 430627 827860 198"
"170.665799"
"$GPRMC,155841,A,2514.3694,N,07914.2143,W,4.0,267.7,190615,7.4,"
"##MN-00 00 87 0000 01538 4872 430652 827860 198"
"170.665845"
"$GPRMC,155845,A,2514.3692,N,07914.2193,W,4.0,268.0,190615,7.4,"
"##MN-00 00 87 0000 01539 4866 430566 827861 198"
"170.665891"
"$GPRMC,155849,A,2514.3692,N,07914.2240,W,4.0,268.0,190615,7.4,"
"##MN-00 00 87 0000 01539 4860 430529 827860 198"
"170.665938"
"$GPRMC,155853,A,2514.3691,N,07914.2290,W,4.0,268.5,190615,7.4,"
"##MN-00 00 87 0000 01538 4855 430238 827859 198"
"170.665984"
"$GPRMC,155857,A,2514.3689,N,07914.2339,W,3.9,268.6,190615,7.4,"
"##MN-00 00 87 0000 01538 4849 430111 827860 198"
"170.66603"
"$GPRMC,155901,A,2514.3690,N,07914.2386,W,3.9,268.7,190615,7.4,"
"##MN-00 00 87 0000 01539 4844 430124 827860 198"
"170.666076"
"$GPRMC,155905,A,2514.3687,N,07914.2436,W,3.8,269.1,190615,7.4,"
"##MN-00 00 87 0000 01539 4839 429837 827859 198"
"170.666123"
"$GPRMC,155909,A,2514.3687,N,07914.2486,W,3.7,269.4,190615,7.4,"
"##MN-00 00 87 0000 01539 4834 429982 827859 198"
"170.666169"
"$GPRMC,155913,A,2514.3686,N,07914.2533,W,3.7,269.2,190615,7.4,"
"##MN-00 00 87 0000 01540 4828 430718 827859 198"
"170.666215"
"$GPRMC,155917,A,2514.3683,N,07914.2579,W,3.7,268.2,190615,7.4,"
"##MN-00 00 87 0000 01540 4824 430869 827859 198"
"170.666262"
"$GPRMC,155921,A,2514.3681,N,07914.2620,W,3.6,267.4,190615,7.4,"
"##MN-00 00 87 0000 01540 4819 430592 827858 198"
"170.666308"
"$GPRMC,155925,A,2514.3679,N,07914.2666,W,3.6,267.0,190615,7.4,"
"##MN-00 00 85 0000 01540 4813 430883 827858 198"
"170.666354"
"$GPRMC,155929,A,2514.3676,N,07914.2709,W,3.6,266.5,190615,7.4,"
"##MN-00 00 82 0000 01540 4808 431252 827859 198"
"170.6664"
"$GPRMC,155933,A,2514.3674,N,07914.2750,W,3.5,266.4,190615,7.4,"
"##MN-00 00 75 0000 01541 4804 431388 827858 198"
"170.666447"
"$GPRMC,155937,A,2514.3670,N,07914.2792,W,3.5,266.1,190615,7.4,"
"##MN-00 00 74 0000 01540 4799 431883 827855 198"
"170.666505"
"$GPRMC,155941,A,2514.3669,N,07914.2833,W,3.5,265.8,190615,7.4,"
"##MN-00 00 74 0000 01540 4794 432644 827855 198"
"170.666551"
"$GPRMC,155945,A,2514.3665,N,07914.2876,W,3.5,265.4,190615,7.4,"
"##MN-00 00 74 0000 01542 4790 433235 827855 198"
"170.666597"
"$GPRMC,155949,A,2514.3665,N,07914.2915,W,3.4,265.5,190615,7.4,"
"##MN-00 00 74 0000 01541 4785 434013 827854 198"
"170.666644"
"$GPRMC,155953,A,2514.3661,N,07914.2955,W,3.4,266.0,190615,7.4,"
"##MN-00 00 73 0000 01542 4781 434095 827854 198"
"170.66669"
"$GPRMC,155957,A,2514.3660,N,07914.2995,W,3.4,266.5,190615,7.4,"
"##MN-00 00 73 0000 01541 4776 435235 827855 198"
"170.666736"
"$GPRMC,160001,A,2514.3659,N,07914.3035,W,3.3,267.0,190615,7.4,"
"##MN-00 00 73 0000 01542 4772 435891 827855 198"
"170.666782"
"$GPRMC,160005,A,2514.3660,N,07914.3074,W,3.4,267.2,190615,7.4,"
"##MN-00 00 73 0000 01541 4768 436144 827855 198"
"170.666829"
"$GPRMC,160009,A,2514.3660,N,07914.3116,W,3.4,267.8,190615,7.4,"
"##MN-00 00 73 0000 01541 4764 436697 827858 198"
"170.666875"
"$GPRMC,160013,A,2514.3660,N,07914.3158,W,3.3,268.0,190615,7.4,"
"##MN-00 00 73 0000 01542 4760 436915 827858 198"
"170.666921"
"$GPRMC,160017,A,2514.3658,N,07914.3199,W,3.3,268.1,190615,7.4,"
"##MN-00 00 73 0000 01541 4756 437306 827858 198"
"170.666968"
"$GPRMC,160021,A,2514.3655,N,07914.3241,W,3.3,268.3,190615,7.4,"
"##MN-00 00 73 0000 01542 4751 437761 827858 198"
"170.667014"
"$GPRMC,160025,A,2514.3654,N,07914.3282,W,3.3,268.6,190615,7.4,"
"##MN-00 00 73 0000 01542 4747 437924 827857 198"
"170.66706"
"$GPRMC,160029,A,2514.3654,N,07914.3322,W,3.3,268.5,190615,7.4,"
"##MN-00 00 73 0001 01541 4744 437961 827857 197"
"170.667106"
"$GPRMC,160033,A,2514.3652,N,07914.3361,W,3.2,268.2,190615,7.4,"
"##MN-00 00 73 0001 01542 4740 439221 305411 198"
"170.667153"
"$GPRMC,160037,A,2514.3651,N,07914.3401,W,3.2,267.6,190615,7.4,"
"##MN-00 00 42 0002 01545 4736 440557 204327 198"
"170.667199"
"$GPRMC,160041,A,2514.3647,N,07914.3447,W,3.2,267.2,190615,7.4,"
"##MN-00 00 42 0003 01547 4732 440914 204206 197"
"170.667245"
"$GPRMC,160045,A,2514.3644,N,07914.3486,W,3.1,267.1,190615,7.4,"
"##MN-00 00 43 0003 01546 4728 441292 204261 197"
"170.667292"
"$GPRMC,160049,A,2514.3644,N,07914.3522,W,3.1,266.8,190615,7.4,"
"##MN-00 00 43 0004 01545 4725 441026 204152 197"
"170.667338"
"$GPRMC,160053,A,2514.3643,N,07914.3558,W,3.0,267.0,190615,7.4,"
"##MN-00 00 43 0005 01548 4722 441170 204153 197"
"170.667384"
"$GPRMC,160057,A,2514.3642,N,07914.3591,W,2.9,267.2,190615,7.4,"
"##MN-00 00 43 0006 01546 4719 441279 204170 197"
"170.667431"
"$GPRMC,160101,A,2514.3642,N,07914.3625,W,2.8,267.4,190615,7.4,"
"##MN-00 00 43 0007 01548 4716 441222 204171 197"
"170.667477"
"$GPRMC,160105,A,2514.3640,N,07914.3658,W,2.8,267.3,190615,7.4,"
"##MN-00 00 26 0008 01552 4714 441342 204189 197"
"170.667523"
"$GPRMC,160109,A,2514.3636,N,07914.3692,W,2.8,267.0,190615,7.4,"
"##MN-00 00 25 0009 01551 4712 441470 204200 197"
"170.667569"
"$GPRMC,160113,A,2514.3636,N,07914.3722,W,2.7,266.9,190615,7.4,"
"##MN-00 00 25 0010 01558 4711 442336 204349 197"
"170.667616"
"$GPRMC,160117,A,2514.3634,N,07914.3754,W,2.7,266.7,190615,7.4,"
"##MN-00 00 25 0011 01564 4709 442947 204519 197"
"170.667662"
"$GPRMC,160121,A,2514.3633,N,07914.3786,W,2.6,267.5,190615,7.4,"
"##MN-00 00 25 0011 01565 4709 443250 204541 197"
"170.667708"
"$GPRMC,160125,A,2514.3631,N,07914.3819,W,2.6,267.8,190615,7.4,"
"##MN-00 00 25 0012 01574 4708 443330 204550 197"
"170.667755"
"$GPRMC,160129,A,2514.3631,N,07914.3851,W,2.7,267.3,190615,7.4,"
"##MN-00 00 25 0013 01576 4708 443393 204572 197"
"170.667801"
"$GPRMC,160133,A,2514.3631,N,07914.3884,W,2.6,268.0,190615,7.4,"
"##MN-00 00 25 0014 01579 4707 443438 204583 197"
"170.667847"
"$GPRMC,160137,A,2514.3629,N,07914.3916,W,2.6,268.3,190615,7.4,"
"##MN-00 00 25 0015 01586 4707 443499 204602 197"
"170.667893"
"$GPRMC,160141,A,2514.3629,N,07914.3949,W,2.6,268.3,190615,7.4,"
"##MN-00 00 24 0016 01586 4708 443521 204596 197"
"170.66794"
"$GPRMC,160145,A,2514.3629,N,07914.3981,W,2.6,268.0,190615,7.4,"
"##MN-00 00 24 0017 01590 4708 443544 204607 197"
"170.667986"
"$GPRMC,160149,A,2514.3629,N,07914.4012,W,2.6,268.2,190615,7.4,"
"##MN-00 00 24 0018 01593 4709 443577 204610 197"
"170.668032"
"$GPRMC,160153,A,2514.3628,N,07914.4046,W,2.6,268.4,190615,7.4,"
"##MN-00 00 24 0019 01598 4710 443606 204613 197"
"170.668079"
"$GPRMC,160157,A,2514.3628,N,07914.4077,W,2.6,268.7,190615,7.4,"
"##MN-00 00 24 0020 01603 4711 443615 204613 197"
"170.668125"
"$GPRMC,160202,A,2514.3625,N,07914.4118,W,2.6,268.5,190615,7.4,"
"##MN-00 00 24 0020 01605 4712 443647 204625 197"
"170.668171"
"$GPRMC,160206,A,2514.3624,N,07914.4151,W,2.6,268.5,190615,7.4,"
"##MN-00 00 24 0021 01607 4713 443658 204632 197"
"170.668218"
"$GPRMC,160210,A,2514.3625,N,07914.4184,W,2.6,268.6,190615,7.4,"
"##MN-00 00 24 0022 01611 4714 443684 204604 197"
"170.668264"
"$GPRMC,160214,A,2514.3624,N,07914.4216,W,2.6,268.9,190615,7.4,"
"##MN-00 00 25 0023 01617 4715 443686 204603 197"
"170.66831"
"$GPRMC,160218,A,2514.3622,N,07914.4245,W,2.6,268.9,190615,7.4,"
"##MN-00 00 25 0024 01620 4717 443683 204602 197"
"170.668356"
"$GPRMC,160222,A,2514.3623,N,07914.4277,W,2.6,269.6,190615,7.4,"
"##MN-00 00 24 0024 01622 4719 443699 204607 197"
"170.668403"
"$GPRMC,160226,A,2514.3622,N,07914.4308,W,2.6,269.6,190615,7.4,"
"##MN-00 00 25 0025 01628 4721 443704 204607 197"
"170.668449"
"$GPRMC,160230,A,2514.3624,N,07914.4339,W,2.6,270.2,190615,7.4,"
"##MN-00 00 25 0026 01630 4723 443720 204611 197"
"170.668495"
"$GPRMC,160234,A,2514.3624,N,07914.4371,W,2.5,270.7,190615,7.4,"
"##MN-00 00 25 0027 01633 4725 443716 204609 197"
"170.668542"
"$GPRMC,160238,A,2514.3625,N,07914.4401,W,2.5,271.4,190615,7.4,"
"##MN-00 00 25 0028 01639 4727 443719 204608 197"
"170.668588"
"$GPRMC,160242,A,2514.3626,N,07914.4434,W,2.6,272.0,190615,7.4,"
"##MN-00 00 27 0029 01642 4729 443724 204607 197"
"170.668634"
"$GPRMC,160246,A,2514.3627,N,07914.4469,W,2.6,272.4,190615,7.4,"
"##MN-00 00 25 0029 01647 4731 443742 204613 197"
"170.668681"
"$GPRMC,160250,A,2514.3631,N,07914.4503,W,2.6,272.7,190615,7.4,"
"##MN-00 00 25 0030 01649 4734 443749 204615 197"
"170.668727"
"$GPRMC,160254,A,2514.3633,N,07914.4538,W,2.6,273.2,190615,7.4,"
"##MN-00 00 25 0031 01654 4736 443753 204615 197"
"170.668773"
"$GPRMC,160258,A,2514.3634,N,07914.4570,W,2.6,272.9,190615,7.4,"
"##MN-00 00 25 0032 01659 4738 443757 204616 197"
"170.668819"
"$GPRMC,160302,A,2514.3636,N,07914.4603,W,2.6,272.9,190615,7.4,"
"##MN-00 00 25 0033 01661 4741 443768 204617 197"
"170.668866"
"$GPRMC,160306,A,2514.3639,N,07914.4633,W,2.6,272.6,190615,7.4,"
"##MN-00 00 25 0034 01664 4743 443786 204620 197"
"170.668912"
"$GPRMC,160310,A,2514.3640,N,07914.4664,W,2.6,272.4,190615,7.4,"
"##MN-00 00 25 0035 01668 4746 443814 204627 197"
"170.668958"
"$GPRMC,160314,A,2514.3643,N,07914.4694,W,2.6,271.9,190615,7.4,"
"##MN-00 00 25 0036 01674 4748 443899 204643 197"
"170.669005"
"$GPRMC,160318,A,2514.3643,N,07914.4726,W,2.6,271.9,190615,7.4,"
"##MN-00 00 25 0036 01675 4751 444034 204665 197"
"170.669051"
"$GPRMC,160322,A,2514.3643,N,07914.4758,W,2.6,271.8,190615,7.4,"
"##MN-00 00 25 0037 01675 4754 444355 204759 197"
"170.669097"
"$GPRMC,160326,A,2514.3643,N,07914.4790,W,2.6,271.8,190615,7.4,"
"##MN-00 00 25 0038 01683 4756 444796 204838 197"
"170.669144"
"$GPRMC,160330,A,2514.3644,N,07914.4819,W,2.5,271.6,190615,7.4,"
"##MN-00 00 25 0039 01685 4759 445135 204927 197"
"170.66919"
"$GPRMC,160334,A,2514.3643,N,07914.4850,W,2.5,271.4,190615,7.4,"
"##MN-00 00 25 0040 01688 4762 445613 204976 197"
"170.669236"
"$GPRMC,160338,A,2514.3643,N,07914.4881,W,2.5,271.6,190615,7.4,"
"##MN-00 00 25 0041 01691 4765 445893 205009 197"
"170.669282"
"$GPRMC,160342,A,2514.3644,N,07914.4911,W,2.5,271.7,190615,7.4,"
"##MN-00 00 25 0042 01696 4767 446242 205088 197"
"170.669329"
"$GPRMC,160346,A,2514.3647,N,07914.4942,W,2.5,271.4,190615,7.4,"
"##MN-00 00 25 0042 01699 4771 446441 205129 197"
"170.669375"
"$GPRMC,160350,A,2514.3647,N,07914.4971,W,2.5,271.3,190615,7.4,"
"##MN-00 00 25 0043 01704 4774 446502 205137 197"
"170.669421"
"$GPRMC,160354,A,2514.3647,N,07914.5000,W,2.4,271.3,190615,7.4,"
"##MN-00 00 25 0044 01708 4776 446534 205139 197"
"170.669468"
"$GPRMC,160358,A,2514.3647,N,07914.5029,W,2.4,271.1,190615,7.4,"
"##MN-00 00 25 0045 01709 4779 446562 205142 197"
"170.669514"
"$GPRMC,160402,A,2514.3648,N,07914.5059,W,2.4,270.9,190615,7.4,"
"##MN-00 00 25 0046 01712 4782 446553 205156 197"
"170.66956"
"$GPRMC,160406,A,2514.3650,N,07914.5090,W,2.4,271.2,190615,7.4,"
"##MN-00 00 25 0047 01718 4785 446556 205160 197"
"170.669606"
"$GPRMC,160410,A,2514.3650,N,07914.5119,W,2.4,271.1,190615,7.4,"
"##MN-00 00 25 0048 01721 4788 446560 205163 197"
"170.669664"
"$GPRMC,160414,A,2514.3651,N,07914.5152,W,2.4,270.8,190615,7.4,"
"##MN-00 00 25 0049 01725 4791 446537 205154 197"
"170.669711"
"$GPRMC,160418,A,2514.3651,N,07914.5181,W,2.4,270.5,190615,7.4,"
"##MN-00 00 25 0049 01729 4794 446497 205133 197"
"170.669757"
"$GPRMC,160422,A,2514.3651,N,07914.5210,W,2.4,270.2,190615,7.4,"
"##MN-00 00 25 0050 01733 4797 446487 205122 197"
"170.669803"
"$GPRMC,160426,A,2514.3651,N,07914.5239,W,2.4,270.4,190615,7.4,"
"##MN-00 00 25 0051 01734 4800 446541 205136 197"
"170.66985"
"$GPRMC,160430,A,2514.3651,N,07914.5268,W,2.4,270.9,190615,7.4,"
"##MN-00 00 25 0052 01737 4803 446575 205136 197"
"170.669896"
"$GPRMC,160434,A,2514.3652,N,07914.5298,W,2.4,271.3,190615,7.4,"
"##MN-00 00 25 0053 01742 4807 446615 205138 197"
"170.669942"
"$GPRMC,160438,A,2514.3652,N,07914.5329,W,2.3,271.6,190615,7.4,"
"##MN-00 00 25 0053 01745 4810 446665 205150 197"
"170.669988"
"$GPRMC,160442,A,2514.3653,N,07914.5357,W,2.3,271.6,190615,7.4,"
"##MN-00 00 25 0054 01751 4813 446719 205159 197"
"170.670035"
"$GPRMC,160446,A,2514.3656,N,07914.5387,W,2.3,271.7,190615,7.4,"
"##MN-00 00 25 0055 01753 4816 446769 205166 198"
"170.670081"
"$GPRMC,160450,A,2514.3656,N,07914.5419,W,2.3,272.4,190615,7.4,"
"##MN-00 00 25 0056 01756 4819 446882 205193 197"
"170.670127"
"$GPRMC,160454,A,2514.3658,N,07914.5444,W,2.3,273.0,190615,7.4,"
"##MN-00 00 25 0057 01760 4822 447123 205264 197"
"170.670174"
"$GPRMC,160458,A,2514.3659,N,07914.5477,W,2.3,272.9,190615,7.4,"
"##MN-00 00 25 0058 01764 4825 447333 205294 197"
"170.67022"
"$GPRMC,160502,A,2514.3662,N,07914.5500,W,2.3,273.0,190615,7.4,"
"##MN-00 00 25 0059 01767 4828 447506 205333 197"
"170.670266"
"$GPRMC,160506,A,2514.3665,N,07914.5527,W,2.3,272.7,190615,7.4,"
"##MN-00 00 25 0059 01770 4831 447669 205354 197"
"170.670312"
"$GPRMC,160510,A,2514.3667,N,07914.5553,W,2.3,273.0,190615,7.4,"
"##MN-00 00 25 0060 01770 4835 448008 205406 198"
"170.670359"
"$GPRMC,160514,A,2514.3669,N,07914.5581,W,2.3,272.7,190615,7.4,"
"##MN-00 00 25 0061 01777 4838 448479 205532 197"
"170.670405"
"$GPRMC,160518,A,2514.3669,N,07914.5607,W,2.3,272.2,190615,7.4,"
"##MN-00 00 25 0062 01781 4840 448876 205546 198"
"170.670451"
"$GPRMC,160522,A,2514.3670,N,07914.5634,W,2.3,272.1,190615,7.4,"
"##MN-00 00 25 0063 01783 4844 449045 205587 197"
"170.670498"
"$GPRMC,160526,A,2514.3672,N,07914.5661,W,2.3,272.0,190615,7.4,"
"##MN-00 00 25 0064 01785 4847 449266 205648 197"
"170.670544"
"$GPRMC,160530,A,2514.3672,N,07914.5690,W,2.2,271.3,190615,7.4,"
"##MN-00 00 25 0065 01792 4850 449384 205665 197"
"170.67059"
"$GPRMC,160534,A,2514.3671,N,07914.5719,W,2.2,271.5,190615,7.4,"
"##MN-00 00 25 0065 01794 4853 449446 205673 198"
"170.670637"
"$GPRMC,160538,A,2514.3671,N,07914.5744,W,2.2,271.2,190615,7.4,"
"##MN-00 00 25 0066 01799 4856 449473 205677 197"
"170.670683"
"$GPRMC,160542,A,2514.3672,N,07914.5771,W,2.2,271.1,190615,7.4,"
"##MN-00 00 25 0067 01801 4859 449502 205689 197"
"170.670729"
"$GPRMC,160546,A,2514.3671,N,07914.5798,W,2.2,271.1,190615,7.4,"
"##MN-00 00 25 0068 01805 4862 449497 205685 197"
"170.670775"
"$GPRMC,160550,A,2514.3672,N,07914.5824,W,2.2,271.6,190615,7.4,"
"##MN-00 00 25 0069 01808 4866 449472 205678 197"
"170.670822"
"$GPRMC,160554,A,2514.3673,N,07914.5852,W,2.2,271.7,190615,7.4,"
"##MN-00 00 25 0070 01807 4869 449473 205678 198"
"170.670868"
"$GPRMC,160558,A,2514.3674,N,07914.5878,W,2.3,272.4,190615,7.4,"
"##MN-00 00 25 0071 01806 4872 449488 205677 198"
"170.670914"
"$GPRMC,160602,A,2514.3676,N,07914.5905,W,2.3,273.0,190615,7.4,"
"##MN-00 00 25 0072 01807 4875 449490 205690 198"
"170.670961"
"$GPRMC,160606,A,2514.3680,N,07914.5936,W,2.2,273.2,190615,7.4,"
"##MN-00 00 25 0073 01807 4878 449487 205695 198"
"170.671007"
"$GPRMC,160610,A,2514.3680,N,07914.5961,W,2.2,273.0,190615,7.4,"
"##MN-00 00 25 0074 01805 4881 449478 205694 198"
"170.671053"
"$GPRMC,160614,A,2514.3681,N,07914.5993,W,2.2,272.9,190615,7.4,"
"##MN-00 00 25 0075 01805 4884 449464 205690 197"
"170.6711"
"$GPRMC,160618,A,2514.3683,N,07914.6026,W,2.2,273.0,190615,7.4,"
"##MN-00 00 25 0076 01806 4888 449453 205687 197"
"170.671146"
"$GPRMC,160622,A,2514.3683,N,07914.6052,W,2.2,273.0,190615,7.4,"
"##MN-00 00 25 0077 01808 4891 449446 205686 198"
"170.671192"
"$GPRMC,160626,A,2514.3686,N,07914.6074,W,2.2,272.7,190615,7.4,"
"##MN-00 00 25 0078 01809 4894 449447 205685 198"
"170.671238"
"$GPRMC,160630,A,2514.3685,N,07914.6100,W,2.2,272.4,190615,7.4,"
"##MN-00 00 25 0079 01807 4897 449448 205689 198"
"170.671285"
"$GPRMC,160634,A,2514.3687,N,07914.6127,W,2.2,272.6,190615,7.4,"
"##MN-00 00 25 0080 01807 4900 449440 205687 197"
"170.671331"
"$GPRMC,160638,A,2514.3687,N,07914.6156,W,2.2,272.4,190615,7.4,"
"##MN-00 00 25 0081 01810 4903 449429 205685 197"
"170.671377"
"$GPRMC,160643,A,2514.3689,N,07914.6189,W,2.2,272.7,190615,7.4,"
"##MN-00 00 25 0082 01810 4906 449420 205684 198"
"170.671424"
"$GPRMC,160647,A,2514.3690,N,07914.6215,W,2.2,272.7,190615,7.4,"
"##MN+00 00 25 0082 01809 4908 449417 205683 197"
"170.67147"
"$GPRMC,160651,A,2514.3693,N,07914.6240,W,2.2,272.4,190615,7.4,"
"##MN+00 00 25 0083 01811 4912 449406 205682 198"
"170.671516"
"$GPRMC,160655,A,2514.3694,N,07914.6268,W,2.2,272.4,190615,7.4,"
"##MN+00 00 25 0084 01814 4915 449402 205681 198"
"170.671563"
"$GPRMC,160659,A,2514.3694,N,07914.6293,W,2.2,272.4,190615,7.4,"
"##MN+00 00 25 0085 01816 4918 449407 205681 198"
"170.671609"
"$GPRMC,160703,A,2514.3694,N,07914.6319,W,2.2,272.4,190615,7.4,"
"##MN+00 00 25 0086 01816 4921 449398 205671 198"
"170.671655"
"$GPRMC,160706,A,2514.3696,N,07914.6338,W,2.2,272.4,190615,7.4,"
"##MN+00 00 25 0087 01819 4924 449372 205665 198"
"170.671701"
"$GPRMC,160711,A,2514.3698,N,07914.6373,W,2.2,272.4,190615,7.4,"
"##MN-00 00 25 0088 01821 4927 449363 205663 198"
"170.671748"
"$GPRMC,160715,A,2514.3700,N,07914.6399,W,2.2,272.4,190615,7.4,"
"##MN-00 00 25 0089 01820 4930 449370 205664 198"
"170.671794"
"$GPRMC,160719,A,2514.3701,N,07914.6427,W,2.2,272.2,190615,7.4,"
"##MN-00 00 25 0090 01817 4933 449383 205666 198"
"170.67184"
"#increment_net"
"$GPRMC,160723,A,2514.3703,N,07914.6453,W,2.2,272.3,190615,7.4,"
"##MN-00 00 25 0091 01818 4936 449385 205669 198"
"170.671887"
"$GPRMC,160727,A,2514.3705,N,07914.6477,W,2.2,272.4,190615,7.4,"
"##MN-00 00 25 0092 01817 4939 449397 205669 198"
"170.671933"
"$GPRMC,160731,A,2514.3708,N,07914.6501,W,2.2,272.1,190615,7.4,"
"##MN-00 00 25 0093 01817 4942 449399 205672 198"
"170.671979"
"$GPRMC,160735,A,2514.3710,N,07914.6526,W,2.2,272.4,190615,7.4,"
"##MN-00 00 25 0094 01818 4945 449392 205672 198"
"170.672025"
"$GPRMC,160739,A,2514.3712,N,07914.6553,W,2.2,272.7,190615,7.4,"
"##MN-00 00 25 0095 01816 4948 449409 205675 197"
"170.672072"
"$GPRMC,160743,A,2514.3712,N,07914.6579,W,2.2,272.6,190615,7.4,"
"##MN-00 00 25 0096 01817 4951 449457 205686 197"
"170.672118"
"$GPRMC,160747,A,2514.3716,N,07914.6607,W,2.2,272.4,190615,7.4,"
"##MN-00 00 25 0097 01817 4954 449476 205692 197"
"170.672164"
"$GPRMC,160751,A,2514.3718,N,07914.6633,W,2.2,272.4,190615,7.4,"
"##MN-00 00 30 0097 01817 4957 449491 205695 197"
"170.672211"
"$GPRMC,160755,A,2514.3719,N,07914.6660,W,2.2,272.4,190615,7.4,"
"##MN-00 00 25 0098 01816 4960 449495 205696 198"
"170.672257"
"$GPRMC,160759,A,2514.3719,N,07914.6687,W,2.2,272.2,190615,7.4,"
"##MN-00 00 26 0099 01815 4963 449497 205697 198"
"170.672303"
"$GPRMC,160803,A,2514.3719,N,07914.6712,W,2.2,272.3,190615,7.4,"
"##MN+00 00 25 0100 01814 4966 449495 205697 198"
"170.67235"
"$GPRMC,160807,A,2514.3722,N,07914.6738,W,2.2,272.8,190615,7.4,"
"##MN+00 00 26 0101 01814 4969 449500 205698 198"
"170.672396"
"$GPRMC,160811,A,2514.3721,N,07914.6764,W,2.2,273.0,190615,7.4,"
"##MN+00 00 26 0102 01815 4972 449509 205699 198"
"170.672442"
"$GPRMC,160815,A,2514.3722,N,07914.6792,W,2.2,272.9,190615,7.4,"
"##MN-00 00 26 0103 01814 4975 449522 205702 198"
"170.672488"
"$GPRMC,160819,A,2514.3721,N,07914.6821,W,2.2,272.7,190615,7.4,"
"##MN-00 00 27 0104 01815 4978 449526 205702 198"
"170.672535"
"$GPRMC,160823,A,2514.3723,N,07914.6847,W,2.2,272.4,190615,7.4,"
"##MN-00 00 26 0105 01814 4981 449524 205702 198"
"170.672581"
"$GPRMC,160827,A,2514.3723,N,07914.6875,W,2.2,272.5,190615,7.4,"
"##MN-00 00 27 0106 01815 4984 449516 205701 198"
"170.672627"
"$GPRMC,160831,A,2514.3723,N,07914.6904,W,2.2,272.7,190615,7.4,"
"##MN-00 00 26 0107 01815 4986 449502 205698 198"
"170.672674"
"$GPRMC,160835,A,2514.3726,N,07914.6933,W,2.2,272.6,190615,7.4,"
"##MN+00 00 26 0108 01815 4989 449486 205694 198"
"170.67272"
"$GPRMC,160839,A,2514.3727,N,07914.6958,W,2.2,272.9,190615,7.4,"
"##MN+00 00 26 0109 01815 4992 449474 205694 197"
"170.672766"
"$GPRMC,160843,A,2514.3727,N,07914.6985,W,2.2,273.4,190615,7.4,"
"##MN+00 00 26 0110 01814 4995 449456 205691 198"
"170.672812"
"$GPRMC,160847,A,2514.3728,N,07914.7012,W,2.2,273.5,190615,7.4,"
"##MN-00 00 25 0111 01818 4998 449444 205690 198"
"170.67287"
"$GPRMC,160851,A,2514.3730,N,07914.7038,W,2.2,273.3,190615,7.4,"
"##MN-00 00 26 0112 01816 5001 449439 205689 197"
"170.672917"
"#increment_net"
"$GPRMC,160855,A,2514.3730,N,07914.7063,W,2.2,273.2,190615,7.4,"
"##MN-00 00 26 0113 01816 5004 449426 205686 198"
"170.672963"
"$GPRMC,160859,A,2514.3733,N,07914.7089,W,2.2,273.5,190615,7.4,"
"##MN-00 00 26 0114 01814 5007 449413 205686 198"
"170.673009"
"$GPRMC,160903,A,2514.3734,N,07914.7115,W,2.2,273.9,190615,7.4,"
"##MN-00 00 26 0115 01816 5010 449412 205681 198"
"170.673056"
"$GPRMC,160907,A,2514.3737,N,07914.7142,W,2.2,273.8,190615,7.4,"
"##MN-00 00 26 0116 01813 5013 449426 205683 198"
"170.673102"
"$GPRMC,160911,A,2514.3738,N,07914.7168,W,2.2,273.7,190615,7.4,"
"##MN-00 00 27 0117 01812 5016 449434 205685 198"
"170.673148"
"$GPRMC,160915,A,2514.3741,N,07914.7194,W,2.2,274.3,190615,7.4,"
"##MN-00 00 28 0118 01812 5018 449434 205685 198"
"170.673194"
"$GPRMC,160919,A,2514.3745,N,07914.7220,W,2.2,273.4,190615,7.4,"
"##MN-00 00 26 0119 01812 5021 449432 205685 198"
"170.673241"
"$GPRMC,160923,A,2514.3747,N,07914.7247,W,2.2,273.4,190615,7.4,"
"##MN-00 00 26 0120 01813 5024 449412 205680 198"
"170.673287"
"$GPRMC,160927,A,2514.3748,N,07914.7272,W,2.2,272.8,190615,7.4,"
"##MN-00 00 26 0121 01811 5027 449374 205673 198"
"170.673333"
"$GPRMC,160931,A,2514.3749,N,07914.7298,W,2.2,273.0,190615,7.4,"
"##MN-00 00 26 0122 01814 5030 449354 205673 198"
"170.67338"
"$GPRMC,160935,A,2514.3752,N,07914.7326,W,2.2,273.4,190615,7.4,"
"##MN+00 00 26 0123 01812 5032 449355 205673 198"
"170.673426"
"$GPRMC,160939,A,2514.3752,N,07914.7350,W,2.2,273.7,190615,7.4,"
"##MN+00 00 26 0123 01814 5035 449341 205671 198"
"170.673472"
"$GPRMC,160943,A,2514.3755,N,07914.7378,W,2.2,273.7,190615,7.4,"
"##MN+00 00 26 0124 01811 5038 449325 205670 197"
"170.673518"
"$GPRMC,160947,A,2514.3755,N,07914.7404,W,2.2,273.3,190615,7.4,"
"##MN-00 00 26 0125 01810 5041 449309 205663 198"
"170.673565"
"$GPRMC,160951,A,2514.3755,N,07914.7429,W,2.2,272.8,190615,7.4,"
"##MN-00 00 26 0126 01809 5044 449295 205662 198"
"170.673611"
"$GPRMC,160955,A,2514.3755,N,07914.7457,W,2.2,272.6,190615,7.4,"
"##MN-00 00 26 0127 01810 5047 449301 205664 198"
"170.673657"
"$GPRMC,160959,A,2514.3756,N,07914.7483,W,2.2,272.8,190615,7.4,"
"##MN-00 00 27 0128 01809 5049 449295 205663 198"
"170.673704"
"$GPRMC,161003,A,2514.3759,N,07914.7509,W,2.2,273.1,190615,7.4,"
"##MN-00 00 27 0129 01812 5052 449290 205662 198"
"170.67375"
"$GPRMC,161007,A,2514.3759,N,07914.7536,W,2.2,273.2,190615,7.4,"
"##MN-00 00 27 0130 01811 5055 449277 205660 198"
"170.673796"
"$GPRMC,161011,A,2514.3760,N,07914.7562,W,2.2,273.6,190615,7.4,"
"##MN+00 00 26 0131 01810 5057 449261 205655 198"
"170.673843"
"$GPRMC,161015,A,2514.3763,N,07914.7590,W,2.2,273.7,190615,7.4,"
"##MN+00 00 28 0132 01812 5060 449248 205653 198"
"170.673889"
"$GPRMC,161019,A,2514.3763,N,07914.7616,W,2.2,273.8,190615,7.4,"
"##MN+00 00 28 0133 01811 5063 449233 205651 198"
"170.673935"
"$GPRMC,161023,A,2514.3763,N,07914.7644,W,2.2,273.8,190615,7.4,"
"##MN-00 00 28 0134 01813 5066 449221 205647 198"
"170.673982"
"$GPRMC,161027,A,2514.3766,N,07914.7670,W,2.2,273.6,190615,7.4,"
"##MN-00 00 28 0135 01810 5068 449211 205645 198"
"170.674028"
"#increment_net"
"$GPRMC,161031,A,2514.3767,N,07914.7695,W,2.2,273.5,190615,7.4,"
"##MN-00 00 28 0136 01809 5071 449198 205643 198"
"170.674074"
"$GPRMC,161035,A,2514.3770,N,07914.7721,W,2.2,273.4,190615,7.4,"
"##MN-00 00 28 0137 01810 5074 449189 205640 198"
"170.67412"
"$GPRMC,161039,A,2514.3770,N,07914.7747,W,2.2,273.7,190615,7.4,"
"##MN-00 00 28 0138 01809 5077 449179 205639 198"
"170.674167"
"$GPRMC,161043,A,2514.3772,N,07914.7775,W,2.2,274.2,190615,7.4,"
"##MN-00 00 28 0138 01810 5080 449171 205636 198"
"170.674213"
"$GPRMC,161047,A,2514.3773,N,07914.7801,W,2.2,274.2,190615,7.4,"
"##MN-00 00 28 0139 01806 5082 449156 205633 198"
"170.674259"
"$GPRMC,161051,A,2514.3775,N,07914.7829,W,2.2,273.9,190615,7.4,"
"##MN-00 00 28 0140 01808 5085 449172 205636 198"
"170.674306"
"$GPRMC,161055,A,2514.3777,N,07914.7855,W,2.2,274.1,190615,7.4,"
"##MN-00 00 28 0141 01807 5087 449232 205646 197"
"170.674352"
"$GPRMC,161059,A,2514.3778,N,07914.7883,W,2.2,273.9,190615,7.4,"
"##MN-00 00 28 0142 01807 5090 449288 205653 198"
"170.674398"
"$GPRMC,161103,A,2514.3781,N,07914.7912,W,2.2,273.9,190615,7.4,"
"##MN-00 00 28 0143 01805 5093 449316 205660 198"
"170.674444"
"$GPRMC,161108,A,2514.3784,N,07914.7946,W,2.2,274.3,190615,7.4,"
"##MN-00 00 28 0144 01805 5096 449317 205662 197"
"170.674491"
"$GPRMC,161112,A,2514.3784,N,07914.7975,W,2.2,274.5,190615,7.4,"
"##MN-00 00 28 0145 01804 5098 449359 205669 198"
"170.674537"
"$GPRMC,161115,A,2514.3787,N,07914.7995,W,2.2,273.9,190615,7.4,"
"##MN+00 00 28 0146 01806 5101 449406 205680 198"
"170.674583"
"$GPRMC,161119,A,2514.3788,N,07914.8021,W,2.2,273.7,190615,7.4,"
"##MN+00 00 28 0147 01804 5104 449435 205684 198"
"170.67463"
"$GPRMC,161124,A,2514.3790,N,07914.8054,W,2.2,273.8,190615,7.4,"
"##MN+00 00 27 0148 01805 5106 449478 205696 198"
"170.674676"
"$GPRMC,161128,A,2514.3792,N,07914.8082,W,2.2,274.0,190615,7.4,"
"##MN-00 00 28 0150 01805 5109 449543 205707 198"
"170.674722"
"$GPRMC,161132,A,2514.3795,N,07914.8110,W,2.2,273.9,190615,7.4,"
"##MN-00 00 28 0151 01803 5112 449598 205716 198"
"170.674769"
"$GPRMC,161136,A,2514.3794,N,07914.8136,W,2.2,273.9,190615,7.4,"
"##MN-00 00 28 0152 01802 5114 449613 205721 198"
"170.674815"
"$GPRMC,161140,A,2514.3798,N,07914.8163,W,2.2,273.6,190615,7.4,"
"##MN-00 00 28 0153 01801 5117 449612 205721 198"
"170.674861"
"$GPRMC,161144,A,2514.3799,N,07914.8190,W,2.2,273.7,190615,7.4,"
"##MN+00 00 28 0154 01802 5120 449614 205720 197"
"170.674907"
"$GPRMC,161148,A,2514.3801,N,07914.8217,W,2.2,273.2,190615,7.4,"
"##MN+00 00 28 0155 01803 5122 449699 205739 198"
"170.674954"
"$GPRMC,161152,A,2514.3803,N,07914.8244,W,2.2,273.5,190615,7.4,"
"##MN+00 00 28 0156 01802 5125 449824 205754 198"
"170.675"
"$GPRMC,161156,A,2514.3805,N,07914.8271,W,2.2,273.8,190615,7.4,"
"##MN-00 00 27 0157 01806 5127 449868 205758 198"
"170.675046"
"$GPRMC,161200,A,2514.3806,N,07914.8298,W,2.2,273.6,190615,7.4,"
"##MN-00 00 28 0158 01804 5130 449961 205770 198"
"170.675093"
"#increment_net"
"$GPRMC,161204,A,2514.3807,N,07914.8327,W,2.2,273.4,190615,7.4,"
"##MN-00 00 27 0159 01802 5132 449960 205772 198"
"170.675139"
"$GPRMC,161208,A,2514.3812,N,07914.8353,W,2.2,273.5,190615,7.4,"
"##MN-00 00 27 0160 01801 5135 449967 205776 198"
"170.675185"
"$GPRMC,161212,A,2514.3815,N,07914.8381,W,2.2,274.1,190615,7.4,"
"##MN-00 00 26 0161 01801 5138 449859 205767 198"
"170.675231"
"$GPRMC,161216,A,2514.3817,N,07914.8408,W,2.2,273.9,190615,7.4,"
"##MN-00 00 26 0162 01803 5140 449818 205762 198"
"170.675278"
"$GPRMC,161220,A,2514.3820,N,07914.8436,W,2.2,273.8,190615,7.4,"
"##MN-00 00 26 0163 01804 5143 449880 205765 197"
"170.675324"
"$GPRMC,161224,A,2514.3821,N,07914.8461,W,2.2,273.5,190615,7.4,"
"##MN-00 00 26 0164 01803 5145 449836 205760 197"
"170.67537"
"$GPRMC,161228,A,2514.3824,N,07914.8486,W,2.2,273.7,190615,7.4,"
"##MN-00 00 26 0165 01806 5148 449824 205758 198"
"170.675417"
"$GPRMC,161232,A,2514.3828,N,07914.8512,W,2.2,273.7,190615,7.4,"
"##MN-00 00 26 0166 01802 5151 449805 205758 198"
"170.675463"
"$GPRMC,161236,A,2514.3828,N,07914.8540,W,2.2,273.9,190615,7.4,"
"##MN-00 00 26 0167 01801 5153 449748 205751 198"
"170.675509"
"$GPRMC,161240,A,2514.3828,N,07914.8566,W,2.2,273.8,190615,7.4,"
"##MN-00 00 26 0168 01801 5156 449701 205746 198"
"170.675556"
"$GPRMC,161244,A,2514.3831,N,07914.8594,W,2.2,273.8,190615,7.4,"
"##MN-00 00 26 0169 01801 5158 449689 205742 198"
"170.675602"
"$GPRMC,161248,A,2514.3834,N,07914.8620,W,2.2,273.4,190615,7.4,"
"##MN+00 00 27 0170 01800 5160 449668 205738 198"
"170.675648"
"$GPRMC,161252,A,2514.3835,N,07914.8649,W,2.2,273.4,190615,7.4,"
"##MN+00 00 29 0171 01800 5163 449617 205730 198"
"170.675694"
"$GPRMC,161256,A,2514.3837,N,07914.8675,W,2.2,273.5,190615,7.4,"
"##MN+00 00 26 0172 01800 5165 449538 205729 197"
"170.675741"
"$GPRMC,161300,A,2514.3839,N,07914.8703,W,2.2,273.4,190615,7.4,"
"##MN-00 00 27 0173 01800 5168 449494 205716 198"
"170.675787"
"$GPRMC,161304,A,2514.3839,N,07914.8730,W,2.2,273.2,190615,7.4,"
"##MN-00 00 27 0174 01799 5170 449414 205698 198"
"170.675833"
"$GPRMC,161308,A,2514.3840,N,07914.8757,W,2.2,273.1,190615,7.4,"
"##MN-00 00 26 0175 01799 5173 449378 205696 198"
"170.67588"
"$GPRMC,161312,A,2514.3842,N,07914.8786,W,2.2,273.2,190615,7.4,"
"##MN-00 00 26 0176 01800 5175 449348 205687 198"
"170.675926"
"$GPRMC,161316,A,2514.3844,N,07914.8813,W,2.2,273.1,190615,7.4,"
"##MN+00 00 26 0177 01801 5177 449337 205678 198"
"170.675972"
"$GPRMC,161320,A,2514.3844,N,07914.8841,W,2.2,273.0,190615,7.4,"
"##MN+00 00 26 0178 01802 5180 449351 205679 198"
"170.676019"
"$GPRMC,161324,A,2514.3845,N,07914.8869,W,2.2,273.2,190615,7.4,"
"##MN+00 00 26 0179 01801 5183 449328 205675 198"
"170.676065"
"$GPRMC,161328,A,2514.3846,N,07914.8895,W,2.2,273.2,190615,7.4,"
"##MN-00 00 26 0180 01804 5185 449262 205663 198"
"170.676123"
"#increment_net"
"$GPRMC,161332,A,2514.3848,N,07914.8923,W,2.2,273.6,190615,7.4,"
"##MN-00 00 27 0181 01805 5187 449302 205665 198"
"170.676169"
"$GPRMC,161336,A,2514.3849,N,07914.8949,W,2.2,273.4,190615,7.4,"
"##MN-00 00 26 0182 01811 5190 449353 205680 198"
"170.676215"
"$GPRMC,161340,A,2514.3849,N,07914.8977,W,2.2,273.2,190615,7.4,"
"##MN-00 00 26 0184 01815 5192 449510 205702 198"
"170.676262"
"$GPRMC,161344,A,2514.3852,N,07914.9004,W,2.2,273.8,190615,7.4,"
"##MN-00 00 26 0185 01823 5194 449817 205749 198"
"170.676308"
"$GPRMC,161348,A,2514.3853,N,07914.9032,W,2.3,274.1,190615,7.4,"
"##MN-00 00 25 0186 01823 5197 450070 205765 198"
"170.676354"
"$GPRMC,161352,A,2514.3854,N,07914.9061,W,2.3,274.2,190615,7.4,"
"##MN-00 00 25 0188 01829 5200 450293 205802 197"
"170.676401"
"$GPRMC,161356,A,2514.3857,N,07914.9089,W,2.3,274.4,190615,7.4,"
"##MN-00 00 25 0189 01828 5202 450467 205823 198"
"170.676447"
"$GPRMC,161400,A,2514.3860,N,07914.9118,W,2.3,274.7,190615,7.4,"
"##MN-00 00 26 0190 01828 5204 450561 205845 198"
"170.676493"
"$GPRMC,161404,A,2514.3862,N,07914.9147,W,2.3,274.6,190615,7.4,"
"##MN-00 00 26 0192 01826 5207 450483 205837 197"
"170.676539"
"$GPRMC,161408,A,2514.3864,N,07914.9177,W,2.4,274.3,190615,7.4,"
"##MN-00 00 25 0193 01823 5209 450318 205820 198"
"170.676586"
"$GPRMC,161412,A,2514.3866,N,07914.9206,W,2.4,274.4,190615,7.4,"
"##MN-00 00 26 0194 01821 5211 450207 205808 198"
"170.676632"
"$GPRMC,161416,A,2514.3866,N,07914.9235,W,2.4,274.3,190615,7.4,"
"##MN-00 00 25 0196 01818 5213 450199 205811 198"
"170.676678"
"$GPRMC,161420,A,2514.3868,N,07914.9264,W,2.3,273.8,190615,7.4,"
"##MN-00 00 26 0197 01816 5216 450089 205799 198"
"170.676725"
"$GPRMC,161424,A,2514.3871,N,07914.9295,W,2.4,273.9,190615,7.4,"
"##MN-00 00 25 0198 01814 5218 449969 205779 198"
"170.676771"
"$GPRMC,161428,A,2514.3871,N,07914.9324,W,2.4,273.6,190615,7.4,"
"##MN-00 00 25 0200 01814 5221 449826 205766 198"
"170.676817"
"$GPRMC,161432,A,2514.3874,N,07914.9354,W,2.4,273.5,190615,7.4,"
"##MN-00 00 25 0201 01809 5223 449704 205746 197"
"170.676863"
"$GPRMC,161436,A,2514.3875,N,07914.9384,W,2.4,273.3,190615,7.4,"
"##MN-00 00 25 0202 01806 5225 449526 205717 197"
"170.67691"
"$GPRMC,161440,A,2514.3875,N,07914.9415,W,2.4,273.3,190615,7.4,"
"##MN-00 00 26 0204 01805 5227 449341 205677 197"
"170.676956"
"$GPRMC,161444,A,2514.3878,N,07914.9444,W,2.4,273.2,190615,7.4,"
"##MN-00 00 25 0205 01802 5230 449246 205661 197"
"170.677002"
"$GPRMC,161448,A,2514.3880,N,07914.9474,W,2.4,273.1,190615,7.4,"
"##MN-00 00 25 0206 01796 5232 449217 205660 198"
"170.677049"
"$GPRMC,161452,A,2514.3882,N,07914.9505,W,2.4,273.4,190615,7.4,"
"##MN-00 00 25 0208 01794 5234 449203 205660 198"
"170.677095"
"$GPRMC,161456,A,2514.3884,N,07914.9534,W,2.4,273.7,190615,7.4,"
"##MN-00 00 25 0209 01791 5237 449159 205647 197"
"170.677141"
"$GPRMC,161500,A,2514.3884,N,07914.9564,W,2.4,273.4,190615,7.4,"
"##MN-00 00 26 0211 01790 5239 449027 205632 197"
"170.677188"
"$GPRMC,161504,A,2514.3886,N,07914.9595,W,2.5,273.4,190615,7.4,"
"##MN-00 00 25 0212 01786 5241 449010 205623 197"
"170.677234"
"$GPRMC,161508,A,2514.3889,N,07914.9626,W,2.5,272.7,190615,7.4,"
"##MN-00 00 67 0213 01785 5243 449014 205625 198"
"170.67728"
"$GPRMC,161512,A,2514.3893,N,07914.9653,W,2.5,272.8,190615,7.4,"
"##MN-00 00 25 0214 01781 5245 448962 205610 198"
"170.677326"
"$GPRMC,161516,A,2514.3896,N,07914.9682,W,2.5,273.2,190615,7.4,"
"##MN-00 00 25 0216 01778 5248 448872 205597 197"
"170.677373"
"$GPRMC,161520,A,2514.3899,N,07914.9711,W,2.5,273.6,190615,7.4,"
"##MN-00 00 25 0217 01774 5250 448804 205586 197"
"170.677419"
"$GPRMC,161524,A,2514.3900,N,07914.9743,W,2.4,273.1,190615,7.4,"
"##MN-00 00 25 0218 01772 5252 448746 205580 198"
"170.677465"
"$GPRMC,161528,A,2514.3903,N,07914.9770,W,2.4,273.1,190615,7.4,"
"##MN-00 00 25 0220 01768 5254 448718 205570 197"
"170.677512"
"$GPRMC,161532,A,2514.3904,N,07914.9801,W,2.4,273.8,190615,7.4,"
"##MN-00 00 25 0221 01765 5256 448699 205571 197"
"170.677558"
"$GPRMC,161536,A,2514.3906,N,07914.9830,W,2.4,273.6,190615,7.4,"
"##MN-00 00 67 0222 01761 5258 448625 205550 198"
"170.677604"
"$GPRMC,161540,A,2514.3907,N,07914.9860,W,2.4,273.1,190615,7.4,"
"##MN-00 00 25 0224 01758 5261 448406 205505 197"
"170.67765"
"$GPRMC,161544,A,2514.3908,N,07914.9892,W,2.4,273.5,190615,7.4,"
"##MN-00 00 25 0225 01756 5263 448048 205426 198"
"170.677697"
"$GPRMC,161548,A,2514.3910,N,07914.9922,W,2.4,273.7,190615,7.4,"
"##MN-00 00 25 0226 01753 5265 447616 205357 197"
"170.677743"
"$GPRMC,161552,A,2514.3911,N,07914.9953,W,2.5,273.9,190615,7.4,"
"##MN-00 00 25 0228 01747 5268 447404 205326 198"
"170.677789"
"$GPRMC,161556,A,2514.3912,N,07914.9985,W,2.5,273.9,190615,7.4,"
"##MN-00 00 25 0229 01746 5270 447306 205319 198"
"170.677836"
"$GPRMC,161600,A,2514.3914,N,07915.0014,W,2.5,273.9,190615,7.4,"
"##MN-00 00 25 0230 01742 5272 447255 205306 197"
"170.677882"
"$GPRMC,161604,A,2514.3917,N,07915.0045,W,2.5,273.9,190615,7.4,"
"##MN-00 00 25 0231 01739 5274 447156 205293 198"
"170.677928"
"$GPRMC,161608,A,2514.3918,N,07915.0076,W,2.5,274.1,190615,7.4,"
"##MN-00 00 25 0233 01736 5276 446976 205263 197"
"170.677975"
"$GPRMC,161612,A,2514.3921,N,07915.0108,W,2.5,274.0,190615,7.4,"
"##MN-00 00 25 0234 01733 5279 446884 205242 197"
"170.678021"
"$GPRMC,161616,A,2514.3925,N,07915.0139,W,2.5,274.2,190615,7.4,"
"##MN-00 00 25 0235 01728 5281 446750 205221 197"
"170.678067"
"$GPRMC,161620,A,2514.3929,N,07915.0173,W,2.5,274.7,190615,7.4,"
"##MN-00 00 27 0237 01725 5283 446665 205186 197"
"170.678113"
"$GPRMC,161625,A,2514.3932,N,07915.0213,W,2.5,274.2,190615,7.4,"
"##MN-00 00 25 0238 01720 5285 446570 205166 197"
"170.67816"
"$GPRMC,161629,A,2514.3933,N,07915.0243,W,2.5,273.7,190615,7.4,"
"##MN-00 00 25 0239 01718 5287 446440 205138 197"
"170.678206"
"$GPRMC,161633,A,2514.3936,N,07915.0275,W,2.5,273.8,190615,7.4,"
"##MN-00 00 25 0240 01714 5289 446372 205133 198"
"170.678252"
"$GPRMC,161637,A,2514.3938,N,07915.0305,W,2.5,274.2,190615,7.4,"
"##MN-00 00 25 0242 01711 5292 446304 205107 197"
"170.678299"
"$GPRMC,161641,A,2514.3939,N,07915.0336,W,2.5,274.0,190615,7.4,"
"##MN-00 00 25 0243 01708 5294 446183 205078 197"
"170.678345"
"$GPRMC,161645,A,2514.3940,N,07915.0366,W,2.5,274.0,190615,7.4,"
"##MN-00 00 25 0244 01703 5296 446031 205061 198"
"170.678391"
"$GPRMC,161649,A,2514.3942,N,07915.0397,W,2.5,273.8,190615,7.4,"
"##MN-00 00 25 0246 01701 5298 445934 205044 197"
"170.678437"
"$GPRMC,161653,A,2514.3943,N,07915.0426,W,2.4,273.8,190615,7.4,"
"##MN-00 00 25 0247 01698 5300 445886 205040 198"
"170.678484"
"$GPRMC,161657,A,2514.3945,N,07915.0456,W,2.4,273.9,190615,7.4,"
"##MN-00 00 25 0248 01694 5303 445847 205040 197"
"170.67853"
"$GPRMC,161701,A,2514.3947,N,07915.0486,W,2.4,273.8,190615,7.4,"
"##MN-00 00 25 0249 01692 5304 445817 205040 197"
"170.678576"
"$GPRMC,161705,A,2514.3951,N,07915.0516,W,2.4,274.3,190615,7.4,"
"##MN-00 00 25 0251 01685 5307 445797 205034 198"
"170.678623"
"$GPRMC,161709,A,2514.3954,N,07915.0546,W,2.4,274.4,190615,7.4,"
"##MN-00 00 25 0252 01685 5309 445782 205034 197"
"170.678669"
"$GPRMC,161713,A,2514.3958,N,07915.0575,W,2.4,275.1,190615,7.4,"
"##MN-00 00 25 0253 01682 5311 445707 205019 197"
"170.678715"
"$GPRMC,161717,A,2514.3958,N,07915.0605,W,2.4,274.6,190615,7.4,"
"##MN-00 00 25 0254 01678 5313 445371 204948 198"
"170.678762"
"$GPRMC,161721,A,2514.3961,N,07915.0634,W,2.4,274.3,190615,7.4,"
"##MN-00 00 25 0255 01675 5316 445014 204894 197"
"170.678808"
"$GPRMC,161725,A,2514.3962,N,07915.0663,W,2.4,274.0,190615,7.4,"
"##MN-00 00 25 0257 01671 5318 444619 204821 197"
"170.678854"
"$GPRMC,161729,A,2514.3965,N,07915.0691,W,2.3,274.0,190615,7.4,"
"##MN-00 00 25 0258 01667 5320 444264 204747 198"
"170.6789"
"$GPRMC,161733,A,2514.3967,N,07915.0720,W,2.4,273.9,190615,7.4,"
"##MN-00 00 25 0259 01665 5322 444077 204718 197"
"170.678947"
"$GPRMC,161737,A,2514.3966,N,07915.0748,W,2.3,273.4,190615,7.4,"
"##MN-00 00 25 0260 01661 5324 443990 204685 197"
"170.678993"
"$GPRMC,161741,A,2514.3968,N,07915.0777,W,2.3,273.3,190615,7.4,"
"##MN-00 00 25 0261 01656 5326 443928 204666 198"
"170.679039"
"$GPRMC,161745,A,2514.3969,N,07915.0806,W,2.3,273.6,190615,7.4,"
"##MN-00 00 25 0262 01652 5328 443906 204667 198"
"170.679086"
"$GPRMC,161749,A,2514.3972,N,07915.0835,W,2.3,274.0,190615,7.4,"
"##MN-00 00 25 0264 01648 5331 443886 204654 197"
"170.679132"
"$GPRMC,161753,A,2514.3972,N,07915.0863,W,2.3,274.1,190615,7.4,"
"##MN-00 00 25 0265 01642 5333 443859 204651 197"
"170.679178"
"$GPRMC,161757,A,2514.3974,N,07915.0885,W,2.3,274.0,190615,7.4,"
"##MN-00 00 25 0266 01641 5335 443842 204645 197"
"170.679225"
"$GPRMC,161801,A,2514.3973,N,07915.0919,W,2.3,274.1,190615,7.4,"
"##MN-00 00 25 0267 01636 5337 443825 204637 197"
"170.679271"
"$GPRMC,161805,A,2514.3975,N,07915.0947,W,2.3,274.3,190615,7.4,"
"##MN-00 00 25 0268 01632 5339 443798 204633 198"
"170.679317"
"$GPRMC,161809,A,2514.3976,N,07915.0975,W,2.3,274.7,190615,7.4,"
"##MN-00 00 25 0269 01630 5341 443774 204628 198"
"170.679375"
"$GPRMC,161813,A,2514.3978,N,07915.1002,W,2.2,274.5,190615,7.4,"
"##MN-00 00 25 0270 01627 5344 443747 204620 198"
"170.679421"
"$GPRMC,161817,A,2514.3979,N,07915.1030,W,2.3,274.5,190615,7.4,"
"##MN-00 00 25 0271 01620 5346 443720 204614 197"
"170.679468"
"$GPRMC,161821,A,2514.3982,N,07915.1056,W,2.2,274.2,190615,7.4,"
"##MN-00 00 25 0272 01616 5348 443691 204611 197"
"170.679514"
"$GPRMC,161825,A,2514.3983,N,07915.1077,W,2.3,274.2,190615,7.4,"
"##MN-00 00 25 0273 01611 5351 443679 204611 197"
"170.67956"
"$GPRMC,161829,A,2514.3986,N,07915.1105,W,2.2,274.5,190615,7.4,"
"##MN-00 00 25 0274 01608 5352 443663 204605 197"
"170.679607"
"$GPRMC,161833,A,2514.3988,N,07915.1141,W,2.3,274.8,190615,7.4,"
"##MN-00 00 25 0276 01603 5355 443617 204600 198"
"170.679653"
"$GPRMC,161837,A,2514.3992,N,07915.1167,W,2.2,274.5,190615,7.4,"
"##MN-00 00 25 0277 01597 5357 443591 204592 198"
"170.679699"
"$GPRMC,161841,A,2514.3994,N,07915.1196,W,2.2,274.5,190615,7.4,"
"##MN-00 00 25 0278 01593 5359 443576 204585 197"
"170.679745"
"$GPRMC,161845,A,2514.3997,N,07915.1223,W,2.2,273.9,190615,7.4,"
"##MN-00 00 24 0279 01590 5361 443548 204579 198"
"170.679792"
"$GPRMC,161849,A,2514.3997,N,07915.1251,W,2.3,273.8,190615,7.4,"
"##MN-00 00 24 0280 01585 5363 443499 204573 198"
"170.679838"
"$GPRMC,161853,A,2514.4001,N,07915.1279,W,2.3,273.7,190615,7.4,"
"##MN-00 00 24 0281 01579 5366 443452 204559 197"
"170.679884"
"$GPRMC,161857,A,2514.4001,N,07915.1306,W,2.3,273.8,190615,7.4,"
"##MN-00 00 24 0282 01575 5368 443399 204550 198"
"170.679931"
"$GPRMC,161901,A,2514.4004,N,07915.1334,W,2.3,273.9,190615,7.4,"
"##MN-00 00 24 0283 01571 5370 443365 204546 198"
"170.679977"
"$GPRMC,161905,A,2514.4005,N,07915.1362,W,2.3,274.5,190615,7.4,"
"##MN-00 00 24 0284 01565 5372 443327 204537 197"
"170.680023"
"$GPRMC,161909,A,2514.4008,N,07915.1389,W,2.3,274.9,190615,7.4,"
"##MN-00 00 24 0285 01560 5374 443288 204532 197"
"170.680069"
"$GPRMC,161913,A,2514.4008,N,07915.1417,W,2.3,274.7,190615,7.4,"
"##MN-00 00 25 0286 01553 5376 443145 204508 198"
"170.680116"
"$GPRMC,161917,A,2514.4011,N,07915.1445,W,2.3,274.7,190615,7.4,"
"##MN-00 00 25 0287 01555 5379 442805 204429 198"
"170.680162"
"$GPRMC,161921,A,2514.4012,N,07915.1474,W,2.3,274.7,190615,7.4,"
"##MN-00 00 24 0288 01555 5381 442431 204354 198"
"170.680208"
"$GPRMC,161925,A,2514.4014,N,07915.1503,W,2.3,274.5,190615,7.4,"
"##MN-00 00 24 0289 01555 5383 442142 204281 198"
"170.680255"
"$GPRMC,161929,A,2514.4016,N,07915.1532,W,2.3,274.6,190615,7.4,"
"##MN-00 00 24 0290 01553 5385 441960 204257 197"
"170.680301"
"$GPRMC,161933,A,2514.4018,N,07915.1561,W,2.3,274.5,190615,7.4,"
"##MN-00 00 24 0291 01554 5387 441968 204260 197"
