" Tow: 7EM-B   RVWS/WS15161"
" Date: 19/06/2015"
" Temperature Probe #  4762    Conductivity Probe #  710"
" Pressure Probe #  159"
" Flow Meter Calibration  4.71 (m/count)  "
"170.703229"
"$GPRMC,165233,A,2514.5701,N,07917.9454,W,2.9,275.5,190615,7.4,"
"##MN-00 00 70 0309 01553 4567 000035 742907 197"
"170.703275"
"$GPRMC,165238,A,2514.5706,N,07917.9495,W,3.0,275.5,190615,7.4,"
"##MN-00 00 70 0309 01551 4568 429760 827814 197"
"170.703322"
"$GPRMC,165242,A,2514.5710,N,07917.9530,W,3.0,275.9,190615,7.4,"
"##MN-00 00 70 0309 01552 4568 430011 827815 197"
"170.703368"
"$GPRMC,165246,A,2514.5714,N,07917.9566,W,3.0,276.4,190615,7.4,"
"##MN-00 00 70 0309 01551 4569 430004 827812 197"
"170.703414"
"$GPRMC,165250,A,2514.5717,N,07917.9603,W,3.0,276.4,190615,7.4,"
"##MN-00 00 70 0309 01552 4570 430487 827812 197"
"170.703461"
"$GPRMC,165254,A,2514.5721,N,07917.9637,W,2.9,276.3,190615,7.4,"
"##MN-00 00 70 0309 01553 4571 430894 827744 197"
"170.703507"
"$GPRMC,165258,A,2514.5724,N,07917.9673,W,3.0,276.8,190615,7.4,"
"##MN-00 00 70 0309 01552 4572 431172 827813 197"
"170.703553"
"$GPRMC,165302,A,2514.5726,N,07917.9709,W,2.9,277.1,190615,7.4,"
"##MN-00 00 70 0309 01550 4573 431237 827814 197"
"170.7036"
"$GPRMC,165306,A,2514.5732,N,07917.9747,W,3.0,276.8,190615,7.4,"
"##MN-00 00 70 0309 01551 4574 430786 827746 197"
"170.703646"
"$GPRMC,165310,A,2514.5735,N,07917.9783,W,3.0,276.3,190615,7.4,"
"##MN-00 00 70 0309 01551 4575 429866 827812 197"
"170.703692"
"$GPRMC,165314,A,2514.5739,N,07917.9819,W,3.0,276.3,190615,7.4,"
"##MN-00 00 70 0309 01552 4576 430026 827811 197"
"170.703738"
"$GPRMC,165318,A,2514.5742,N,07917.9855,W,3.0,276.5,190615,7.4,"
"##MN-00 00 70 0309 01553 4577 430665 827812 197"
"170.703785"
"$GPRMC,165322,A,2514.5746,N,07917.9892,W,2.9,276.6,190615,7.4,"
"##MN-00 00 42 0309 01552 4578 433421 381941 197"
"170.703831"
"$GPRMC,165326,A,2514.5750,N,07917.9925,W,2.9,277.2,190615,7.4,"
"##MN-00 00 40 0309 01557 4580 439772 217065 197"
"170.703877"
"$GPRMC,165330,A,2514.5753,N,07917.9960,W,2.9,276.9,190615,7.4,"
"##MN-00 00 39 0310 01560 4581 440202 204150 197"
"170.703924"
"$GPRMC,165334,A,2514.5759,N,07917.9994,W,2.8,277.0,190615,7.4,"
"##MN-00 00 39 0310 01556 4582 439629 203829 197"
"170.70397"
"$GPRMC,165338,A,2514.5764,N,07918.0029,W,2.8,277.3,190615,7.4,"
"##MN-00 00 39 0311 01556 4583 439286 203736 197"
"170.704016"
"$GPRMC,165342,A,2514.5768,N,07918.0061,W,2.8,277.8,190615,7.4,"
"##MN-00 00 39 0312 01556 4584 439128 203711 197"
"170.704062"
"$GPRMC,165346,A,2514.5773,N,07918.0092,W,2.7,278.4,190615,7.4,"
"##MN-00 00 39 0313 01554 4586 439062 203680 197"
"170.704109"
"$GPRMC,165350,A,2514.5777,N,07918.0124,W,2.6,278.9,190615,7.4,"
"##MN-00 00 38 0313 01556 4587 439191 203700 197"
"170.704155"
"$GPRMC,165354,A,2514.5782,N,07918.0156,W,2.6,279.9,190615,7.4,"
"##MN-00 00 22 0314 01563 4589 440404 204003 197"
"170.704201"
"$GPRMC,165358,A,2514.5789,N,07918.0188,W,2.6,280.0,190615,7.4,"
"##MN-00 00 22 0314 01569 4591 442099 204424 197"
"170.704248"
"$GPRMC,165402,A,2514.5795,N,07918.0218,W,2.5,280.2,190615,7.4,"
"##MN-00 00 22 0315 01573 4593 443353 204549 197"
"170.704294"
"$GPRMC,165406,A,2514.5800,N,07918.0249,W,2.5,279.9,190615,7.4,"
"##MN-00 00 22 0316 01580 4595 443649 204629 197"
"170.70434"
"$GPRMC,165410,A,2514.5804,N,07918.0278,W,2.5,280.2,190615,7.4,"
"##MN-00 00 22 0316 01583 4598 443787 204680 197"
"170.704387"
"$GPRMC,165414,A,2514.5811,N,07918.0307,W,2.5,280.4,190615,7.4,"
"##MN-00 00 22 0317 01588 4600 443964 204706 197"
"170.704433"
"$GPRMC,165418,A,2514.5815,N,07918.0337,W,2.5,280.9,190615,7.4,"
"##MN-00 00 22 0318 01593 4603 444062 204727 197"
"170.704479"
"$GPRMC,165422,A,2514.5820,N,07918.0366,W,2.5,280.9,190615,7.4,"
"##MN-00 00 22 0318 01598 4605 444106 204714 197"
"170.704525"
"$GPRMC,165426,A,2514.5826,N,07918.0397,W,2.5,280.4,190615,7.4,"
"##MN-00 00 22 0319 01602 4608 444378 204781 197"
"170.704572"
"$GPRMC,165430,A,2514.5829,N,07918.0426,W,2.5,280.2,190615,7.4,"
"##MN-00 00 22 0320 01604 4611 444403 204776 197"
"170.704618"
"$GPRMC,165434,A,2514.5836,N,07918.0456,W,2.5,280.9,190615,7.4,"
"##MN-00 00 22 0320 01608 4614 444439 204789 197"
"170.704664"
"$GPRMC,165438,A,2514.5844,N,07918.0486,W,2.5,281.1,190615,7.4,"
"##MN-00 00 22 0321 01612 4617 444429 204785 197"
"170.704711"
"$GPRMC,165442,A,2514.5847,N,07918.0516,W,2.5,281.0,190615,7.4,"
"##MN-00 00 22 0322 01616 4620 444442 204790 197"
"170.704757"
"$GPRMC,165446,A,2514.5854,N,07918.0546,W,2.5,280.5,190615,7.4,"
"##MN-00 00 22 0322 01624 4623 444491 204800 197"
"170.704803"
"$GPRMC,165450,A,2514.5858,N,07918.0576,W,2.5,280.4,190615,7.4,"
"##MN-00 00 22 0323 01625 4626 444539 204807 197"
"170.70485"
"$GPRMC,165454,A,2514.5865,N,07918.0607,W,2.5,280.2,190615,7.4,"
"##MN-00 00 22 0324 01627 4629 444636 204829 197"
"170.704896"
"$GPRMC,165458,A,2514.5869,N,07918.0639,W,2.5,279.8,190615,7.4,"
"##MN-00 00 22 0325 01631 4632 444776 204855 197"
"170.704942"
"$GPRMC,165503,A,2514.5873,N,07918.0677,W,2.6,280.4,190615,7.4,"
"##MN-00 00 22 0325 01631 4636 444871 204869 197"
"170.704988"
"$GPRMC,165506,A,2514.5879,N,07918.0701,W,2.5,280.3,190615,7.4,"
"##MN-00 00 22 0326 01633 4639 444892 204863 197"
"170.705035"
"$GPRMC,165511,A,2514.5886,N,07918.0741,W,2.6,280.2,190615,7.4,"
"##MN-00 00 22 0327 01639 4643 444950 204884 197"
"170.705081"
"$GPRMC,165515,A,2514.5891,N,07918.0774,W,2.6,279.6,190615,7.4,"
"##MN-00 00 22 0328 01640 4647 444981 204887 197"
"170.705127"
"$GPRMC,165519,A,2514.5894,N,07918.0806,W,2.6,278.6,190615,7.4,"
"##MN-00 00 22 0329 01639 4650 444995 204883 197"
"170.705174"
"$GPRMC,165523,A,2514.5894,N,07918.0836,W,2.7,278.1,190615,7.4,"
"##MN-00 00 22 0329 01643 4653 445010 204892 197"
"170.70522"
"$GPRMC,165527,A,2514.5896,N,07918.0867,W,2.7,277.7,190615,7.4,"
"##MN-00 00 22 0330 01648 4657 445013 204889 197"
"170.705266"
"$GPRMC,165531,A,2514.5900,N,07918.0900,W,2.6,276.9,190615,7.4,"
"##MN-00 00 22 0331 01650 4661 445021 204889 197"
"170.705312"
"$GPRMC,165535,A,2514.5904,N,07918.0933,W,2.6,276.4,190615,7.4,"
"##MN-00 00 22 0332 01651 4664 445029 204890 197"
"170.705359"
"$GPRMC,165539,A,2514.5907,N,07918.0966,W,2.6,275.8,190615,7.4,"
"##MN-00 00 22 0333 01656 4668 445039 204894 197"
"170.705405"
"$GPRMC,165543,A,2514.5909,N,07918.1002,W,2.7,275.5,190615,7.4,"
"##MN-00 00 22 0334 01657 4672 445055 204897 197"
"170.705451"
"$GPRMC,165547,A,2514.5912,N,07918.1037,W,2.7,275.1,190615,7.4,"
"##MN-00 00 22 0334 01659 4675 445055 204896 197"
"170.705498"
"$GPRMC,165551,A,2514.5916,N,07918.1071,W,2.7,274.7,190615,7.4,"
"##MN-00 00 22 0335 01664 4679 445065 204898 197"
"170.705544"
"$GPRMC,165555,A,2514.5917,N,07918.1105,W,2.7,274.9,190615,7.4,"
"##MN-00 00 22 0336 01666 4683 445063 204895 197"
"170.70559"
"$GPRMC,165559,A,2514.5922,N,07918.1139,W,2.7,274.8,190615,7.4,"
"##MN-00 00 22 0337 01670 4686 445067 204896 197"
"170.705637"
"$GPRMC,165603,A,2514.5924,N,07918.1175,W,2.7,274.6,190615,7.4,"
"##MN-00 00 22 0338 01673 4691 445062 204893 197"
"170.705683"
"$GPRMC,165607,A,2514.5927,N,07918.1210,W,2.8,274.3,190615,7.4,"
"##MN-00 00 22 0339 01675 4694 445073 204895 197"
"170.705729"
"$GPRMC,165611,A,2514.5930,N,07918.1246,W,2.8,274.4,190615,7.4,"
"##MN-00 00 22 0340 01678 4698 445081 204894 197"
"170.705775"
"$GPRMC,165615,A,2514.5932,N,07918.1283,W,2.8,274.4,190615,7.4,"
"##MN-00 00 22 0340 01680 4702 445095 204935 197"
"170.705822"
"$GPRMC,165619,A,2514.5936,N,07918.1318,W,2.8,274.2,190615,7.4,"
"##MN-00 00 22 0341 01681 4706 445098 204924 197"
"170.705868"
"$GPRMC,165623,A,2514.5937,N,07918.1352,W,2.9,274.5,190615,7.4,"
"##MN-00 00 22 0342 01686 4710 445095 204923 197"
"170.705914"
"$GPRMC,165627,A,2514.5940,N,07918.1389,W,2.9,273.9,190615,7.4,"
"##MN-00 00 22 0343 01686 4713 445094 204921 197"
"170.705961"
"$GPRMC,165631,A,2514.5944,N,07918.1428,W,2.9,274.1,190615,7.4,"
"##MN-00 00 22 0344 01690 4717 445095 204920 197"
"170.706007"
"$GPRMC,165635,A,2514.5945,N,07918.1463,W,2.9,274.6,190615,7.4,"
"##MN-00 00 22 0345 01693 4721 445102 204921 197"
"170.706053"
"$GPRMC,165639,A,2514.5945,N,07918.1496,W,2.9,274.5,190615,7.4,"
"##MN-00 00 22 0346 01693 4725 445108 204922 197"
"170.706111"
"$GPRMC,165643,A,2514.5945,N,07918.1528,W,2.9,274.6,190615,7.4,"
"##MN-00 00 22 0347 01696 4729 445118 204924 197"
"170.706157"
"$GPRMC,165647,A,2514.5946,N,07918.1561,W,2.9,274.4,190615,7.4,"
"##MN-00 00 22 0348 01697 4733 445126 204923 197"
"170.706204"
"$GPRMC,165651,A,2514.5948,N,07918.1597,W,2.9,273.9,190615,7.4,"
"##MN-00 00 22 0349 01699 4737 445131 204922 197"
"170.70625"
"$GPRMC,165655,A,2514.5949,N,07918.1631,W,2.9,273.5,190615,7.4,"
"##MN-00 00 22 0350 01703 4741 445142 204923 197"
"170.706296"
"$GPRMC,165659,A,2514.5952,N,07918.1667,W,2.9,273.4,190615,7.4,"
"##MN-00 00 22 0351 01706 4745 445149 204923 197"
"170.706343"
"$GPRMC,165703,A,2514.5956,N,07918.1705,W,2.9,273.1,190615,7.4,"
"##MN-00 00 22 0352 01710 4748 445154 204922 197"
"170.706389"
"$GPRMC,165707,A,2514.5958,N,07918.1741,W,2.9,272.8,190615,7.4,"
"##MN-00 00 22 0353 01710 4752 445161 204922 197"
"170.706435"
"$GPRMC,165711,A,2514.5959,N,07918.1775,W,2.9,272.8,190615,7.4,"
"##MN-00 00 22 0354 01715 4756 445185 204926 197"
"170.706481"
"$GPRMC,165715,A,2514.5965,N,07918.1813,W,2.9,272.3,190615,7.4,"
"##MN-00 00 22 0355 01717 4760 445229 204935 197"
"170.706528"
"$GPRMC,165719,A,2514.5965,N,07918.1847,W,2.9,272.5,190615,7.4,"
"##MN-00 00 22 0356 01720 4764 445240 204936 197"
"170.706574"
"$GPRMC,165723,A,2514.5965,N,07918.1880,W,2.9,272.3,190615,7.4,"
"##MN-00 00 22 0357 01722 4768 445235 204933 197"
"170.70662"
"$GPRMC,165727,A,2514.5966,N,07918.1912,W,2.9,271.8,190615,7.4,"
"##MN-00 00 23 0358 01726 4772 445243 204934 197"
"170.706667"
"$GPRMC,165731,A,2514.5966,N,07918.1947,W,2.8,271.5,190615,7.4,"
"##MN-00 00 22 0358 01726 4776 445262 204935 197"
"170.706713"
"$GPRMC,165735,A,2514.5967,N,07918.1980,W,2.8,271.5,190615,7.4,"
"##MN-00 00 22 0359 01731 4779 445265 204935 197"
"170.706759"
"$GPRMC,165739,A,2514.5967,N,07918.2013,W,2.8,271.5,190615,7.4,"
"##MN-00 00 22 0360 01732 4783 445264 204935 197"
"170.706806"
"$GPRMC,165743,A,2514.5969,N,07918.2048,W,2.8,271.7,190615,7.4,"
"##MN-00 00 22 0361 01736 4787 445265 204934 197"
"170.706852"
"$GPRMC,165747,A,2514.5969,N,07918.2084,W,2.9,271.2,190615,7.4,"
"##MN-00 00 22 0362 01740 4791 445265 204933 197"
"170.706898"
"$GPRMC,165751,A,2514.5970,N,07918.2118,W,2.8,271.5,190615,7.4,"
"##MN-00 00 22 0363 01742 4795 445263 204932 197"
"170.706944"
"$GPRMC,165755,A,2514.5970,N,07918.2153,W,2.8,271.1,190615,7.4,"
"##MN-00 00 22 0364 01745 4799 445244 204928 197"
"170.706991"
"$GPRMC,165759,A,2514.5970,N,07918.2186,W,2.8,270.5,190615,7.4,"
"##MN-00 00 22 0365 01748 4803 445253 204928 197"
"170.707037"
"$GPRMC,165803,A,2514.5970,N,07918.2222,W,2.8,270.2,190615,7.4,"
"##MN-00 00 22 0366 01750 4807 445233 204927 197"
"170.707083"
"$GPRMC,165807,A,2514.5969,N,07918.2258,W,2.8,269.9,190615,7.4,"
"##MN-00 00 22 0367 01755 4810 445218 204922 197"
"170.70713"
"$GPRMC,165811,A,2514.5970,N,07918.2292,W,2.8,269.7,190615,7.4,"
"##MN-00 00 22 0368 01756 4814 445290 204926 197"
"170.707176"
"$GPRMC,165815,A,2514.5968,N,07918.2327,W,2.8,269.6,190615,7.4,"
"##MN-00 00 22 0369 01758 4818 445348 204938 197"
"170.707222"
"$GPRMC,165819,A,2514.5970,N,07918.2363,W,2.9,269.9,190615,7.4,"
"##MN-00 00 22 0370 01761 4822 445348 204944 197"
"170.707269"
"$GPRMC,165823,A,2514.5970,N,07918.2399,W,2.9,269.6,190615,7.4,"
"##MN-00 00 22 0371 01764 4826 445353 204945 197"
"170.707315"
"$GPRMC,165827,A,2514.5970,N,07918.2435,W,2.9,270.0,190615,7.4,"
"##MN-00 00 22 0372 01766 4829 445366 204946 197"
"170.707361"
"$GPRMC,165831,A,2514.5970,N,07918.2471,W,2.9,270.2,190615,7.4,"
"##MN-00 00 22 0373 01767 4834 445363 204944 197"
"170.707407"
"$GPRMC,165835,A,2514.5970,N,07918.2507,W,2.9,270.4,190615,7.4,"
"##MN-00 00 22 0374 01771 4837 445336 204940 197"
"170.707454"
"$GPRMC,165839,A,2514.5970,N,07918.2541,W,2.9,270.2,190615,7.4,"
"##MN-00 00 22 0375 01774 4841 445306 204937 197"
"170.7075"
"$GPRMC,165843,A,2514.5971,N,07918.2577,W,2.9,270.6,190615,7.4,"
"##MN-00 00 22 0376 01776 4845 445288 204930 197"
"170.707546"
"$GPRMC,165847,A,2514.5973,N,07918.2613,W,2.9,270.7,190615,7.4,"
"##MN-00 00 22 0377 01777 4849 445287 204928 197"
"170.707593"
"$GPRMC,165851,A,2514.5972,N,07918.2648,W,2.9,271.1,190615,7.4,"
"##MN-00 00 22 0378 01781 4853 445305 204930 197"
"170.707639"
"$GPRMC,165855,A,2514.5974,N,07918.2684,W,2.9,271.0,190615,7.4,"
"##MN-00 00 22 0379 01785 4856 445306 204929 197"
"170.707685"
"$GPRMC,165859,A,2514.5977,N,07918.2720,W,2.9,271.2,190615,7.4,"
"##MN-00 00 22 0380 01788 4860 445322 204935 197"
"170.707731"
"$GPRMC,165903,A,2514.5977,N,07918.2754,W,2.9,271.8,190615,7.4,"
"##MN-00 00 22 0381 01789 4864 445333 204922 197"
"170.707778"
"$GPRMC,165907,A,2514.5980,N,07918.2789,W,2.9,272.1,190615,7.4,"
"##MN-00 00 22 0382 01793 4868 445348 204923 197"
"170.707824"
"$GPRMC,165911,A,2514.5979,N,07918.2823,W,2.8,272.3,190615,7.4,"
"##MN-00 00 22 0383 01797 4872 445365 204924 197"
"170.70787"
"$GPRMC,165915,A,2514.5981,N,07918.2858,W,2.9,272.2,190615,7.4,"
"##MN-00 00 22 0384 01801 4875 445373 204926 197"
"170.707917"
"$GPRMC,165919,A,2514.5981,N,07918.2892,W,2.9,272.0,190615,7.4,"
"##MN-00 00 22 0385 01802 4879 445380 204926 197"
"170.707963"
"$GPRMC,165923,A,2514.5981,N,07918.2927,W,2.9,271.9,190615,7.4,"
"##MN-00 00 22 0386 01808 4883 445393 204928 197"
"170.708009"
"$GPRMC,165927,A,2514.5981,N,07918.2962,W,2.8,271.6,190615,7.4,"
"##MN-00 00 22 0387 01804 4887 445421 204946 197"
"170.708056"
"$GPRMC,165932,A,2514.5984,N,07918.3006,W,2.8,271.4,190615,7.4,"
"##MN-00 00 22 0388 01804 4890 445421 204937 197"
"170.708102"
"$GPRMC,165936,A,2514.5987,N,07918.3040,W,2.8,271.6,190615,7.4,"
"##MN-00 00 22 0389 01804 4893 445414 204936 197"
"170.708148"
"$GPRMC,165940,A,2514.5987,N,07918.3074,W,2.8,271.7,190615,7.4,"
"##MN-00 00 22 0390 01803 4897 445407 204936 197"
"170.708194"
"$GPRMC,165944,A,2514.5988,N,07918.3108,W,2.8,271.7,190615,7.4,"
"##MN-00 00 22 0391 01803 4901 445401 204935 197"
"170.708241"
"$GPRMC,165948,A,2514.5984,N,07918.3141,W,2.7,271.5,190615,7.4,"
"##MN-00 00 22 0392 01803 4905 445393 204934 197"
"170.708287"
"$GPRMC,165952,A,2514.5985,N,07918.3176,W,2.8,271.3,190615,7.4,"
"##MN-00 00 22 0393 01805 4908 445375 204932 197"
"170.708333"
"$GPRMC,165956,A,2514.5988,N,07918.3212,W,2.7,271.5,190615,7.4,"
"##MN-00 00 22 0394 01804 4912 445345 204930 197"
"170.70838"
"$GPRMC,170000,A,2514.5988,N,07918.3246,W,2.8,271.0,190615,7.4,"
"##MN-00 00 22 0395 01805 4916 445329 204922 197"
"170.708426"
"$GPRMC,170004,A,2514.5990,N,07918.3280,W,2.7,271.4,190615,7.4,"
"##MN-00 00 22 0396 01803 4920 445286 204913 197"
"170.708472"
"$GPRMC,170008,A,2514.5991,N,07918.3314,W,2.8,271.9,190615,7.4,"
"##MN-00 00 22 0397 01804 4923 445236 204913 197"
"170.708519"
"$GPRMC,170012,A,2514.5992,N,07918.3349,W,2.8,272.1,190615,7.4,"
"##MN-00 00 22 0398 01805 4927 445269 204915 197"
"170.708565"
"$GPRMC,170016,A,2514.5994,N,07918.3383,W,2.8,272.1,190615,7.4,"
"##MN-00 00 22 0400 01804 4930 445324 204920 197"
"170.708611"
"$GPRMC,170020,A,2514.5995,N,07918.3417,W,2.8,272.2,190615,7.4,"
"##MN-00 00 22 0401 01804 4934 445335 204920 197"
"170.708657"
"$GPRMC,170024,A,2514.5995,N,07918.3450,W,2.8,272.2,190615,7.4,"
"##MN-00 00 22 0402 01806 4937 445338 204921 197"
"170.708704"
"$GPRMC,170028,A,2514.5996,N,07918.3484,W,2.8,272.3,190615,7.4,"
"##MN-00 00 22 0403 01802 4941 445326 204920 197"
"170.70875"
"$GPRMC,170032,A,2514.5997,N,07918.3519,W,2.8,272.3,190615,7.4,"
"##MN-00 00 22 0404 01803 4945 445311 204917 197"
"170.708796"
"$GPRMC,170036,A,2514.5999,N,07918.3552,W,2.8,272.6,190615,7.4,"
"##MN-00 00 22 0405 01804 4948 445303 204917 197"
"170.708843"
"$GPRMC,170040,A,2514.5999,N,07918.3587,W,2.8,272.5,190615,7.4,"
"##MN-00 00 22 0406 01803 4952 445302 204916 197"
"170.708889"
"$GPRMC,170044,A,2514.6000,N,07918.3623,W,2.8,272.5,190615,7.4,"
"##MN-00 00 22 0407 01804 4955 445310 204915 197"
"170.708935"
"$GPRMC,170048,A,2514.6002,N,07918.3657,W,2.8,272.3,190615,7.4,"
"##MN+00 00 22 0408 01804 4959 445316 204916 197"
"170.708982"
"$GPRMC,170052,A,2514.6001,N,07918.3692,W,2.9,272.3,190615,7.4,"
"##MN+00 00 22 0409 01804 4962 445324 204916 197"
"170.709028"
"$GPRMC,170056,A,2514.6003,N,07918.3726,W,2.9,272.3,190615,7.4,"
"##MN+00 00 22 0410 01807 4966 445339 204919 197"
"170.709074"
"$GPRMC,170100,A,2514.6003,N,07918.3761,W,2.9,271.6,190615,7.4,"
"##MN-00 00 22 0411 01807 4969 445356 204924 197"
"170.70912"
"$GPRMC,170104,A,2514.6004,N,07918.3797,W,2.9,271.4,190615,7.4,"
"##MN-00 00 22 0412 01804 4973 445378 204926 197"
"170.709167"
"$GPRMC,170108,A,2514.6006,N,07918.3831,W,2.9,271.8,190615,7.4,"
"##MN-00 00 22 0413 01803 4977 445382 204927 197"
"170.709213"
"$GPRMC,170112,A,2514.6006,N,07918.3867,W,2.9,271.6,190615,7.4,"
"##MN-00 00 22 0414 01799 4980 445390 204928 197"
"170.709259"
"$GPRMC,170116,A,2514.6006,N,07918.3900,W,2.9,270.8,190615,7.4,"
"##MN-00 00 22 0416 01801 4983 445394 204929 197"
"170.709306"
"$GPRMC,170120,A,2514.6006,N,07918.3934,W,2.9,270.8,190615,7.4,"
"##MN-00 00 22 0417 01799 4987 445402 204930 197"
"170.709363"
"$GPRMC,170124,A,2514.6006,N,07918.3970,W,2.9,270.9,190615,7.4,"
"##MN-00 00 22 0418 01799 4990 445401 204929 197"
"170.70941"
"$GPRMC,170128,A,2514.6008,N,07918.4004,W,2.9,271.2,190615,7.4,"
"##MN-00 00 22 0419 01796 4994 445401 204930 197"
"170.709456"
"$GPRMC,170132,A,2514.6008,N,07918.4040,W,2.9,271.2,190615,7.4,"
"##MN-00 00 22 0420 01798 4997 445398 204929 197"
"170.709502"
"$GPRMC,170136,A,2514.6008,N,07918.4076,W,2.9,270.7,190615,7.4,"
"##MN-00 00 22 0421 01796 5001 445391 204929 197"
"170.709549"
"$GPRMC,170140,A,2514.6008,N,07918.4112,W,2.9,270.6,190615,7.4,"
"##MN-00 00 22 0422 01796 5004 445389 204928 197"
"170.709595"
"$GPRMC,170144,A,2514.6008,N,07918.4149,W,2.9,270.6,190615,7.4,"
"##MN-00 00 22 0423 01795 5008 445384 204928 197"
"170.709641"
"$GPRMC,170148,A,2514.6008,N,07918.4184,W,2.9,271.0,190615,7.4,"
"##MN-00 00 22 0425 01796 5011 445389 204928 197"
"170.709687"
"$GPRMC,170152,A,2514.6008,N,07918.4220,W,2.9,271.0,190615,7.4,"
"##MN-00 00 22 0426 01794 5015 445393 204928 197"
"170.709734"
"$GPRMC,170156,A,2514.6012,N,07918.4260,W,2.9,271.0,190615,7.4,"
"##MN-00 00 22 0427 01797 5018 445396 204929 197"
"170.70978"
"$GPRMC,170200,A,2514.6014,N,07918.4299,W,2.9,270.8,190615,7.4,"
"##MN-00 00 22 0428 01796 5021 445403 204930 197"
"170.709826"
"$GPRMC,170204,A,2514.6014,N,07918.4335,W,2.9,270.8,190615,7.4,"
"##MN-00 00 22 0429 01796 5025 445412 204931 197"
"170.709873"
"$GPRMC,170208,A,2514.6015,N,07918.4371,W,2.9,271.2,190615,7.4,"
"##MN-00 00 22 0430 01796 5028 445415 204931 197"
"170.709919"
"$GPRMC,170212,A,2514.6016,N,07918.4407,W,3.0,271.1,190615,7.4,"
"##MN-00 00 22 0431 01799 5031 445412 204931 197"
"170.709965"
"$GPRMC,170216,A,2514.6016,N,07918.4443,W,3.0,270.8,190615,7.4,"
"##MN-00 00 22 0432 01798 5034 445419 204931 197"
"170.710012"
"$GPRMC,170220,A,2514.6016,N,07918.4480,W,3.0,270.7,190615,7.4,"
"##MN-00 00 22 0433 01800 5038 445424 204932 197"
"170.710058"
"$GPRMC,170224,A,2514.6017,N,07918.4516,W,3.0,271.5,190615,7.4,"
"##MN-00 00 22 0434 01798 5041 445430 204932 197"
"170.710104"
"$GPRMC,170228,A,2514.6017,N,07918.4553,W,3.0,271.6,190615,7.4,"
"##MN-00 00 22 0436 01797 5045 445447 204935 197"
"170.71015"
"$GPRMC,170232,A,2514.6019,N,07918.4592,W,3.0,271.6,190615,7.4,"
"##MN-00 00 22 0437 01797 5048 445507 204944 197"
"170.710197"
"$GPRMC,170236,A,2514.6020,N,07918.4628,W,3.0,271.4,190615,7.4,"
"##MN-00 00 22 0438 01797 5051 445539 204945 197"
"170.710243"
"$GPRMC,170240,A,2514.6021,N,07918.4665,W,3.0,271.2,190615,7.4,"
"##MN-00 00 22 0439 01798 5054 445485 204941 197"
"170.710289"
"$GPRMC,170244,A,2514.6021,N,07918.4704,W,3.0,271.4,190615,7.4,"
"##MN-00 00 22 0440 01797 5058 445476 204941 197"
"170.710336"
"$GPRMC,170248,A,2514.6021,N,07918.4740,W,3.0,271.2,190615,7.4,"
"##MN-00 00 22 0441 01795 5061 445472 204940 197"
"170.710382"
"$GPRMC,170252,A,2514.6023,N,07918.4776,W,2.9,271.2,190615,7.4,"
"##MN-00 00 22 0442 01795 5064 445478 204940 197"
"170.710428"
"$GPRMC,170256,A,2514.6024,N,07918.4812,W,2.9,271.5,190615,7.4,"
"##MN-00 00 22 0443 01793 5067 445499 204943 197"
"170.710475"
"$GPRMC,170300,A,2514.6024,N,07918.4849,W,2.9,271.4,190615,7.4,"
"##MN-00 00 22 0445 01794 5071 445548 204949 197"
"170.710521"
"$GPRMC,170304,A,2514.6025,N,07918.4886,W,3.0,271.6,190615,7.4,"
"##MN-00 00 22 0446 01793 5074 445576 204952 197"
"170.710567"
"$GPRMC,170308,A,2514.6026,N,07918.4924,W,2.9,271.6,190615,7.4,"
"##MN-00 00 22 0447 01793 5077 445774 204967 197"
"170.710613"
"$GPRMC,170312,A,2514.6026,N,07918.4960,W,2.9,271.8,190615,7.4,"
"##MN-00 00 22 0448 01794 5080 445873 204997 197"
"170.71066"
"$GPRMC,170316,A,2514.6026,N,07918.4996,W,2.9,271.6,190615,7.4,"
"##MN-00 00 22 0449 01793 5083 445835 204992 197"
"170.710706"
"$GPRMC,170320,A,2514.6028,N,07918.5033,W,3.0,271.7,190615,7.4,"
"##MN-00 00 22 0450 01796 5087 445704 204978 197"
"170.710752"
"$GPRMC,170324,A,2514.6028,N,07918.5069,W,2.9,271.6,190615,7.4,"
"##MN+00 00 22 0451 01796 5090 445635 204964 197"
"170.710799"
"$GPRMC,170328,A,2514.6031,N,07918.5109,W,3.0,271.5,190615,7.4,"
"##MN+00 00 22 0452 01798 5093 445628 204964 197"
"170.710845"
"$GPRMC,170332,A,2514.6031,N,07918.5142,W,3.0,271.5,190615,7.4,"
"##MN+00 00 22 0453 01799 5096 445630 204962 197"
"170.710891"
"$GPRMC,170336,A,2514.6030,N,07918.5177,W,3.0,271.5,190615,7.4,"
"##MN-00 00 22 0455 01798 5099 445644 204963 197"
"170.710938"
"$GPRMC,170340,A,2514.6032,N,07918.5215,W,3.0,271.7,190615,7.4,"
"##MN-00 00 22 0456 01799 5102 445658 204964 197"
"170.710984"
"$GPRMC,170344,A,2514.6036,N,07918.5256,W,3.0,271.8,190615,7.4,"
"##MN-00 00 22 0457 01800 5105 445670 204966 197"
"170.71103"
"#increment_net"
"$GPRMC,170348,A,2514.6039,N,07918.5292,W,3.0,272.0,190615,7.4,"
"##MN-00 00 22 0458 01799 5109 445686 204967 197"
"170.711076"
"$GPRMC,170352,A,2514.6040,N,07918.5329,W,3.0,272.2,190615,7.4,"
"##MN-00 00 22 0459 01801 5111 445691 204968 197"
"170.711123"
"$GPRMC,170356,A,2514.6042,N,07918.5365,W,3.0,271.9,190615,7.4,"
"##MN-00 00 22 0460 01800 5115 445694 204968 197"
"170.711169"
"$GPRMC,170400,A,2514.6044,N,07918.5402,W,3.0,271.5,190615,7.4,"
"##MN-00 00 22 0462 01800 5118 445695 204968 197"
"170.711215"
"$GPRMC,170404,A,2514.6044,N,07918.5439,W,3.0,272.0,190615,7.4,"
"##MN-00 00 22 0463 01798 5121 445695 204968 197"
"170.711262"
"$GPRMC,170408,A,2514.6046,N,07918.5478,W,3.0,272.2,190615,7.4,"
"##MN-00 00 22 0464 01797 5124 445695 204968 197"
"170.711308"
"$GPRMC,170413,A,2514.6048,N,07918.5524,W,3.0,272.1,190615,7.4,"
"##MN-00 00 22 0465 01799 5127 445693 204968 197"
"170.711354"
"$GPRMC,170417,A,2514.6051,N,07918.5564,W,2.9,272.3,190615,7.4,"
"##MN-00 00 22 0466 01799 5130 445693 204968 197"
"170.7114"
"$GPRMC,170421,A,2514.6054,N,07918.5600,W,2.9,272.1,190615,7.4,"
"##MN+00 00 22 0467 01798 5133 445690 204968 197"
"170.711447"
"$GPRMC,170424,A,2514.6053,N,07918.5623,W,2.9,272.7,190615,7.4,"
"##MN+00 00 22 0468 01801 5135 445693 204968 197"
"170.711493"
"$GPRMC,170428,A,2514.6056,N,07918.5657,W,2.9,272.9,190615,7.4,"
"##MN+00 00 22 0470 01802 5138 445699 204968 197"
"170.711539"
"$GPRMC,170433,A,2514.6055,N,07918.5695,W,2.9,272.5,190615,7.4,"
"##MN-00 00 22 0471 01805 5142 445693 204967 197"
"170.711586"
"$GPRMC,170436,A,2514.6057,N,07918.5719,W,2.9,272.4,190615,7.4,"
"##MN-00 00 22 0472 01803 5144 445692 204967 197"
"170.711632"
"$GPRMC,170440,A,2514.6057,N,07918.5751,W,2.9,272.6,190615,7.4,"
"##MN-00 00 22 0473 01804 5148 445694 204968 197"
"170.711678"
"$GPRMC,170445,A,2514.6056,N,07918.5793,W,2.8,272.9,190615,7.4,"
"##MN+00 00 22 0474 01805 5150 445690 204967 197"
"170.711725"
"$GPRMC,170449,A,2514.6057,N,07918.5828,W,2.8,273.1,190615,7.4,"
"##MN+00 00 22 0475 01805 5153 445689 204967 197"
"170.711771"
"$GPRMC,170453,A,2514.6057,N,07918.5863,W,2.8,273.1,190615,7.4,"
"##MN+00 00 22 0476 01806 5156 445687 204966 197"
"170.711817"
"$GPRMC,170457,A,2514.6060,N,07918.5897,W,2.8,273.3,190615,7.4,"
"##MN-00 00 22 0477 01806 5159 445686 204966 197"
"170.711863"
"$GPRMC,170501,A,2514.6064,N,07918.5932,W,2.8,273.5,190615,7.4,"
"##MN-00 00 22 0479 01806 5162 445686 204966 197"
"170.71191"
"$GPRMC,170505,A,2514.6068,N,07918.5965,W,2.8,273.9,190615,7.4,"
"##MN-00 00 22 0480 01806 5165 445685 204965 197"
"170.711956"
"#increment_net"
"$GPRMC,170509,A,2514.6071,N,07918.6001,W,2.7,274.3,190615,7.4,"
"##MN-00 00 22 0481 01806 5168 445681 204965 197"
"170.712002"
"$GPRMC,170513,A,2514.6072,N,07918.6035,W,2.8,274.0,190615,7.4,"
"##MN-00 00 22 0482 01806 5171 445680 204964 197"
"170.712049"
"$GPRMC,170517,A,2514.6074,N,07918.6069,W,2.7,274.3,190615,7.4,"
"##MN-00 00 22 0483 01808 5174 445675 204964 197"
"170.712095"
"$GPRMC,170521,A,2514.6077,N,07918.6103,W,2.7,274.5,190615,7.4,"
"##MN-00 00 22 0484 01808 5176 445677 204964 197"
"170.712141"
"$GPRMC,170525,A,2514.6081,N,07918.6136,W,2.7,274.7,190615,7.4,"
"##MN-00 00 22 0485 01810 5179 445672 204963 197"
"170.712188"
"$GPRMC,170529,A,2514.6084,N,07918.6171,W,2.7,274.5,190615,7.4,"
"##MN-00 00 22 0486 01808 5182 445667 204962 197"
"170.712234"
"$GPRMC,170533,A,2514.6086,N,07918.6207,W,2.8,274.2,190615,7.4,"
"##MN-00 00 22 0487 01809 5185 445660 204961 197"
"170.71228"
"$GPRMC,170537,A,2514.6089,N,07918.6240,W,2.8,274.3,190615,7.4,"
"##MN-00 00 22 0488 01811 5188 445658 204961 197"
"170.712326"
"$GPRMC,170541,A,2514.6093,N,07918.6272,W,2.7,274.5,190615,7.4,"
"##MN-00 00 22 0489 01812 5191 445654 204960 197"
"170.712373"
"$GPRMC,170545,A,2514.6095,N,07918.6305,W,2.7,274.3,190615,7.4,"
"##MN-00 00 22 0491 01813 5193 445655 204960 197"
"170.712419"
"$GPRMC,170549,A,2514.6100,N,07918.6337,W,2.7,274.8,190615,7.4,"
"##MN+00 00 22 0492 01812 5196 445652 204959 197"
"170.712465"
"$GPRMC,170553,A,2514.6102,N,07918.6367,W,2.7,275.0,190615,7.4,"
"##MN+00 00 22 0493 01813 5199 445646 204958 197"
"170.712512"
"$GPRMC,170557,A,2514.6104,N,07918.6398,W,2.6,274.6,190615,7.4,"
"##MN+00 00 22 0494 01812 5201 445641 204958 197"
"170.712558"
"$GPRMC,170601,A,2514.6109,N,07918.6432,W,2.7,274.6,190615,7.4,"
"##MN-00 00 22 0495 01817 5204 445647 204957 197"
"170.712616"
"$GPRMC,170605,A,2514.6111,N,07918.6467,W,2.7,274.2,190615,7.4,"
"##MN-00 00 22 0496 01814 5207 445645 204957 197"
"170.712662"
"$GPRMC,170609,A,2514.6115,N,07918.6503,W,2.7,274.4,190615,7.4,"
"##MN+00 00 22 0497 01814 5209 445642 204957 197"
"170.712708"
"$GPRMC,170613,A,2514.6118,N,07918.6535,W,2.8,274.6,190615,7.4,"
"##MN+00 00 22 0498 01813 5212 445645 204958 197"
"170.712755"
"$GPRMC,170617,A,2514.6118,N,07918.6568,W,2.8,274.9,190615,7.4,"
"##MN+00 00 22 0499 01816 5215 445667 204962 197"
"170.712801"
"$GPRMC,170621,A,2514.6121,N,07918.6600,W,2.8,275.0,190615,7.4,"
"##MN-00 00 22 0500 01816 5218 445660 204959 197"
"170.712847"
"#increment_net"
"$GPRMC,170625,A,2514.6124,N,07918.6637,W,2.7,275.0,190615,7.4,"
"##MN-00 00 22 0501 01816 5221 445658 204959 197"
"170.712893"
"$GPRMC,170629,A,2514.6125,N,07918.6670,W,2.8,275.2,190615,7.4,"
"##MN-00 00 22 0503 01813 5223 445661 204959 197"
"170.71294"
"$GPRMC,170633,A,2514.6127,N,07918.6703,W,2.7,275.1,190615,7.4,"
"##MN-00 00 22 0504 01816 5226 445646 204958 197"
"170.712986"
"$GPRMC,170637,A,2514.6129,N,07918.6730,W,2.7,275.1,190615,7.4,"
"##MN-00 00 22 0505 01813 5228 445641 204958 197"
"170.713032"
"$GPRMC,170641,A,2514.6132,N,07918.6772,W,2.7,274.9,190615,7.4,"
"##MN-00 00 22 0506 01816 5231 445642 204957 197"
"170.713079"
"$GPRMC,170645,A,2514.6133,N,07918.6803,W,2.7,275.2,190615,7.4,"
"##MN-00 00 22 0507 01817 5234 445647 204957 197"
"170.713125"
"$GPRMC,170649,A,2514.6135,N,07918.6835,W,2.7,274.9,190615,7.4,"
"##MN-00 00 22 0508 01819 5236 445644 204957 197"
"170.713171"
"$GPRMC,170653,A,2514.6138,N,07918.6865,W,2.7,275.1,190615,7.4,"
"##MN-00 00 22 0509 01817 5239 445645 204956 197"
"170.713218"
"$GPRMC,170657,A,2514.6140,N,07918.6897,W,2.6,274.7,190615,7.4,"
"##MN-00 00 22 0510 01815 5241 445638 204955 197"
"170.713264"
"$GPRMC,170701,A,2514.6140,N,07918.6922,W,2.7,274.8,190615,7.4,"
"##MN-00 00 22 0511 01816 5244 445638 204956 197"
"170.71331"
"$GPRMC,170705,A,2514.6143,N,07918.6962,W,2.7,274.8,190615,7.4,"
"##MN-00 00 22 0512 01817 5247 445631 204955 197"
"170.713356"
"$GPRMC,170709,A,2514.6144,N,07918.6995,W,2.7,274.8,190615,7.4,"
"##MN-00 00 22 0514 01816 5249 445622 204954 197"
"170.713403"
"$GPRMC,170713,A,2514.6146,N,07918.7028,W,2.7,274.6,190615,7.4,"
"##MN-00 00 22 0515 01818 5252 445617 204953 197"
"170.713449"
"$GPRMC,170717,A,2514.6147,N,07918.7061,W,2.7,274.4,190615,7.4,"
"##MN-00 00 22 0516 01819 5254 445616 204953 197"
"170.713495"
"$GPRMC,170721,A,2514.6148,N,07918.7095,W,2.7,274.1,190615,7.4,"
"##MN+00 00 22 0517 01818 5256 445628 204953 197"
"170.713542"
"$GPRMC,170725,A,2514.6151,N,07918.7128,W,2.7,273.8,190615,7.4,"
"##MN+00 00 22 0518 01815 5259 445618 204952 197"
"170.713588"
"$GPRMC,170729,A,2514.6153,N,07918.7161,W,2.7,273.8,190615,7.4,"
"##MN+00 00 22 0519 01817 5261 445611 204951 197"
"170.713634"
"$GPRMC,170733,A,2514.6154,N,07918.7196,W,2.7,273.9,190615,7.4,"
"##MN-00 00 22 0520 01817 5264 445608 204950 197"
"170.713681"
"$GPRMC,170737,A,2514.6156,N,07918.7229,W,2.7,273.8,190615,7.4,"
"##MN-00 00 22 0521 01813 5267 445598 204949 197"
"170.713727"
"#increment_net"
"$GPRMC,170741,A,2514.6158,N,07918.7262,W,2.7,274.0,190615,7.4,"
"##MN-00 00 22 0522 01814 5269 445597 204949 197"
"170.713773"
"$GPRMC,170745,A,2514.6160,N,07918.7294,W,2.7,274.1,190615,7.4,"
"##MN-00 00 22 0523 01813 5272 445594 204948 197"
"170.713819"
"$GPRMC,170749,A,2514.6161,N,07918.7328,W,2.7,274.4,190615,7.4,"
"##MN-00 00 22 0525 01812 5274 445595 204948 197"
"170.713866"
"$GPRMC,170753,A,2514.6162,N,07918.7363,W,2.7,274.3,190615,7.4,"
"##MN-00 00 22 0526 01813 5277 445590 204948 197"
"170.713912"
"$GPRMC,170757,A,2514.6165,N,07918.7396,W,2.7,273.5,190615,7.4,"
"##MN-00 00 22 0527 01813 5279 445591 204948 197"
"170.713958"
"$GPRMC,170801,A,2514.6166,N,07918.7431,W,2.7,273.8,190615,7.4,"
"##MN-00 00 22 0528 01814 5282 445584 204948 197"
"170.714005"
"$GPRMC,170805,A,2514.6169,N,07918.7464,W,2.8,274.0,190615,7.4,"
"##MN-00 00 22 0529 01813 5284 445588 204947 197"
"170.714051"
"$GPRMC,170809,A,2514.6172,N,07918.7497,W,2.7,274.3,190615,7.4,"
"##MN-00 00 22 0530 01812 5287 445585 204947 197"
"170.714097"
"$GPRMC,170813,A,2514.6174,N,07918.7530,W,2.7,274.3,190615,7.4,"
"##MN+00 00 22 0531 01813 5289 445581 204947 197"
"170.714144"
"$GPRMC,170817,A,2514.6176,N,07918.7563,W,2.7,274.0,190615,7.4,"
"##MN+00 00 22 0532 01812 5291 445586 204947 197"
"170.71419"
"$GPRMC,170821,A,2514.6178,N,07918.7597,W,2.7,273.9,190615,7.4,"
"##MN+00 00 22 0534 01812 5294 445590 204947 197"
"170.714236"
"$GPRMC,170825,A,2514.6180,N,07918.7630,W,2.7,273.9,190615,7.4,"
"##MN-00 00 22 0535 01814 5296 445586 204946 197"
"170.714282"
"$GPRMC,170829,A,2514.6183,N,07918.7663,W,2.7,273.7,190615,7.4,"
"##MN-00 00 22 0536 01814 5299 445579 204946 197"
"170.714329"
"$GPRMC,170833,A,2514.6189,N,07918.7697,W,2.7,273.8,190615,7.4,"
"##MN-00 00 22 0537 01815 5301 445579 204945 197"
"170.714375"
"$GPRMC,170837,A,2514.6191,N,07918.7731,W,2.7,273.4,190615,7.4,"
"##MN-00 00 22 0538 01813 5304 445586 204946 197"
"170.714421"
"$GPRMC,170841,A,2514.6194,N,07918.7764,W,2.6,273.7,190615,7.4,"
"##MN+00 00 22 0539 01813 5306 445589 204947 197"
"170.714468"
"$GPRMC,170845,A,2514.6197,N,07918.7796,W,2.6,273.9,190615,7.4,"
"##MN+00 00 22 0540 01814 5308 445589 204947 197"
"170.714514"
"$GPRMC,170850,A,2514.6200,N,07918.7836,W,2.6,273.9,190615,7.4,"
"##MN+00 00 22 0541 01815 5311 445572 204945 197"
"170.71456"
"$GPRMC,170854,A,2514.6201,N,07918.7869,W,2.6,273.3,190615,7.4,"
"##MN-00 00 22 0543 01820 5313 445550 204941 197"
"170.714606"
"#increment_net"
"$GPRMC,170857,A,2514.6201,N,07918.7894,W,2.7,273.5,190615,7.4,"
"##MN-00 00 22 0544 01822 5315 445549 204940 197"
"170.714653"
"$GPRMC,170902,A,2514.6205,N,07918.7937,W,2.7,273.0,190615,7.4,"
"##MN-00 00 22 0545 01826 5318 445556 204942 197"
"170.714699"
"$GPRMC,170905,A,2514.6205,N,07918.7962,W,2.7,273.1,190615,7.4,"
"##MN-00 00 22 0547 01833 5320 445583 204943 197"
"170.714745"
"$GPRMC,170910,A,2514.6207,N,07918.8004,W,2.8,272.9,190615,7.4,"
"##MN-00 00 22 0548 01839 5322 445598 204943 197"
"170.714792"
"$GPRMC,170914,A,2514.6207,N,07918.8038,W,2.8,272.4,190615,7.4,"
"##MN-00 00 22 0549 01842 5324 445618 204948 197"
"170.714838"
"$GPRMC,170918,A,2514.6207,N,07918.8069,W,2.8,272.1,190615,7.4,"
"##MN-00 00 22 0551 01840 5327 445661 204955 197"
"170.714884"
"$GPRMC,170922,A,2514.6208,N,07918.8103,W,2.8,272.2,190615,7.4,"
"##MN-00 00 22 0552 01838 5329 445710 204961 197"
"170.714931"
"$GPRMC,170926,A,2514.6208,N,07918.8136,W,2.8,272.0,190615,7.4,"
"##MN-00 00 22 0554 01838 5332 445682 204956 197"
"170.714977"
"$GPRMC,170930,A,2514.6208,N,07918.8170,W,2.8,271.7,190615,7.4,"
"##MN-00 00 22 0555 01837 5334 445663 204955 197"
"170.715023"
"$GPRMC,170934,A,2514.6212,N,07918.8204,W,2.8,271.1,190615,7.4,"
"##MN-00 00 22 0556 01836 5336 445636 204950 197"
"170.715069"
"$GPRMC,170938,A,2514.6215,N,07918.8235,W,2.8,271.2,190615,7.4,"
"##MN-00 00 22 0558 01837 5338 445648 204954 197"
"170.715116"
"$GPRMC,170942,A,2514.6216,N,07918.8267,W,2.8,270.6,190615,7.4,"
"##MN-00 00 22 0559 01833 5340 445663 204954 197"
"170.715162"
"$GPRMC,170946,A,2514.6216,N,07918.8302,W,2.8,270.2,190615,7.4,"
"##MN-00 00 22 0561 01831 5342 445635 204950 197"
"170.715208"
"$GPRMC,170950,A,2514.6216,N,07918.8335,W,2.8,270.1,190615,7.4,"
"##MN-00 00 22 0562 01829 5345 445597 204944 197"
"170.715255"
"$GPRMC,170954,A,2514.6219,N,07918.8368,W,2.8,270.3,190615,7.4,"
"##MN-00 00 22 0564 01830 5347 445543 204938 197"
"170.715301"
"$GPRMC,170958,A,2514.6217,N,07918.8404,W,2.8,269.9,190615,7.4,"
"##MN-00 00 22 0565 01826 5350 445513 204935 197"
"170.715347"
"$GPRMC,171002,A,2514.6216,N,07918.8439,W,2.8,269.7,190615,7.4,"
"##MN-00 00 22 0566 01826 5352 445493 204934 197"
"170.715394"
"$GPRMC,171006,A,2514.6216,N,07918.8473,W,2.8,269.3,190615,7.4,"
"##MN-00 00 22 0568 01822 5354 445478 204929 197"
"170.71544"
"$GPRMC,171010,A,2514.6216,N,07918.8506,W,2.8,269.7,190615,7.4,"
"##MN-00 00 22 0569 01821 5356 445472 204928 197"
"170.715486"
"$GPRMC,171014,A,2514.6214,N,07918.8541,W,2.8,269.5,190615,7.4,"
"##MN-00 00 22 0570 01816 5358 445497 204932 197"
"170.715532"
"$GPRMC,171018,A,2514.6213,N,07918.8574,W,2.9,269.2,190615,7.4,"
"##MN-00 00 22 0572 01812 5360 445532 204937 197"
"170.715579"
"$GPRMC,171022,A,2514.6212,N,07918.8607,W,2.8,268.3,190615,7.4,"
"##MN-00 00 22 0573 01810 5363 445531 204936 197"
"170.715625"
"$GPRMC,171026,A,2514.6212,N,07918.8642,W,2.8,268.0,190615,7.4,"
"##MN-00 00 22 0575 01808 5365 445501 204932 197"
"170.715671"
"$GPRMC,171030,A,2514.6212,N,07918.8679,W,2.9,268.4,190615,7.4,"
"##MN-00 00 22 0576 01806 5367 445477 204930 197"
"170.715718"
"$GPRMC,171034,A,2514.6212,N,07918.8715,W,2.9,268.3,190615,7.4,"
"##MN-00 00 22 0578 01804 5369 445458 204927 197"
"170.715764"
"$GPRMC,171038,A,2514.6210,N,07918.8753,W,2.9,268.6,190615,7.4,"
"##MN-00 00 22 0579 01800 5371 445430 204923 197"
"170.715822"
"$GPRMC,171042,A,2514.6208,N,07918.8786,W,2.9,268.2,190615,7.4,"
"##MN-00 00 22 0580 01795 5373 445424 204925 197"
"170.715868"
"$GPRMC,171046,A,2514.6206,N,07918.8823,W,2.9,267.5,190615,7.4,"
"##MN-00 00 22 0582 01790 5376 445466 204937 197"
"170.716273"
"$GPRMC,171120,A,2514.6198,N,07918.9131,W,3.0,267.5,190615,7.4,"
"##MN-00 00 22 0594 01761 5394 445426 204923 197"
"170.716319"
"$GPRMC,171125,A,2514.6197,N,07918.9176,W,3.0,267.3,190615,7.4,"
"##MN-00 00 22 0595 01759 5396 445374 204916 197"
"170.716366"
"$GPRMC,171129,A,2514.6195,N,07918.9214,W,3.0,267.6,190615,7.4,"
"##MN-00 00 22 0597 01754 5398 445369 204916 197"
"170.716412"
"$GPRMC,171133,A,2514.6194,N,07918.9250,W,3.0,267.8,190615,7.4,"
"##MN-00 00 22 0598 01750 5400 445366 204915 197"
"170.716458"
"$GPRMC,171137,A,2514.6193,N,07918.9282,W,2.9,267.8,190615,7.4,"
"##MN-00 00 22 0600 01744 5402 445366 204915 197"
"170.716505"
"$GPRMC,171141,A,2514.6189,N,07918.9318,W,2.9,267.7,190615,7.4,"
"##MN-00 00 22 0601 01743 5404 445360 204915 197"
"170.716551"
"$GPRMC,171145,A,2514.6189,N,07918.9353,W,2.9,267.6,190615,7.4,"
"##MN-00 00 22 0603 01736 5406 445353 204914 197"
"170.716597"
"$GPRMC,171149,A,2514.6189,N,07918.9390,W,2.9,267.6,190615,7.4,"
"##MN-00 00 22 0604 01735 5408 445337 204911 197"
"170.716643"
"$GPRMC,171153,A,2514.6187,N,07918.9427,W,2.9,268.2,190615,7.4,"
"##MN-00 00 22 0605 01730 5410 445322 204908 197"
"170.71669"
"$GPRMC,171157,A,2514.6185,N,07918.9462,W,2.9,268.2,190615,7.4,"
"##MN-00 00 22 0607 01726 5412 445311 204907 197"
"170.716736"
"$GPRMC,171201,A,2514.6183,N,07918.9498,W,2.9,268.2,190615,7.4,"
"##MN-00 00 22 0608 01722 5414 445306 204906 197"
"170.716782"
"$GPRMC,171205,A,2514.6182,N,07918.9534,W,3.0,268.3,190615,7.4,"
"##MN-00 00 22 0610 01719 5416 445311 204907 197"
"170.716829"
"$GPRMC,171209,A,2514.6180,N,07918.9571,W,3.0,268.2,190615,7.4,"
"##MN-00 00 22 0611 01717 5418 445310 204906 197"
"170.716875"
"$GPRMC,171213,A,2514.6178,N,07918.9606,W,3.0,268.0,190615,7.4,"
"##MN-00 00 22 0612 01713 5420 445297 204905 197"
"170.716921"
"$GPRMC,171217,A,2514.6176,N,07918.9642,W,2.9,267.9,190615,7.4,"
"##MN-00 00 22 0614 01710 5422 445278 204901 197"
"170.716968"
"$GPRMC,171222,A,2514.6176,N,07918.9689,W,2.9,267.9,190615,7.4,"
"##MN-00 00 22 0615 01704 5424 445257 204898 197"
"170.717014"
"$GPRMC,171225,A,2514.6176,N,07918.9715,W,2.9,268.2,190615,7.4,"
"##MN-00 00 22 0616 01700 5426 445218 204891 197"
"170.71706"
"$GPRMC,171229,A,2514.6175,N,07918.9754,W,2.9,268.1,190615,7.4,"
"##MN-00 00 22 0618 01697 5428 445202 204887 197"
"170.717107"
"$GPRMC,171233,A,2514.6173,N,07918.9790,W,3.0,268.4,190615,7.4,"
"##MN-00 00 22 0619 01693 5430 445176 204882 197"
"170.717153"
"$GPRMC,171238,A,2514.6172,N,07918.9837,W,3.0,268.0,190615,7.4,"
"##MN-00 00 22 0621 01689 5432 445140 204877 197"
"170.717199"
"$GPRMC,171241,A,2514.6171,N,07918.9866,W,3.0,268.3,190615,7.4,"
"##MN-00 00 22 0622 01685 5434 445098 204870 197"
"170.717245"
"$GPRMC,171246,A,2514.6169,N,07918.9910,W,2.9,268.0,190615,7.4,"
"##MN-00 00 22 0623 01681 5435 445098 204873 197"
"170.717292"
"$GPRMC,171250,A,2514.6167,N,07918.9947,W,3.0,268.3,190615,7.4,"
"##MN-00 00 22 0625 01679 5437 445071 204865 197"
"170.717338"
"$GPRMC,171254,A,2514.6165,N,07918.9985,W,3.0,268.4,190615,7.4,"
"##MN-00 00 22 0626 01673 5439 445044 204864 197"
"170.717384"
"$GPRMC,171258,A,2514.6163,N,07919.0022,W,3.0,268.4,190615,7.4,"
"##MN-00 00 22 0627 01669 5441 445043 204862 197"
"170.717431"
"$GPRMC,171302,A,2514.6161,N,07919.0061,W,3.0,267.7,190615,7.4,"
"##MN-00 00 22 0629 01664 5443 445067 204864 197"
"170.717477"
"$GPRMC,171305,A,2514.6159,N,07919.0088,W,3.0,267.4,190615,7.4,"
"##MN-00 00 22 0630 01663 5445 444992 204850 197"
"170.717523"
"$GPRMC,171310,A,2514.6158,N,07919.0134,W,3.0,267.9,190615,7.4,"
"##MN-00 00 22 0632 01660 5447 444939 204843 197"
"170.717569"
"$GPRMC,171314,A,2514.6154,N,07919.0170,W,3.0,267.9,190615,7.4,"
"##MN-00 00 22 0633 01651 5448 444921 204839 197"
"170.717616"
"$GPRMC,171318,A,2514.6153,N,07919.0206,W,3.0,267.9,190615,7.4,"
"##MN-00 00 22 0634 01648 5451 444879 204830 197"
"170.717662"
"$GPRMC,171322,A,2514.6151,N,07919.0242,W,3.0,267.9,190615,7.4,"
"##MN-00 00 22 0636 01645 5452 444813 204821 197"
"170.717708"
"$GPRMC,171326,A,2514.6151,N,07919.0279,W,3.0,267.9,190615,7.4,"
"##MN-00 00 22 0637 01642 5454 444770 204814 197"
"170.717755"
"$GPRMC,171330,A,2514.6151,N,07919.0318,W,3.0,268.0,190615,7.4,"
"##MN-00 00 22 0639 01639 5457 444746 204811 197"
"170.717801"
"$GPRMC,171334,A,2514.6150,N,07919.0354,W,3.0,267.7,190615,7.4,"
"##MN-00 00 22 0640 01635 5458 444718 204804 197"
"170.717847"
"$GPRMC,171338,A,2514.6150,N,07919.0392,W,3.0,268.0,190615,7.4,"
"##MN-00 00 22 0641 01631 5460 444670 204799 197"
"170.717894"
"$GPRMC,171342,A,2514.6149,N,07919.0430,W,3.0,268.2,190615,7.4,"
"##MN-00 00 22 0643 01626 5462 444626 204792 197"
"170.71794"
"$GPRMC,171346,A,2514.6148,N,07919.0469,W,3.1,267.8,190615,7.4,"
"##MN-00 00 22 0644 01622 5464 444584 204781 197"
"170.717986"
"$GPRMC,171350,A,2514.6147,N,07919.0506,W,3.0,267.8,190615,7.4,"
"##MN-00 00 22 0646 01620 5466 444557 204778 197"
"170.718032"
"$GPRMC,171354,A,2514.6144,N,07919.0545,W,3.1,268.2,190615,7.4,"
"##MN-00 00 22 0647 01616 5467 444518 204771 197"
"170.718079"
"$GPRMC,171358,A,2514.6143,N,07919.0582,W,3.1,267.8,190615,7.4,"
"##MN-00 00 22 0648 01613 5469 444473 204766 197"
"170.718125"
"$GPRMC,171402,A,2514.6143,N,07919.0616,W,3.0,267.9,190615,7.4,"
"##MN-00 00 22 0650 01607 5471 444454 204760 197"
"170.718171"
"$GPRMC,171406,A,2514.6141,N,07919.0655,W,3.1,268.1,190615,7.4,"
"##MN-00 00 22 0651 01604 5473 444446 204760 197"
"170.718218"
"$GPRMC,171410,A,2514.6140,N,07919.0694,W,3.1,268.1,190615,7.4,"
"##MN-00 00 22 0652 01599 5475 444447 204760 197"
"170.718275"
"$GPRMC,171414,A,2514.6139,N,07919.0733,W,3.1,268.3,190615,7.4,"
"##MN-00 00 22 0654 01597 5477 444424 204755 197"
"170.718322"
"$GPRMC,171418,A,2514.6136,N,07919.0771,W,3.1,268.1,190615,7.4,"
"##MN-00 00 22 0655 01594 5479 444409 204751 197"
"170.718368"
"$GPRMC,171422,A,2514.6134,N,07919.0809,W,3.1,267.7,190615,7.4,"
"##MN-00 00 22 0657 01589 5480 444372 204742 197"
"170.718414"
"$GPRMC,171426,A,2514.6133,N,07919.0847,W,3.1,267.7,190615,7.4,"
"##MN-00 00 22 0658 01586 5482 444261 204722 197"
"170.718461"
"$GPRMC,171430,A,2514.6133,N,07919.0885,W,3.1,267.7,190615,7.4,"
"##MN-00 00 22 0659 01581 5484 444167 204710 197"
"170.718507"
"$GPRMC,171434,A,2514.6130,N,07919.0922,W,3.1,267.8,190615,7.4,"
"##MN-00 00 22 0661 01575 5486 444013 204674 197"
"170.718553"
"$GPRMC,171438,A,2514.6129,N,07919.0961,W,3.1,267.9,190615,7.4,"
"##MN-00 00 22 0662 01569 5487 443801 204635 197"
"170.7186"
"$GPRMC,171442,A,2514.6127,N,07919.0999,W,3.1,267.7,190615,7.4,"
"##MN-00 00 22 0663 01568 5489 443679 204613 197"
"170.718646"
"$GPRMC,171446,A,2514.6126,N,07919.1037,W,3.1,267.6,190615,7.4,"
"##MN-00 00 22 0665 01564 5491 443514 204570 197"
"170.718692"
"$GPRMC,171450,A,2514.6126,N,07919.1066,W,3.1,267.9,190615,7.4,"
"##MN-00 00 22 0666 01561 5493 443167 204485 197"
"170.718738"
"$GPRMC,171454,A,2514.6125,N,07919.1111,W,3.0,268.2,190615,7.4,"
"##MN-00 00 22 0667 01555 5495 442424 204333 197"
"170.718785"
"$GPRMC,171458,A,2514.6124,N,07919.1149,W,3.0,268.6,190615,7.4,"
"##MN-00 00 22 0669 01553 5496 441174 204072 197"
"170.718831"
"$GPRMC,171502,A,2514.6124,N,07919.1186,W,3.0,268.5,190615,7.4,"
"##MN-00 00 21 0670 01553 5498 439668 203813 197"
