" Tow: 7EM   RVWS/WS15161"
" Date: 19/06/2015"
" Temperature Probe #  4762    Conductivity Probe #  710"
" Pressure Probe #  188"
" Flow Meter Calibration  4.71 (m/count)  "
"170.874688"
"$GPRMC,205927,A,2517.1722,N,07921.9399,W,1.7,71.7,190615,7.3,W"
"##MN-00 00 48 0010 02688 5582 453694 121899 201"
"170.874734"
"$GPRMC,205932,A,2517.1729,N,07921.9372,W,1.7,72.2,190615,7.3,W"
"##MN-00 00 49 0010 02684 5582 017760 024271 201"
"170.87478"
"$GPRMC,205936,A,2517.1738,N,07921.9353,W,1.7,72.3,190615,7.3,W"
"##MN-00 00 49 0011 02685 5581 297768 024336 201"
"170.874826"
"$GPRMC,205940,A,2517.1744,N,07921.9334,W,1.7,72.4,190615,7.3,W"
"##MN-00 00 48 0011 02685 5580 572976 024333 201"
"170.874873"
"$GPRMC,205944,A,2517.1750,N,07921.9312,W,1.7,73.5,190615,7.3,W"
"##MN-00 00 48 0012 02685 5580 017744 024331 201"
"170.874919"
"$GPRMC,205948,A,2517.1754,N,07921.9289,W,1.7,74.4,190615,7.3,W"
"##MN-00 00 48 0013 02689 5579 720128 024326 201"
"170.874965"
"$GPRMC,205952,A,2517.1760,N,07921.9267,W,1.7,75.5,190615,7.3,W"
"##MN-00 00 48 0014 02684 5579 037744 024310 201"
"170.875012"
"$GPRMC,205956,A,2517.1763,N,07921.9245,W,1.7,75.5,190615,7.3,W"
"##MN-00 00 48 0015 02686 5578 459704 024299 201"
"170.875058"
"$GPRMC,210000,A,2517.1765,N,07921.9223,W,1.6,76.5,190615,7.3,W"
"##MN-00 00 48 0016 02689 5578 464800 024298 201"
"170.875104"
"$GPRMC,210004,A,2517.1769,N,07921.9201,W,1.6,76.8,190615,7.3,W"
"##MN-00 00 48 0016 02686 5577 606912 024313 201"
"170.87515"
"$GPRMC,210008,A,2517.1776,N,07921.9182,W,1.6,76.3,190615,7.3,W"
"##MN-00 00 48 0017 02685 5577 474688 024299 201"
"170.875197"
"$GPRMC,210012,A,2517.1783,N,07921.9163,W,1.7,75.8,190615,7.3,W"
"##MN-00 00 48 0018 02686 5577 619024 024288 201"
"170.875243"
"$GPRMC,210016,A,2517.1793,N,07921.9146,W,1.7,74.9,190615,7.3,W"
"##MN-00 00 48 0019 02686 5576 763288 024271 201"
"170.875289"
"$GPRMC,210020,A,2517.1797,N,07921.9129,W,1.7,74.8,190615,7.3,W"
"##MN-00 00 48 0020 02688 5576 212784 024327 201"
"170.875336"
"$GPRMC,210024,A,2517.1803,N,07921.9109,W,1.7,74.4,190615,7.3,W"
"##MN-00 00 48 0021 02686 5576 352624 024336 201"
"170.875382"
"$GPRMC,210028,A,2517.1807,N,07921.9087,W,1.7,74.1,190615,7.3,W"
"##MN-00 00 48 0022 02686 5576 763224 024348 201"
"170.875428"
"$GPRMC,210032,A,2517.1812,N,07921.9066,W,1.7,73.8,190615,7.3,W"
"##MN-00 00 48 0023 02688 5575 351488 024344 201"
"170.875475"
"$GPRMC,210036,A,2517.1819,N,07921.9048,W,1.7,72.3,190615,7.3,W"
"##MN-00 00 48 0025 02688 5575 223984 024312 201"
"170.875521"
"$GPRMC,210040,A,2517.1828,N,07921.9026,W,1.7,71.3,190615,7.3,W"
"##MN-00 00 48 0026 02688 5575 394304 024328 201"
"170.875567"
"$GPRMC,210044,A,2517.1837,N,07921.9008,W,1.7,70.1,190615,7.3,W"
"##MN-00 00 48 0027 02687 5575 098064 024319 201"
"170.875613"
"$GPRMC,210048,A,2517.1846,N,07921.8994,W,1.7,68.6,190615,7.3,W"
"##MN-00 00 48 0028 02692 5575 652192 024317 201"
"170.87566"
"$GPRMC,210052,A,2517.1855,N,07921.8979,W,1.7,67.7,190615,7.3,W"
"##MN-00 00 48 0029 02687 5575 930560 024322 201"
"170.875706"
"$GPRMC,210056,A,2517.1865,N,07921.8974,W,1.7,66.9,190615,7.3,W"
"##MN-00 00 48 0030 02685 5575 246504 024300 201"
"170.875752"
"$GPRMC,210100,A,2517.1870,N,07921.8960,W,1.7,67.0,190615,7.3,W"
"##MN-00 00 48 0031 02687 5575 525448 024291 201"
"170.875799"
"$GPRMC,210104,A,2517.1877,N,07921.8944,W,1.7,66.8,190615,7.3,W"
"##MN-00 00 48 0031 02688 5575 395936 024304 201"
"170.875845"
"$GPRMC,210108,A,2517.1883,N,07921.8923,W,1.7,66.3,190615,7.3,W"
"##MN-00 00 48 0032 02688 5575 400232 024280 201"
"170.875891"
"$GPRMC,210112,A,2517.1890,N,07921.8905,W,1.7,66.7,190615,7.3,W"
"##MN-00 00 48 0033 02690 5576 957488 024257 201"
"170.875937"
"$GPRMC,210116,A,2517.1893,N,07921.8885,W,1.7,66.7,190615,7.3,W"
"##MN-00 00 48 0033 02687 5576 404584 024276 201"
"170.875984"
"$GPRMC,210120,A,2517.1901,N,07921.8867,W,1.7,66.9,190615,7.3,W"
"##MN-00 00 48 0034 02688 5576 818104 024312 201"
"170.87603"
"$GPRMC,210124,A,2517.1908,N,07921.8844,W,1.7,67.6,190615,7.3,W"
"##MN-00 00 48 0035 02688 5576 127776 024322 201"
"170.876076"
"$GPRMC,210128,A,2517.1913,N,07921.8820,W,1.7,68.8,190615,7.3,W"
"##MN-00 00 48 0036 02689 5576 544016 024260 201"
"170.876123"
"$GPRMC,210132,A,2517.1917,N,07921.8794,W,1.7,70.0,190615,7.3,W"
"##MN-00 00 48 0037 02687 5577 405504 024326 201"
"170.876169"
"$GPRMC,210136,A,2517.1920,N,07921.8771,W,1.7,70.8,190615,7.3,W"
"##MN-00 00 48 0037 02687 5577 694768 024269 201"
"170.876215"
"$GPRMC,210140,A,2517.1927,N,07921.8751,W,1.7,72.1,190615,7.3,W"
"##MN-00 00 48 0038 02688 5577 289312 024273 201"
"170.876262"
"$GPRMC,210144,A,2517.1933,N,07921.8731,W,1.7,72.8,190615,7.3,W"
"##MN-00 00 48 0039 02688 5577 436224 024282 201"
"170.876308"
"$GPRMC,210148,A,2517.1938,N,07921.8708,W,1.7,73.7,190615,7.3,W"
"##MN-00 00 48 0040 02689 5578 660808 024268 201"
"170.876354"
"$GPRMC,210152,A,2517.1942,N,07921.8686,W,1.6,75.2,190615,7.3,W"
"##MN-00 00 49 0041 02688 5578 259696 024279 201"
"170.8764"
"$GPRMC,210156,A,2517.1949,N,07921.8670,W,1.7,75.5,190615,7.3,W"
"##MN-00 00 49 0042 02689 5579 718128 024287 201"
"170.876447"
"$GPRMC,210200,A,2517.1953,N,07921.8650,W,1.7,76.2,190615,7.3,W"
"##MN-00 00 48 0043 02689 5579 310488 024275 201"
"170.876493"
"$GPRMC,210204,A,2517.1960,N,07921.8629,W,1.7,76.7,190615,7.3,W"
"##MN-00 00 48 0044 02689 5579 000192 024284 201"
"170.876539"
"$GPRMC,210209,A,2517.1963,N,07921.8601,W,1.7,77.1,190615,7.3,W"
"##MN-00 00 48 0045 02690 5580 458120 024293 201"
"170.876586"
"$GPRMC,210213,A,2517.1969,N,07921.8582,W,1.7,76.8,190615,7.3,W"
"##MN-00 00 48 0046 02691 5580 733616 024295 201"
"170.876632"
"$GPRMC,210217,A,2517.1973,N,07921.8561,W,1.7,76.1,190615,7.3,W"
"##MN-00 00 48 0047 02690 5581 348336 024284 201"
"170.876678"
"$GPRMC,210221,A,2517.1981,N,07921.8543,W,1.7,74.9,190615,7.3,W"
"##MN-00 00 48 0048 02691 5582 458880 024286 201"
"170.876725"
"$GPRMC,210224,A,2517.1986,N,07921.8531,W,1.7,74.5,190615,7.3,W"
"##MN-00 00 49 0049 02691 5582 463104 024293 201"
"170.876782"
"$GPRMC,210229,A,2517.1996,N,07921.8506,W,1.7,73.6,190615,7.3,W"
"##MN-00 00 48 0050 02691 5582 597792 024292 201"
"170.876829"
"$GPRMC,210233,A,2517.2003,N,07921.8484,W,1.8,72.8,190615,7.3,W"
"##MN-00 00 48 0051 02690 5583 733408 024284 201"
"170.876875"
"$GPRMC,210237,A,2517.2009,N,07921.8461,W,1.8,71.6,190615,7.3,W"
"##MN-00 00 48 0052 02691 5584 736304 024291 201"
"170.876921"
"$GPRMC,210241,A,2517.2018,N,07921.8445,W,1.8,71.0,190615,7.3,W"
"##MN-00 00 48 0052 02691 5584 328320 024291 201"
"170.876968"
"$GPRMC,210245,A,2517.2025,N,07921.8421,W,1.8,70.2,190615,7.3,W"
"##MN-00 00 48 0053 02692 5585 477984 024297 201"
"170.877014"
"$GPRMC,210249,A,2517.2034,N,07921.8397,W,1.8,69.9,190615,7.3,W"
"##MN-00 00 48 0054 02692 5586 501904 024301 201"
"170.87706"
"$GPRMC,210253,A,2517.2038,N,07921.8372,W,1.8,69.4,190615,7.3,W"
"##MN-00 00 48 0055 02693 5586 483248 024299 201"
"170.877107"
"$GPRMC,210257,A,2517.2045,N,07921.8350,W,1.8,69.3,190615,7.3,W"
"##MN-00 00 48 0056 02693 5587 575120 024297 201"
"170.877153"
"$GPRMC,210301,A,2517.2050,N,07921.8323,W,1.8,69.0,190615,7.3,W"
"##MN-00 00 48 0057 02693 5588 538904 024305 201"
"170.877199"
"$GPRMC,210305,A,2517.2057,N,07921.8299,W,1.8,68.8,190615,7.3,W"
"##MN-00 00 48 0058 02695 5588 213936 024308 201"
"170.877245"
"$GPRMC,210309,A,2517.2065,N,07921.8275,W,1.9,69.0,190615,7.3,W"
"##MN-00 00 49 0059 02695 5589 491072 024306 201"
"170.877292"
"$GPRMC,210313,A,2517.2072,N,07921.8254,W,1.9,69.8,190615,7.3,W"
"##MN-00 00 49 0060 02695 5590 044832 024309 201"
"170.877338"
"$GPRMC,210317,A,2517.2078,N,07921.8234,W,1.8,71.3,190615,7.3,W"
"##MN-00 00 49 0061 02696 5590 360888 024303 201"
"170.877384"
"$GPRMC,210321,A,2517.2082,N,07921.8211,W,1.8,72.0,190615,7.3,W"
"##MN-00 00 49 0062 02694 5591 501168 024304 201"
"170.877431"
"$GPRMC,210325,A,2517.2089,N,07921.8192,W,1.7,72.8,190615,7.3,W"
"##MN-00 00 49 0062 02697 5592 504272 024308 201"
"170.877477"
"$GPRMC,210329,A,2517.2094,N,07921.8171,W,1.7,73.7,190615,7.3,W"
"##MN-00 00 49 0063 02698 5593 509120 024315 201"
"170.877523"
"$GPRMC,210333,A,2517.2100,N,07921.8150,W,1.7,74.2,190615,7.3,W"
"##MN-00 00 49 0064 02699 5593 008528 024311 201"
"170.877569"
"$GPRMC,210337,A,2517.2101,N,07921.8128,W,1.7,74.7,190615,7.3,W"
"##MN-00 00 49 0065 02700 5594 516112 024316 201"
"170.877616"
"$GPRMC,210341,A,2517.2108,N,07921.8108,W,1.7,75.2,190615,7.3,W"
"##MN-00 00 49 0066 02699 5595 516256 024317 201"
"170.877662"
"$GPRMC,210345,A,2517.2115,N,07921.8090,W,1.7,75.7,190615,7.3,W"
"##MN-00 00 49 0067 02702 5596 516432 024316 201"
"170.877708"
"$GPRMC,210349,A,2517.2119,N,07921.8069,W,1.7,76.1,190615,7.3,W"
"##MN-00 00 49 0068 02704 5597 518640 024317 201"
"170.877755"
"$GPRMC,210353,A,2517.2119,N,07921.8043,W,1.7,75.7,190615,7.3,W"
"##MN-00 00 49 0069 02704 5597 517232 024316 201"
"170.877801"
"$GPRMC,210357,A,2517.2123,N,07921.8022,W,1.7,75.3,190615,7.3,W"
"##MN-00 00 49 0070 02703 5598 518544 024319 201"
"170.877847"
"$GPRMC,210401,A,2517.2130,N,07921.8003,W,1.7,74.5,190615,7.3,W"
"##MN-00 00 50 0071 02706 5599 518064 024317 201"
"170.877894"
"$GPRMC,210405,A,2517.2137,N,07921.7982,W,1.7,74.7,190615,7.3,W"
"##MN-00 00 50 0071 02705 5600 518008 024318 201"
"170.87794"
"$GPRMC,210409,A,2517.2141,N,07921.7960,W,1.7,73.9,190615,7.3,W"
"##MN-00 00 49 0072 02710 5601 267440 024317 201"
"170.877986"
"$GPRMC,210413,A,2517.2146,N,07921.7942,W,1.7,73.5,190615,7.3,W"
"##MN-00 00 50 0073 02711 5602 517872 024313 201"
"170.878032"
"$GPRMC,210417,A,2517.2154,N,07921.7922,W,1.7,73.1,190615,7.3,W"
"##MN-00 00 50 0074 02710 5603 517408 024321 201"
"170.878079"
"$GPRMC,210421,A,2517.2164,N,07921.7903,W,1.8,72.8,190615,7.3,W"
"##MN-00 00 50 0075 02713 5603 521392 024288 201"
"170.878125"
"$GPRMC,210425,A,2517.2169,N,07921.7881,W,1.8,72.1,190615,7.3,W"
"##MN-00 00 50 0076 02716 5604 530712 024284 201"
"170.878171"
"$GPRMC,210429,A,2517.2172,N,07921.7854,W,1.8,72.0,190615,7.3,W"
"##MN-00 00 50 0077 02715 5605 397872 024272 201"
"170.878218"
"$GPRMC,210433,A,2517.2177,N,07921.7832,W,1.8,72.1,190615,7.3,W"
"##MN-00 00 50 0078 02719 5606 537360 024326 201"
"170.878264"
"$GPRMC,210437,A,2517.2184,N,07921.7813,W,1.8,71.2,190615,7.3,W"
"##MN-00 00 50 0079 02720 5606 538176 024325 201"
"170.87831"
"$GPRMC,210441,A,2517.2191,N,07921.7794,W,1.8,71.0,190615,7.3,W"
"##MN-00 00 50 0079 02721 5608 539056 024299 201"
"170.878356"
"$GPRMC,210445,A,2517.2198,N,07921.7773,W,1.8,70.1,190615,7.3,W"
"##MN-00 00 49 0080 02722 5609 543472 024299 201"
"170.878403"
"$GPRMC,210449,A,2517.2206,N,07921.7751,W,1.9,69.7,190615,7.3,W"
"##MN-00 00 50 0081 02725 5609 546096 024302 201"
"170.878449"
"$GPRMC,210453,A,2517.2209,N,07921.7723,W,1.9,69.7,190615,7.3,W"
"##MN-00 00 50 0082 02728 5610 546080 024284 201"
"170.878495"
"$GPRMC,210457,A,2517.2216,N,07921.7702,W,1.9,70.0,190615,7.3,W"
"##MN-00 00 50 0083 02729 5611 547392 024281 201"
"170.878542"
"$GPRMC,210501,A,2517.2222,N,07921.7678,W,1.9,70.7,190615,7.3,W"
"##MN-00 00 50 0084 02731 5612 550448 024277 201"
"170.878588"
"$GPRMC,210505,A,2517.2226,N,07921.7655,W,1.9,71.3,190615,7.3,W"
"##MN-00 00 50 0085 02734 5613 301256 024276 201"
"170.878634"
"$GPRMC,210509,A,2517.2237,N,07921.7637,W,1.8,72.1,190615,7.3,W"
"##MN-00 00 50 0086 02737 5614 555792 024296 201"
"170.878681"
"$GPRMC,210513,A,2517.2245,N,07921.7617,W,1.8,72.6,190615,7.3,W"
"##MN-00 00 50 0087 02738 5614 552320 024310 201"
"170.878727"
"$GPRMC,210517,A,2517.2249,N,07921.7601,W,1.8,73.7,190615,7.3,W"
"##MN-00 00 50 0087 02740 5616 308728 024281 201"
"170.878773"
"$GPRMC,210521,A,2517.2256,N,07921.7573,W,1.8,75.0,190615,7.3,W"
"##MN-00 00 50 0088 02744 5617 286432 024285 201"
"170.878819"
"$GPRMC,210525,A,2517.2259,N,07921.7549,W,1.8,75.3,190615,7.3,W"
"##MN-00 00 50 0089 02745 5618 563104 024271 201"
"170.878866"
"$GPRMC,210529,A,2517.2262,N,07921.7532,W,1.8,76.2,190615,7.3,W"
"##MN-00 00 50 0090 02749 5619 566176 024303 201"
"170.878912"
"$GPRMC,210533,A,2517.2267,N,07921.7505,W,1.8,77.0,190615,7.3,W"
"##MN-00 00 50 0091 02751 5619 317496 024266 201"
"170.878958"
"$GPRMC,210537,A,2517.2269,N,07921.7481,W,1.8,77.6,190615,7.3,W"
"##MN-00 00 50 0092 02754 5620 575096 024281 201"
"170.879005"
"$GPRMC,210541,A,2517.2271,N,07921.7464,W,1.8,77.5,190615,7.3,W"
"##MN-00 00 50 0093 02757 5621 572368 024280 201"
"170.879051"
"$GPRMC,210545,A,2517.2281,N,07921.7443,W,1.8,77.3,190615,7.3,W"
"##MN-00 00 51 0094 02760 5622 574120 024286 201"
"170.879097"
"$GPRMC,210549,A,2517.2287,N,07921.7423,W,1.8,77.2,190615,7.3,W"
"##MN-00 00 51 0095 02765 5623 575008 024307 201"
"170.879144"
"$GPRMC,210553,A,2517.2296,N,07921.7406,W,1.8,76.5,190615,7.3,W"
"##MN-00 00 50 0096 02769 5624 570480 024322 201"
"170.87919"
"$GPRMC,210557,A,2517.2302,N,07921.7385,W,1.8,76.0,190615,7.3,W"
"##MN-00 00 50 0097 02772 5625 580256 024308 201"
"170.879236"
"$GPRMC,210601,A,2517.2307,N,07921.7364,W,1.8,75.6,190615,7.3,W"
"##MN-00 00 50 0098 02774 5626 436696 024296 201"
"170.879282"
"$GPRMC,210605,A,2517.2314,N,07921.7344,W,1.8,75.2,190615,7.3,W"
"##MN-00 00 50 0098 02777 5627 573912 024312 201"
"170.879329"
"$GPRMC,210609,A,2517.2321,N,07921.7322,W,1.8,74.6,190615,7.3,W"
"##MN-00 00 50 0099 02781 5627 573920 024327 201"
"170.879375"
"$GPRMC,210613,A,2517.2327,N,07921.7295,W,1.9,73.9,190615,7.3,W"
"##MN-00 00 50 0100 02784 5628 573872 024297 201"
"170.879421"
"$GPRMC,210617,A,2517.2331,N,07921.7270,W,1.9,73.7,190615,7.3,W"
"##MN-00 00 50 0101 02788 5629 573856 024342 201"
"170.879468"
"$GPRMC,210621,A,2517.2339,N,07921.7249,W,1.9,73.1,190615,7.3,W"
"##MN-00 00 50 0102 02793 5630 573824 024343 201"
"170.879514"
"$GPRMC,210625,A,2517.2346,N,07921.7229,W,1.9,72.2,190615,7.3,W"
"##MN-00 00 50 0103 02797 5631 573792 024311 201"
"170.87956"
"$GPRMC,210630,A,2517.2357,N,07921.7207,W,1.9,71.3,190615,7.3,W"
"##MN-00 00 50 0104 02801 5632 574656 024303 201"
"170.879606"
"$GPRMC,210633,A,2517.2363,N,07921.7189,W,1.9,72.2,190615,7.3,W"
"##MN-00 00 50 0105 02803 5633 585304 024297 201"
"170.879653"
"$GPRMC,210637,A,2517.2368,N,07921.7167,W,1.9,71.9,190615,7.3,W"
"##MN-00 00 50 0106 02810 5634 588816 024290 201"
"170.879699"
"$GPRMC,210642,A,2517.2375,N,07921.7137,W,1.9,71.4,190615,7.3,W"
"##MN-00 00 50 0107 02813 5635 591480 024299 201"
"170.879745"
"$GPRMC,210646,A,2517.2381,N,07921.7113,W,1.9,71.8,190615,7.3,W"
"##MN-00 00 50 0107 02820 5636 592384 024296 201"
"170.879792"
"$GPRMC,210650,A,2517.2384,N,07921.7089,W,1.9,72.9,190615,7.3,W"
"##MN-00 00 50 0108 02822 5637 342760 024281 201"
"170.879838"
"$GPRMC,210653,A,2517.2389,N,07921.7069,W,1.9,73.6,190615,7.3,W"
"##MN-00 00 50 0109 02828 5638 734248 024277 201"
"170.879884"
"$GPRMC,210658,A,2517.2390,N,07921.7039,W,1.8,74.3,190615,7.3,W"
"##MN-00 00 50 0110 02832 5639 602128 024275 201"
"170.879931"
"$GPRMC,210702,A,2517.2394,N,07921.7016,W,1.8,75.3,190615,7.3,W"
"##MN-00 00 50 0111 02837 5640 602080 024298 201"
"170.879988"
"$GPRMC,210706,A,2517.2401,N,07921.6996,W,1.8,75.5,190615,7.3,W"
"##MN-00 00 50 0112 02840 5641 602048 024292 201"
"170.880035"
"$GPRMC,210710,A,2517.2407,N,07921.6976,W,1.8,76.5,190615,7.3,W"
"##MN-00 00 50 0113 02845 5642 602472 024269 201"
"170.880081"
"$GPRMC,210714,A,2517.2412,N,07921.6956,W,1.8,76.5,190615,7.3,W"
"##MN-00 00 50 0114 02850 5642 604232 024284 201"
"170.880127"
"$GPRMC,210718,A,2517.2418,N,07921.6932,W,1.8,75.8,190615,7.3,W"
"##MN-00 00 49 0115 02853 5643 606480 024272 201"
"170.880174"
"$GPRMC,210722,A,2517.2421,N,07921.6908,W,1.8,75.6,190615,7.3,W"
"##MN-00 00 49 0116 02858 5644 607288 024269 201"
"170.88022"
"$GPRMC,210726,A,2517.2421,N,07921.6879,W,1.8,75.9,190615,7.3,W"
"##MN-00 00 49 0117 02863 5645 609072 024274 201"
"170.880266"
"$GPRMC,210730,A,2517.2426,N,07921.6857,W,1.8,75.9,190615,7.3,W"
"##MN-00 00 49 0118 02866 5646 610368 024276 201"
"170.880313"
"$GPRMC,210734,A,2517.2430,N,07921.6835,W,1.8,74.9,190615,7.3,W"
"##MN+00 00 49 0119 02869 5647 610816 024285 201"
"170.880359"
"$GPRMC,210738,A,2517.2437,N,07921.6813,W,1.8,75.1,190615,7.3,W"
"##MN+00 00 48 0120 02873 5648 611680 024263 201"
"170.880405"
"$GPRMC,210742,A,2517.2444,N,07921.6796,W,1.8,74.9,190615,7.3,W"
"##MN+00 00 56 0121 02875 5649 613440 024270 201"
"170.880451"
"#increment_net"
"$GPRMC,210746,A,2517.2453,N,07921.6777,W,1.8,74.5,190615,7.3,W"
"##MN-00 00 53 0122 02881 5650 338928 024276 201"
"170.880498"
"$GPRMC,210750,A,2517.2459,N,07921.6758,W,1.8,73.9,190615,7.3,W"
"##MN-00 00 49 0123 02881 5651 618736 024263 201"
"170.880544"
"$GPRMC,210754,A,2517.2466,N,07921.6737,W,1.8,73.7,190615,7.3,W"
"##MN-00 00 49 0124 02884 5652 618736 024265 201"
"170.88059"
"$GPRMC,210758,A,2517.2471,N,07921.6714,W,1.8,73.8,190615,7.3,W"
"##MN-00 00 49 0125 02888 5653 370424 024266 201"
"170.880637"
"$GPRMC,210802,A,2517.2476,N,07921.6691,W,1.8,73.7,190615,7.3,W"
"##MN-00 00 49 0126 02891 5654 627544 024234 201"
"170.880683"
"$GPRMC,210806,A,2517.2482,N,07921.6669,W,1.8,73.6,190615,7.3,W"
"##MN-00 00 49 0127 02891 5654 629280 024244 201"
"170.880729"
"$GPRMC,210810,A,2517.2487,N,07921.6647,W,1.8,73.0,190615,7.3,W"
"##MN-00 00 49 0128 02895 5655 577928 024246 201"
"170.880775"
"$GPRMC,210814,A,2517.2491,N,07921.6626,W,1.8,72.8,190615,7.3,W"
"##MN-00 00 49 0128 02896 5656 734560 024251 201"
"170.880822"
"$GPRMC,210818,A,2517.2496,N,07921.6603,W,1.7,72.9,190615,7.3,W"
"##MN-00 00 49 0129 02897 5657 630120 024272 201"
"170.880868"
"$GPRMC,210822,A,2517.2502,N,07921.6582,W,1.7,73.1,190615,7.3,W"
"##MN-00 00 49 0130 02901 5658 630128 024283 201"
"170.880914"
"$GPRMC,210826,A,2517.2509,N,07921.6561,W,1.7,73.1,190615,7.3,W"
"##MN-00 00 49 0131 02904 5659 630064 024286 201"
"170.880961"
"$GPRMC,210830,A,2517.2513,N,07921.6540,W,1.7,73.3,190615,7.3,W"
"##MN-00 00 49 0132 02903 5660 630040 024293 201"
"170.881007"
"$GPRMC,210834,A,2517.2519,N,07921.6519,W,1.7,73.4,190615,7.3,W"
"##MN-00 00 49 0133 02905 5661 630016 024301 201"
"170.881053"
"$GPRMC,210838,A,2517.2526,N,07921.6499,W,1.7,73.5,190615,7.3,W"
"##MN-00 00 49 0134 02910 5662 492288 024281 201"
"170.8811"
"$GPRMC,210842,A,2517.2531,N,07921.6478,W,1.7,73.6,190615,7.3,W"
"##MN-00 00 49 0135 02908 5663 631776 024292 201"
"170.881146"
"$GPRMC,210846,A,2517.2540,N,07921.6460,W,1.7,73.3,190615,7.3,W"
"##MN-00 00 49 0136 02911 5664 629056 024285 201"
"170.881192"
"$GPRMC,210850,A,2517.2545,N,07921.6443,W,1.7,73.3,190615,7.3,W"
"##MN-00 00 49 0137 02911 5664 629928 024280 201"
"170.881238"
"$GPRMC,210854,A,2517.2551,N,07921.6422,W,1.7,73.0,190615,7.3,W"
"##MN-00 00 49 0138 02913 5665 629904 024291 201"
"170.881285"
"$GPRMC,210858,A,2517.2556,N,07921.6402,W,1.7,73.2,190615,7.3,W"
"##MN-00 00 49 0139 02913 5666 377176 024280 201"
"170.881331"
"$GPRMC,210902,A,2517.2563,N,07921.6385,W,1.7,73.2,190615,7.3,W"
"##MN-00 00 48 0140 02915 5667 630752 024291 201"
"170.881377"
"$GPRMC,210906,A,2517.2567,N,07921.6365,W,1.7,73.0,190615,7.3,W"
"##MN-00 00 48 0141 02918 5668 492152 024273 201"
"170.881424"
"$GPRMC,210910,A,2517.2574,N,07921.6346,W,1.7,73.2,190615,7.3,W"
"##MN-00 00 49 0142 02918 5669 629856 024291 201"
"170.88147"
"$GPRMC,210914,A,2517.2580,N,07921.6327,W,1.7,72.9,190615,7.3,W"
"##MN-00 00 49 0143 02922 5670 766832 024267 201"
"170.881516"
"$GPRMC,210918,A,2517.2585,N,07921.6308,W,1.6,72.8,190615,7.3,W"
"##MN-00 00 49 0144 02920 5671 386856 024263 201"
"170.881562"
"$GPRMC,210922,A,2517.2589,N,07921.6288,W,1.6,73.0,190615,7.3,W"
"##MN-00 00 49 0145 02921 5672 549392 024259 201"
"170.881609"
"$GPRMC,210926,A,2517.2596,N,07921.6266,W,1.7,73.5,190615,7.3,W"
"##MN-00 00 49 0146 02923 5673 695776 024273 201"
"170.881655"
"$GPRMC,210930,A,2517.2600,N,07921.6246,W,1.7,73.7,190615,7.3,W"
"##MN-00 00 49 0147 02926 5673 648448 024256 201"
"170.881701"
"$GPRMC,210934,A,2517.2605,N,07921.6226,W,1.7,73.7,190615,7.3,W"
"##MN-00 00 49 0148 02926 5674 648840 024256 201"
"170.881748"
"$GPRMC,210938,A,2517.2610,N,07921.6205,W,1.7,74.0,190615,7.3,W"
"##MN+00 00 49 0149 02926 5675 648824 024266 201"
"170.881794"
"$GPRMC,210942,A,2517.2616,N,07921.6184,W,1.7,73.8,190615,7.3,W"
"##MN+00 00 49 0150 02926 5676 651952 024249 201"
"170.88184"
"$GPRMC,210946,A,2517.2618,N,07921.6161,W,1.7,73.2,190615,7.3,W"
"##MN+00 00 55 0151 02928 5677 652808 024253 201"
"170.881887"
"#increment_net"
"$GPRMC,210950,A,2517.2625,N,07921.6140,W,1.7,72.9,190615,7.3,W"
"##MN-00 00 51 0152 02930 5678 656384 024257 201"
"170.881933"
"$GPRMC,210954,A,2517.2629,N,07921.6120,W,1.7,71.8,190615,7.3,W"
"##MN-00 00 50 0152 02929 5679 657672 024254 201"
"170.881979"
"$GPRMC,210958,A,2517.2636,N,07921.6102,W,1.7,71.8,190615,7.3,W"
"##MN-00 00 50 0153 02932 5680 658080 024261 201"
"170.882025"
"$GPRMC,211002,A,2517.2645,N,07921.6084,W,1.7,71.7,190615,7.3,W"
"##MN-00 00 49 0154 02931 5681 657568 024261 201"
"170.882072"
"$GPRMC,211006,A,2517.2650,N,07921.6066,W,1.7,71.7,190615,7.3,W"
"##MN-00 00 49 0155 02932 5681 659784 024245 201"
"170.882118"
"$GPRMC,211010,A,2517.2657,N,07921.6046,W,1.7,71.8,190615,7.3,W"
"##MN-00 00 48 0156 02934 5682 385312 024247 201"
"170.882164"
"$GPRMC,211014,A,2517.2663,N,07921.6026,W,1.7,71.9,190615,7.3,W"
"##MN-00 00 48 0157 02935 5683 664240 024250 201"
"170.882211"
"$GPRMC,211018,A,2517.2668,N,07921.6006,W,1.7,71.8,190615,7.3,W"
"##MN-00 00 48 0158 02936 5684 665952 024242 201"
"170.882257"
"$GPRMC,211022,A,2517.2675,N,07921.5987,W,1.7,71.8,190615,7.3,W"
"##MN-00 00 48 0159 02935 5685 665056 024247 201"
"170.882303"
"$GPRMC,211026,A,2517.2683,N,07921.5967,W,1.7,71.0,190615,7.3,W"
"##MN-00 00 48 0160 02937 5686 666800 024253 201"
"170.88235"
"$GPRMC,211030,A,2517.2690,N,07921.5947,W,1.7,70.4,190615,7.3,W"
"##MN-00 00 48 0161 02937 5687 667680 024240 201"
"170.882396"
"$GPRMC,211034,A,2517.2696,N,07921.5928,W,1.7,71.0,190615,7.3,W"
"##MN-00 00 49 0162 02940 5688 668080 024250 201"
"170.882442"
"$GPRMC,211038,A,2517.2704,N,07921.5910,W,1.7,71.3,190615,7.3,W"
"##MN-00 00 48 0163 02941 5689 670288 024249 201"
"170.882488"
"$GPRMC,211042,A,2517.2707,N,07921.5887,W,1.7,72.4,190615,7.3,W"
"##MN-00 00 48 0164 02939 5689 674256 024253 201"
"170.882535"
"$GPRMC,211046,A,2517.2711,N,07921.5867,W,1.7,72.3,190615,7.3,W"
"##MN-00 00 48 0165 02941 5690 672016 024251 201"
"170.882581"
"$GPRMC,211050,A,2517.2715,N,07921.5846,W,1.7,72.9,190615,7.3,W"
"##MN-00 00 48 0166 02941 5691 676064 024253 201"
"170.882627"
"$GPRMC,211054,A,2517.2721,N,07921.5825,W,1.7,73.6,190615,7.3,W"
"##MN-00 00 47 0167 02939 5692 677840 024243 201"
"170.882674"
"$GPRMC,211058,A,2517.2725,N,07921.5805,W,1.6,74.4,190615,7.3,W"
"##MN-00 00 47 0168 02941 5693 680928 024248 201"
"170.88272"
"$GPRMC,211102,A,2517.2728,N,07921.5784,W,1.6,75.2,190615,7.3,W"
"##MN-00 00 47 0169 02942 5694 678624 024250 201"
"170.882766"
"$GPRMC,211106,A,2517.2731,N,07921.5764,W,1.6,75.4,190615,7.3,W"
"##MN-00 00 47 0170 02942 5694 680880 024236 201"
"170.882813"
"$GPRMC,211110,A,2517.2735,N,07921.5743,W,1.6,75.7,190615,7.3,W"
"##MN-00 00 47 0171 02944 5695 684880 024222 201"
"170.882859"
"$GPRMC,211114,A,2517.2739,N,07921.5722,W,1.7,76.1,190615,7.3,W"
"##MN-00 00 47 0172 02943 5696 682624 024226 201"
"170.882905"
"$GPRMC,211118,A,2517.2744,N,07921.5701,W,1.7,75.7,190615,7.3,W"
"##MN-00 00 47 0173 02943 5697 687064 024225 201"
"170.882951"
"$GPRMC,211122,A,2517.2748,N,07921.5681,W,1.6,75.6,190615,7.3,W"
"##MN-00 00 47 0174 02942 5698 686184 024228 201"
"170.882998"
"$GPRMC,211126,A,2517.2754,N,07921.5660,W,1.7,75.2,190615,7.3,W"
"##MN-00 00 47 0174 02945 5699 687056 024245 201"
"170.883044"
"$GPRMC,211131,A,2517.2760,N,07921.5636,W,1.7,74.8,190615,7.3,W"
"##MN-00 00 47 0175 02943 5700 685232 024260 201"
"170.88309"
"$GPRMC,211135,A,2517.2765,N,07921.5616,W,1.7,74.1,190615,7.3,W"
"##MN-00 00 48 0176 02945 5701 686112 024254 201"
"170.883137"
"$GPRMC,211139,A,2517.2771,N,07921.5597,W,1.7,73.6,190615,7.3,W"
"##MN-00 00 48 0177 02944 5701 687008 024258 201"
"170.883183"
"$GPRMC,211143,A,2517.2776,N,07921.5576,W,1.7,73.2,190615,7.3,W"
"##MN-00 00 48 0178 02946 5702 685168 024261 201"
"170.883241"
"$GPRMC,211147,A,2517.2782,N,07921.5556,W,1.7,72.6,190615,7.3,W"
"##MN-00 00 48 0179 02945 5703 686032 024257 201"
"170.883287"
"$GPRMC,211151,A,2517.2787,N,07921.5535,W,1.7,71.6,190615,7.3,W"
"##MN+00 00 48 0180 02944 5704 686912 024263 201"
"170.883333"
"$GPRMC,211155,A,2517.2794,N,07921.5515,W,1.7,71.2,190615,7.3,W"
"##MN+00 00 48 0181 02946 5705 684240 024256 201"
"170.88338"
"$GPRMC,211159,A,2517.2801,N,07921.5495,W,1.7,71.0,190615,7.3,W"
"##MN+00 00 47 0182 02947 5706 686952 024257 201"
"170.883426"
"#increment_net"
"$GPRMC,211203,A,2517.2807,N,07921.5476,W,1.7,70.5,190615,7.3,W"
"##MN-00 00 48 0183 02947 5706 684192 024260 201"
"170.883472"
"$GPRMC,211207,A,2517.2813,N,07921.5456,W,1.7,70.6,190615,7.3,W"
"##MN-00 00 49 0184 02949 5707 432880 024257 201"
"170.883519"
"$GPRMC,211211,A,2517.2820,N,07921.5435,W,1.7,70.5,190615,7.3,W"
"##MN-00 00 50 0185 02948 5708 685992 024257 201"
"170.883565"
"$GPRMC,211215,A,2517.2827,N,07921.5415,W,1.7,70.3,190615,7.3,W"
"##MN-00 00 50 0186 02950 5709 685984 024257 201"
"170.883611"
"$GPRMC,211219,A,2517.2834,N,07921.5395,W,1.7,70.2,190615,7.3,W"
"##MN-00 00 50 0187 02951 5710 685912 024262 201"
"170.883657"
"$GPRMC,211223,A,2517.2841,N,07921.5374,W,1.7,70.5,190615,7.3,W"
"##MN-00 00 50 0188 02946 5711 685920 024257 201"
"170.883704"
"$GPRMC,211227,A,2517.2848,N,07921.5354,W,1.7,71.1,190615,7.3,W"
"##MN-00 00 50 0189 02949 5711 686368 024256 201"
"170.88375"
"$GPRMC,211231,A,2517.2852,N,07921.5333,W,1.7,72.3,190615,7.3,W"
"##MN-00 00 50 0190 02950 5712 581440 024249 201"
"170.883796"
"$GPRMC,211235,A,2517.2859,N,07921.5313,W,1.7,73.3,190615,7.3,W"
"##MN-00 00 50 0191 02948 5713 604408 024251 201"
"170.883843"
"$GPRMC,211239,A,2517.2863,N,07921.5293,W,1.7,74.1,190615,7.3,W"
"##MN-00 00 50 0191 02950 5714 697920 024248 201"
"170.883889"
"$GPRMC,211243,A,2517.2867,N,07921.5274,W,1.7,74.2,190615,7.3,W"
"##MN-00 00 50 0192 02951 5715 696544 024244 201"
"170.883935"
"$GPRMC,211247,A,2517.2873,N,07921.5254,W,1.7,74.7,190615,7.3,W"
"##MN-00 00 50 0193 02951 5715 444296 024244 201"
"170.883981"
"$GPRMC,211251,A,2517.2878,N,07921.5233,W,1.7,74.9,190615,7.3,W"
"##MN-00 00 50 0194 02949 5716 705440 024250 201"
"170.884028"
"$GPRMC,211255,A,2517.2884,N,07921.5214,W,1.7,75.0,190615,7.3,W"
"##MN-00 00 51 0195 02950 5717 704096 024250 201"
"170.884074"
"$GPRMC,211259,A,2517.2888,N,07921.5193,W,1.7,75.4,190615,7.3,W"
"##MN-00 00 50 0196 02949 5718 704488 024241 201"
"170.88412"
"$GPRMC,211303,A,2517.2894,N,07921.5174,W,1.7,74.7,190615,7.3,W"
"##MN-00 00 50 0197 02951 5718 705408 024248 201"
"170.884167"
"$GPRMC,211307,A,2517.2898,N,07921.5158,W,1.7,74.4,190615,7.3,W"
"##MN-00 00 50 0198 02950 5719 568144 024243 201"
"170.884213"
"$GPRMC,211311,A,2517.2903,N,07921.5132,W,1.7,73.8,190615,7.3,W"
"##MN-00 00 50 0199 02948 5720 099088 024236 201"
"170.884259"
"$GPRMC,211315,A,2517.2910,N,07921.5111,W,1.7,73.6,190615,7.3,W"
"##MN-00 00 50 0200 02950 5721 620320 024247 201"
"170.884306"
"$GPRMC,211319,A,2517.2916,N,07921.5090,W,1.7,73.0,190615,7.3,W"
"##MN-00 00 51 0201 02949 5722 705344 024244 201"
"170.884352"
"$GPRMC,211323,A,2517.2921,N,07921.5069,W,1.7,72.5,190615,7.3,W"
"##MN-00 00 51 0202 02949 5723 710664 024251 201"
"170.884398"
"$GPRMC,211327,A,2517.2925,N,07921.5048,W,1.7,73.1,190615,7.3,W"
"##MN-00 00 51 0203 02949 5723 711968 024253 201"
"170.884444"
"$GPRMC,211331,A,2517.2931,N,07921.5027,W,1.7,73.7,190615,7.3,W"
"##MN-00 00 51 0204 02948 5724 206976 024245 201"
"170.884491"
"$GPRMC,211335,A,2517.2935,N,07921.5004,W,1.7,73.8,190615,7.3,W"
"##MN-00 00 51 0205 02948 5725 714144 024253 201"
"170.884537"
"$GPRMC,211339,A,2517.2941,N,07921.4982,W,1.8,73.7,190615,7.3,W"
"##MN-00 00 51 0206 02949 5726 715040 024258 201"
"170.884583"
"$GPRMC,211343,A,2517.2946,N,07921.4960,W,1.8,73.8,190615,7.3,W"
"##MN-00 00 51 0207 02948 5727 713712 024252 201"
"170.88463"
"$GPRMC,211347,A,2517.2953,N,07921.4939,W,1.8,73.2,190615,7.3,W"
"##MN-00 00 51 0208 02949 5727 715408 024259 201"
"170.884676"
"$GPRMC,211351,A,2517.2957,N,07921.4919,W,1.8,73.0,190615,7.3,W"
"##MN-00 00 51 0208 02948 5728 717648 024238 201"
"170.884722"
"$GPRMC,211355,A,2517.2963,N,07921.4898,W,1.7,72.8,190615,7.3,W"
"##MN-00 00 51 0209 02953 5729 717680 024243 201"
"170.884768"
"$GPRMC,211359,A,2517.2968,N,07921.4878,W,1.7,73.4,190615,7.3,W"
"##MN-00 00 51 0210 02950 5730 720352 024244 201"
"170.884815"
"$GPRMC,211403,A,2517.2972,N,07921.4856,W,1.8,73.6,190615,7.3,W"
"##MN-00 00 51 0211 02950 5730 721688 024242 201"
"170.884861"
"$GPRMC,211407,A,2517.2977,N,07921.4834,W,1.7,73.8,190615,7.3,W"
"##MN-00 00 51 0212 02950 5731 723904 024250 201"
"170.884907"
"$GPRMC,211411,A,2517.2981,N,07921.4814,W,1.7,74.1,190615,7.3,W"
"##MN+00 00 50 0213 02949 5732 723456 024237 201"
"170.884954"
"$GPRMC,211415,A,2517.2986,N,07921.4794,W,1.7,74.7,190615,7.3,W"
"##MN+00 00 50 0214 02951 5733 586216 024241 201"
"170.885"
"$GPRMC,211419,A,2517.2990,N,07921.4774,W,1.7,74.8,190615,7.3,W"
"##MN+00 00 55 0215 02949 5734 723888 024248 201"
"170.885046"
"#increment_net"
"$GPRMC,211423,A,2517.2997,N,07921.4756,W,1.7,74.7,190615,7.3,W"
"##MN-00 00 52 0216 02950 5735 726104 024247 201"
"170.885093"
"$GPRMC,211427,A,2517.3003,N,07921.4737,W,1.7,74.9,190615,7.3,W"
"##MN-00 00 51 0217 02951 5735 725632 024241 201"
"170.885139"
"$GPRMC,211431,A,2517.3007,N,07921.4716,W,1.7,75.8,190615,7.3,W"
"##MN-00 00 52 0218 02951 5736 729200 024240 201"
"170.885185"
"$GPRMC,211435,A,2517.3010,N,07921.4695,W,1.6,76.7,190615,7.3,W"
"##MN-00 00 52 0219 02950 5737 728272 024243 201"
"170.885231"
"$GPRMC,211439,A,2517.3013,N,07921.4675,W,1.6,77.0,190615,7.3,W"
"##MN-00 00 51 0220 02949 5737 730032 024252 201"
"170.885278"
"$GPRMC,211443,A,2517.3017,N,07921.4655,W,1.6,77.3,190615,7.3,W"
"##MN-00 00 51 0221 02950 5738 730048 024238 201"
"170.885324"
"$GPRMC,211447,A,2517.3019,N,07921.4635,W,1.6,76.8,190615,7.3,W"
"##MN-00 00 51 0222 02951 5739 732672 024240 201"
"170.88537"
"$GPRMC,211451,A,2517.3024,N,07921.4615,W,1.6,76.5,190615,7.3,W"
"##MN-00 00 50 0223 02949 5739 479536 024245 201"
"170.885417"
"$GPRMC,211455,A,2517.3029,N,07921.4596,W,1.6,76.3,190615,7.3,W"
"##MN-00 00 50 0224 02952 5741 735344 024252 201"
"170.885463"
"$GPRMC,211459,A,2517.3033,N,07921.4577,W,1.6,76.4,190615,7.3,W"
"##MN-00 00 51 0225 02949 5741 345840 024238 201"
"170.885509"
"$GPRMC,211503,A,2517.3036,N,07921.4558,W,1.6,75.9,190615,7.3,W"
"##MN-00 00 50 0225 02951 5742 739752 024230 201"
"170.885556"
"$GPRMC,211507,A,2517.3040,N,07921.4541,W,1.6,75.4,190615,7.3,W"
"##MN-00 00 51 0226 02955 5742 742432 024222 201"
"170.885602"
"$GPRMC,211511,A,2517.3046,N,07921.4523,W,1.6,75.4,190615,7.3,W"
"##MN-00 00 50 0227 02953 5743 742416 024221 201"
"170.885648"
"$GPRMC,211515,A,2517.3051,N,07921.4503,W,1.6,75.0,190615,7.3,W"
"##MN-00 00 50 0228 02952 5744 741520 024226 201"
"170.885694"
"$GPRMC,211519,A,2517.3055,N,07921.4483,W,1.6,74.6,190615,7.3,W"
"##MN-00 00 50 0229 02953 5745 742416 024221 201"
"170.885741"
"$GPRMC,211523,A,2517.3060,N,07921.4463,W,1.6,74.2,190615,7.3,W"
"##MN-00 00 50 0230 02955 5746 743264 024212 201"
"170.885787"
"$GPRMC,211527,A,2517.3065,N,07921.4444,W,1.6,74.3,190615,7.3,W"
"##MN-00 00 50 0231 02955 5746 741912 024236 201"
"170.885833"
"$GPRMC,211531,A,2517.3071,N,07921.4424,W,1.6,74.6,190615,7.3,W"
"##MN-00 00 50 0232 02956 5747 742848 024253 201"
"170.88588"
"$GPRMC,211535,A,2517.3076,N,07921.4407,W,1.6,74.0,190615,7.3,W"
"##MN-00 00 50 0233 02954 5748 742352 024265 201"
"170.885926"
"$GPRMC,211539,A,2517.3083,N,07921.4388,W,1.6,73.3,190615,7.3,W"
"##MN-00 00 50 0234 02956 5749 741864 024256 201"
"170.885972"
"$GPRMC,211544,A,2517.3091,N,07921.4365,W,1.6,73.8,190615,7.3,W"
"##MN-00 00 50 0235 02954 5749 743216 024268 201"
"170.886019"
"$GPRMC,211548,A,2517.3094,N,07921.4346,W,1.6,74.0,190615,7.3,W"
"##MN-00 00 50 0236 02955 5750 742328 024274 201"
"170.886065"
"$GPRMC,211551,A,2517.3098,N,07921.4332,W,1.7,73.7,190615,7.3,W"
"##MN-00 00 50 0237 02954 5751 741328 024257 201"
"170.886111"
"$GPRMC,211555,A,2517.3105,N,07921.4312,W,1.7,73.6,190615,7.3,W"
"##MN-00 00 50 0238 02954 5751 742664 024269 201"
"170.886157"
"$GPRMC,211559,A,2517.3108,N,07921.4291,W,1.7,73.3,190615,7.3,W"
"##MN-00 00 50 0239 02954 5752 741792 024275 201"
"170.886204"
"$GPRMC,211604,A,2517.3111,N,07921.4267,W,1.6,74.2,190615,7.3,W"
"##MN-00 00 50 0239 02957 5753 742192 024263 201"
"170.88625"
"$GPRMC,211608,A,2517.3116,N,07921.4247,W,1.6,74.7,190615,7.3,W"
"##MN-00 00 50 0240 02956 5754 742624 024273 201"
"170.886296"
"$GPRMC,211612,A,2517.3120,N,07921.4229,W,1.6,75.8,190615,7.3,W"
"##MN-00 00 50 0241 02956 5754 742176 024267 201"
"170.886343"
"$GPRMC,211616,A,2517.3124,N,07921.4210,W,1.6,76.7,190615,7.3,W"
"##MN-00 00 50 0242 02956 5755 604944 024288 201"
"170.886389"
"$GPRMC,211620,A,2517.3128,N,07921.4191,W,1.6,77.5,190615,7.3,W"
"##MN-00 00 50 0243 02956 5756 488504 024268 201"
"170.886435"
"$GPRMC,211624,A,2517.3134,N,07921.4171,W,1.6,77.9,190615,7.3,W"
"##MN-00 00 50 0244 02956 5756 741200 024276 201"
"170.886493"
"$GPRMC,211628,A,2517.3138,N,07921.4151,W,1.6,78.7,190615,7.3,W"
"##MN-00 00 50 0245 02955 5757 742088 024268 201"
"170.886539"
"$GPRMC,211632,A,2517.3141,N,07921.4131,W,1.6,78.9,190615,7.3,W"
"##MN-00 00 50 0246 02954 5758 742080 024275 201"
"170.886586"
"$GPRMC,211636,A,2517.3145,N,07921.4111,W,1.6,78.7,190615,7.3,W"
"##MN-00 00 50 0247 02953 5758 742528 024261 201"
"170.886632"
"$GPRMC,211640,A,2517.3152,N,07921.4091,W,1.6,78.2,190615,7.3,W"
"##MN-00 00 50 0248 02954 5759 743840 024263 201"
"170.886678"
"$GPRMC,211644,A,2517.3159,N,07921.4071,W,1.6,77.8,190615,7.3,W"
"##MN-00 00 50 0249 02953 5760 746520 024259 201"
"170.886725"
"$GPRMC,211648,A,2517.3165,N,07921.4049,W,1.7,77.2,190615,7.3,W"
"##MN-00 00 49 0250 02954 5761 752288 024243 201"
"170.886771"
"$GPRMC,211652,A,2517.3170,N,07921.4029,W,1.7,76.3,190615,7.3,W"
"##MN-00 00 49 0251 02951 5761 758096 024243 201"
"170.886817"
"$GPRMC,211656,A,2517.3176,N,07921.4010,W,1.7,74.9,190615,7.3,W"
"##MN-00 00 50 0252 02953 5762 757648 024245 201"
"170.886863"
"$GPRMC,211700,A,2517.3176,N,07921.3986,W,1.7,74.4,190615,7.3,W"
"##MN-00 00 50 0253 02951 5763 758064 024239 201"
"170.88691"
"$GPRMC,211704,A,2517.3185,N,07921.3967,W,1.7,74.2,190615,7.3,W"
"##MN-00 00 50 0254 02950 5763 760272 024249 201"
"170.886956"
"$GPRMC,211708,A,2517.3190,N,07921.3946,W,1.7,74.6,190615,7.3,W"
"##MN-00 00 50 0255 02950 5764 759760 024244 201"
"170.887002"
"$GPRMC,211712,A,2517.3195,N,07921.3925,W,1.7,75.0,190615,7.3,W"
"##MN-00 00 50 0256 02952 5765 761136 024254 201"
"170.887049"
"$GPRMC,211716,A,2517.3199,N,07921.3905,W,1.7,75.2,190615,7.3,W"
"##MN-00 00 50 0257 02951 5765 760632 024252 201"
"170.887095"
"$GPRMC,211720,A,2517.3202,N,07921.3882,W,1.7,75.4,190615,7.3,W"
"##MN-00 00 50 0258 02950 5766 762384 024244 201"
"170.887141"
"$GPRMC,211724,A,2517.3208,N,07921.3863,W,1.7,75.2,190615,7.3,W"
"##MN-00 00 50 0259 02951 5767 626024 024238 201"
"170.887187"
"$GPRMC,211728,A,2517.3213,N,07921.3843,W,1.7,75.8,190615,7.3,W"
"##MN-00 00 50 0260 02951 5768 764144 024255 201"
"170.887234"
"$GPRMC,211732,A,2517.3217,N,07921.3824,W,1.7,76.0,190615,7.3,W"
"##MN-00 00 51 0261 02950 5768 764624 024238 201"
"170.88728"
"$GPRMC,211736,A,2517.3221,N,07921.3805,W,1.7,76.2,190615,7.3,W"
"##MN-00 00 50 0261 02950 5769 766848 024241 201"
"170.887326"
"$GPRMC,211740,A,2517.3225,N,07921.3786,W,1.7,77.0,190615,7.3,W"
"##MN-00 00 51 0262 02950 5770 768624 024245 201"
"170.887373"
"$GPRMC,211744,A,2517.3230,N,07921.3766,W,1.7,77.1,190615,7.3,W"
"##MN-00 00 51 0263 02949 5770 770416 024250 201"
"170.887419"
"$GPRMC,211748,A,2517.3234,N,07921.3747,W,1.7,77.2,190615,7.3,W"
"##MN-00 00 51 0264 02951 5771 770400 024245 201"
"170.887465"
"$GPRMC,211752,A,2517.3238,N,07921.3727,W,1.7,77.0,190615,7.3,W"
"##MN-00 00 51 0265 02947 5771 515928 024235 201"
"170.887512"
"$GPRMC,211756,A,2517.3241,N,07921.3707,W,1.7,76.8,190615,7.3,W"
"##MN-00 00 50 0266 02951 5772 497696 024257 201"
"170.887558"
"$GPRMC,211800,A,2517.3246,N,07921.3687,W,1.7,76.8,190615,7.3,W"
"##MN-00 00 50 0267 02951 5773 770320 024248 201"
"170.887604"
"$GPRMC,211804,A,2517.3250,N,07921.3667,W,1.7,77.0,190615,7.3,W"
"##MN-00 00 50 0268 02949 5774 770320 024256 201"
"170.88765"
"$GPRMC,211808,A,2517.3253,N,07921.3646,W,1.7,77.5,190615,7.3,W"
"##MN-00 00 50 0269 02950 5774 770320 024244 201"
"170.887697"
"$GPRMC,211812,A,2517.3257,N,07921.3625,W,1.7,77.6,190615,7.3,W"
"##MN-00 00 50 0270 02951 5775 770752 024242 201"
"170.887743"
"$GPRMC,211816,A,2517.3260,N,07921.3604,W,1.7,77.1,190615,7.3,W"
"##MN-00 00 50 0271 02949 5776 772048 024232 201"
"170.887789"
"$GPRMC,211820,A,2517.3266,N,07921.3584,W,1.7,76.1,190615,7.3,W"
"##MN-00 00 50 0272 02947 5776 773440 024241 201"
"170.887836"
"$GPRMC,211824,A,2517.3271,N,07921.3565,W,1.7,75.4,190615,7.3,W"
"##MN-00 00 50 0273 02949 5777 776512 024231 201"
"170.887882"
"$GPRMC,211828,A,2517.3277,N,07921.3544,W,1.7,74.6,190615,7.3,W"
"##MN-00 00 51 0274 02948 5777 776952 024239 201"
"170.887928"
"$GPRMC,211832,A,2517.3284,N,07921.3524,W,1.7,74.0,190615,7.3,W"
"##MN+00 00 50 0275 02950 5778 776944 024232 201"
"170.887975"
"$GPRMC,211836,A,2517.3289,N,07921.3504,W,1.7,72.8,190615,7.3,W"
"##MN+00 00 50 0276 02951 5779 779168 024225 201"
"170.888021"
"$GPRMC,211840,A,2517.3294,N,07921.3486,W,1.7,72.0,190615,7.3,W"
"##MN+00 00 47 0277 02950 5779 778240 024228 201"
"170.888067"
"#increment_net"
"$GPRMC,211844,A,2517.3302,N,07921.3466,W,1.7,71.4,190615,7.3,W"
"##MN-00 00 47 0278 02952 5780 780032 024232 201"
"170.888113"
"$GPRMC,211848,A,2517.3308,N,07921.3446,W,1.7,70.7,190615,7.3,W"
"##MN-00 00 48 0279 02950 5781 780944 024242 201"
"170.88816"
"$GPRMC,211852,A,2517.3315,N,07921.3428,W,1.8,69.8,190615,7.3,W"
"##MN-00 00 49 0279 02953 5782 777360 024229 201"
"170.888206"
"$GPRMC,211856,A,2517.3324,N,07921.3406,W,1.8,68.7,190615,7.3,W"
"##MN-00 00 49 0280 02954 5782 780464 024230 201"
"170.888252"
"$GPRMC,211900,A,2517.3333,N,07921.3386,W,1.8,67.4,190615,7.3,W"
"##MN-00 00 49 0281 02953 5783 779992 024240 201"
"170.888299"
"$GPRMC,211904,A,2517.3343,N,07921.3364,W,1.8,65.9,190615,7.3,W"
"##MN-00 00 49 0282 02953 5783 780896 024238 201"
"170.888345"
"$GPRMC,211908,A,2517.3353,N,07921.3343,W,1.8,64.8,190615,7.3,W"
"##MN-00 00 49 0283 02955 5784 779048 024239 201"
"170.888391"
"$GPRMC,211912,A,2517.3361,N,07921.3324,W,1.8,64.5,190615,7.3,W"
"##MN-00 00 49 0284 02954 5785 270992 024225 201"
"170.888438"
"$GPRMC,211916,A,2517.3369,N,07921.3304,W,1.8,64.9,190615,7.3,W"
"##MN-00 00 49 0285 02955 5785 781688 024227 201"
"170.888484"
"$GPRMC,211920,A,2517.3379,N,07921.3285,W,1.8,65.5,190615,7.3,W"
"##MN-00 00 50 0286 02955 5786 783480 024225 201"
"170.88853"
"$GPRMC,211924,A,2517.3387,N,07921.3265,W,1.8,65.6,190615,7.3,W"
"##MN-00 00 50 0287 02957 5787 786176 024235 201"
"170.888576"
"$GPRMC,211928,A,2517.3396,N,07921.3246,W,1.8,66.0,190615,7.3,W"
"##MN-00 00 49 0288 02958 5787 785248 024228 201"
"170.888623"
"$GPRMC,211932,A,2517.3401,N,07921.3227,W,1.8,66.6,190615,7.3,W"
"##MN-00 00 50 0288 02958 5788 786160 024233 201"
"170.888669"
"$GPRMC,211936,A,2517.3409,N,07921.3206,W,1.8,67.4,190615,7.3,W"
"##MN-00 00 50 0289 02960 5788 787488 024224 201"
"170.888715"
"$GPRMC,211940,A,2517.3418,N,07921.3184,W,1.8,68.1,190615,7.3,W"
"##MN-00 00 50 0290 02960 5789 787920 024238 201"
"170.888762"
"$GPRMC,211944,A,2517.3426,N,07921.3161,W,1.8,69.0,190615,7.3,W"
"##MN-00 00 49 0291 02961 5790 788808 024228 201"
"170.888808"
"$GPRMC,211948,A,2517.3433,N,07921.3139,W,1.8,69.5,190615,7.3,W"
"##MN-00 00 50 0292 02962 5790 791472 024231 201"
"170.888854"
"$GPRMC,211952,A,2517.3438,N,07921.3119,W,1.8,70.1,190615,7.3,W"
"##MN-00 00 49 0293 02963 5791 792336 024230 201"
"170.8889"
"$GPRMC,211956,A,2517.3445,N,07921.3096,W,1.8,70.4,190615,7.3,W"
"##MN-00 00 49 0294 02962 5791 793224 024238 201"
"170.888947"
"$GPRMC,212000,A,2517.3452,N,07921.3074,W,1.8,70.5,190615,7.3,W"
"##MN-00 00 49 0295 02963 5792 794960 024219 201"
"170.888993"
"$GPRMC,212004,A,2517.3458,N,07921.3053,W,1.8,71.4,190615,7.3,W"
"##MN-00 00 49 0296 02963 5793 798512 024224 201"
"170.889039"
"$GPRMC,212008,A,2517.3463,N,07921.3030,W,1.8,71.9,190615,7.3,W"
"##MN-00 00 50 0297 02963 5794 797664 024210 201"
"170.889086"
"$GPRMC,212012,A,2517.3470,N,07921.3008,W,1.8,72.1,190615,7.3,W"
"##MN-00 00 50 0298 02964 5794 798552 024213 201"
"170.889132"
"$GPRMC,212016,A,2517.3474,N,07921.2987,W,1.8,71.7,190615,7.3,W"
"##MN-00 00 50 0299 02964 5795 798056 024219 201"
"170.889178"
"$GPRMC,212020,A,2517.3481,N,07921.2965,W,1.8,71.5,190615,7.3,W"
"##MN-00 00 50 0300 02963 5795 800256 024229 201"
"170.889225"
"$GPRMC,212024,A,2517.3488,N,07921.2943,W,1.8,71.4,190615,7.3,W"
"##MN-00 00 50 0301 02964 5796 798024 024226 201"
"170.889271"
"$GPRMC,212028,A,2517.3495,N,07921.2922,W,1.8,71.1,190615,7.3,W"
"##MN-00 00 50 0302 02962 5797 798496 024230 201"
"170.889317"
"$GPRMC,212032,A,2517.3503,N,07921.2901,W,1.8,71.1,190615,7.3,W"
"##MN-00 00 50 0302 02963 5797 663056 024239 201"
"170.889363"
"$GPRMC,212036,A,2517.3510,N,07921.2881,W,1.7,70.2,190615,7.3,W"
"##MN-00 00 50 0303 02963 5798 796704 024217 201"
"170.88941"
"$GPRMC,212040,A,2517.3516,N,07921.2860,W,1.8,70.2,190615,7.3,W"
"##MN-00 00 50 0304 02963 5798 799352 024227 201"
"170.889456"
"$GPRMC,212044,A,2517.3523,N,07921.2838,W,1.7,70.3,190615,7.3,W"
"##MN-00 00 50 0305 02962 5799 798424 024232 201"
"170.889502"
"$GPRMC,212048,A,2517.3530,N,07921.2818,W,1.7,70.1,190615,7.3,W"
"##MN+00 00 50 0306 02962 5800 798464 024221 201"
"170.889549"
"$GPRMC,212053,A,2517.3537,N,07921.2792,W,1.7,70.7,190615,7.3,W"
"##MN+00 00 50 0307 02961 5800 797560 024222 201"
"170.889595"
"$GPRMC,212057,A,2517.3542,N,07921.2777,W,1.7,70.0,190615,7.3,W"
"##MN+00 00 50 0308 02963 5801 800160 024224 201"
"170.889641"
"$GPRMC,212101,A,2517.3552,N,07921.2751,W,1.7,70.3,190615,7.3,W"
"##MN-00 00 50 0309 02964 5801 798392 024225 201"
"170.889688"
"#increment_net"
"$GPRMC,212105,A,2517.3556,N,07921.2737,W,1.7,69.7,190615,7.3,W"
"##MN-00 00 50 0310 02965 5802 798408 024236 201"
"170.889745"
"$GPRMC,212109,A,2517.3563,N,07921.2718,W,1.7,69.7,190615,7.3,W"
"##MN-00 00 50 0311 02963 5802 798368 024222 201"
"170.889792"
"$GPRMC,212113,A,2517.3570,N,07921.2699,W,1.7,69.7,190615,7.3,W"
"##MN-00 00 50 0312 02965 5803 797464 024242 201"
"170.889838"
"$GPRMC,212117,A,2517.3578,N,07921.2674,W,1.7,69.4,190615,7.3,W"
"##MN-00 00 50 0313 02962 5804 800176 024225 201"
"170.889884"
"$GPRMC,212121,A,2517.3586,N,07921.2655,W,1.7,69.0,190615,7.3,W"
"##MN-00 00 50 0313 02964 5804 797504 024242 201"
"170.889931"
"$GPRMC,212125,A,2517.3593,N,07921.2635,W,1.7,68.6,190615,7.3,W"
"##MN-00 00 50 0314 02964 5805 800176 024227 201"
"170.889977"
"$GPRMC,212129,A,2517.3600,N,07921.2614,W,1.8,68.3,190615,7.3,W"
"##MN-00 00 50 0315 02963 5805 797464 024229 201"
"170.890023"
"$GPRMC,212133,A,2517.3607,N,07921.2594,W,1.8,68.2,190615,7.3,W"
"##MN-00 00 49 0316 02964 5806 799248 024244 201"
"170.890069"
"$GPRMC,212137,A,2517.3614,N,07921.2573,W,1.8,68.6,190615,7.3,W"
"##MN-00 00 48 0317 02963 5807 798288 024245 201"
"170.890116"
"$GPRMC,212141,A,2517.3621,N,07921.2550,W,1.8,68.6,190615,7.3,W"
"##MN-00 00 49 0318 02964 5807 797384 024248 201"
"170.890162"
"$GPRMC,212145,A,2517.3628,N,07921.2529,W,1.8,68.4,190615,7.3,W"
"##MN-00 00 49 0319 02965 5808 800976 024238 201"
"170.890208"
"$GPRMC,212149,A,2517.3633,N,07921.2507,W,1.8,68.7,190615,7.3,W"
"##MN-00 00 48 0320 02965 5808 798736 024251 201"
"170.890255"
"$GPRMC,212153,A,2517.3640,N,07921.2485,W,1.8,68.8,190615,7.3,W"
"##MN-00 00 48 0321 02962 5809 800032 024223 201"
"170.890301"
"$GPRMC,212157,A,2517.3647,N,07921.2464,W,1.8,69.2,190615,7.3,W"
"##MN-00 00 49 0322 02965 5809 804032 024227 201"
"170.890347"
"$GPRMC,212201,A,2517.3653,N,07921.2443,W,1.8,69.8,190615,7.3,W"
"##MN-00 00 49 0323 02963 5810 808480 024218 201"
"170.890393"
"$GPRMC,212205,A,2517.3658,N,07921.2422,W,1.8,70.3,190615,7.3,W"
"##MN-00 00 49 0324 02965 5810 810720 024216 201"
"170.89044"
"$GPRMC,212209,A,2517.3662,N,07921.2400,W,1.7,70.9,190615,7.3,W"
"##MN-00 00 49 0324 02962 5811 813392 024224 201"
"170.890486"
"$GPRMC,212213,A,2517.3668,N,07921.2380,W,1.7,71.9,190615,7.3,W"
"##MN-00 00 49 0325 02964 5811 813344 024232 201"
"170.890532"
"$GPRMC,212217,A,2517.3674,N,07921.2360,W,1.7,72.9,190615,7.3,W"
"##MN-00 00 49 0326 02961 5812 814712 024215 201"
"170.890579"
"$GPRMC,212221,A,2517.3679,N,07921.2341,W,1.7,73.4,190615,7.3,W"
"##MN-00 00 49 0327 02962 5812 816096 024218 201"
"170.890625"
"$GPRMC,212225,A,2517.3683,N,07921.2321,W,1.7,74.9,190615,7.3,W"
"##MN-00 00 49 0328 02963 5813 816960 024222 201"
"170.890671"
"$GPRMC,212229,A,2517.3690,N,07921.2299,W,1.7,75.5,190615,7.3,W"
"##MN-00 00 49 0329 02963 5814 817368 024228 201"
"170.890718"
"$GPRMC,212233,A,2517.3698,N,07921.2278,W,1.7,75.8,190615,7.3,W"
"##MN-00 00 49 0330 02960 5814 825872 024229 201"
"170.890764"
"$GPRMC,212237,A,2517.3701,N,07921.2258,W,1.7,75.8,190615,7.3,W"
"##MN-00 00 49 0331 02960 5815 811984 024232 201"
"170.89081"
"$GPRMC,212241,A,2517.3707,N,07921.2237,W,1.7,75.3,190615,7.3,W"
"##MN-00 00 49 0332 02961 5816 819568 024230 201"
"170.890857"
"$GPRMC,212245,A,2517.3712,N,07921.2217,W,1.7,74.3,190615,7.3,W"
"##MN-00 00 50 0333 02961 5816 817360 024234 201"
"170.890903"
"$GPRMC,212249,A,2517.3719,N,07921.2199,W,1.7,73.5,190615,7.3,W"
"##MN-00 00 50 0334 02960 5817 817776 024216 201"
"170.890949"
"$GPRMC,212253,A,2517.3725,N,07921.2178,W,1.7,73.0,190615,7.3,W"
"##MN-00 00 50 0335 02959 5817 818200 024228 201"
"170.890995"
"$GPRMC,212257,A,2517.3732,N,07921.2159,W,1.7,72.3,190615,7.3,W"
"##MN-00 00 50 0336 02960 5818 819568 024238 201"
"170.891042"
"$GPRMC,212301,A,2517.3737,N,07921.2140,W,1.7,71.5,190615,7.3,W"
"##MN-00 00 50 0336 02959 5818 815984 024232 201"
"170.891088"
"$GPRMC,212305,A,2517.3745,N,07921.2120,W,1.7,70.1,190615,7.3,W"
"##MN-00 00 50 0337 02960 5819 822632 024232 201"
"170.891134"
"$GPRMC,212309,A,2517.3754,N,07921.2100,W,1.7,69.3,190615,7.3,W"
"##MN-00 00 50 0338 02960 5819 822160 024224 201"
"170.891181"
"$GPRMC,212313,A,2517.3762,N,07921.2080,W,1.7,68.6,190615,7.3,W"
"##MN+00 00 50 0339 02962 5820 824856 024237 201"
"170.891227"
"$GPRMC,212317,A,2517.3770,N,07921.2060,W,1.7,68.0,190615,7.3,W"
"##MN+00 00 49 0340 02961 5820 823944 024216 201"
"170.891273"
"$GPRMC,212321,A,2517.3779,N,07921.2040,W,1.7,67.6,190615,7.3,W"
"##MN+00 00 46 0341 02959 5821 828416 024228 201"
"170.891319"
"$GPRMC,212325,A,2517.3786,N,07921.2019,W,1.7,67.5,190615,7.3,W"
"##MN-00 00 46 0342 02960 5822 569904 024218 201"
"170.891366"
"#increment_net"
"$GPRMC,212329,A,2517.3792,N,07921.1998,W,1.8,68.4,190615,7.3,W"
"##MN-00 00 46 0343 02961 5822 826608 024223 201"
"170.891412"
"$GPRMC,212333,A,2517.3799,N,07921.1977,W,1.7,68.8,190615,7.3,W"
"##MN-00 00 46 0344 02962 5823 827512 024217 201"
"170.891458"
"$GPRMC,212337,A,2517.3805,N,07921.1956,W,1.7,69.2,190615,7.3,W"
"##MN-00 00 46 0345 02961 5823 824816 024220 201"
"170.891505"
"$GPRMC,212341,A,2517.3812,N,07921.1935,W,1.7,69.5,190615,7.3,W"
"##MN-00 00 46 0346 02962 5824 692456 024225 201"
"170.891551"
"$GPRMC,212345,A,2517.3817,N,07921.1914,W,1.7,70.3,190615,7.3,W"
"##MN-00 00 46 0346 02962 5824 825200 024215 201"
"170.891597"
"$GPRMC,212349,A,2517.3824,N,07921.1894,W,1.7,71.3,190615,7.3,W"
"##MN-00 00 46 0347 02964 5825 828336 024229 201"
"170.891644"
"$GPRMC,212353,A,2517.3830,N,07921.1874,W,1.7,71.8,190615,7.3,W"
"##MN-00 00 46 0348 02963 5826 826544 024241 201"
"170.89169"
"$GPRMC,212357,A,2517.3835,N,07921.1854,W,1.7,72.0,190615,7.3,W"
"##MN-00 00 46 0349 02961 5826 825728 024222 201"
"170.891736"
"$GPRMC,212401,A,2517.3841,N,07921.1834,W,1.7,72.2,190615,7.3,W"
"##MN-00 00 46 0350 02964 5827 828808 024227 201"
"170.891782"
"$GPRMC,212405,A,2517.3846,N,07921.1815,W,1.7,72.8,190615,7.3,W"
"##MN-00 00 46 0351 02961 5827 828352 024222 201"
"170.891829"
"$GPRMC,212409,A,2517.3852,N,07921.1797,W,1.6,73.3,190615,7.3,W"
"##MN-00 00 46 0352 02962 5827 574296 024233 201"
"170.891875"
"$GPRMC,212413,A,2517.3857,N,07921.1777,W,1.7,74.8,190615,7.3,W"
"##MN-00 00 46 0353 02962 5828 832376 024232 201"
"170.891921"
"$GPRMC,212417,A,2517.3863,N,07921.1757,W,1.6,75.6,190615,7.3,W"
"##MN-00 00 46 0354 02962 5828 833712 024222 201"
"170.891968"
"$GPRMC,212421,A,2517.3864,N,07921.1738,W,1.6,75.9,190615,7.3,W"
"##MN-00 00 46 0355 02962 5829 835032 024223 201"
"170.892014"
"$GPRMC,212425,A,2517.3864,N,07921.1720,W,1.6,76.7,190615,7.3,W"
"##MN-00 00 46 0356 02963 5830 835424 024227 201"
"170.89206"
"$GPRMC,212429,A,2517.3865,N,07921.1700,W,1.6,77.0,190615,7.3,W"
"##MN-00 00 46 0357 02962 5830 835864 024219 201"
"170.892106"
"$GPRMC,212433,A,2517.3869,N,07921.1681,W,1.6,77.2,190615,7.3,W"
"##MN-00 00 46 0358 02963 5830 835456 024220 201"
"170.892153"
"$GPRMC,212437,A,2517.3875,N,07921.1663,W,1.6,77.3,190615,7.3,W"
"##MN-00 00 46 0359 02962 5831 785016 024225 201"
"170.892199"
"$GPRMC,212441,A,2517.3880,N,07921.1645,W,1.6,77.6,190615,7.3,W"
"##MN-00 00 46 0359 02960 5832 887160 024227 201"
"170.892245"
"$GPRMC,212445,A,2517.3885,N,07921.1626,W,1.6,77.8,190615,7.3,W"
"##MN-00 00 46 0360 02962 5832 565392 024228 201"
"170.892292"
"$GPRMC,212449,A,2517.3888,N,07921.1607,W,1.6,78.4,190615,7.3,W"
"##MN-00 00 46 0361 02960 5833 835840 024217 201"
"170.892338"
"$GPRMC,212453,A,2517.3890,N,07921.1588,W,1.6,78.7,190615,7.3,W"
"##MN-00 00 45 0362 02961 5833 836320 024221 201"
"170.892384"
"$GPRMC,212457,A,2517.3895,N,07921.1569,W,1.5,79.0,190615,7.3,W"
"##MN-00 00 46 0363 02962 5834 580432 024229 201"
"170.892431"
"$GPRMC,212501,A,2517.3896,N,07921.1549,W,1.5,79.4,190615,7.3,W"
"##MN-00 00 46 0364 02961 5834 837544 024224 201"
"170.892477"
"$GPRMC,212506,A,2517.3898,N,07921.1525,W,1.6,80.2,190615,7.3,W"
"##MN-00 00 46 0365 02960 5835 838000 024226 201"
"170.892523"
"$GPRMC,212510,A,2517.3900,N,07921.1507,W,1.6,80.3,190615,7.3,W"
"##MN-00 00 46 0366 02958 5835 837584 024220 201"
"170.892569"
"$GPRMC,212514,A,2517.3904,N,07921.1487,W,1.6,79.9,190615,7.3,W"
"##MN-00 00 46 0367 02959 5836 841648 024233 201"
"170.892616"
"$GPRMC,212517,A,2517.3907,N,07921.1473,W,1.6,79.6,190615,7.3,W"
"##MN-00 00 46 0368 02960 5836 839856 024230 201"
"170.892662"
"$GPRMC,212521,A,2517.3911,N,07921.1453,W,1.6,78.5,190615,7.3,W"
"##MN-00 00 46 0369 02959 5837 839792 024217 201"
"170.892708"
"$GPRMC,212526,A,2517.3918,N,07921.1430,W,1.6,76.4,190615,7.3,W"
"##MN+00 00 46 0370 02956 5837 840680 024234 201"
"170.892755"
"$GPRMC,212530,A,2517.3924,N,07921.1411,W,1.6,75.3,190615,7.3,W"
"##MN+00 00 46 0371 02961 5837 707432 024221 201"
"170.892801"
"$GPRMC,212534,A,2517.3931,N,07921.1391,W,1.6,73.2,190615,7.3,W"
"##MN+00 00 54 0372 02958 5838 843312 024220 201"
"170.892847"
"#increment_net"
"$GPRMC,212538,A,2517.3936,N,07921.1372,W,1.6,71.3,190615,7.3,W"
"##MN-00 00 49 0372 02961 5839 841968 024229 201"
"170.892894"
"$GPRMC,212542,A,2517.3943,N,07921.1353,W,1.7,70.0,190615,7.3,W"
"##MN-00 00 47 0373 02959 5839 843344 024224 201"
"170.892951"
"$GPRMC,212546,A,2517.3951,N,07921.1334,W,1.7,68.4,190615,7.3,W"
"##MN-00 00 47 0374 02959 5839 845056 024223 201"
"170.892998"
"$GPRMC,212550,A,2517.3960,N,07921.1314,W,1.7,67.4,190615,7.3,W"
"##MN-00 00 46 0375 02961 5840 330736 024220 201"
"170.893044"
"$GPRMC,212554,A,2517.3969,N,07921.1295,W,1.7,66.5,190615,7.3,W"
"##MN-00 00 46 0376 02959 5840 847256 024229 201"
"170.89309"
"$GPRMC,212558,A,2517.3979,N,07921.1275,W,1.8,65.4,190615,7.3,W"
"##MN-00 00 46 0377 02960 5841 846320 024228 201"
"170.893137"
"$GPRMC,212602,A,2517.3990,N,07921.1256,W,1.8,64.2,190615,7.3,W"
"##MN-00 00 46 0378 02962 5842 574992 024225 201"
"170.893183"
"$GPRMC,212606,A,2517.4000,N,07921.1236,W,1.8,63.5,190615,7.3,W"
"##MN-00 00 46 0379 02962 5842 847664 024226 201"
"170.893229"
"$GPRMC,212610,A,2517.4010,N,07921.1216,W,1.8,63.1,190615,7.3,W"
"##MN-00 00 46 0380 02963 5843 850352 024218 201"
"170.893275"
"$GPRMC,212614,A,2517.4019,N,07921.1196,W,1.8,62.6,190615,7.3,W"
"##MN-00 00 46 0380 02964 5843 848536 024226 201"
"170.893322"
"$GPRMC,212618,A,2517.4030,N,07921.1175,W,1.9,62.7,190615,7.3,W"
"##MN-00 00 46 0381 02966 5843 859216 024228 201"
"170.893368"
"$GPRMC,212622,A,2517.4040,N,07921.1155,W,1.8,62.9,190615,7.3,W"
"##MN-00 00 46 0382 02965 5844 847160 024223 201"
"170.893414"
"$GPRMC,212626,A,2517.4048,N,07921.1134,W,1.9,63.4,190615,7.3,W"
"##MN-00 00 46 0383 02965 5844 852072 024217 201"
"170.893461"
"$GPRMC,212630,A,2517.4058,N,07921.1113,W,1.9,64.2,190615,7.3,W"
"##MN-00 00 46 0384 02967 5845 853856 024223 201"
"170.893507"
"$GPRMC,212634,A,2517.4068,N,07921.1092,W,1.9,65.1,190615,7.3,W"
"##MN-00 00 45 0385 02967 5845 855208 024226 201"
"170.893553"
"$GPRMC,212638,A,2517.4076,N,07921.1069,W,1.9,65.5,190615,7.3,W"
"##MN-00 00 44 0386 02967 5846 853824 024216 201"
"170.8936"
"$GPRMC,212642,A,2517.4084,N,07921.1049,W,1.8,66.5,190615,7.3,W"
"##MN-00 00 44 0387 02966 5846 854768 024222 201"
"170.893646"
"$GPRMC,212646,A,2517.4091,N,07921.1028,W,1.8,67.5,190615,7.3,W"
"##MN-00 00 45 0388 02966 5847 855600 024225 201"
"170.893692"
"$GPRMC,212650,A,2517.4099,N,07921.1007,W,1.8,68.2,190615,7.3,W"
"##MN-00 00 44 0388 02968 5847 854272 024219 201"
"170.893738"
"$GPRMC,212654,A,2517.4106,N,07921.0986,W,1.8,68.1,190615,7.3,W"
"##MN-00 00 44 0389 02965 5848 598904 024229 201"
"170.893785"
"$GPRMC,212658,A,2517.4115,N,07921.0965,W,1.8,68.1,190615,7.3,W"
"##MN-00 00 44 0390 02968 5848 854752 024229 201"
"170.893831"
"$GPRMC,212702,A,2517.4123,N,07921.0943,W,1.8,68.4,190615,7.3,W"
"##MN-00 00 44 0391 02967 5849 854680 024236 201"
"170.893877"
"$GPRMC,212706,A,2517.4131,N,07921.0922,W,1.8,67.9,190615,7.3,W"
"##MN-00 00 44 0392 02967 5849 854624 024251 201"
"170.893924"
"$GPRMC,212710,A,2517.4138,N,07921.0902,W,1.8,67.6,190615,7.3,W"
"##MN-00 00 44 0393 02966 5849 719208 024229 201"
"170.89397"
"$GPRMC,212714,A,2517.4146,N,07921.0880,W,1.8,67.6,190615,7.3,W"
"##MN-00 00 44 0394 02966 5850 854656 024233 201"
"170.894016"
"$GPRMC,212718,A,2517.4155,N,07921.0859,W,1.8,67.0,190615,7.3,W"
"##MN-00 00 44 0395 02965 5851 854624 024234 201"
"170.894063"
"$GPRMC,212722,A,2517.4164,N,07921.0839,W,1.8,66.4,190615,7.3,W"
"##MN-00 00 44 0396 02964 5851 854616 024236 201"
"170.894109"
"$GPRMC,212726,A,2517.4174,N,07921.0819,W,1.8,66.0,190615,7.3,W"
"##MN-00 00 44 0397 02965 5851 854656 024225 201"
"170.894155"
"$GPRMC,212730,A,2517.4182,N,07921.0798,W,1.8,66.0,190615,7.3,W"
"##MN-00 00 44 0398 02962 5852 854672 024233 201"
"170.894201"
"$GPRMC,212734,A,2517.4193,N,07921.0779,W,1.8,65.3,190615,7.3,W"
"##MN+00 00 45 0398 02964 5852 854624 024230 201"
"170.894248"
"$GPRMC,212738,A,2517.4203,N,07921.0759,W,1.8,64.0,190615,7.3,W"
"##MN+00 00 45 0399 02965 5853 854160 024234 201"
"170.894294"
"$GPRMC,212742,A,2517.4213,N,07921.0739,W,1.8,63.9,190615,7.3,W"
"##MN+00 00 49 0400 02964 5853 855040 024244 201"
"170.89434"
"#increment_net"
"$GPRMC,212746,A,2517.4222,N,07921.0714,W,1.9,62.8,190615,7.3,W"
"##MN-00 00 48 0401 02965 5854 854592 024229 201"
"170.894387"
"$GPRMC,212750,A,2517.4234,N,07921.0689,W,1.9,63.1,190615,7.3,W"
"##MN-00 00 46 0402 02967 5854 854568 024235 201"
"170.894433"
"$GPRMC,212754,A,2517.4245,N,07921.0663,W,1.9,64.1,190615,7.3,W"
"##MN-00 00 44 0403 02969 5855 854592 024232 201"
"170.894479"
"$GPRMC,212758,A,2517.4256,N,07921.0638,W,1.9,63.7,190615,7.3,W"
"##MN-00 00 45 0404 02971 5855 854144 024240 201"
"170.894525"
"$GPRMC,212802,A,2517.4265,N,07921.0615,W,1.9,63.5,190615,7.3,W"
"##MN-00 00 44 0406 02974 5855 855456 024234 201"
"170.894572"
"$GPRMC,212806,A,2517.4275,N,07921.0593,W,2.0,63.4,190615,7.3,W"
"##MN-00 00 44 0407 02978 5856 854512 024240 201"
"170.894618"
"$GPRMC,212810,A,2517.4283,N,07921.0569,W,2.0,63.4,190615,7.3,W"
"##MN-00 00 44 0408 02982 5856 854528 024231 201"
"170.894664"
"$GPRMC,212814,A,2517.4293,N,07921.0545,W,2.1,63.6,190615,7.3,W"
"##MN-00 00 45 0409 02981 5857 854528 024236 201"
"170.894711"
"$GPRMC,212818,A,2517.4301,N,07921.0521,W,2.1,64.5,190615,7.3,W"
"##MN-00 00 44 0410 02980 5857 854496 024239 201"
"170.894757"
"$GPRMC,212822,A,2517.4310,N,07921.0497,W,2.1,65.4,190615,7.3,W"
"##MN-00 00 43 0411 02981 5858 853600 024231 201"
"170.894803"
"$GPRMC,212826,A,2517.4319,N,07921.0474,W,2.1,65.7,190615,7.3,W"
"##MN-00 00 44 0412 02982 5858 855800 024243 201"
"170.89485"
"$GPRMC,212830,A,2517.4330,N,07921.0451,W,2.1,65.9,190615,7.3,W"
"##MN-00 00 43 0413 02984 5858 854464 024235 201"
"170.894896"
"$GPRMC,212834,A,2517.4340,N,07921.0428,W,2.1,66.0,190615,7.3,W"
"##MN-00 00 43 0414 02980 5859 601344 024234 201"
"170.894942"
"$GPRMC,212838,A,2517.4348,N,07921.0405,W,2.0,66.9,190615,7.3,W"
"##MN-00 00 43 0416 02980 5859 856704 024226 201"
"170.894988"
"$GPRMC,212842,A,2517.4357,N,07921.0382,W,2.0,67.4,190615,7.3,W"
"##MN-00 00 42 0417 02979 5860 859808 024218 201"
"170.895035"
"$GPRMC,212846,A,2517.4365,N,07921.0359,W,2.0,68.4,190615,7.3,W"
"##MN-00 00 43 0418 02979 5860 862496 024225 201"
"170.895081"
"$GPRMC,212850,A,2517.4372,N,07921.0336,W,2.0,69.5,190615,7.3,W"
"##MN-00 00 44 0419 02974 5861 857152 024226 201"
"170.895127"
"$GPRMC,212854,A,2517.4380,N,07921.0314,W,1.9,70.1,190615,7.3,W"
"##MN-00 00 42 0420 02974 5861 865584 024226 201"
"170.895174"
"$GPRMC,212858,A,2517.4387,N,07921.0291,W,1.9,70.7,190615,7.3,W"
"##MN-00 00 43 0421 02971 5862 866944 024212 201"
"170.89522"
"$GPRMC,212902,A,2517.4393,N,07921.0268,W,1.9,71.3,190615,7.3,W"
"##MN-00 00 45 0422 02970 5862 732824 024217 201"
"170.895266"
"$GPRMC,212906,A,2517.4398,N,07921.0245,W,1.9,70.8,190615,7.3,W"
"##MN-00 00 44 0423 02968 5862 870064 024213 201"
"170.895312"
"$GPRMC,212910,A,2517.4406,N,07921.0223,W,1.9,70.9,190615,7.3,W"
"##MN-00 00 44 0425 02962 5863 871392 024218 201"
"170.895359"
"$GPRMC,212914,A,2517.4412,N,07921.0205,W,1.9,70.8,190615,7.3,W"
"##MN-00 00 44 0426 02960 5863 871832 024223 201"
"170.895405"
"$GPRMC,212918,A,2517.4422,N,07921.0177,W,1.9,70.3,190615,7.3,W"
"##MN-00 00 43 0427 02958 5864 871360 024212 201"
"170.895451"
"$GPRMC,212922,A,2517.4430,N,07921.0155,W,1.9,69.7,190615,7.3,W"
"##MN-00 00 44 0428 02956 5864 872200 024222 201"
"170.895498"
"$GPRMC,212926,A,2517.4440,N,07921.0130,W,1.9,68.6,190615,7.3,W"
"##MN-00 00 44 0429 02952 5864 873984 024214 201"
"170.895544"
"$GPRMC,212930,A,2517.4449,N,07921.0109,W,2.0,67.3,190615,7.3,W"
"##MN-00 00 45 0430 02948 5865 616376 024211 201"
"170.89559"
"$GPRMC,212934,A,2517.4459,N,07921.0085,W,2.0,67.0,190615,7.3,W"
"##MN-00 00 45 0431 02947 5865 873528 024221 201"
"170.895637"
"$GPRMC,212938,A,2517.4467,N,07921.0062,W,2.0,67.0,190615,7.3,W"
"##MN-00 00 45 0432 02944 5866 873056 024207 201"
"170.895683"
"$GPRMC,212942,A,2517.4477,N,07921.0040,W,2.0,66.6,190615,7.3,W"
"##MN-00 00 44 0433 02941 5866 873512 024216 201"
"170.895729"
"$GPRMC,212946,A,2517.4485,N,07921.0016,W,2.1,66.7,190615,7.3,W"
"##MN-00 00 44 0435 02935 5867 873088 024216 201"
"170.895775"
"$GPRMC,212951,A,2517.4498,N,07920.9985,W,2.1,67.1,190615,7.3,W"
"##MN-00 00 43 0436 02933 5867 873504 024213 201"
"170.895822"
"$GPRMC,212955,A,2517.4505,N,07920.9962,W,2.1,67.0,190615,7.3,W"
"##MN-00 00 42 0437 02933 5867 873040 024229 201"
"170.895868"
"$GPRMC,212959,A,2517.4511,N,07920.9940,W,2.0,66.8,190615,7.3,W"
"##MN-00 00 44 0438 02927 5868 873944 024208 201"
"170.895914"
"$GPRMC,213003,A,2517.4521,N,07920.9917,W,2.0,67.1,190615,7.3,W"
"##MN-00 00 44 0439 02925 5868 873928 024215 201"
"170.895961"
"$GPRMC,213006,A,2517.4528,N,07920.9900,W,2.0,67.5,190615,7.3,W"
"##MN-00 00 43 0440 02922 5869 875664 024208 201"
"170.896007"
"$GPRMC,213010,A,2517.4536,N,07920.9875,W,1.9,68.1,190615,7.3,W"
"##MN-00 00 43 0441 02917 5869 877024 024217 201"
"170.896053"
"$GPRMC,213015,A,2517.4549,N,07920.9845,W,2.0,68.6,190615,7.3,W"
"##MN-00 00 43 0442 02917 5870 876576 024224 201"
"170.896111"
"$GPRMC,213019,A,2517.4557,N,07920.9821,W,1.9,69.3,190615,7.3,W"
"##MN-00 00 43 0443 02913 5870 877888 024211 201"
"170.896157"
"$GPRMC,213023,A,2517.4565,N,07920.9799,W,2.0,69.6,190615,7.3,W"
"##MN-00 00 43 0445 02907 5870 745128 024215 201"
"170.896204"
"$GPRMC,213027,A,2517.4574,N,07920.9775,W,2.0,70.1,190615,7.3,W"
"##MN-00 00 43 0446 02904 5871 883664 024214 201"
"170.89625"
"$GPRMC,213031,A,2517.4582,N,07920.9751,W,2.0,70.2,190615,7.3,W"
"##MN-00 00 44 0447 02901 5871 882320 024219 201"
"170.896296"
"$GPRMC,213035,A,2517.4589,N,07920.9728,W,2.0,70.1,190615,7.3,W"
"##MN-00 00 44 0448 02898 5871 882800 024216 201"
"170.896343"
