" Tow: 7ES-A   RVWS/WS15161"
" Date: 19/06/2015"
" Temperature Probe #  4762    Conductivity Probe #  710"
" Pressure Probe #  159"
" Flow Meter Calibration  4.71 (m/count)  "
"170.608333"
"$GPRMC,143555,A,2514.1007,N,07917.7272,W,2.1,90.1,190615,7.4,W"
"##MN-00 00 13 0013 01495 7940 437006 289428 200"
"170.60838"
"$GPRMC,143600,A,2514.1010,N,07917.7237,W,2.1,89.0,190615,7.4,W"
"##MN-00 00 12 0014 01495 7939 443890 204535 200"
"170.608426"
"$GPRMC,143604,A,2514.1011,N,07917.7209,W,2.0,88.4,190615,7.4,W"
"##MN-00 00 12 0015 01495 7938 443914 204579 200"
"170.608472"
"$GPRMC,143608,A,2514.1014,N,07917.7180,W,2.0,87.8,190615,7.4,W"
"##MN-00 00 12 0016 01497 7936 443942 204579 200"
"170.608519"
"$GPRMC,143612,A,2514.1017,N,07917.7153,W,2.0,86.9,190615,7.4,W"
"##MN-00 00 20 0017 01499 7935 444028 204620 200"
"170.608565"
"$GPRMC,143616,A,2514.1021,N,07917.7128,W,2.0,86.2,190615,7.4,W"
"##MN-00 00 20 0018 01499 7933 444156 204647 200"
"170.608611"
"$GPRMC,143620,A,2514.1020,N,07917.7100,W,2.0,85.7,190615,7.4,W"
"##MN-00 00 20 0019 01498 7931 444147 204633 200"
"170.608657"
"$GPRMC,143624,A,2514.1021,N,07917.7075,W,2.0,85.3,190615,7.4,W"
"##MN-00 00 21 0020 01498 7929 444153 204645 200"
"170.608704"
"$GPRMC,143628,A,2514.1023,N,07917.7050,W,2.0,85.7,190615,7.4,W"
"##MN-00 00 22 0021 01499 7927 444192 204628 200"
"170.608762"
"$GPRMC,143632,A,2514.1026,N,07917.7025,W,2.0,86.0,190615,7.4,W"
"##MN-00 00 22 0023 01497 7924 444100 204654 200"
"170.608808"
"$GPRMC,143637,A,2514.1028,N,07917.6994,W,2.0,85.8,190615,7.4,W"
"##MN-00 00 22 0024 01501 7921 444144 204640 200"
"170.608854"
"$GPRMC,143641,A,2514.1029,N,07917.6968,W,2.0,85.8,190615,7.4,W"
"##MN-00 00 23 0025 01499 7918 444107 204658 200"
"170.609016"
"$GPRMC,143654,A,2514.1025,N,07917.6896,W,1.9,88.5,190615,7.4,W"
"##MN-00 00 23 0025 01499 7918 444107 204658 200"
"170.609583"
""
"##MN-00 00 39 0042 01496 7861 444080 204667 200"
"170.60963"
"$GPRMC,143748,A,2514.1003,N,07917.6564,W,2.2,93.2,190615,7.4,W"
"##MN-00 00 39 0043 01494 7857 443818 204620 200"
"170.609699"
"$GPRMC,143752,A,2514.0998,N,07917.6547,W,2.3,93.0,190615,7.4,W"
"##MN-00 00 39 0044 01494 7851 443745 204604 200"
"170.609745"
"$GPRMC,143757,A,2514.0992,N,07917.6518,W,2.3,93.3,190615,7.4,W"
"##MN-00 00 39 0045 01495 7847 443570 204564 200"
"170.609792"
"$GPRMC,143801,A,2514.0992,N,07917.6491,W,2.3,93.7,190615,7.4,W"
"##MN-00 00 39 0047 01495 7843 443565 204567 200"
"170.609838"
"$GPRMC,143805,A,2514.0990,N,07917.6459,W,2.3,93.8,190615,7.4,W"
"##MN-00 00 39 0048 01495 7839 443523 204564 200"
"170.609884"
"$GPRMC,143809,A,2514.0991,N,07917.6427,W,2.4,93.3,190615,7.4,W"
"##MN-00 00 39 0049 01494 7834 443494 204558 200"
"170.609931"
"$GPRMC,143813,A,2514.0988,N,07917.6395,W,2.4,93.0,190615,7.4,W"
"##MN-00 00 38 0050 01495 7830 443527 204564 200"
"170.609977"
"$GPRMC,143817,A,2514.0988,N,07917.6363,W,2.4,92.8,190615,7.4,W"
"##MN-00 00 38 0051 01494 7825 443591 204580 200"
"170.610023"
"$GPRMC,143821,A,2514.0986,N,07917.6333,W,2.4,92.7,190615,7.4,W"
"##MN-00 00 38 0052 01494 7821 443621 204584 200"
"170.610069"
"$GPRMC,143825,A,2514.0987,N,07917.6297,W,2.4,92.5,190615,7.4,W"
"##MN-00 00 38 0053 01493 7816 443614 204587 200"
"170.610116"
"$GPRMC,143829,A,2514.0988,N,07917.6267,W,2.4,92.0,190615,7.4,W"
"##MN-00 00 38 0054 01496 7812 443681 204595 200"
"170.610162"
"$GPRMC,143833,A,2514.0988,N,07917.6238,W,2.4,92.1,190615,7.4,W"
"##MN-00 00 38 0055 01494 7807 443570 204578 200"
"170.610208"
"$GPRMC,143837,A,2514.0986,N,07917.6207,W,2.4,92.3,190615,7.4,W"
"##MN-00 00 38 0056 01495 7803 443514 204566 200"
"170.610255"
"$GPRMC,143841,A,2514.0982,N,07917.6183,W,2.4,92.7,190615,7.4,W"
"##MN-00 00 38 0057 01496 7798 443564 204580 200"
"170.610301"
"$GPRMC,143845,A,2514.0981,N,07917.6152,W,2.4,92.9,190615,7.4,W"
"##MN-00 00 38 0059 01495 7794 443622 204598 200"
"170.610347"
"$GPRMC,143849,A,2514.0983,N,07917.6120,W,2.4,93.2,190615,7.4,W"
"##MN-00 00 38 0060 01496 7789 443598 204581 200"
"170.610394"
"$GPRMC,143853,A,2514.0977,N,07917.6095,W,2.3,94.7,190615,7.4,W"
"##MN-00 00 38 0061 01496 7785 443643 204605 200"
"170.61044"
"$GPRMC,143857,A,2514.0976,N,07917.6066,W,2.4,95.2,190615,7.4,W"
"##MN-00 00 38 0062 01496 7780 443559 204582 200"
"170.610486"
"$GPRMC,143901,A,2514.0977,N,07917.6040,W,2.4,94.8,190615,7.4,W"
"##MN-00 00 38 0063 01496 7775 443515 204574 200"
"170.610532"
"$GPRMC,143905,A,2514.0974,N,07917.6003,W,2.3,95.3,190615,7.4,W"
"##MN-00 00 38 0064 01496 7771 443544 204589 200"
"170.610579"
"$GPRMC,143909,A,2514.0971,N,07917.5972,W,2.3,95.8,190615,7.4,W"
"##MN-00 00 38 0065 01497 7766 443564 204585 200"
"170.610625"
"$GPRMC,143913,A,2514.0967,N,07917.5943,W,2.3,96.3,190615,7.4,W"
"##MN-00 00 38 0066 01497 7761 443575 204875 200"
"170.610671"
"$GPRMC,143917,A,2514.0965,N,07917.5915,W,2.4,96.9,190615,7.4,W"
"##MN-00 00 38 0067 01497 7757 443671 204656 200"
"170.610718"
"$GPRMC,143921,A,2514.0960,N,07917.5885,W,2.4,96.3,190615,7.4,W"
"##MN-00 00 38 0069 01498 7752 443690 204694 200"
"170.610764"
"$GPRMC,143925,A,2514.0958,N,07917.5856,W,2.4,96.5,190615,7.4,W"
"##MN-00 00 39 0070 01498 7748 443599 204655 200"
"170.61081"
"$GPRMC,143929,A,2514.0953,N,07917.5834,W,2.3,96.5,190615,7.4,W"
"##MN-00 00 38 0071 01495 7743 443668 204684 200"
"170.610856"
"$GPRMC,143933,A,2514.0952,N,07917.5805,W,2.3,96.2,190615,7.4,W"
"##MN-00 00 38 0072 01499 7738 443572 204633 200"
"170.610903"
"$GPRMC,143937,A,2514.0952,N,07917.5779,W,2.3,96.0,190615,7.4,W"
"##MN-00 00 38 0073 01496 7734 443547 204627 200"
"170.610949"
"$GPRMC,143941,A,2514.0949,N,07917.5752,W,2.3,96.3,190615,7.4,W"
"##MN-00 00 38 0074 01497 7729 443530 204630 200"
"170.610995"
"$GPRMC,143945,A,2514.0947,N,07917.5727,W,2.3,95.8,190615,7.4,W"
"##MN-00 00 38 0075 01497 7724 443495 205234 200"
"170.611042"
"$GPRMC,143949,A,2514.0945,N,07917.5698,W,2.3,95.9,190615,7.4,W"
"##MN-00 00 38 0076 01497 7719 443543 204633 200"
"170.611088"
"$GPRMC,143954,A,2514.0945,N,07917.5661,W,2.3,95.4,190615,7.4,W"
"##MN-00 00 38 0077 01497 7714 443493 204637 200"
"170.611134"
"$GPRMC,143958,A,2514.0942,N,07917.5629,W,2.3,94.8,190615,7.4,W"
"##MN-00 00 37 0079 01498 7710 443523 204635 200"
"170.611181"
"$GPRMC,144002,A,2514.0941,N,07917.5599,W,2.3,94.6,190615,7.4,W"
"##MN-00 00 37 0080 01500 7705 443561 204642 200"
"170.611227"
"$GPRMC,144006,A,2514.0939,N,07917.5567,W,2.3,94.2,190615,7.4,W"
"##MN-00 00 23 0081 01504 7700 443724 204681 200"
"170.611273"
"$GPRMC,144010,A,2514.0938,N,07917.5537,W,2.4,94.1,190615,7.4,W"
"##MN-00 00 23 0082 01507 7695 443957 204717 200"
"170.611319"
"$GPRMC,144014,A,2514.0936,N,07917.5505,W,2.4,93.9,190615,7.4,W"
"##MN-00 00 23 0083 01508 7691 444348 204772 200"
"170.611366"
"$GPRMC,144018,A,2514.0937,N,07917.5473,W,2.4,93.4,190615,7.4,W"
"##MN-00 00 23 0084 01510 7686 444497 204790 200"
"170.611412"
"$GPRMC,144022,A,2514.0936,N,07917.5442,W,2.4,93.3,190615,7.4,W"
"##MN-00 00 23 0085 01510 7682 444641 204793 200"
"170.611458"
"$GPRMC,144026,A,2514.0934,N,07917.5410,W,2.4,93.3,190615,7.4,W"
"##MN-00 00 23 0087 01514 7677 444719 204822 200"
"170.611505"
"$GPRMC,144030,A,2514.0929,N,07917.5378,W,2.5,93.6,190615,7.4,W"
"##MN-00 00 23 0088 01517 7672 444865 204847 200"
"170.611551"
"$GPRMC,144034,A,2514.0924,N,07917.5346,W,2.4,93.5,190615,7.4,W"
"##MN-00 00 23 0089 01519 7667 444881 204876 200"
"170.611597"
"$GPRMC,144038,A,2514.0917,N,07917.5317,W,2.5,93.6,190615,7.4,W"
"##MN-00 00 23 0090 01522 7663 445059 204905 200"
"170.611644"
"$GPRMC,144042,A,2514.0916,N,07917.5279,W,2.5,94.1,190615,7.4,W"
"##MN-00 00 23 0091 01525 7658 445157 204918 200"
"170.61169"
"$GPRMC,144046,A,2514.0912,N,07917.5251,W,2.5,94.6,190615,7.4,W"
"##MN-00 00 23 0092 01527 7653 445200 204929 200"
"170.611736"
"$GPRMC,144050,A,2514.0907,N,07917.5226,W,2.5,95.3,190615,7.4,W"
"##MN-00 00 23 0094 01529 7648 445238 204932 200"
"170.611782"
"$GPRMC,144054,A,2514.0901,N,07917.5203,W,2.5,95.7,190615,7.4,W"
"##MN-00 00 23 0095 01534 7643 445255 204935 200"
"170.611991"
"$GPRMC,144111,A,2514.0889,N,07917.5074,W,2.5,96.4,190615,7.4,W"
"##MN-00 00 23 0100 01545 7622 445297 204949 200"
"170.612037"
"$GPRMC,144116,A,2514.0884,N,07917.5035,W,2.5,97.4,190615,7.4,W"
"##MN-00 00 23 0101 01547 7617 445323 204949 200"
"170.612083"
"$GPRMC,144120,A,2514.0880,N,07917.5005,W,2.5,97.4,190615,7.4,W"
"##MN-00 00 23 0102 01551 7613 445339 204950 200"
"170.61213"
"$GPRMC,144124,A,2514.0876,N,07917.4978,W,2.5,98.0,190615,7.4,W"
"##MN-00 00 23 0103 01555 7608 445343 204950 200"
"170.612176"
"$GPRMC,144128,A,2514.0874,N,07917.4945,W,2.5,97.8,190615,7.4,W"
"##MN-00 00 23 0105 01557 7603 445352 204951 200"
"170.612326"
"$GPRMC,144140,A,2514.0869,N,07917.4845,W,2.5,96.1,190615,7.4,W"
"##MN-00 00 23 0108 01568 7588 445368 204954 200"
"170.612373"
"$GPRMC,144145,A,2514.0869,N,07917.4806,W,2.4,95.2,190615,7.4,W"
"##MN-00 00 23 0109 01570 7583 445382 204952 200"
"170.612419"
"$GPRMC,144149,A,2514.0873,N,07917.4777,W,2.4,94.2,190615,7.4,W"
"##MN-00 00 23 0111 01574 7578 445390 204953 200"
"170.612465"
"$GPRMC,144152,A,2514.0875,N,07917.4754,W,2.4,94.0,190615,7.4,W"
"##MN-00 00 23 0112 01577 7574 445404 204955 200"
"170.612512"
"$GPRMC,144156,A,2514.0871,N,07917.4722,W,2.4,93.2,190615,7.4,W"
"##MN-00 00 23 0113 01579 7569 445410 204955 200"
"170.612558"
"$GPRMC,144201,A,2514.0871,N,07917.4683,W,2.4,92.1,190615,7.4,W"
"##MN-00 00 23 0114 01582 7564 445418 204954 200"
"170.612604"
"$GPRMC,144205,A,2514.0869,N,07917.4653,W,2.4,91.6,190615,7.4,W"
"##MN-00 00 23 0115 01587 7559 445423 204955 200"
"170.61265"
"$GPRMC,144209,A,2514.0869,N,07917.4622,W,2.4,91.2,190615,7.4,W"
"##MN-00 00 23 0116 01590 7555 445425 204957 200"
"170.612697"
"$GPRMC,144213,A,2514.0873,N,07917.4600,W,2.4,90.6,190615,7.4,W"
"##MN-00 00 23 0117 01592 7550 445436 204959 200"
"170.612743"
"$GPRMC,144217,A,2514.0876,N,07917.4564,W,2.4,91.1,190615,7.4,W"
"##MN-00 00 23 0118 01594 7545 445436 204957 200"
"170.612789"
"$GPRMC,144221,A,2514.0878,N,07917.4542,W,2.4,91.0,190615,7.4,W"
"##MN-00 00 23 0120 01598 7540 445434 204957 200"
"170.612836"
"$GPRMC,144225,A,2514.0876,N,07917.4511,W,2.4,91.1,190615,7.4,W"
"##MN-00 00 23 0121 01601 7535 445433 204957 200"
"170.612882"
"$GPRMC,144229,A,2514.0876,N,07917.4473,W,2.4,91.0,190615,7.4,W"
"##MN-00 00 23 0122 01603 7531 445436 204956 200"
"170.612928"
"$GPRMC,144233,A,2514.0872,N,07917.4449,W,2.4,91.6,190615,7.4,W"
"##MN-00 00 23 0123 01604 7526 445446 204957 200"
"170.612975"
"$GPRMC,144237,A,2514.0871,N,07917.4410,W,2.5,92.1,190615,7.4,W"
"##MN-00 00 23 0124 01609 7522 445450 204957 200"
"170.613021"
"$GPRMC,144241,A,2514.0869,N,07917.4378,W,2.5,92.4,190615,7.4,W"
"##MN-00 00 23 0125 01609 7516 445454 204958 200"
"170.613067"
"$GPRMC,144245,A,2514.0866,N,07917.4347,W,2.4,92.5,190615,7.4,W"
"##MN-00 00 23 0127 01613 7512 445461 204960 200"
"170.613113"
"$GPRMC,144249,A,2514.0865,N,07917.4316,W,2.5,92.9,190615,7.4,W"
"##MN-00 00 23 0128 01615 7508 445463 204959 200"
"170.61316"
"$GPRMC,144253,A,2514.0864,N,07917.4285,W,2.5,93.4,190615,7.4,W"
"##MN-00 00 23 0129 01618 7503 445469 204959 200"
"170.613206"
"$GPRMC,144257,A,2514.0861,N,07917.4255,W,2.5,93.7,190615,7.4,W"
"##MN-00 00 22 0130 01623 7498 445472 204959 200"
"170.613252"
"$GPRMC,144301,A,2514.0858,N,07917.4225,W,2.4,93.6,190615,7.4,W"
"##MN-00 00 22 0131 01625 7493 445474 204959 200"
"170.613299"
"$GPRMC,144305,A,2514.0858,N,07917.4194,W,2.5,93.2,190615,7.4,W"
"##MN-00 00 22 0132 01627 7489 445475 204959 200"
"170.613345"
"$GPRMC,144309,A,2514.0856,N,07917.4163,W,2.4,92.8,190615,7.4,W"
"##MN-00 00 22 0133 01630 7484 445474 204959 200"
"170.613391"
"$GPRMC,144313,A,2514.0855,N,07917.4133,W,2.5,92.3,190615,7.4,W"
"##MN-00 00 22 0135 01633 7480 445479 204958 199"
"170.613437"
"$GPRMC,144317,A,2514.0853,N,07917.4102,W,2.4,91.8,190615,7.4,W"
"##MN-00 00 22 0136 01637 7475 445481 204957 200"
"170.613484"
"$GPRMC,144321,A,2514.0851,N,07917.4070,W,2.5,90.9,190615,7.4,W"
"##MN-00 00 22 0137 01637 7470 445480 204956 199"
"170.61353"
"$GPRMC,144325,A,2514.0851,N,07917.4039,W,2.5,90.6,190615,7.4,W"
"##MN-00 00 22 0138 01641 7465 445481 204956 200"
"170.613576"
"$GPRMC,144329,A,2514.0854,N,07917.4007,W,2.5,89.3,190615,7.4,W"
"##MN-00 00 22 0139 01644 7461 445484 204956 200"
"170.613623"
"$GPRMC,144333,A,2514.0858,N,07917.3977,W,2.5,87.9,190615,7.4,W"
"##MN-00 00 22 0140 01647 7456 445489 204956 199"
"170.613669"
"$GPRMC,144337,A,2514.0861,N,07917.3946,W,2.5,87.1,190615,7.4,W"
"##MN-00 00 22 0141 01651 7451 445499 204958 200"
"170.613715"
"$GPRMC,144341,A,2514.0862,N,07917.3914,W,2.5,86.6,190615,7.4,W"
"##MN-00 00 22 0143 01653 7447 445504 204957 200"
"170.613762"
"$GPRMC,144345,A,2514.0864,N,07917.3882,W,2.5,86.9,190615,7.4,W"
"##MN-00 00 22 0144 01657 7442 445504 204958 200"
"170.613808"
"$GPRMC,144349,A,2514.0865,N,07917.3850,W,2.5,87.1,190615,7.4,W"
"##MN-00 00 22 0145 01658 7438 445512 204956 199"
"170.613854"
"$GPRMC,144353,A,2514.0865,N,07917.3818,W,2.5,87.1,190615,7.4,W"
"##MN-00 00 22 0146 01657 7433 445517 204958 199"
"170.6139"
"$GPRMC,144357,A,2514.0865,N,07917.3786,W,2.5,87.8,190615,7.4,W"
"##MN-00 00 22 0147 01659 7429 445514 204958 200"
"170.613958"
"$GPRMC,144401,A,2514.0865,N,07917.3756,W,2.5,88.3,190615,7.4,W"
"##MN-00 00 22 0149 01657 7424 445511 204958 200"
"170.614005"
"$GPRMC,144405,A,2514.0863,N,07917.3726,W,2.5,88.7,190615,7.4,W"
"##MN-00 00 22 0150 01657 7419 445522 204959 200"
"170.614051"
"$GPRMC,144409,A,2514.0867,N,07917.3696,W,2.5,89.6,190615,7.4,W"
"##MN-00 00 22 0151 01658 7415 445522 204959 200"
"170.614097"
"$GPRMC,144413,A,2514.0869,N,07917.3667,W,2.5,90.5,190615,7.4,W"
"##MN-00 00 22 0152 01657 7410 445518 204959 200"
"170.614144"
"$GPRMC,144417,A,2514.0866,N,07917.3635,W,2.5,90.8,190615,7.4,W"
"##MN-00 00 22 0154 01653 7406 445521 204960 200"
"170.61419"
"$GPRMC,144421,A,2514.0862,N,07917.3603,W,2.4,91.3,190615,7.4,W"
"##MN-00 00 22 0155 01651 7401 445515 204960 199"
"170.614236"
"$GPRMC,144425,A,2514.0859,N,07917.3574,W,2.4,91.5,190615,7.4,W"
"##MN-00 00 22 0156 01647 7397 445515 204961 199"
"170.614282"
"$GPRMC,144429,A,2514.0860,N,07917.3544,W,2.4,91.6,190615,7.4,W"
"##MN-00 00 22 0157 01645 7392 445513 204961 200"
"170.614329"
"$GPRMC,144433,A,2514.0862,N,07917.3517,W,2.4,91.6,190615,7.4,W"
"##MN-00 00 22 0159 01642 7387 445500 204960 200"
"170.614375"
"$GPRMC,144437,A,2514.0858,N,07917.3487,W,2.4,91.6,190615,7.4,W"
"##MN-00 00 22 0160 01640 7383 445486 204959 200"
"170.614421"
"$GPRMC,144441,A,2514.0857,N,07917.3458,W,2.4,92.0,190615,7.4,W"
"##MN-00 00 22 0161 01637 7378 445478 204958 199"
"170.614468"
"$GPRMC,144445,A,2514.0854,N,07917.3428,W,2.3,92.0,190615,7.4,W"
"##MN-00 00 22 0163 01637 7374 445466 204956 199"
"170.614514"
"$GPRMC,144449,A,2514.0854,N,07917.3398,W,2.4,91.7,190615,7.4,W"
"##MN-00 00 22 0164 01636 7370 445456 204956 199"
"170.61456"
"$GPRMC,144453,A,2514.0852,N,07917.3370,W,2.4,91.1,190615,7.4,W"
"##MN-00 00 22 0165 01633 7366 445456 204956 199"
"170.614606"
"$GPRMC,144457,A,2514.0853,N,07917.3340,W,2.4,90.0,190615,7.4,W"
"##MN-00 00 22 0166 01632 7361 445458 204955 199"
"170.614653"
"$GPRMC,144501,A,2514.0855,N,07917.3310,W,2.4,89.3,190615,7.4,W"
"##MN-00 00 22 0168 01628 7356 445458 204955 199"
"170.614699"
"$GPRMC,144505,A,2514.0858,N,07917.3282,W,2.4,89.1,190615,7.4,W"
"##MN-00 00 22 0169 01626 7352 445458 204956 199"
"170.614745"
"$GPRMC,144509,A,2514.0861,N,07917.3253,W,2.3,88.9,190615,7.4,W"
"##MN-00 00 22 0170 01626 7348 445462 204956 199"
"170.614792"
"$GPRMC,144513,A,2514.0862,N,07917.3224,W,2.3,88.7,190615,7.4,W"
"##MN-00 00 22 0171 01625 7343 445462 204956 199"
"170.614838"
"$GPRMC,144517,A,2514.0865,N,07917.3196,W,2.4,88.7,190615,7.4,W"
"##MN-00 00 22 0173 01622 7339 445459 204956 199"
"170.614884"
"$GPRMC,144521,A,2514.0865,N,07917.3168,W,2.3,88.5,190615,7.4,W"
"##MN-00 00 22 0174 01619 7335 445456 204955 199"
"170.614931"
"$GPRMC,144525,A,2514.0866,N,07917.3139,W,2.3,88.6,190615,7.4,W"
"##MN-00 00 22 0175 01619 7330 445441 204955 199"
"170.614977"
"$GPRMC,144529,A,2514.0867,N,07917.3111,W,2.3,89.2,190615,7.4,W"
"##MN-00 00 22 0177 01614 7326 445425 204953 199"
"170.615023"
"$GPRMC,144533,A,2514.0869,N,07917.3083,W,2.3,89.5,190615,7.4,W"
"##MN-00 00 22 0178 01612 7322 445419 204953 199"
"170.615069"
"$GPRMC,144537,A,2514.0869,N,07917.3054,W,2.3,89.4,190615,7.4,W"
"##MN-00 00 22 0179 01611 7317 445417 204951 199"
"170.615116"
"$GPRMC,144541,A,2514.0869,N,07917.3026,W,2.3,89.6,190615,7.4,W"
"##MN-00 00 22 0180 01608 7313 445418 204951 199"
"170.615162"
"$GPRMC,144545,A,2514.0869,N,07917.2998,W,2.3,89.9,190615,7.4,W"
"##MN-00 00 22 0182 01607 7308 445417 204952 199"
"170.615208"
"$GPRMC,144549,A,2514.0869,N,07917.2969,W,2.3,90.3,190615,7.4,W"
"##MN-00 00 22 0183 01606 7304 445416 204951 199"
"170.615255"
"$GPRMC,144553,A,2514.0869,N,07917.2941,W,2.3,90.6,190615,7.4,W"
"##MN-00 00 22 0184 01601 7299 445409 204950 199"
"170.615301"
"$GPRMC,144557,A,2514.0869,N,07917.2912,W,2.3,90.8,190615,7.4,W"
"##MN-00 00 22 0185 01603 7295 445405 204949 199"
"170.615347"
"$GPRMC,144601,A,2514.0867,N,07917.2884,W,2.3,90.7,190615,7.4,W"
"##MN-00 00 22 0187 01598 7291 445402 204949 199"
"170.615394"
"$GPRMC,144606,A,2514.0868,N,07917.2847,W,2.3,90.9,190615,7.4,W"
"##MN-00 00 22 0188 01595 7287 445400 204949 199"
"170.61544"
"$GPRMC,144610,A,2514.0867,N,07917.2819,W,2.3,90.8,190615,7.4,W"
"##MN-00 00 22 0189 01593 7282 445398 204949 199"
"170.615486"
"$GPRMC,144614,A,2514.0864,N,07917.2790,W,2.3,91.5,190615,7.4,W"
"##MN-00 00 22 0190 01592 7278 445401 204950 199"
"170.615532"
"$GPRMC,144618,A,2514.0864,N,07917.2762,W,2.3,92.3,190615,7.4,W"
"##MN-00 00 22 0192 01586 7274 445397 204949 199"
"170.615579"
"$GPRMC,144622,A,2514.0865,N,07917.2734,W,2.3,92.0,190615,7.4,W"
"##MN-00 00 22 0193 01586 7270 445391 204949 199"
"170.615625"
"$GPRMC,144626,A,2514.0865,N,07917.2706,W,2.3,91.7,190615,7.4,W"
"##MN-00 00 22 0194 01584 7266 445391 204949 199"
"170.615671"
"$GPRMC,144630,A,2514.0863,N,07917.2678,W,2.3,91.6,190615,7.4,W"
"##MN-00 00 22 0195 01581 7261 445386 204949 199"
"170.615718"
"$GPRMC,144634,A,2514.0862,N,07917.2649,W,2.3,91.8,190615,7.4,W"
"##MN-00 00 22 0197 01578 7257 445388 204949 199"
"170.615764"
"$GPRMC,144638,A,2514.0862,N,07917.2621,W,2.3,91.7,190615,7.4,W"
"##MN-00 00 22 0198 01578 7253 445381 204948 199"
"170.61581"
"$GPRMC,144642,A,2514.0858,N,07917.2592,W,2.3,91.7,190615,7.4,W"
"##MN-00 00 22 0199 01573 7249 445373 204948 199"
"170.615856"
"$GPRMC,144646,A,2514.0858,N,07917.2563,W,2.3,91.4,190615,7.4,W"
"##MN-00 00 22 0200 01571 7245 445358 204947 199"
"170.615903"
"$GPRMC,144650,A,2514.0860,N,07917.2536,W,2.3,91.1,190615,7.4,W"
"##MN-00 00 22 0202 01572 7241 445353 204946 199"
"170.615949"
"$GPRMC,144654,A,2514.0860,N,07917.2507,W,2.3,91.1,190615,7.4,W"
"##MN-00 00 22 0203 01567 7236 445350 204945 199"
"170.615995"
"$GPRMC,144658,A,2514.0862,N,07917.2481,W,2.3,90.3,190615,7.4,W"
"##MN-00 00 22 0204 01564 7232 445341 204944 199"
"170.616042"
"$GPRMC,144702,A,2514.0862,N,07917.2453,W,2.3,89.9,190615,7.4,W"
"##MN-00 00 22 0205 01560 7228 445321 204941 199"
"170.616088"
"$GPRMC,144706,A,2514.0862,N,07917.2423,W,2.3,90.0,190615,7.4,W"
"##MN-00 00 22 0207 01561 7224 445306 204939 199"
"170.616134"
"$GPRMC,144710,A,2514.0862,N,07917.2394,W,2.3,90.5,190615,7.4,W"
"##MN-00 00 22 0208 01558 7220 445285 204938 199"
"170.616181"
"$GPRMC,144714,A,2514.0860,N,07917.2365,W,2.3,90.4,190615,7.4,W"
"##MN-00 00 22 0209 01556 7216 445272 204935 199"
"170.616227"
"$GPRMC,144718,A,2514.0859,N,07917.2336,W,2.3,90.2,190615,7.4,W"
"##MN-00 00 22 0210 01551 7211 445257 204929 199"
"170.616273"
"$GPRMC,144722,A,2514.0858,N,07917.2306,W,2.3,90.4,190615,7.4,W"
"##MN-00 00 22 0211 01550 7208 445232 204926 199"
"170.616319"
"$GPRMC,144726,A,2514.0856,N,07917.2276,W,2.3,90.3,190615,7.4,W"
"##MN-00 00 22 0213 01548 7204 445209 204922 199"
"170.616366"
"$GPRMC,144730,A,2514.0855,N,07917.2248,W,2.3,90.2,190615,7.4,W"
"##MN-00 00 22 0214 01546 7200 445158 204919 199"
"170.616412"
"$GPRMC,144734,A,2514.0855,N,07917.2220,W,2.3,90.4,190615,7.4,W"
"##MN-00 00 22 0215 01542 7196 445090 204907 199"
"170.616458"
"$GPRMC,144738,A,2514.0855,N,07917.2191,W,2.3,90.6,190615,7.4,W"
"##MN-00 00 22 0217 01540 7192 445055 204900 199"
"170.616505"
"$GPRMC,144742,A,2514.0858,N,07917.2164,W,2.3,90.9,190615,7.4,W"
"##MN-00 00 22 0218 01539 7187 445036 204903 199"
"170.616551"
"$GPRMC,144746,A,2514.0854,N,07917.2135,W,2.3,91.0,190615,7.4,W"
"##MN-00 00 22 0219 01533 7184 445011 204894 199"
"170.616597"
"$GPRMC,144750,A,2514.0854,N,07917.2108,W,2.3,91.5,190615,7.4,W"
"##MN-00 00 22 0220 01532 7180 444981 204882 199"
"170.616644"
"$GPRMC,144754,A,2514.0851,N,07917.2080,W,2.3,92.0,190615,7.4,W"
"##MN-00 00 22 0222 01528 7176 444962 204877 199"
"170.61669"
"$GPRMC,144758,A,2514.0849,N,07917.2051,W,2.3,91.9,190615,7.4,W"
"##MN-00 00 22 0223 01527 7172 444873 204858 199"
"170.616736"
"$GPRMC,144802,A,2514.0846,N,07917.2023,W,2.3,91.7,190615,7.4,W"
"##MN-00 00 22 0224 01525 7168 444790 204858 199"
"170.616806"
"$GPRMC,144807,A,2514.0844,N,07917.1988,W,2.3,91.5,190615,7.4,W"
"##MN-00 00 22 0226 01520 7162 444568 204826 199"
"170.616852"
"$GPRMC,144812,A,2514.0846,N,07917.1955,W,2.3,91.5,190615,7.4,W"
"##MN-00 00 22 0227 01519 7158 444276 204774 199"
"170.616898"
"$GPRMC,144816,A,2514.0844,N,07917.1926,W,2.3,92.2,190615,7.4,W"
"##MN-00 00 22 0229 01515 7154 443971 204685 199"
"170.616944"
"$GPRMC,144820,A,2514.0840,N,07917.1898,W,2.3,92.4,190615,7.4,W"
"##MN-00 00 36 0230 01514 7150 443749 204634 199"
"170.616991"
"$GPRMC,144824,A,2514.0839,N,07917.1870,W,2.3,92.5,190615,7.4,W"
"##MN-00 00 40 0231 01511 7147 443561 204610 199"
"170.617037"
"$GPRMC,144828,A,2514.0837,N,07917.1844,W,2.2,92.7,190615,7.4,W"
"##MN-00 00 38 0232 01511 7142 443349 204530 199"
"170.617083"
"$GPRMC,144832,A,2514.0836,N,07917.1816,W,2.2,92.7,190615,7.4,W"
"##MN-00 00 38 0234 01511 7139 443296 204521 199"
"170.61713"
"$GPRMC,144836,A,2514.0836,N,07917.1789,W,2.3,92.7,190615,7.4,W"
"##MN-00 00 38 0235 01513 7135 443359 204553 199"
"170.617176"
"$GPRMC,144840,A,2514.0836,N,07917.1762,W,2.2,92.6,190615,7.4,W"
"##MN-00 00 37 0236 01511 7131 443486 204558 199"
"170.617234"
"$GPRMC,144844,A,2514.0835,N,07917.1733,W,2.3,91.6,190615,7.4,W"
"##MN-00 00 37 0237 01512 7127 443443 204546 199"
"170.61728"
"$GPRMC,144848,A,2514.0835,N,07917.1706,W,2.2,91.2,190615,7.4,W"
"##MN-00 00 36 0238 01511 7124 443446 204556 199"
"170.617326"
"$GPRMC,144852,A,2514.0836,N,07917.1677,W,2.3,90.9,190615,7.4,W"
"##MN-00 00 37 0239 01511 7120 443517 204569 199"
"170.617373"
"$GPRMC,144856,A,2514.0835,N,07917.1649,W,2.3,90.6,190615,7.4,W"
"##MN-00 00 37 0240 01511 7116 443488 204565 199"
"170.617419"
"$GPRMC,144900,A,2514.0836,N,07917.1620,W,2.3,90.0,190615,7.4,W"
"##MN-00 00 37 0242 01512 7112 443452 204554 199"
"170.617465"
"$GPRMC,144904,A,2514.0836,N,07917.1592,W,2.3,89.6,190615,7.4,W"
"##MN-00 00 37 0243 01511 7109 443470 204556 199"
"170.617512"
"$GPRMC,144908,A,2514.0837,N,07917.1564,W,2.3,89.8,190615,7.4,W"
"##MN-00 00 36 0244 01512 7105 443437 204553 199"
"170.617558"
"$GPRMC,144912,A,2514.0838,N,07917.1535,W,2.3,90.0,190615,7.4,W"
"##MN-00 00 22 0245 01514 7101 443415 204543 199"
"170.617604"
"$GPRMC,144916,A,2514.0839,N,07917.1506,W,2.3,89.9,190615,7.4,W"
"##MN-00 00 22 0246 01517 7098 443493 204550 199"
"170.61765"
"$GPRMC,144920,A,2514.0839,N,07917.1478,W,2.3,90.4,190615,7.4,W"
"##MN-00 00 22 0248 01520 7094 443531 204558 199"
"170.617697"
"$GPRMC,144924,A,2514.0839,N,07917.1449,W,2.3,90.6,190615,7.4,W"
"##MN-00 00 22 0249 01524 7091 443761 204600 199"
"170.617743"
"$GPRMC,144928,A,2514.0842,N,07917.1421,W,2.4,90.2,190615,7.4,W"
"##MN-00 00 22 0250 01525 7087 444035 204659 199"
"170.617789"
"$GPRMC,144932,A,2514.0843,N,07917.1392,W,2.4,90.2,190615,7.4,W"
"##MN-00 00 22 0251 01527 7083 444077 204662 199"
"170.617836"
"$GPRMC,144936,A,2514.0842,N,07917.1361,W,2.4,90.4,190615,7.4,W"
"##MN-00 00 22 0252 01531 7080 444100 204676 199"
"170.617882"
"$GPRMC,144940,A,2514.0837,N,07917.1330,W,2.4,90.5,190615,7.4,W"
"##MN-00 00 22 0253 01533 7076 444340 204700 199"
"170.617928"
"$GPRMC,144944,A,2514.0838,N,07917.1301,W,2.4,91.5,190615,7.4,W"
"##MN-00 00 22 0254 01536 7073 444516 204715 199"
"170.617975"
"$GPRMC,144948,A,2514.0837,N,07917.1272,W,2.4,92.2,190615,7.4,W"
"##MN-00 00 22 0256 01541 7069 444582 204748 199"
"170.618021"
"$GPRMC,144952,A,2514.0835,N,07917.1241,W,2.4,92.9,190615,7.4,W"
"##MN-00 00 22 0257 01542 7066 444684 204756 199"
"170.618067"
"$GPRMC,144956,A,2514.0833,N,07917.1211,W,2.4,93.4,190615,7.4,W"
"##MN-00 00 22 0258 01544 7062 444786 204769 199"
"170.618113"
"$GPRMC,145000,A,2514.0831,N,07917.1180,W,2.4,93.4,190615,7.4,W"
"##MN-00 00 22 0259 01546 7059 444833 204803 199"
"170.61816"
"$GPRMC,145004,A,2514.0829,N,07917.1151,W,2.4,93.6,190615,7.4,W"
"##MN-00 00 22 0260 01549 7055 444878 204804 199"
"170.618206"
"$GPRMC,145008,A,2514.0826,N,07917.1121,W,2.4,93.8,190615,7.4,W"
"##MN-00 00 22 0261 01553 7052 444917 204813 199"
"170.618252"
"$GPRMC,145012,A,2514.0824,N,07917.1099,W,2.4,93.9,190615,7.4,W"
"##MN-00 00 22 0262 01553 7048 444959 204803 199"
"170.618299"
"$GPRMC,145016,A,2514.0822,N,07917.1062,W,2.4,93.8,190615,7.4,W"
"##MN-00 00 22 0264 01558 7045 444986 204830 199"
"170.618345"
"$GPRMC,145020,A,2514.0821,N,07917.1032,W,2.4,94.2,190615,7.4,W"
"##MN-00 00 22 0265 01560 7041 445025 204857 199"
"170.618391"
"$GPRMC,145024,A,2514.0820,N,07917.1003,W,2.4,94.0,190615,7.4,W"
"##MN-00 00 22 0266 01564 7038 445051 204862 199"
"170.618437"
"$GPRMC,145028,A,2514.0818,N,07917.0974,W,2.4,94.0,190615,7.4,W"
"##MN-00 00 22 0267 01567 7034 445091 204867 199"
"170.618484"
"$GPRMC,145032,A,2514.0817,N,07917.0952,W,2.4,93.9,190615,7.4,W"
"##MN-00 00 22 0268 01569 7031 445114 204863 199"
"170.61853"
"$GPRMC,145036,A,2514.0815,N,07917.0915,W,2.4,93.4,190615,7.4,W"
"##MN-00 00 22 0269 01572 7028 445135 204882 199"
"170.618576"
"$GPRMC,145040,A,2514.0812,N,07917.0886,W,2.4,93.3,190615,7.4,W"
"##MN-00 00 22 0270 01574 7024 445146 204886 199"
"170.618623"
"$GPRMC,145045,A,2514.0810,N,07917.0849,W,2.4,93.6,190615,7.4,W"
"##MN-00 00 22 0272 01580 7021 445146 204888 199"
"170.618669"
"$GPRMC,145048,A,2514.0809,N,07917.0828,W,2.4,92.9,190615,7.4,W"
"##MN-00 00 22 0273 01579 7017 445151 204894 199"
"170.618715"
"$GPRMC,145052,A,2514.0808,N,07917.0799,W,2.4,92.3,190615,7.4,W"
"##MN-00 00 22 0274 01584 7014 445170 204896 199"
"170.618762"
"$GPRMC,145056,A,2514.0806,N,07917.0775,W,2.4,91.3,190615,7.4,W"
"##MN-00 00 22 0275 01590 7011 445197 204903 199"
"170.618808"
"$GPRMC,145101,A,2514.0804,N,07917.0744,W,2.4,90.9,190615,7.4,W"
"##MN-00 00 22 0276 01591 7007 445230 204905 199"
"170.618854"
"$GPRMC,145105,A,2514.0801,N,07917.0719,W,2.4,90.3,190615,7.4,W"
"##MN-00 00 22 0277 01595 7004 445246 204911 199"
"170.6189"
"$GPRMC,145109,A,2514.0802,N,07917.0691,W,2.4,89.6,190615,7.4,W"
"##MN-00 00 22 0278 01596 7001 445253 204914 199"
"170.618947"
"$GPRMC,145113,A,2514.0804,N,07917.0661,W,2.4,89.2,190615,7.4,W"
"##MN-00 00 22 0279 01603 6997 445266 204914 199"
"170.618993"
"$GPRMC,145117,A,2514.0807,N,07917.0630,W,2.4,88.3,190615,7.4,W"
"##MN-00 00 22 0281 01604 6994 445267 204914 199"
"170.619039"
"$GPRMC,145121,A,2514.0810,N,07917.0599,W,2.4,87.4,190615,7.4,W"
"##MN-00 00 22 0282 01606 6991 445271 204915 199"
"170.619086"
"$GPRMC,145125,A,2514.0811,N,07917.0569,W,2.4,86.2,190615,7.4,W"
"##MN-00 00 22 0283 01608 6987 445279 204918 199"
"170.619132"
"$GPRMC,145129,A,2514.0815,N,07917.0540,W,2.4,84.9,190615,7.4,W"
"##MN-00 00 22 0284 01612 6984 445284 204919 199"
"170.619178"
"$GPRMC,145133,A,2514.0817,N,07917.0511,W,2.4,83.6,190615,7.4,W"
"##MN-00 00 22 0285 01615 6981 445297 204920 199"
"170.619225"
"$GPRMC,145137,A,2514.0822,N,07917.0482,W,2.4,83.1,190615,7.4,W"
"##MN-00 00 22 0286 01618 6978 445300 204921 199"
"170.619271"
"$GPRMC,145141,A,2514.0825,N,07917.0453,W,2.4,83.1,190615,7.4,W"
"##MN-00 00 22 0287 01620 6974 445305 204922 199"
"170.619317"
"$GPRMC,145145,A,2514.0826,N,07917.0423,W,2.4,83.1,190615,7.4,W"
"##MN-00 00 22 0289 01621 6971 445308 204922 199"
"170.619363"
"$GPRMC,145149,A,2514.0829,N,07917.0393,W,2.4,83.8,190615,7.4,W"
"##MN-00 00 22 0290 01619 6968 445303 204923 199"
"170.61941"
"$GPRMC,145153,A,2514.0833,N,07917.0363,W,2.4,84.5,190615,7.4,W"
"##MN-00 00 22 0291 01621 6965 445297 204922 199"
"170.619456"
"$GPRMC,145157,A,2514.0835,N,07917.0332,W,2.4,85.3,190615,7.4,W"
"##MN-00 00 22 0292 01619 6961 445290 204921 199"
"170.619502"
"$GPRMC,145201,A,2514.0833,N,07917.0304,W,2.4,86.2,190615,7.4,W"
"##MN-00 00 22 0293 01617 6958 445279 204919 199"
"170.619549"
"$GPRMC,145205,A,2514.0833,N,07917.0275,W,2.4,87.2,190615,7.4,W"
"##MN-00 00 22 0295 01620 6955 445268 204918 199"
"170.619595"
"$GPRMC,145209,A,2514.0833,N,07917.0245,W,2.4,88.4,190615,7.4,W"
"##MN-00 00 22 0296 01620 6952 445262 204916 199"
"170.619641"
"$GPRMC,145213,A,2514.0836,N,07917.0215,W,2.4,89.8,190615,7.4,W"
"##MN-00 00 22 0297 01619 6949 445255 204915 199"
"170.619688"
"$GPRMC,145217,A,2514.0836,N,07917.0185,W,2.4,90.5,190615,7.4,W"
"##MN-00 00 22 0298 01621 6946 445247 204914 199"
"170.619734"
"$GPRMC,145221,A,2514.0836,N,07917.0155,W,2.4,91.0,190615,7.4,W"
"##MN-00 00 22 0300 01619 6943 445247 204912 199"
"170.61978"
"$GPRMC,145225,A,2514.0835,N,07917.0125,W,2.3,91.0,190615,7.4,W"
"##MN-00 00 22 0301 01621 6939 445247 204912 199"
"170.619826"
"$GPRMC,145229,A,2514.0834,N,07917.0095,W,2.4,90.8,190615,7.4,W"
"##MN-00 00 22 0302 01621 6936 445252 204912 199"
"170.619873"
"$GPRMC,145233,A,2514.0833,N,07917.0065,W,2.4,90.9,190615,7.4,W"
"##MN-00 00 22 0303 01620 6933 445255 204913 199"
"170.619919"
"$GPRMC,145237,A,2514.0830,N,07917.0037,W,2.4,90.7,190615,7.4,W"
"##MN-00 00 22 0304 01622 6930 445249 204912 199"
"170.619965"
"$GPRMC,145241,A,2514.0830,N,07917.0007,W,2.4,90.3,190615,7.4,W"
"##MN-00 00 22 0306 01620 6927 445249 204913 199"
"170.620012"
"$GPRMC,145245,A,2514.0830,N,07916.9980,W,2.4,90.1,190615,7.4,W"
"##MN+00 00 22 0307 01620 6924 445251 204912 199"
"170.620058"
"$GPRMC,145249,A,2514.0831,N,07916.9953,W,2.3,90.0,190615,7.4,W"
"##MN+00 00 22 0308 01622 6921 445247 204912 199"
"170.620104"
"$GPRMC,145253,A,2514.0831,N,07916.9924,W,2.3,90.1,190615,7.4,W"
"##MN+00 00 22 0309 01620 6917 445246 204912 199"
"170.62015"
"$GPRMC,145257,A,2514.0833,N,07916.9893,W,2.3,89.7,190615,7.4,W"
"##MN+00 00 22 0310 01621 6915 445247 204911 199"
"170.620197"
"$GPRMC,145301,A,2514.0833,N,07916.9863,W,2.3,89.4,190615,7.4,W"
"##MN+00 00 22 0312 01623 6911 445249 204911 199"
"170.620243"
"$GPRMC,145305,A,2514.0836,N,07916.9831,W,2.3,88.7,190615,7.4,W"
"##MN+00 00 22 0313 01625 6908 445253 204912 199"
"170.620289"
"$GPRMC,145309,A,2514.0837,N,07916.9800,W,2.4,88.2,190615,7.4,W"
"##MN-00 00 26 0314 01625 6905 445252 204912 199"
"170.620347"
"#increment_net"
"$GPRMC,145313,A,2514.0840,N,07916.9770,W,2.4,87.3,190615,7.4,W"
"##MN-00 00 21 0315 01625 6902 445259 204913 199"
"170.620394"
"$GPRMC,145317,A,2514.0840,N,07916.9740,W,2.4,87.1,190615,7.4,W"
"##MN-00 00 22 0316 01625 6900 445262 204913 199"
"170.62044"
"$GPRMC,145321,A,2514.0842,N,07916.9711,W,2.4,87.2,190615,7.4,W"
"##MN-00 00 22 0317 01624 6896 445263 204913 199"
"170.620486"
"$GPRMC,145325,A,2514.0843,N,07916.9682,W,2.4,86.8,190615,7.4,W"
"##MN-00 00 22 0319 01625 6893 445263 204913 199"
"170.620532"
"$GPRMC,145329,A,2514.0844,N,07916.9653,W,2.4,86.8,190615,7.4,W"
"##MN-00 00 22 0320 01625 6890 445262 204913 199"
"170.620579"
"$GPRMC,145333,A,2514.0845,N,07916.9623,W,2.4,87.0,190615,7.4,W"
"##MN-00 00 22 0321 01627 6888 445258 204913 199"
"170.620625"
"$GPRMC,145337,A,2514.0846,N,07916.9593,W,2.4,87.4,190615,7.4,W"
"##MN-00 00 22 0322 01627 6885 445256 204913 199"
"170.620671"
"$GPRMC,145341,A,2514.0847,N,07916.9564,W,2.4,87.1,190615,7.4,W"
"##MN-00 00 22 0323 01626 6882 445254 204912 199"
"170.620718"
"$GPRMC,145345,A,2514.0850,N,07916.9534,W,2.4,87.8,190615,7.4,W"
"##MN-00 00 22 0325 01626 6878 445246 204911 199"
"170.620764"
"$GPRMC,145349,A,2514.0850,N,07916.9505,W,2.4,88.7,190615,7.4,W"
"##MN+00 00 22 0326 01625 6876 445232 204908 199"
"170.62081"
"$GPRMC,145353,A,2514.0847,N,07916.9477,W,2.4,89.8,190615,7.4,W"
"##MN+00 00 22 0327 01625 6873 445217 204907 199"
"170.620856"
"$GPRMC,145357,A,2514.0845,N,07916.9450,W,2.4,90.1,190615,7.4,W"
"##MN+00 00 22 0328 01625 6870 445209 204904 199"
"170.620903"
"$GPRMC,145401,A,2514.0846,N,07916.9421,W,2.4,90.3,190615,7.4,W"
"##MN-00 00 22 0329 01623 6867 445204 204902 199"
"170.620949"
"$GPRMC,145405,A,2514.0847,N,07916.9391,W,2.4,90.0,190615,7.4,W"
"##MN-00 00 22 0331 01624 6864 445196 204900 199"
"170.620995"
"$GPRMC,145409,A,2514.0847,N,07916.9362,W,2.4,89.8,190615,7.4,W"
"##MN+00 00 22 0332 01625 6861 445186 204898 199"
"170.621042"
"$GPRMC,145413,A,2514.0847,N,07916.9334,W,2.4,89.9,190615,7.4,W"
"##MN+00 00 22 0333 01629 6858 445185 204898 199"
"170.621088"
"$GPRMC,145417,A,2514.0847,N,07916.9304,W,2.3,89.7,190615,7.4,W"
"##MN+00 00 52 0334 01626 6855 445188 204898 199"
"170.621134"
"$GPRMC,145421,A,2514.0847,N,07916.9275,W,2.4,89.2,190615,7.4,W"
"##MN-00 00 22 0335 01627 6853 445182 204897 199"
"170.621181"
"#increment_net"
"$GPRMC,145425,A,2514.0846,N,07916.9246,W,2.4,89.5,190615,7.4,W"
"##MN-00 00 22 0336 01625 6850 445177 204896 199"
"170.621227"
"$GPRMC,145429,A,2514.0847,N,07916.9218,W,2.3,89.6,190615,7.4,W"
"##MN-00 00 22 0338 01625 6847 445176 204896 199"
"170.621273"
"$GPRMC,145433,A,2514.0849,N,07916.9189,W,2.3,89.0,190615,7.4,W"
"##MN-00 00 22 0339 01625 6844 445170 204895 199"
"170.621319"
"$GPRMC,145437,A,2514.0851,N,07916.9159,W,2.3,89.0,190615,7.4,W"
"##MN-00 00 22 0340 01623 6842 445165 204895 199"
"170.621366"
"$GPRMC,145441,A,2514.0851,N,07916.9131,W,2.3,89.0,190615,7.4,W"
"##MN-00 00 22 0341 01624 6839 445158 204893 199"
"170.621412"
"$GPRMC,145445,A,2514.0851,N,07916.9102,W,2.3,89.6,190615,7.4,W"
"##MN-00 00 22 0343 01623 6836 445155 204892 199"
"170.621458"
"$GPRMC,145449,A,2514.0851,N,07916.9074,W,2.3,89.9,190615,7.4,W"
"##MN-00 00 22 0344 01624 6833 445157 204893 199"
"170.621505"
"$GPRMC,145453,A,2514.0849,N,07916.9049,W,2.3,89.5,190615,7.4,W"
"##MN-00 00 22 0345 01622 6830 445151 204892 199"
"170.621551"
"$GPRMC,145457,A,2514.0849,N,07916.9023,W,2.2,90.0,190615,7.4,W"
"##MN-00 00 22 0346 01623 6827 445146 204892 199"
"170.621597"
"$GPRMC,145501,A,2514.0847,N,07916.8998,W,2.2,90.5,190615,7.4,W"
"##MN-00 00 22 0347 01626 6825 445144 204891 199"
"170.621644"
"$GPRMC,145505,A,2514.0846,N,07916.8972,W,2.2,91.2,190615,7.4,W"
"##MN+00 00 22 0349 01625 6822 445147 204891 199"
"170.62169"
"$GPRMC,145509,A,2514.0846,N,07916.8944,W,2.2,91.5,190615,7.4,W"
"##MN+00 00 22 0350 01625 6819 445150 204891 199"
"170.621736"
"$GPRMC,145513,A,2514.0845,N,07916.8917,W,2.2,91.3,190615,7.4,W"
"##MN+00 00 22 0351 01624 6817 445145 204891 199"
"170.621782"
"$GPRMC,145517,A,2514.0844,N,07916.8893,W,2.2,91.2,190615,7.4,W"
"##MN+00 00 22 0352 01626 6814 445140 204890 199"
"170.621829"
"$GPRMC,145521,A,2514.0844,N,07916.8867,W,2.2,91.4,190615,7.4,W"
"##MN+00 00 24 0353 01626 6811 445142 204890 199"
"170.621875"
"$GPRMC,145525,A,2514.0844,N,07916.8838,W,2.2,91.3,190615,7.4,W"
"##MN+00 00 25 0354 01629 6809 445146 204890 199"
"170.621921"
"$GPRMC,145529,A,2514.0844,N,07916.8808,W,2.2,91.5,190615,7.4,W"
"##MN-00 00 22 0355 01630 6806 445149 204891 199"
"170.621968"
"#increment_net"
"$GPRMC,145534,A,2514.0846,N,07916.8771,W,2.2,91.4,190615,7.4,W"
"##MN-00 00 21 0357 01628 6803 445149 204890 199"
"170.622014"
"$GPRMC,145538,A,2514.0846,N,07916.8744,W,2.2,90.4,190615,7.4,W"
"##MN-00 00 22 0358 01628 6801 445143 204890 199"
"170.62206"
"$GPRMC,145542,A,2514.0844,N,07916.8720,W,2.2,89.7,190615,7.4,W"
"##MN-00 00 22 0359 01626 6798 445139 204888 199"
"170.622106"
"$GPRMC,145546,A,2514.0844,N,07916.8693,W,2.2,89.5,190615,7.4,W"
"##MN-00 00 22 0360 01627 6795 445129 204888 199"
"170.622153"
"$GPRMC,145550,A,2514.0844,N,07916.8667,W,2.2,89.1,190615,7.4,W"
"##MN-00 00 22 0362 01628 6792 445123 204888 199"
"170.622199"
"$GPRMC,145554,A,2514.0844,N,07916.8639,W,2.2,89.2,190615,7.4,W"
"##MN-00 00 22 0363 01626 6790 445123 204887 199"
"170.622245"
"$GPRMC,145558,A,2514.0845,N,07916.8611,W,2.2,89.2,190615,7.4,W"
"##MN-00 00 22 0364 01624 6787 445127 204888 199"
"170.622292"
"$GPRMC,145602,A,2514.0844,N,07916.8582,W,2.2,89.8,190615,7.4,W"
"##MN-00 00 22 0365 01624 6785 445127 204887 199"
"170.622338"
"$GPRMC,145606,A,2514.0844,N,07916.8553,W,2.2,90.3,190615,7.4,W"
"##MN-00 00 22 0367 01625 6782 445118 204887 199"
"170.622384"
"$GPRMC,145610,A,2514.0844,N,07916.8525,W,2.2,90.8,190615,7.4,W"
"##MN-00 00 22 0368 01624 6779 445114 204886 199"
"170.622431"
"$GPRMC,145614,A,2514.0844,N,07916.8497,W,2.2,90.9,190615,7.4,W"
"##MN+00 00 22 0369 01625 6777 445113 204886 199"
"170.622477"
"$GPRMC,145618,A,2514.0842,N,07916.8470,W,2.2,90.8,190615,7.4,W"
"##MN+00 00 22 0370 01622 6774 445107 204885 199"
"170.622523"
"$GPRMC,145622,A,2514.0841,N,07916.8443,W,2.2,90.9,190615,7.4,W"
"##MN+00 00 22 0371 01624 6772 445100 204883 199"
"170.622569"
"$GPRMC,145626,A,2514.0842,N,07916.8415,W,2.2,91.5,190615,7.4,W"
"##MN-00 00 22 0373 01626 6769 445094 204883 199"
"170.622616"
"$GPRMC,145630,A,2514.0842,N,07916.8388,W,2.2,91.6,190615,7.4,W"
"##MN-00 00 22 0374 01623 6766 445089 204882 199"
"170.622662"
"$GPRMC,145634,A,2514.0841,N,07916.8360,W,2.2,91.6,190615,7.4,W"
"##MN+00 00 22 0375 01623 6764 445082 204880 199"
"170.622708"
"$GPRMC,145638,A,2514.0840,N,07916.8334,W,2.2,91.7,190615,7.4,W"
"##MN+00 00 22 0376 01622 6761 445077 204879 199"
"170.622755"
"$GPRMC,145642,A,2514.0840,N,07916.8307,W,2.2,91.5,190615,7.4,W"
"##MN+00 00 22 0378 01626 6759 445074 204878 199"
"170.622801"
"#increment_net"
"$GPRMC,145646,A,2514.0840,N,07916.8280,W,2.2,91.8,190615,7.4,W"
"##MN-00 00 22 0379 01625 6756 445070 204878 199"
"170.622847"
"$GPRMC,145650,A,2514.0840,N,07916.8252,W,2.2,92.1,190615,7.4,W"
"##MN-00 00 22 0380 01625 6754 445076 204879 199"
"170.622894"
"$GPRMC,145654,A,2514.0838,N,07916.8224,W,2.2,91.7,190615,7.4,W"
"##MN-00 00 22 0381 01623 6751 445072 204878 199"
"170.62294"
"$GPRMC,145658,A,2514.0838,N,07916.8195,W,2.2,91.5,190615,7.4,W"
"##MN-00 00 22 0382 01624 6749 445066 204877 199"
"170.622986"
"$GPRMC,145702,A,2514.0838,N,07916.8168,W,2.2,91.4,190615,7.4,W"
"##MN-00 00 22 0384 01624 6746 445054 204875 199"
"170.623032"
"$GPRMC,145706,A,2514.0837,N,07916.8140,W,2.2,92.0,190615,7.4,W"
"##MN-00 00 22 0385 01624 6744 445040 204872 199"
"170.623079"
"$GPRMC,145710,A,2514.0837,N,07916.8113,W,2.2,91.6,190615,7.4,W"
"##MN-00 00 22 0386 01623 6741 445034 204871 199"
"170.623125"
"$GPRMC,145714,A,2514.0837,N,07916.8086,W,2.2,91.0,190615,7.4,W"
"##MN-00 00 22 0387 01623 6739 445031 204870 199"
"170.623171"
"$GPRMC,145718,A,2514.0836,N,07916.8058,W,2.1,90.8,190615,7.4,W"
"##MN-00 00 22 0389 01623 6736 445030 204870 199"
"170.623218"
"$GPRMC,145722,A,2514.0836,N,07916.8031,W,2.2,90.3,190615,7.4,W"
"##MN-00 00 22 0390 01624 6734 445025 204870 199"
"170.623264"
"$GPRMC,145726,A,2514.0839,N,07916.8004,W,2.2,89.6,190615,7.4,W"
"##MN+00 00 22 0391 01623 6731 445023 204869 199"
"170.62331"
"$GPRMC,145730,A,2514.0839,N,07916.7977,W,2.2,89.7,190615,7.4,W"
"##MN+00 00 22 0392 01623 6729 445018 204868 199"
"170.623357"
"$GPRMC,145734,A,2514.0840,N,07916.7950,W,2.2,89.4,190615,7.4,W"
"##MN+00 00 22 0394 01624 6726 445011 204865 199"
"170.623403"
"$GPRMC,145738,A,2514.0840,N,07916.7924,W,2.2,89.5,190615,7.4,W"
"##MN+00 00 22 0395 01623 6724 444997 204863 199"
"170.623449"
"$GPRMC,145742,A,2514.0840,N,07916.7896,W,2.2,89.7,190615,7.4,W"
"##MN+00 00 22 0396 01624 6722 444988 204862 199"
"170.623495"
"$GPRMC,145746,A,2514.0840,N,07916.7869,W,2.2,89.8,190615,7.4,W"
"##MN+00 00 22 0397 01626 6719 444978 204858 199"
"170.623542"
"$GPRMC,145750,A,2514.0840,N,07916.7840,W,2.2,90.4,190615,7.4,W"
"##MN-00 00 22 0399 01627 6717 444962 204855 199"
"170.6236"
"$GPRMC,145754,A,2514.0839,N,07916.7812,W,2.2,91.0,190615,7.4,W"
"##MN-00 00 22 0400 01635 6714 444957 204855 199"
"170.623646"
"#increment_net"
"$GPRMC,145758,A,2514.0839,N,07916.7783,W,2.3,90.8,190615,7.4,W"
"##MN-00 00 22 0402 01643 6712 444969 204855 199"
"170.623692"
"$GPRMC,145802,A,2514.0837,N,07916.7754,W,2.3,91.0,190615,7.4,W"
"##MN-00 00 22 0403 01645 6710 444983 204858 199"
"170.623738"
"$GPRMC,145806,A,2514.0837,N,07916.7723,W,2.4,90.3,190615,7.4,W"
"##MN-00 00 22 0405 01650 6707 445008 204861 199"
"170.623785"
"$GPRMC,145810,A,2514.0837,N,07916.7694,W,2.4,90.1,190615,7.4,W"
"##MN-00 00 22 0406 01653 6705 445019 204864 199"
"170.623831"
"$GPRMC,145814,A,2514.0837,N,07916.7663,W,2.4,89.7,190615,7.4,W"
"##MN-00 00 22 0408 01652 6703 445021 204864 199"
"170.623877"
"$GPRMC,145818,A,2514.0837,N,07916.7633,W,2.5,89.7,190615,7.4,W"
"##MN-00 00 22 0409 01652 6701 445028 204866 199"
"170.623924"
"$GPRMC,145822,A,2514.0838,N,07916.7602,W,2.5,89.4,190615,7.4,W"
"##MN-00 00 22 0411 01651 6698 445031 204866 199"
"170.62397"
"$GPRMC,145826,A,2514.0838,N,07916.7570,W,2.5,89.5,190615,7.4,W"
"##MN-00 00 22 0412 01648 6696 445026 204865 199"
"170.624016"
"$GPRMC,145830,A,2514.0840,N,07916.7539,W,2.5,89.6,190615,7.4,W"
"##MN-00 00 22 0414 01647 6694 444993 204860 199"
"170.624062"
"$GPRMC,145834,A,2514.0838,N,07916.7509,W,2.5,90.1,190615,7.4,W"
"##MN-00 00 22 0416 01645 6691 444976 204857 199"
"170.624109"
"$GPRMC,145838,A,2514.0838,N,07916.7477,W,2.5,90.2,190615,7.4,W"
"##MN-00 00 22 0417 01640 6689 444966 204852 199"
"170.624155"
"$GPRMC,145842,A,2514.0838,N,07916.7445,W,2.5,90.5,190615,7.4,W"
"##MN-00 00 22 0419 01637 6686 444937 204850 199"
"170.624201"
"$GPRMC,145846,A,2514.0836,N,07916.7413,W,2.5,91.0,190615,7.4,W"
"##MN-00 00 22 0420 01636 6684 444949 204851 199"
"170.624248"
"$GPRMC,145850,A,2514.0835,N,07916.7382,W,2.5,91.5,190615,7.4,W"
"##MN-00 00 22 0422 01630 6682 444902 204841 199"
"170.624294"
"$GPRMC,145854,A,2514.0835,N,07916.7350,W,2.5,91.6,190615,7.4,W"
"##MN-00 00 22 0424 01629 6680 444867 204835 199"
"170.62434"
"$GPRMC,145858,A,2514.0836,N,07916.7319,W,2.5,92.2,190615,7.4,W"
"##MN-00 00 22 0425 01624 6678 444839 204827 199"
"170.624387"
"$GPRMC,145902,A,2514.0835,N,07916.7287,W,2.5,92.6,190615,7.4,W"
"##MN-00 00 22 0427 01621 6675 444807 204824 199"
"170.624433"
"$GPRMC,145906,A,2514.0833,N,07916.7255,W,2.5,92.7,190615,7.4,W"
"##MN-00 00 22 0429 01617 6673 444789 204819 199"
"170.624479"
"$GPRMC,145910,A,2514.0833,N,07916.7222,W,2.5,92.6,190615,7.4,W"
"##MN-00 00 22 0430 01614 6671 444779 204819 199"
"170.624525"
"$GPRMC,145914,A,2514.0833,N,07916.7191,W,2.5,92.6,190615,7.4,W"
"##MN-00 00 22 0432 01611 6669 444777 204819 199"
"170.624572"
"$GPRMC,145918,A,2514.0832,N,07916.7159,W,2.5,92.7,190615,7.4,W"
"##MN-00 00 22 0433 01608 6666 444790 204822 199"
"170.624618"
"$GPRMC,145922,A,2514.0830,N,07916.7126,W,2.5,92.8,190615,7.4,W"
"##MN-00 00 22 0435 01605 6664 444777 204819 199"
"170.624664"
"$GPRMC,145926,A,2514.0830,N,07916.7095,W,2.5,91.8,190615,7.4,W"
"##MN-00 00 22 0437 01602 6662 444715 204807 199"
"170.624711"
"$GPRMC,145930,A,2514.0831,N,07916.7063,W,2.6,91.8,190615,7.4,W"
"##MN-00 00 22 0438 01599 6660 444683 204799 199"
"170.624757"
"$GPRMC,145934,A,2514.0829,N,07916.7031,W,2.6,91.1,190615,7.4,W"
"##MN-00 00 22 0440 01594 6658 444664 204797 199"
"170.624803"
"$GPRMC,145938,A,2514.0829,N,07916.6999,W,2.5,90.6,190615,7.4,W"
"##MN-00 00 22 0441 01591 6656 444655 204798 199"
"170.62485"
"$GPRMC,145942,A,2514.0829,N,07916.6968,W,2.6,90.1,190615,7.4,W"
"##MN-00 00 22 0443 01588 6654 444611 204790 199"
"170.624896"
"$GPRMC,145946,A,2514.0831,N,07916.6937,W,2.5,89.8,190615,7.4,W"
"##MN-00 00 22 0445 01584 6651 444621 204796 199"
"170.624942"
"$GPRMC,145950,A,2514.0829,N,07916.6907,W,2.5,88.8,190615,7.4,W"
"##MN-00 00 22 0446 01580 6649 444612 204788 199"
"170.624988"
"$GPRMC,145954,A,2514.0829,N,07916.6877,W,2.5,88.2,190615,7.4,W"
"##MN-00 00 22 0448 01575 6647 444553 204782 199"
"170.625035"
"$GPRMC,145958,A,2514.0831,N,07916.6847,W,2.5,87.6,190615,7.4,W"
"##MN-00 00 22 0450 01573 6645 444521 204776 199"
"170.625081"
"$GPRMC,150003,A,2514.0832,N,07916.6809,W,2.5,87.3,190615,7.4,W"
"##MN-00 00 22 0451 01571 6643 444495 204774 199"
"170.625127"
"$GPRMC,150007,A,2514.0833,N,07916.6778,W,2.5,87.6,190615,7.4,W"
"##MN-00 00 22 0453 01567 6641 444475 204768 199"
"170.625174"
"$GPRMC,150011,A,2514.0833,N,07916.6746,W,2.5,87.9,190615,7.4,W"
"##MN-00 00 22 0454 01563 6639 444441 204761 199"
"170.62522"
"$GPRMC,150015,A,2514.0833,N,07916.6715,W,2.5,88.4,190615,7.4,W"
"##MN-00 00 22 0456 01560 6636 444417 204759 199"
"170.625266"
"$GPRMC,150019,A,2514.0834,N,07916.6684,W,2.5,88.9,190615,7.4,W"
"##MN-00 00 22 0458 01557 6634 444400 204755 199"
"170.625312"
"$GPRMC,150023,A,2514.0834,N,07916.6653,W,2.6,89.3,190615,7.4,W"
"##MN-00 00 22 0459 01554 6633 444378 204750 199"
"170.625359"
"$GPRMC,150027,A,2514.0835,N,07916.6621,W,2.5,89.8,190615,7.4,W"
"##MN-00 00 22 0461 01547 6631 444341 204743 199"
"170.625405"
"$GPRMC,150031,A,2514.0833,N,07916.6589,W,2.5,90.2,190615,7.4,W"
"##MN-00 00 22 0462 01545 6629 444277 204732 199"
"170.625451"
"$GPRMC,150035,A,2514.0833,N,07916.6557,W,2.5,90.9,190615,7.4,W"
"##MN-00 00 22 0464 01539 6626 444254 204727 199"
"170.625498"
"$GPRMC,150039,A,2514.0831,N,07916.6525,W,2.5,91.7,190615,7.4,W"
"##MN-00 00 22 0466 01536 6624 444221 204720 199"
"170.625544"
"$GPRMC,150043,A,2514.0831,N,07916.6492,W,2.6,92.2,190615,7.4,W"
"##MN-00 00 22 0467 01532 6622 444184 204712 199"
"170.62559"
"$GPRMC,150047,A,2514.0832,N,07916.6459,W,2.5,92.6,190615,7.4,W"
"##MN-00 00 21 0469 01529 6620 444114 204694 199"
"170.625637"
"$GPRMC,150051,A,2514.0831,N,07916.6428,W,2.5,92.5,190615,7.4,W"
"##MN-00 00 21 0471 01527 6618 443939 204644 199"
"170.625683"
"$GPRMC,150055,A,2514.0830,N,07916.6395,W,2.6,92.1,190615,7.4,W"
"##MN-00 00 22 0472 01524 6616 443485 204579 199"
"170.625729"
"$GPRMC,150059,A,2514.0830,N,07916.6363,W,2.6,92.2,190615,7.4,W"
"##MN-00 00 22 0474 01522 6614 443295 204505 199"
"170.625775"
"$GPRMC,150103,A,2514.0829,N,07916.6330,W,2.6,91.5,190615,7.4,W"
"##MN-00 00 21 0475 01523 6612 443104 204571 199"
"170.625822"
"$GPRMC,150107,A,2514.0829,N,07916.6298,W,2.5,91.2,190615,7.4,W"
"##MN-00 00 22 0477 01524 6611 443127 204501 199"
"170.625868"
"$GPRMC,150111,A,2514.0829,N,07916.6267,W,2.5,90.8,190615,7.4,W"
"##MN-00 00 42 0479 01521 6608 443051 204484 199"
"170.625914"
"$GPRMC,150115,A,2514.0828,N,07916.6235,W,2.6,90.6,190615,7.4,W"
"##MN-00 00 40 0481 01520 6607 442965 204461 199"
"170.625961"
"$GPRMC,150119,A,2514.0827,N,07916.6203,W,2.5,90.4,190615,7.4,W"
"##MN-00 00 39 0482 01520 6605 443038 204476 199"
