" Tow: 7ES-B   RVWS/WS15161"
" Date: 19/06/2015"
" Temperature Probe #  4762    Conductivity Probe #  710"
" Pressure Probe #  159"
" Flow Meter Calibration  4.71 (m/count)  "
"170.643484"
"$GPRMC,152632,A,2514.1547,N,07915.3459,W,3.0,91.3,190615,7.4,W"
"##MN-00 00 66 0535 01524 6171 000104 655471 198"
"170.64353"
"$GPRMC,152637,A,2514.1544,N,07915.3410,W,3.0,91.0,190615,7.4,W"
"##MN-00 00 66 0535 01523 6166 419198 827851 198"
"170.643576"
"$GPRMC,152641,A,2514.1541,N,07915.3371,W,3.0,91.0,190615,7.4,W"
"##MN-00 00 66 0535 01521 6162 420609 827852 198"
"170.643623"
"$GPRMC,152645,A,2514.1541,N,07915.3334,W,3.0,90.7,190615,7.4,W"
"##MN-00 00 66 0535 01523 6157 422259 827851 198"
"170.643669"
"$GPRMC,152649,A,2514.1543,N,07915.3299,W,3.0,90.6,190615,7.4,W"
"##MN-00 00 66 0535 01523 6152 424447 827852 198"
"170.643715"
"$GPRMC,152653,A,2514.1541,N,07915.3261,W,3.0,90.3,190615,7.4,W"
"##MN-00 00 66 0535 01523 6147 426327 827851 198"
"170.643762"
"$GPRMC,152657,A,2514.1543,N,07915.3227,W,2.9,90.2,190615,7.4,W"
"##MN-00 00 66 0535 01523 6142 427125 827850 198"
"170.643808"
"$GPRMC,152701,A,2514.1544,N,07915.3193,W,2.9,89.8,190615,7.4,W"
"##MN-00 00 66 0536 01522 6137 428287 827850 198"
"170.643854"
"$GPRMC,152705,A,2514.1544,N,07915.3160,W,2.8,89.2,190615,7.4,W"
"##MN-00 00 46 0536 01524 6133 439409 209344 198"
"170.6439"
"$GPRMC,152709,A,2514.1547,N,07915.3128,W,2.8,88.5,190615,7.4,W"
"##MN-00 00 62 0537 01524 6128 441000 204809 198"
"170.643947"
"$GPRMC,152713,A,2514.1547,N,07915.3096,W,2.6,88.4,190615,7.4,W"
"##MN-00 00 38 0538 01524 6124 441107 206178 198"
"170.644005"
"$GPRMC,152717,A,2514.1547,N,07915.3064,W,2.6,87.8,190615,7.4,W"
"##MN-00 00 38 0540 01526 6119 441160 204303 198"
"170.644051"
"$GPRMC,152721,A,2514.1546,N,07915.3034,W,2.5,87.6,190615,7.4,W"
"##MN-00 00 38 0541 01525 6115 441206 204305 198"
"170.644097"
"$GPRMC,152725,A,2514.1546,N,07915.3005,W,2.4,87.7,190615,7.4,W"
"##MN-00 00 38 0542 01526 6111 441192 204285 198"
"170.644144"
"$GPRMC,152729,A,2514.1548,N,07915.2976,W,2.4,87.6,190615,7.4,W"
"##MN-00 00 22 0543 01529 6107 441122 204231 198"
"170.64419"
"$GPRMC,152733,A,2514.1548,N,07915.2947,W,2.3,87.6,190615,7.4,W"
"##MN-00 00 22 0544 01531 6103 441285 204252 198"
"170.644236"
"$GPRMC,152737,A,2514.1550,N,07915.2921,W,2.3,87.1,190615,7.4,W"
"##MN-00 00 22 0545 01533 6100 441871 204450 198"
"170.644282"
"$GPRMC,152741,A,2514.1552,N,07915.2895,W,2.3,87.0,190615,7.4,W"
"##MN-00 00 22 0546 01538 6096 442541 204520 198"
"170.644329"
"$GPRMC,152745,A,2514.1553,N,07915.2868,W,2.2,87.1,190615,7.4,W"
"##MN-00 00 22 0547 01538 6093 442719 204479 198"
"170.644375"
"$GPRMC,152749,A,2514.1555,N,07915.2842,W,2.2,87.3,190615,7.4,W"
"##MN-00 00 22 0548 01542 6090 442583 204474 198"
"170.644421"
"$GPRMC,152753,A,2514.1557,N,07915.2814,W,2.2,88.0,190615,7.4,W"
"##MN-00 00 22 0549 01544 6087 442856 204502 198"
"170.644468"
"$GPRMC,152757,A,2514.1559,N,07915.2787,W,2.2,89.1,190615,7.4,W"
"##MN-00 00 21 0551 01547 6085 443117 204570 198"
"170.644514"
"$GPRMC,152801,A,2514.1559,N,07915.2760,W,2.2,88.9,190615,7.4,W"
"##MN-00 00 21 0552 01551 6082 443238 204610 198"
"170.64456"
"$GPRMC,152805,A,2514.1559,N,07915.2733,W,2.2,88.9,190615,7.4,W"
"##MN-00 00 21 0553 01554 6080 443351 204627 198"
"170.644606"
"$GPRMC,152809,A,2514.1559,N,07915.2706,W,2.2,89.4,190615,7.4,W"
"##MN-00 00 22 0554 01558 6078 443398 204634 198"
"170.644653"
"$GPRMC,152813,A,2514.1559,N,07915.2679,W,2.2,89.3,190615,7.4,W"
"##MN-00 00 22 0555 01562 6076 443475 204649 198"
"170.644699"
"$GPRMC,152817,A,2514.1561,N,07915.2652,W,2.2,89.3,190615,7.4,W"
"##MN-00 00 22 0556 01561 6074 443525 204651 198"
"170.644745"
"$GPRMC,152821,A,2514.1559,N,07915.2626,W,2.2,89.5,190615,7.4,W"
"##MN-00 00 21 0557 01567 6072 443574 204664 198"
"170.644792"
"$GPRMC,152825,A,2514.1559,N,07915.2599,W,2.2,89.6,190615,7.4,W"
"##MN-00 00 22 0558 01571 6070 443599 204673 198"
"170.644838"
"$GPRMC,152829,A,2514.1550,N,07915.2565,W,2.2,89.4,190615,7.4,W"
"##MN-00 00 22 0559 01571 6069 443617 204676 198"
"170.644884"
"$GPRMC,152833,A,2514.1548,N,07915.2536,W,2.1,88.6,190615,7.4,W"
"##MN-00 00 22 0560 01576 6067 443644 204673 198"
"170.644931"
"$GPRMC,152837,A,2514.1550,N,07915.2510,W,2.2,88.5,190615,7.4,W"
"##MN-00 00 22 0562 01577 6065 443663 204675 198"
"170.644977"
"$GPRMC,152841,A,2514.1552,N,07915.2484,W,2.2,87.9,190615,7.4,W"
"##MN-00 00 22 0563 01583 6064 443681 204680 198"
"170.645023"
"$GPRMC,152845,A,2514.1555,N,07915.2457,W,2.2,87.5,190615,7.4,W"
"##MN-00 00 22 0564 01587 6063 443696 204676 198"
"170.645069"
"$GPRMC,152849,A,2514.1558,N,07915.2432,W,2.1,87.1,190615,7.4,W"
"##MN-00 00 22 0565 01587 6062 443717 204686 198"
"170.645116"
"$GPRMC,152853,A,2514.1561,N,07915.2407,W,2.1,86.9,190615,7.4,W"
"##MN-00 00 22 0566 01592 6060 443747 204684 198"
"170.645162"
"$GPRMC,152857,A,2514.1563,N,07915.2381,W,2.2,86.7,190615,7.4,W"
"##MN-00 00 22 0567 01595 6059 443772 204691 198"
"170.645208"
"$GPRMC,152901,A,2514.1563,N,07915.2354,W,2.2,86.7,190615,7.4,W"
"##MN-00 00 22 0568 01595 6058 443785 204692 198"
"170.645255"
"$GPRMC,152905,A,2514.1566,N,07915.2329,W,2.2,86.7,190615,7.4,W"
"##MN-00 00 22 0569 01601 6057 443801 204690 198"
"170.645301"
"$GPRMC,152909,A,2514.1567,N,07915.2302,W,2.2,86.5,190615,7.4,W"
"##MN-00 00 22 0570 01603 6056 443814 204695 198"
"170.645347"
"$GPRMC,152913,A,2514.1568,N,07915.2275,W,2.2,86.2,190615,7.4,W"
"##MN-00 00 22 0572 01606 6055 443829 204695 198"
"170.645394"
"$GPRMC,152917,A,2514.1570,N,07915.2251,W,2.2,86.2,190615,7.4,W"
"##MN-00 00 22 0573 01609 6055 443843 204697 198"
"170.64544"
"$GPRMC,152921,A,2514.1574,N,07915.2227,W,2.2,87.3,190615,7.4,W"
"##MN-00 00 22 0574 01608 6054 443856 204697 198"
"170.645486"
"$GPRMC,152925,A,2514.1577,N,07915.2203,W,2.1,87.7,190615,7.4,W"
"##MN-00 00 22 0575 01615 6053 443879 204699 198"
"170.645532"
"$GPRMC,152929,A,2514.1580,N,07915.2177,W,2.2,87.7,190615,7.4,W"
"##MN-00 00 22 0576 01618 6052 443904 204703 198"
"170.645579"
"$GPRMC,152933,A,2514.1581,N,07915.2151,W,2.2,88.0,190615,7.4,W"
"##MN-00 00 22 0577 01621 6051 443926 204707 198"
"170.645625"
"$GPRMC,152937,A,2514.1580,N,07915.2125,W,2.1,89.0,190615,7.4,W"
"##MN-00 00 22 0578 01625 6050 443952 204708 198"
"170.645671"
"$GPRMC,152942,A,2514.1581,N,07915.2092,W,2.2,88.9,190615,7.4,W"
"##MN-00 00 22 0579 01630 6050 443978 204716 198"
"170.645718"
"$GPRMC,152946,A,2514.1579,N,07915.2064,W,2.2,89.1,190615,7.4,W"
"##MN-00 00 22 0580 01631 6049 443998 204717 198"
"170.645764"
"$GPRMC,152950,A,2514.1577,N,07915.2036,W,2.2,89.0,190615,7.4,W"
"##MN-00 00 22 0581 01632 6048 444028 204719 198"
"170.64581"
"$GPRMC,152953,A,2514.1579,N,07915.2017,W,2.2,89.0,190615,7.4,W"
"##MN-00 00 22 0582 01636 6048 444070 204730 198"
"170.645856"
"$GPRMC,152958,A,2514.1581,N,07915.1984,W,2.2,89.3,190615,7.4,W"
"##MN-00 00 22 0584 01638 6047 444100 204731 198"
"170.645903"
"$GPRMC,153002,A,2514.1581,N,07915.1956,W,2.2,89.7,190615,7.4,W"
"##MN-00 00 22 0585 01640 6046 444119 204729 198"
"170.645949"
"$GPRMC,153006,A,2514.1581,N,07915.1929,W,2.2,89.8,190615,7.4,W"
"##MN-00 00 22 0586 01646 6046 444129 204737 198"
"170.645995"
"$GPRMC,153010,A,2514.1579,N,07915.1909,W,2.2,90.2,190615,7.4,W"
"##MN-00 00 21 0587 01646 6046 444161 204750 198"
"170.646042"
"$GPRMC,153014,A,2514.1577,N,07915.1873,W,2.2,90.2,190615,7.4,W"
"##MN-00 00 22 0588 01646 6045 444269 204771 198"
"170.646088"
"$GPRMC,153018,A,2514.1577,N,07915.1845,W,2.2,89.7,190615,7.4,W"
"##MN-00 00 22 0589 01647 6044 444365 204782 198"
"170.646134"
"$GPRMC,153022,A,2514.1577,N,07915.1819,W,2.2,88.6,190615,7.4,W"
"##MN-00 00 22 0590 01647 6044 444392 204785 198"
"170.646181"
"$GPRMC,153026,A,2514.1577,N,07915.1792,W,2.2,88.9,190615,7.4,W"
"##MN+00 00 22 0591 01647 6044 444426 204796 198"
"170.646227"
"$GPRMC,153030,A,2514.1578,N,07915.1766,W,2.1,88.9,190615,7.4,W"
"##MN+00 00 22 0593 01650 6043 444453 204800 198"
"170.646273"
"$GPRMC,153034,A,2514.1578,N,07915.1741,W,2.1,89.3,190615,7.4,W"
"##MN+00 00 22 0594 01653 6043 444467 204809 198"
"170.646319"
"$GPRMC,153038,A,2514.1580,N,07915.1715,W,2.1,89.0,190615,7.4,W"
"##MN-00 00 22 0595 01653 6042 444523 204819 198"
"170.646366"
"$GPRMC,153042,A,2514.1581,N,07915.1690,W,2.1,88.2,190615,7.4,W"
"##MN+00 00 22 0596 01650 6042 444577 204822 198"
"170.646412"
"$GPRMC,153046,A,2514.1581,N,07915.1663,W,2.1,88.2,190615,7.4,W"
"##MN+00 00 22 0597 01653 6041 444630 204823 198"
"170.646458"
"$GPRMC,153050,A,2514.1581,N,07915.1637,W,2.1,88.8,190615,7.4,W"
"##MN+00 00 22 0598 01655 6041 444671 204840 198"
"170.646505"
"#increment_net"
"$GPRMC,153054,A,2514.1581,N,07915.1612,W,2.1,89.2,190615,7.4,W"
"##MN-00 00 60 0600 01657 6041 444746 204862 198"
"170.646551"
"$GPRMC,153058,A,2514.1581,N,07915.1585,W,2.1,89.8,190615,7.4,W"
"##MN-00 00 22 0601 01657 6040 444816 204879 198"
"170.646597"
"$GPRMC,153102,A,2514.1581,N,07915.1558,W,2.2,90.1,190615,7.4,W"
"##MN-00 00 22 0602 01655 6040 444871 204884 198"
"170.646644"
"$GPRMC,153106,A,2514.1581,N,07915.1531,W,2.1,89.7,190615,7.4,W"
"##MN-00 00 22 0603 01654 6040 444887 204886 198"
"170.64669"
"$GPRMC,153110,A,2514.1579,N,07915.1503,W,2.2,89.6,190615,7.4,W"
"##MN-00 00 22 0604 01654 6040 444889 204890 198"
"170.646736"
"$GPRMC,153114,A,2514.1578,N,07915.1477,W,2.1,90.0,190615,7.4,W"
"##MN-00 00 22 0605 01656 6039 444900 204892 198"
"170.646782"
"$GPRMC,153118,A,2514.1577,N,07915.1451,W,2.1,90.2,190615,7.4,W"
"##MN-00 00 22 0606 01656 6039 444918 204897 198"
"170.646829"
"$GPRMC,153122,A,2514.1577,N,07915.1423,W,2.1,90.2,190615,7.4,W"
"##MN-00 00 22 0608 01653 6039 444940 204899 198"
"170.646875"
"$GPRMC,153126,A,2514.1577,N,07915.1398,W,2.1,90.3,190615,7.4,W"
"##MN-00 00 22 0609 01650 6038 444955 204904 198"
"170.646921"
"$GPRMC,153130,A,2514.1577,N,07915.1371,W,2.1,90.5,190615,7.4,W"
"##MN-00 00 22 0610 01649 6038 444962 204905 198"
"170.646968"
"$GPRMC,153134,A,2514.1576,N,07915.1344,W,2.1,90.4,190615,7.4,W"
"##MN-00 00 22 0611 01649 6038 444970 204908 198"
"170.647014"
"$GPRMC,153138,A,2514.1576,N,07915.1317,W,2.2,90.6,190615,7.4,W"
"##MN+00 00 22 0612 01652 6038 444982 204909 198"
"170.64706"
"$GPRMC,153142,A,2514.1576,N,07915.1291,W,2.1,90.4,190615,7.4,W"
"##MN+00 00 22 0614 01649 6037 445007 204913 198"
"170.647106"
"$GPRMC,153146,A,2514.1573,N,07915.1264,W,2.2,90.4,190615,7.4,W"
"##MN+00 00 22 0615 01648 6037 445033 204919 198"
"170.647153"
"$GPRMC,153150,A,2514.1573,N,07915.1238,W,2.1,90.3,190615,7.4,W"
"##MN+00 00 22 0616 01651 6037 445072 204927 198"
"170.647199"
"$GPRMC,153154,A,2514.1573,N,07915.1213,W,2.2,89.8,190615,7.4,W"
"##MN+00 00 22 0617 01649 6037 445109 204932 198"
"170.647257"
"$GPRMC,153158,A,2514.1576,N,07915.1187,W,2.2,89.9,190615,7.4,W"
"##MN+00 00 22 0618 01649 6037 445137 204935 198"
"170.647303"
"$GPRMC,153202,A,2514.1576,N,07915.1161,W,2.2,90.0,190615,7.4,W"
"##MN-00 00 22 0620 01653 6036 445156 204939 198"
"170.64735"
"#increment_net"
"$GPRMC,153206,A,2514.1576,N,07915.1134,W,2.2,90.2,190615,7.4,W"
"##MN-00 00 21 0621 01654 6036 445183 204945 198"
"170.647396"
"$GPRMC,153210,A,2514.1577,N,07915.1108,W,2.2,89.9,190615,7.4,W"
"##MN-00 00 21 0622 01651 6036 445193 204944 198"
"170.647442"
"$GPRMC,153214,A,2514.1577,N,07915.1081,W,2.2,88.8,190615,7.4,W"
"##MN-00 00 21 0623 01649 6035 445196 204946 198"
"170.647488"
"$GPRMC,153218,A,2514.1578,N,07915.1054,W,2.2,88.6,190615,7.4,W"
"##MN-00 00 21 0624 01647 6036 445192 204946 198"
"170.647535"
"$GPRMC,153222,A,2514.1581,N,07915.1028,W,2.2,88.4,190615,7.4,W"
"##MN-00 00 21 0625 01647 6035 445187 204947 198"
"170.647581"
"$GPRMC,153226,A,2514.1581,N,07915.1001,W,2.2,88.1,190615,7.4,W"
"##MN-00 00 21 0627 01647 6035 445181 204947 198"
"170.647627"
"$GPRMC,153230,A,2514.1581,N,07915.0975,W,2.2,88.1,190615,7.4,W"
"##MN-00 00 21 0628 01646 6035 445181 204948 198"
"170.647674"
"$GPRMC,153234,A,2514.1581,N,07915.0948,W,2.1,88.8,190615,7.4,W"
"##MN-00 00 21 0629 01646 6034 445182 204947 198"
"170.64772"
"$GPRMC,153238,A,2514.1581,N,07915.0922,W,2.1,88.7,190615,7.4,W"
"##MN-00 00 21 0630 01646 6035 445182 204950 198"
"170.647766"
"$GPRMC,153242,A,2514.1581,N,07915.0897,W,2.1,89.0,190615,7.4,W"
"##MN-00 00 21 0631 01645 6034 445180 204951 198"
"170.647812"
"$GPRMC,153246,A,2514.1582,N,07915.0872,W,2.1,89.4,190615,7.4,W"
"##MN+00 00 21 0632 01647 6034 445190 204953 198"
"170.647859"
"$GPRMC,153250,A,2514.1582,N,07915.0847,W,2.1,90.1,190615,7.4,W"
"##MN+00 00 21 0634 01647 6034 445166 204949 198"
"170.647905"
"$GPRMC,153254,A,2514.1582,N,07915.0823,W,2.1,90.2,190615,7.4,W"
"##MN+00 00 21 0635 01647 6034 445164 204950 198"
"170.647951"
"$GPRMC,153258,A,2514.1582,N,07915.0798,W,2.0,90.3,190615,7.4,W"
"##MN-00 00 21 0636 01647 6034 445165 204948 198"
"170.647998"
"$GPRMC,153302,A,2514.1581,N,07915.0774,W,2.1,90.8,190615,7.4,W"
"##MN+00 00 21 0637 01648 6034 445164 204948 198"
"170.648044"
"$GPRMC,153306,A,2514.1581,N,07915.0749,W,2.0,91.4,190615,7.4,W"
"##MN+00 00 21 0638 01647 6034 445165 204947 198"
"170.64809"
"$GPRMC,153310,A,2514.1581,N,07915.0725,W,2.0,91.5,190615,7.4,W"
"##MN+00 00 21 0639 01647 6033 445165 204947 198"
"170.648137"
"$GPRMC,153314,A,2514.1581,N,07915.0701,W,2.0,91.6,190615,7.4,W"
"##MN-00 00 22 0641 01651 6034 445168 204947 198"
"170.648183"
"#increment_net"
"$GPRMC,153318,A,2514.1581,N,07915.0676,W,2.0,91.5,190615,7.4,W"
"##MN-00 00 21 0642 01651 6033 445178 204950 198"
"170.648229"
"$GPRMC,153322,A,2514.1581,N,07915.0651,W,2.0,91.4,190615,7.4,W"
"##MN-00 00 21 0643 01650 6033 445202 204953 198"
"170.648275"
"$GPRMC,153326,A,2514.1581,N,07915.0627,W,2.0,91.1,190615,7.4,W"
"##MN-00 00 21 0644 01650 6033 445221 204956 198"
"170.648322"
"$GPRMC,153330,A,2514.1581,N,07915.0599,W,2.1,89.4,190615,7.4,W"
"##MN-00 00 21 0645 01649 6033 445233 204956 198"
"170.648368"
"$GPRMC,153334,A,2514.1577,N,07915.0571,W,2.0,88.3,190615,7.4,W"
"##MN-00 00 21 0646 01650 6033 445229 204956 198"
"170.648414"
"$GPRMC,153338,A,2514.1579,N,07915.0545,W,2.0,86.7,190615,7.4,W"
"##MN-00 00 21 0648 01648 6033 445223 204956 198"
"170.648461"
"$GPRMC,153342,A,2514.1584,N,07915.0522,W,2.0,85.2,190615,7.4,W"
"##MN-00 00 21 0649 01647 6032 445225 204957 198"
"170.648507"
"$GPRMC,153346,A,2514.1586,N,07915.0498,W,2.0,84.5,190615,7.4,W"
"##MN-00 00 21 0650 01650 6032 445228 204957 198"
"170.648553"
"$GPRMC,153350,A,2514.1591,N,07915.0474,W,2.0,84.3,190615,7.4,W"
"##MN-00 00 22 0651 01647 6032 445230 204957 198"
"170.6486"
"$GPRMC,153354,A,2514.1591,N,07915.0449,W,2.0,84.6,190615,7.4,W"
"##MN+00 00 22 0652 01649 6032 445224 204956 198"
"170.648646"
"$GPRMC,153358,A,2514.1595,N,07915.0425,W,2.0,84.3,190615,7.4,W"
"##MN+00 00 22 0654 01648 6032 445218 204956 198"
"170.648692"
"$GPRMC,153402,A,2514.1597,N,07915.0401,W,2.0,84.2,190615,7.4,W"
"##MN+00 00 22 0655 01648 6032 445220 204956 198"
"170.648738"
"$GPRMC,153406,A,2514.1599,N,07915.0376,W,2.0,84.4,190615,7.4,W"
"##MN-00 00 22 0656 01647 6032 445213 204956 198"
"170.648785"
"$GPRMC,153411,A,2514.1602,N,07915.0344,W,2.0,84.8,190615,7.4,W"
"##MN-00 00 22 0657 01650 6032 445219 204956 198"
"170.648831"
"$GPRMC,153415,A,2514.1604,N,07915.0318,W,2.0,84.8,190615,7.4,W"
"##MN-00 00 22 0658 01648 6032 445207 204954 198"
"170.648877"
"$GPRMC,153419,A,2514.1606,N,07915.0292,W,2.1,85.3,190615,7.4,W"
"##MN+00 00 21 0659 01645 6032 445190 204953 198"
"170.648924"
"$GPRMC,153423,A,2514.1608,N,07915.0266,W,2.1,85.7,190615,7.4,W"
"##MN+00 00 21 0661 01647 6032 445183 204952 198"
"170.64897"
"$GPRMC,153427,A,2514.1610,N,07915.0241,W,2.1,86.2,190615,7.4,W"
"##MN+00 00 21 0662 01644 6032 445183 204952 198"
"170.649016"
"#increment_net"
"$GPRMC,153431,A,2514.1613,N,07915.0215,W,2.1,86.4,190615,7.4,W"
"##MN-00 00 22 0663 01647 6031 445186 204952 198"
"170.649063"
"$GPRMC,153435,A,2514.1615,N,07915.0189,W,2.1,86.8,190615,7.4,W"
"##MN-00 00 21 0664 01647 6032 445194 204953 198"
"170.649109"
"$GPRMC,153439,A,2514.1615,N,07915.0163,W,2.1,87.4,190615,7.4,W"
"##MN-00 00 21 0665 01644 6031 445189 204954 198"
"170.649155"
"$GPRMC,153443,A,2514.1617,N,07915.0137,W,2.1,88.3,190615,7.4,W"
"##MN-00 00 21 0666 01643 6032 445192 204956 198"
"170.649201"
"$GPRMC,153447,A,2514.1614,N,07915.0110,W,2.1,88.6,190615,7.4,W"
"##MN-00 00 21 0668 01642 6032 445203 204958 198"
"170.649248"
"$GPRMC,153451,A,2514.1617,N,07915.0085,W,2.1,89.5,190615,7.4,W"
"##MN-00 00 21 0669 01643 6031 445212 204960 198"
"170.649294"
"$GPRMC,153455,A,2514.1619,N,07915.0061,W,2.1,89.5,190615,7.4,W"
"##MN-00 00 21 0670 01642 6031 445214 204961 198"
"170.64934"
"$GPRMC,153459,A,2514.1620,N,07915.0036,W,2.1,89.5,190615,7.4,W"
"##MN-00 00 21 0671 01642 6031 445213 204962 198"
"170.649387"
"$GPRMC,153503,A,2514.1622,N,07915.0011,W,2.1,89.2,190615,7.4,W"
"##MN-00 00 21 0673 01642 6031 445220 204962 198"
"170.649433"
"$GPRMC,153507,A,2514.1620,N,07914.9986,W,2.1,88.7,190615,7.4,W"
"##MN-00 00 21 0674 01639 6031 445218 204961 198"
"170.649479"
"$GPRMC,153511,A,2514.1622,N,07914.9960,W,2.1,88.6,190615,7.4,W"
"##MN+00 00 21 0675 01642 6031 445215 204961 198"
"170.649525"
"$GPRMC,153515,A,2514.1619,N,07914.9932,W,2.1,87.8,190615,7.4,W"
"##MN+00 00 21 0676 01642 6031 445221 204961 198"
"170.649572"
"$GPRMC,153519,A,2514.1619,N,07914.9906,W,2.1,87.8,190615,7.4,W"
"##MN+00 00 21 0677 01639 6031 445226 204961 198"
"170.649618"
"$GPRMC,153523,A,2514.1617,N,07914.9878,W,2.1,87.0,190615,7.4,W"
"##MN-00 00 21 0679 01642 6031 445235 204962 198"
"170.649664"
"$GPRMC,153527,A,2514.1617,N,07914.9851,W,2.1,86.1,190615,7.4,W"
"##MN-00 00 21 0680 01638 6031 445246 204963 198"
"170.649711"
"$GPRMC,153531,A,2514.1618,N,07914.9826,W,2.1,86.2,190615,7.4,W"
"##MN+00 00 21 0681 01639 6031 445261 204964 198"
"170.649757"
"$GPRMC,153535,A,2514.1620,N,07914.9801,W,2.1,85.7,190615,7.4,W"
"##MN+00 00 21 0682 01640 6031 445256 204962 198"
"170.649803"
"$GPRMC,153539,A,2514.1624,N,07914.9777,W,2.0,85.3,190615,7.4,W"
"##MN+00 00 21 0683 01642 6031 445259 204962 198"
"170.64985"
"$GPRMC,153543,A,2514.1626,N,07914.9752,W,2.0,85.2,190615,7.4,W"
"##MN-00 00 58 0685 01646 6031 445267 204962 198"
"170.649896"
"#increment_net"
"$GPRMC,153547,A,2514.1628,N,07914.9727,W,2.0,85.2,190615,7.4,W"
"##MN-00 00 21 0686 01651 6031 445286 204965 198"
"170.649942"
"$GPRMC,153551,A,2514.1629,N,07914.9703,W,2.0,85.2,190615,7.4,W"
"##MN-00 00 21 0687 01658 6031 445317 204968 198"
"170.649988"
"$GPRMC,153555,A,2514.1634,N,07914.9677,W,2.1,84.9,190615,7.4,W"
"##MN-00 00 22 0689 01663 6031 445356 204971 198"
"170.650035"
"$GPRMC,153559,A,2514.1635,N,07914.9651,W,2.1,85.2,190615,7.4,W"
"##MN-00 00 21 0690 01669 6031 445405 204976 198"
"170.650081"
"$GPRMC,153603,A,2514.1638,N,07914.9625,W,2.2,85.6,190615,7.4,W"
"##MN-00 00 21 0692 01672 6031 445473 204983 198"
"170.650127"
"$GPRMC,153607,A,2514.1641,N,07914.9598,W,2.2,86.0,190615,7.4,W"
"##MN-00 00 21 0693 01674 6031 445576 204992 198"
"170.650174"
"$GPRMC,153611,A,2514.1642,N,07914.9570,W,2.2,86.2,190615,7.4,W"
"##MN-00 00 21 0695 01674 6031 445634 205006 198"
"170.65022"
"$GPRMC,153615,A,2514.1645,N,07914.9541,W,2.3,86.2,190615,7.4,W"
"##MN-00 00 21 0696 01675 6031 445661 205014 198"
"170.650266"
"$GPRMC,153619,A,2514.1646,N,07914.9512,W,2.3,86.9,190615,7.4,W"
"##MN-00 00 21 0698 01671 6031 445650 205012 198"
"170.650313"
"$GPRMC,153623,A,2514.1646,N,07914.9484,W,2.3,86.7,190615,7.4,W"
"##MN-00 00 21 0700 01667 6031 445597 205004 198"
"170.650359"
"$GPRMC,153627,A,2514.1649,N,07914.9456,W,2.3,87.0,190615,7.4,W"
"##MN-00 00 21 0701 01664 6031 445561 205002 198"
"170.650405"
"$GPRMC,153631,A,2514.1649,N,07914.9427,W,2.3,87.3,190615,7.4,W"
"##MN-00 00 21 0703 01662 6031 445536 205000 198"
"170.650451"
"$GPRMC,153635,A,2514.1648,N,07914.9397,W,2.4,87.5,190615,7.4,W"
"##MN-00 00 21 0704 01660 6031 445525 204999 198"
"170.650509"
"$GPRMC,153639,A,2514.1649,N,07914.9368,W,2.4,88.0,190615,7.4,W"
"##MN-00 00 21 0706 01656 6031 445505 204996 198"
"170.650556"
"$GPRMC,153643,A,2514.1650,N,07914.9338,W,2.4,87.8,190615,7.4,W"
"##MN-00 00 23 0707 01651 6031 445489 204995 198"
"170.650602"
"$GPRMC,153647,A,2514.1653,N,07914.9309,W,2.4,88.2,190615,7.4,W"
"##MN-00 00 23 0709 01649 6031 445471 204993 198"
"170.650648"
"$GPRMC,153651,A,2514.1656,N,07914.9280,W,2.4,88.1,190615,7.4,W"
"##MN-00 00 21 0710 01646 6031 445451 204991 198"
"170.650694"
"$GPRMC,153655,A,2514.1659,N,07914.9252,W,2.4,87.8,190615,7.4,W"
"##MN-00 00 21 0712 01641 6031 445442 204991 198"
"170.650741"
"$GPRMC,153659,A,2514.1658,N,07914.9221,W,2.4,87.3,190615,7.4,W"
"##MN-00 00 21 0713 01638 6031 445437 204992 198"
"170.650787"
"$GPRMC,153703,A,2514.1658,N,07914.9191,W,2.4,86.8,190615,7.4,W"
"##MN-00 00 21 0715 01632 6031 445431 204994 198"
"170.650833"
"$GPRMC,153707,A,2514.1662,N,07914.9160,W,2.4,86.0,190615,7.4,W"
"##MN-00 00 21 0717 01631 6031 445433 204996 198"
"170.65088"
"$GPRMC,153711,A,2514.1663,N,07914.9132,W,2.4,85.9,190615,7.4,W"
"##MN-00 00 21 0718 01628 6031 445433 204998 198"
"170.650926"
"$GPRMC,153715,A,2514.1666,N,07914.9103,W,2.4,85.9,190615,7.4,W"
"##MN-00 00 22 0720 01626 6031 445417 204992 198"
"170.650972"
"$GPRMC,153719,A,2514.1666,N,07914.9074,W,2.4,85.8,190615,7.4,W"
"##MN-00 00 21 0721 01621 6031 445245 204944 198"
"170.651019"
"$GPRMC,153723,A,2514.1667,N,07914.9045,W,2.4,85.5,190615,7.4,W"
"##MN-00 00 21 0723 01617 6031 444709 204822 198"
"170.651065"
"$GPRMC,153727,A,2514.1671,N,07914.9016,W,2.4,85.6,190615,7.4,W"
"##MN-00 00 21 0725 01614 6031 444236 204766 198"
"170.651111"
"$GPRMC,153731,A,2514.1673,N,07914.8988,W,2.4,86.0,190615,7.4,W"
"##MN-00 00 21 0726 01610 6031 444058 204737 198"
"170.651157"
"$GPRMC,153735,A,2514.1674,N,07914.8958,W,2.4,86.5,190615,7.4,W"
"##MN-00 00 22 0728 01606 6031 443975 204724 198"
"170.651204"
"$GPRMC,153739,A,2514.1675,N,07914.8929,W,2.4,86.8,190615,7.4,W"
"##MN-00 00 21 0729 01601 6031 443881 204702 198"
"170.65125"
"$GPRMC,153743,A,2514.1678,N,07914.8900,W,2.4,87.0,190615,7.4,W"
"##MN-00 00 21 0731 01597 6031 443809 204681 198"
"170.651296"
"$GPRMC,153747,A,2514.1680,N,07914.8871,W,2.4,87.3,190615,7.4,W"
"##MN-00 00 21 0732 01593 6031 443773 204674 198"
"170.651343"
"$GPRMC,153751,A,2514.1682,N,07914.8842,W,2.4,87.4,190615,7.4,W"
"##MN-00 00 22 0734 01589 6031 443741 204670 198"
"170.651389"
"$GPRMC,153755,A,2514.1682,N,07914.8814,W,2.3,87.9,190615,7.4,W"
"##MN-00 00 21 0736 01586 6031 443701 204664 198"
"170.651435"
"$GPRMC,153759,A,2514.1682,N,07914.8784,W,2.4,88.0,190615,7.4,W"
"##MN-00 00 21 0737 01584 6031 443680 204657 198"
"170.651481"
"$GPRMC,153803,A,2514.1681,N,07914.8752,W,2.4,87.8,190615,7.4,W"
"##MN-00 00 21 0739 01578 6031 443663 204655 198"
"170.651528"
"$GPRMC,153807,A,2514.1681,N,07914.8722,W,2.4,87.8,190615,7.4,W"
"##MN-00 00 21 0741 01576 6031 443652 204653 198"
"170.651574"
"$GPRMC,153811,A,2514.1682,N,07914.8694,W,2.4,87.5,190615,7.4,W"
"##MN-00 00 21 0742 01571 6031 443638 204651 198"
"170.65162"
"$GPRMC,153815,A,2514.1683,N,07914.8665,W,2.4,87.2,190615,7.4,W"
"##MN-00 00 21 0744 01570 6031 443627 204651 198"
"170.651667"
"$GPRMC,153819,A,2514.1685,N,07914.8644,W,2.3,87.1,190615,7.4,W"
"##MN-00 00 21 0745 01566 6031 443614 204647 198"
"170.651713"
"$GPRMC,153823,A,2514.1689,N,07914.8609,W,2.3,86.9,190615,7.4,W"
"##MN-00 00 21 0747 01563 6031 443594 204644 198"
"170.651759"
"$GPRMC,153827,A,2514.1691,N,07914.8580,W,2.4,86.5,190615,7.4,W"
"##MN-00 00 21 0748 01558 6031 443570 204642 198"
"170.651806"
"$GPRMC,153831,A,2514.1692,N,07914.8551,W,2.4,86.4,190615,7.4,W"
"##MN-00 00 21 0750 01554 6031 443538 204638 198"
"170.651852"
"$GPRMC,153835,A,2514.1693,N,07914.8522,W,2.4,86.3,190615,7.4,W"
"##MN-00 00 21 0752 01550 6032 443489 204627 198"
"170.651898"
"$GPRMC,153839,A,2514.1696,N,07914.8494,W,2.4,86.0,190615,7.4,W"
"##MN-00 00 21 0753 01548 6032 443373 204608 198"
"170.651944"
"$GPRMC,153843,A,2514.1697,N,07914.8466,W,2.4,85.6,190615,7.4,W"
"##MN-00 00 21 0755 01544 6032 443156 204569 198"
"170.651991"
"$GPRMC,153847,A,2514.1700,N,07914.8436,W,2.4,85.5,190615,7.4,W"
"##MN-00 00 21 0756 01543 6032 443122 204546 198"
"170.652037"
"$GPRMC,153851,A,2514.1700,N,07914.8407,W,2.4,86.3,190615,7.4,W"
"##MN-00 00 21 0758 01545 6032 442964 204532 198"
"170.652083"
"$GPRMC,153856,A,2514.1700,N,07914.8370,W,2.4,86.8,190615,7.4,W"
"##MN-00 00 21 0759 01543 6032 442793 204458 198"
"170.65213"
"$GPRMC,153900,A,2514.1702,N,07914.8341,W,2.4,86.9,190615,7.4,W"
"##MN-00 00 21 0761 01537 6032 442359 204397 198"
"170.652176"
"$GPRMC,153904,A,2514.1702,N,07914.8311,W,2.4,87.5,190615,7.4,W"
"##MN-00 00 21 0762 01535 6032 441584 204234 198"
"170.652222"
"$GPRMC,153908,A,2514.1702,N,07914.8280,W,2.4,88.0,190615,7.4,W"
"##MN-00 00 21 0764 01536 6033 441559 204241 198"
