" Tow: 7ES   RVWS/WS15161"
" Date: 19/06/2015"
" Temperature Probe #  4762    Conductivity Probe #  710"
" Pressure Probe #  188"
" Flow Meter Calibration  4.71 (m/count)  "
"170.826412"
"$GPRMC,194956,A,2516.3237,N,07919.1384,W,4.4,278.9,190615,7.4,"
"##MN-00 00 56 0000 02699 6580 632170 662032 202"
"170.826458"
"$GPRMC,195002,A,2516.3246,N,07919.1464,W,4.4,277.6,190615,7.4,"
"##MN-00 00 46 0000 02700 6580 592440 023936 202"
"170.826505"
"$GPRMC,195006,A,2516.3250,N,07919.1518,W,4.4,277.7,190615,7.4,"
"##MN-00 00 25 0000 02701 6580 630384 023938 202"
"170.826551"
"$GPRMC,195010,A,2516.3256,N,07919.1572,W,4.4,276.8,190615,7.4,"
"##MN-00 00 20 0000 02699 6580 587504 023932 202"
"170.826597"
"$GPRMC,195014,A,2516.3260,N,07919.1624,W,4.4,276.6,190615,7.4,"
"##MN-00 00 09 0000 02701 6579 876992 023897 202"
"170.826644"
"$GPRMC,195018,A,2516.3267,N,07919.1678,W,4.4,276.1,190615,7.4,"
"##MN-00 00 05 0000 02701 6579 763440 023902 202"
"170.82669"
"$GPRMC,195022,A,2516.3270,N,07919.1732,W,4.4,275.1,190615,7.4,"
"##MN-00 00 07 0000 02701 6580 601184 023906 202"
"170.826736"
"$GPRMC,195026,A,2516.3275,N,07919.1785,W,4.4,275.0,190615,7.4,"
"##MN-00 00 09 0000 02700 6579 648880 023905 202"
"170.826794"
"$GPRMC,195030,A,2516.3278,N,07919.1839,W,4.4,274.8,190615,7.4,"
"##MN-00 00 05 0000 02700 6579 484440 023906 202"
"170.82684"
"$GPRMC,195034,A,2516.3281,N,07919.1891,W,4.4,274.5,190615,7.4,"
"##MN-00 00 00 0000 02699 6580 327072 023903 202"
"170.826887"
"$GPRMC,195038,A,2516.3282,N,07919.1944,W,4.4,274.1,190615,7.4,"
"##MN-00 00 00 0000 02699 6580 767296 023906 202"
"170.826933"
"$GPRMC,195042,A,2516.3288,N,07919.2001,W,4.4,273.7,190615,7.4,"
"##MN-00 00 00 0000 02701 6580 323456 023907 202"
"170.826979"
"$GPRMC,195046,A,2516.3293,N,07919.2057,W,4.4,274.3,190615,7.4,"
"##MN-00 00 01 0000 02701 6580 776592 023900 202"
"170.827025"
"$GPRMC,195050,A,2516.3299,N,07919.2113,W,4.4,274.6,190615,7.4,"
"##MN-00 00 01 0000 02700 6579 330576 023906 202"
"170.827072"
"$GPRMC,195054,A,2516.3304,N,07919.2168,W,4.4,275.4,190615,7.4,"
"##MN-00 00 16 0000 02701 6579 896336 023890 202"
"170.827118"
"$GPRMC,195058,A,2516.3307,N,07919.2222,W,4.4,275.6,190615,7.4,"
"##MN-00 00 26 0000 02701 6580 376040 023896 202"
"170.827164"
"$GPRMC,195102,A,2516.3314,N,07919.2276,W,4.4,276.1,190615,7.4,"
"##MN-00 00 26 0000 02700 6579 898912 023891 202"
"170.827211"
"$GPRMC,195106,A,2516.3320,N,07919.2330,W,4.4,276.5,190615,7.4,"
"##MN-00 00 45 0000 02701 6580 616424 023900 202"
"170.827257"
"$GPRMC,195110,A,2516.3326,N,07919.2384,W,4.4,277.2,190615,7.4,"
"##MN-00 00 45 0000 02701 6580 663728 023907 202"
"170.827303"
"$GPRMC,195114,A,2516.3333,N,07919.2438,W,4.4,277.8,190615,7.4,"
"##MN-00 00 45 0001 02700 6580 494016 023894 202"
"170.82735"
"$GPRMC,195118,A,2516.3340,N,07919.2490,W,4.4,278.5,190615,7.4,"
"##MN-00 00 45 0002 02699 6580 338688 023898 202"
"170.827396"
"$GPRMC,195122,A,2516.3347,N,07919.2543,W,4.4,279.4,190615,7.4,"
"##MN-00 00 45 0003 02699 6580 779312 023898 202"
"170.827442"
"$GPRMC,195126,A,2516.3355,N,07919.2594,W,4.4,280.2,190615,7.4,"
"##MN-00 00 45 0004 02700 6581 892768 023908 202"
"170.827488"
"$GPRMC,195130,A,2516.3364,N,07919.2645,W,4.3,280.6,190615,7.4,"
"##MN-00 00 45 0005 02699 6580 613360 023903 202"
"170.827535"
"$GPRMC,195134,A,2516.3372,N,07919.2695,W,4.3,281.2,190615,7.4,"
"##MN-00 00 45 0006 02699 6580 653040 023902 202"
"170.827581"
"$GPRMC,195138,A,2516.3383,N,07919.2749,W,4.3,281.7,190615,7.4,"
"##MN-00 00 45 0007 02698 6581 888040 023891 202"
"170.827627"
"$GPRMC,195142,A,2516.3391,N,07919.2800,W,4.3,282.3,190615,7.4,"
"##MN-00 00 45 0008 02699 6581 484024 023907 202"
"170.827674"
"$GPRMC,195146,A,2516.3401,N,07919.2850,W,4.3,282.1,190615,7.4,"
"##MN-00 00 45 0009 02698 6581 151200 023928 202"
"170.82772"
"$GPRMC,195150,A,2516.3411,N,07919.2902,W,4.2,282.0,190615,7.4,"
"##MN-00 00 45 0010 02698 6581 833560 023927 202"
"170.827766"
"$GPRMC,195154,A,2516.3420,N,07919.2952,W,4.2,282.1,190615,7.4,"
"##MN-00 00 45 0011 02698 6581 871104 023916 202"
"170.827813"
"$GPRMC,195158,A,2516.3430,N,07919.3002,W,4.2,282.2,190615,7.4,"
"##MN-00 00 45 0012 02698 6581 584904 023924 202"
"170.827859"
"$GPRMC,195202,A,2516.3440,N,07919.3053,W,4.1,281.6,190615,7.4,"
"##MN-00 00 45 0013 02700 6581 885056 023926 202"
"170.827905"
"$GPRMC,195206,A,2516.3447,N,07919.3098,W,4.1,280.7,190615,7.4,"
"##MN-00 00 45 0014 02700 6581 746352 023897 202"
"170.827951"
"$GPRMC,195210,A,2516.3454,N,07919.3145,W,4.0,279.9,190615,7.4,"
"##MN-00 00 45 0015 02699 6581 870368 023898 202"
"170.827998"
"$GPRMC,195214,A,2516.3461,N,07919.3194,W,4.0,279.4,190615,7.4,"
"##MN-00 00 45 0016 02700 6581 578328 023899 202"
"170.828044"
"$GPRMC,195218,A,2516.3469,N,07919.3242,W,4.0,279.0,190615,7.4,"
"##MN-00 00 45 0017 02698 6581 609840 023904 202"
"170.82809"
"$GPRMC,195222,A,2516.3474,N,07919.3292,W,4.0,279.0,190615,7.4,"
"##MN-00 00 45 0017 02698 6581 849168 023905 202"
"170.828137"
"$GPRMC,195226,A,2516.3481,N,07919.3342,W,4.0,278.6,190615,7.4,"
"##MN-00 00 45 0018 02702 6581 567384 023902 202"
"170.828183"
"$GPRMC,195230,A,2516.3488,N,07919.3392,W,4.0,278.3,190615,7.4,"
"##MN-00 00 45 0019 02701 6581 844640 023914 202"
"170.828229"
"$GPRMC,195234,A,2516.3494,N,07919.3441,W,4.0,277.7,190615,7.4,"
"##MN-00 00 45 0020 02702 6581 713888 023907 202"
"170.828275"
"$GPRMC,195238,A,2516.3499,N,07919.3493,W,4.0,277.0,190615,7.4,"
"##MN-00 00 45 0021 02701 6581 039552 023900 202"
"170.828322"
"$GPRMC,195242,A,2516.3506,N,07919.3541,W,4.0,276.9,190615,7.4,"
"##MN-00 00 45 0022 02702 6581 826016 023949 202"
"170.828368"
"$GPRMC,195246,A,2516.3513,N,07919.3591,W,4.0,277.6,190615,7.4,"
"##MN-00 00 45 0023 02702 6581 818576 023937 202"
"170.828414"
"$GPRMC,195250,A,2516.3519,N,07919.3641,W,4.0,277.7,190615,7.4,"
"##MN-00 00 46 0025 02704 6581 537592 023929 202"
"170.828461"
"$GPRMC,195254,A,2516.3524,N,07919.3690,W,4.0,277.6,190615,7.4,"
"##MN-00 00 45 0026 02703 6581 579280 023934 202"
"170.828507"
"$GPRMC,195258,A,2516.3534,N,07919.3743,W,4.0,278.0,190615,7.4,"
"##MN-00 00 45 0027 02702 6580 537856 023917 202"
"170.828553"
"$GPRMC,195302,A,2516.3541,N,07919.3793,W,4.0,278.6,190615,7.4,"
"##MN-00 00 45 0028 02703 6580 698016 023921 202"
"170.8286"
"$GPRMC,195306,A,2516.3548,N,07919.3840,W,4.0,278.7,190615,7.4,"
"##MN-00 00 45 0029 02705 6580 810368 023917 202"
"170.828646"
"$GPRMC,195310,A,2516.3556,N,07919.3889,W,4.0,279.1,190615,7.4,"
"##MN-00 00 45 0030 02705 6580 804216 023911 202"
"170.828692"
"$GPRMC,195314,A,2516.3564,N,07919.3941,W,4.1,279.8,190615,7.4,"
"##MN-00 00 45 0031 02705 6580 799888 023914 202"
"170.828738"
"$GPRMC,195318,A,2516.3574,N,07919.3990,W,4.1,280.1,190615,7.4,"
"##MN-00 00 45 0032 02706 6579 515768 023913 202"
"170.828785"
"$GPRMC,195322,A,2516.3582,N,07919.4039,W,4.1,280.7,190615,7.4,"
"##MN-00 00 45 0033 02708 6579 792112 023919 202"
"170.828831"
"$GPRMC,195326,A,2516.3591,N,07919.4087,W,4.0,281.0,190615,7.4,"
"##MN-00 00 45 0034 02708 6578 796216 023912 202"
"170.828877"
"$GPRMC,195330,A,2516.3597,N,07919.4137,W,4.0,280.5,190615,7.4,"
"##MN-00 00 45 0036 02706 6578 786048 023919 202"
"170.828924"
"$GPRMC,195334,A,2516.3604,N,07919.4184,W,4.0,280.6,190615,7.4,"
"##MN-00 00 45 0037 02710 6578 781696 023907 202"
"170.82897"
"$GPRMC,195338,A,2516.3611,N,07919.4231,W,4.0,280.9,190615,7.4,"
"##MN-00 00 45 0038 02709 6577 214112 023921 202"
"170.829016"
"$GPRMC,195342,A,2516.3620,N,07919.4281,W,4.0,280.7,190615,7.4,"
"##MN-00 00 45 0039 02707 6577 643792 023943 202"
"170.829062"
"$GPRMC,195346,A,2516.3631,N,07919.4332,W,4.0,280.8,190615,7.4,"
"##MN-00 00 45 0040 02710 6576 482560 023939 202"
"170.829109"
"$GPRMC,195350,A,2516.3640,N,07919.4382,W,4.0,280.7,190615,7.4,"
"##MN-00 00 45 0041 02710 6576 761536 023944 202"
"170.829155"
"$GPRMC,195354,A,2516.3649,N,07919.4431,W,4.0,280.6,190615,7.4,"
"##MN-00 00 45 0042 02708 6576 762960 023928 202"
"170.829201"
"$GPRMC,195358,A,2516.3657,N,07919.4480,W,4.0,280.1,190615,7.4,"
"##MN-00 00 45 0044 02710 6575 012800 023927 202"
"170.829248"
"$GPRMC,195402,A,2516.3665,N,07919.4528,W,4.0,280.6,190615,7.4,"
"##MN-00 00 45 0045 02709 6574 887776 023917 202"
"170.829294"
"$GPRMC,195406,A,2516.3674,N,07919.4577,W,4.0,280.6,190615,7.4,"
"##MN-00 00 45 0046 02710 6574 760016 023884 202"
"170.82934"
"$GPRMC,195410,A,2516.3680,N,07919.4624,W,4.0,280.1,190615,7.4,"
"##MN-00 00 45 0047 02711 6573 480688 023884 202"
"170.829387"
"$GPRMC,195414,A,2516.3689,N,07919.4672,W,4.0,279.9,190615,7.4,"
"##MN-00 00 45 0048 02709 6573 001456 023886 202"
"170.829433"
"$GPRMC,195418,A,2516.3697,N,07919.4720,W,3.9,279.5,190615,7.4,"
"##MN-00 00 45 0049 02711 6572 876384 023889 202"
"170.829479"
"$GPRMC,195422,A,2516.3703,N,07919.4769,W,3.9,278.8,190615,7.4,"
"##MN-00 00 45 0050 02709 6571 188576 023898 202"
"170.829525"
"$GPRMC,195427,A,2516.3712,N,07919.4828,W,4.0,279.1,190615,7.4,"
"##MN-00 00 45 0051 02710 6571 987344 023889 202"
"170.829572"
"$GPRMC,195430,A,2516.3716,N,07919.4864,W,3.9,278.5,190615,7.4,"
"##MN-00 00 45 0052 02711 6570 460880 023890 202"
"170.829618"
"$GPRMC,195434,A,2516.3723,N,07919.4913,W,4.0,279.1,190615,7.4,"
"##MN-00 00 45 0053 02710 6570 986464 023890 202"
"170.829664"
"$GPRMC,195439,A,2516.3732,N,07919.4973,W,4.0,279.9,190615,7.4,"
"##MN-00 00 45 0054 02711 6569 736640 023896 202"
"170.829711"
"$GPRMC,195443,A,2516.3741,N,07919.5022,W,4.0,280.0,190615,7.4,"
"##MN-00 00 45 0055 02710 6569 176448 023888 202"
"170.829757"
"$GPRMC,195447,A,2516.3747,N,07919.5069,W,4.0,279.8,190615,7.4,"
"##MN-00 00 45 0056 02709 6568 450936 023894 202"
"170.829803"
"$GPRMC,195451,A,2516.3755,N,07919.5116,W,4.0,279.8,190615,7.4,"
"##MN-00 00 45 0057 02708 6567 847880 023899 202"
"170.82985"
"$GPRMC,195455,A,2516.3763,N,07919.5163,W,4.0,279.6,190615,7.4,"
"##MN-00 00 45 0058 02709 6566 704960 023905 202"
"170.829896"
"$GPRMC,195459,A,2516.3770,N,07919.5213,W,4.0,280.0,190615,7.4,"
"##MN-00 00 45 0059 02709 6566 155072 023912 202"
"170.829942"
"$GPRMC,195503,A,2516.3777,N,07919.5261,W,4.0,280.1,190615,7.4,"
"##MN-00 00 45 0060 02709 6565 705904 023911 202"
"170.829988"
"$GPRMC,195507,A,2516.3784,N,07919.5309,W,4.0,280.1,190615,7.4,"
"##MN-00 00 45 0060 02709 6564 831472 023909 202"
"170.830046"
"$GPRMC,195511,A,2516.3792,N,07919.5359,W,4.0,280.2,190615,7.4,"
"##MN-00 00 45 0061 02707 6563 468112 023899 202"
"170.830093"
"$GPRMC,195515,A,2516.3801,N,07919.5409,W,4.1,280.7,190615,7.4,"
"##MN-00 00 45 0062 02710 6563 703680 023907 202"
"170.830139"
"$GPRMC,195519,A,2516.3810,N,07919.5459,W,4.1,280.6,190615,7.4,"
"##MN-00 00 45 0063 02709 6562 435864 023919 202"
"170.830185"
"$GPRMC,195523,A,2516.3819,N,07919.5510,W,4.1,280.5,190615,7.4,"
"##MN-00 00 45 0064 02708 6561 395600 023926 202"
"170.830232"
"$GPRMC,195527,A,2516.3827,N,07919.5561,W,4.2,280.3,190615,7.4,"
"##MN-00 00 45 0065 02709 6560 313848 023928 202"
"170.830278"
"$GPRMC,195531,A,2516.3835,N,07919.5611,W,4.2,280.3,190615,7.4,"
"##MN-00 00 45 0066 02709 6559 146352 023925 202"
"170.830324"
"$GPRMC,195535,A,2516.3842,N,07919.5662,W,4.2,279.9,190615,7.4,"
"##MN-00 00 45 0067 02710 6559 839112 023914 202"
"170.83037"
"$GPRMC,195539,A,2516.3852,N,07919.5715,W,4.2,279.6,190615,7.4,"
"##MN-00 00 45 0068 02707 6557 395728 023884 202"
"170.830417"
"$GPRMC,195543,A,2516.3860,N,07919.5764,W,4.2,279.7,190615,7.4,"
"##MN-00 00 45 0068 02707 6557 701192 023893 202"
"170.830463"
"$GPRMC,195547,A,2516.3870,N,07919.5814,W,4.2,280.0,190615,7.4,"
"##MN-00 00 45 0069 02707 6556 701632 023884 202"
"170.830509"
"$GPRMC,195551,A,2516.3878,N,07919.5865,W,4.2,279.9,190615,7.4,"
"##MN-00 00 45 0070 02709 6555 693728 023902 202"
"170.830556"
"$GPRMC,195555,A,2516.3888,N,07919.5917,W,4.2,279.6,190615,7.4,"
"##MN-00 00 45 0071 02708 6554 535448 023892 202"
"170.830602"
"$GPRMC,195559,A,2516.3898,N,07919.5968,W,4.2,279.7,190615,7.4,"
"##MN-00 00 45 0072 02709 6554 449712 023900 202"
"170.830648"
"$GPRMC,195603,A,2516.3904,N,07919.6020,W,4.1,279.6,190615,7.4,"
"##MN-00 00 45 0073 02708 6553 134168 023901 202"
"170.830694"
"$GPRMC,195607,A,2516.3913,N,07919.6070,W,4.2,279.6,190615,7.4,"
"##MN-00 00 45 0074 02709 6552 685024 023899 202"
"170.830741"
"$GPRMC,195611,A,2516.3920,N,07919.6120,W,4.2,279.7,190615,7.4,"
"##MN-00 00 45 0075 02707 6551 281008 023891 202"
"170.830787"
"$GPRMC,195615,A,2516.3928,N,07919.6170,W,4.2,279.1,190615,7.4,"
"##MN-00 00 45 0076 02708 6550 689552 023893 202"
"170.830833"
"$GPRMC,195619,A,2516.3935,N,07919.6219,W,4.1,279.2,190615,7.4,"
"##MN-00 00 46 0077 02707 6549 678160 023905 202"
"170.83088"
"$GPRMC,195623,A,2516.3942,N,07919.6268,W,4.2,279.1,190615,7.4,"
"##MN-00 00 45 0078 02707 6548 669824 023906 202"
"170.830926"
"$GPRMC,195627,A,2516.3947,N,07919.6319,W,4.2,278.8,190615,7.4,"
"##MN-00 00 45 0079 02709 6547 669488 023904 202"
"170.830972"
"$GPRMC,195631,A,2516.3954,N,07919.6370,W,4.1,278.4,190615,7.4,"
"##MN-00 00 45 0080 02709 6546 657080 023914 202"
"170.831019"
"$GPRMC,195635,A,2516.3961,N,07919.6421,W,4.2,278.8,190615,7.4,"
"##MN-00 00 45 0081 02710 6546 663360 023926 202"
"170.831065"
"$GPRMC,195639,A,2516.3969,N,07919.6471,W,4.2,279.2,190615,7.4,"
"##MN-00 00 45 0082 02707 6545 646056 023905 202"
"170.831111"
"$GPRMC,195643,A,2516.3976,N,07919.6522,W,4.2,279.1,190615,7.4,"
"##MN-00 00 45 0083 02709 6543 652832 023908 202"
"170.831157"
"$GPRMC,195647,A,2516.3983,N,07919.6572,W,4.2,278.9,190615,7.4,"
"##MN-00 00 45 0084 02710 6543 777120 023913 202"
"170.831204"
"$GPRMC,195651,A,2516.3990,N,07919.6623,W,4.2,279.4,190615,7.4,"
"##MN-00 00 45 0085 02710 6542 650288 023904 202"
"170.83125"
"$GPRMC,195655,A,2516.4000,N,07919.6674,W,4.2,279.7,190615,7.4,"
"##MN-00 00 45 0086 02712 6541 373200 023918 202"
"170.831296"
"$GPRMC,195659,A,2516.4008,N,07919.6724,W,4.2,279.7,190615,7.4,"
"##MN-00 00 45 0087 02711 6539 649552 023932 202"
"170.831343"
"$GPRMC,195703,A,2516.4016,N,07919.6774,W,4.2,279.7,190615,7.4,"
"##MN-00 00 45 0088 02714 6539 650480 023923 202"
"170.831389"
"$GPRMC,195707,A,2516.4026,N,07919.6824,W,4.2,279.9,190615,7.4,"
"##MN-00 00 45 0089 02712 6538 650560 023909 202"
"170.831435"
"$GPRMC,195711,A,2516.4034,N,07919.6876,W,4.2,279.9,190615,7.4,"
"##MN-00 00 45 0090 02713 6537 650656 023889 202"
"170.831481"
"$GPRMC,195715,A,2516.4041,N,07919.6926,W,4.2,280.2,190615,7.4,"
"##MN-00 00 45 0091 02713 6536 643120 023891 202"
"170.831528"
"$GPRMC,195719,A,2516.4050,N,07919.6977,W,4.2,279.9,190615,7.4,"
"##MN-00 00 45 0092 02714 6535 639216 023904 202"
"170.831574"
"$GPRMC,195723,A,2516.4058,N,07919.7027,W,4.1,279.4,190615,7.4,"
"##MN-00 00 45 0093 02715 6534 513200 023899 202"
"170.83162"
"$GPRMC,195727,A,2516.4066,N,07919.7077,W,4.1,279.5,190615,7.4,"
"##MN-00 00 45 0094 02716 6533 638448 023894 202"
"170.831667"
"$GPRMC,195731,A,2516.4074,N,07919.7124,W,4.2,280.1,190615,7.4,"
"##MN-00 00 45 0095 02717 6532 349320 023903 202"
"170.831713"
"$GPRMC,195735,A,2516.4084,N,07919.7176,W,4.1,280.2,190615,7.4,"
"##MN-00 00 45 0096 02717 6531 626976 023900 202"
"170.831759"
"$GPRMC,195739,A,2516.4091,N,07919.7225,W,4.2,280.2,190615,7.4,"
"##MN-00 00 45 0097 02719 6530 500064 023900 202"
"170.831806"
"$GPRMC,195743,A,2516.4099,N,07919.7276,W,4.2,280.3,190615,7.4,"
"##MN-00 00 45 0098 02720 6529 620872 023910 202"
"170.831852"
"$GPRMC,195747,A,2516.4108,N,07919.7327,W,4.2,280.1,190615,7.4,"
"##MN-00 00 45 0099 02720 6528 065728 023906 202"
"170.831898"
"$GPRMC,195751,A,2516.4115,N,07919.7377,W,4.2,279.6,190615,7.4,"
"##MN-00 00 45 0100 02723 6527 613400 023905 202"
"170.831944"
"$GPRMC,195755,A,2516.4122,N,07919.7426,W,4.2,279.5,190615,7.4,"
"##MN-00 00 45 0101 02725 6526 610352 023922 202"
"170.831991"
"$GPRMC,195759,A,2516.4131,N,07919.7478,W,4.2,279.9,190615,7.4,"
"##MN-00 00 45 0102 02727 6525 597872 023932 202"
"170.832037"
"$GPRMC,195803,A,2516.4138,N,07919.7529,W,4.2,279.8,190615,7.4,"
"##MN-00 00 45 0103 02727 6524 593504 023935 202"
"170.832083"
"$GPRMC,195807,A,2516.4146,N,07919.7579,W,4.2,279.8,190615,7.4,"
"##MN-00 00 45 0104 02728 6523 594456 023927 202"
"170.83213"
"$GPRMC,195811,A,2516.4155,N,07919.7630,W,4.2,279.5,190615,7.4,"
"##MN-00 00 45 0105 02730 6522 595392 023932 202"
"170.832176"
"$GPRMC,195815,A,2516.4163,N,07919.7681,W,4.1,279.8,190615,7.4,"
"##MN-00 00 45 0106 02732 6521 594112 023920 202"
"170.832222"
"$GPRMC,195819,A,2516.4171,N,07919.7731,W,4.2,280.0,190615,7.4,"
"##MN-00 00 45 0107 02734 6520 595048 023945 202"
"170.832269"
"$GPRMC,195823,A,2516.4180,N,07919.7782,W,4.2,280.1,190615,7.4,"
"##MN-00 00 45 0108 02734 6519 594688 023941 202"
"170.832315"
"$GPRMC,195827,A,2516.4189,N,07919.7834,W,4.2,280.5,190615,7.4,"
"##MN-00 00 45 0109 02738 6517 594760 023951 202"
"170.832361"
"$GPRMC,195831,A,2516.4199,N,07919.7884,W,4.2,280.7,190615,7.4,"
"##MN-00 00 45 0110 02740 6516 593904 023902 202"
"170.832407"
"$GPRMC,195835,A,2516.4207,N,07919.7934,W,4.2,281.0,190615,7.4,"
"##MN-00 00 52 0111 02740 6516 594848 023882 202"
"170.832454"
"$GPRMC,195840,A,2516.4221,N,07919.7998,W,4.2,282.0,190615,7.4,"
"##MN-00 00 52 0112 02744 6514 351712 023899 202"
"170.8325"
"$GPRMC,195844,A,2516.4231,N,07919.8047,W,4.2,282.0,190615,7.4,"
"##MN-00 00 52 0113 02746 6513 583392 023906 202"
"170.832546"
"$GPRMC,195848,A,2516.4238,N,07919.8096,W,4.2,281.5,190615,7.4,"
"##MN-00 00 52 0114 02746 6512 585216 023916 202"
"170.832593"
"$GPRMC,195851,A,2516.4243,N,07919.8134,W,4.2,281.0,190615,7.4,"
"##MN-00 00 53 0116 02750 6511 301840 023913 202"
"170.832639"
"$GPRMC,195856,A,2516.4254,N,07919.8197,W,4.2,280.9,190615,7.4,"
"##MN-00 00 52 0117 02753 6510 576384 023922 202"
"170.832685"
"$GPRMC,195900,A,2516.4263,N,07919.8244,W,4.1,281.1,190615,7.4,"
"##MN+00 00 52 0118 02753 6509 573288 023914 202"
"170.832731"
"$GPRMC,195904,A,2516.4269,N,07919.8292,W,4.1,280.8,190615,7.4,"
"##MN+00 00 52 0119 02755 6507 567120 023913 202"
"170.832778"
"$GPRMC,195908,A,2516.4278,N,07919.8342,W,4.0,280.1,190615,7.4,"
"##MN+00 00 58 0120 02757 6507 566736 023920 201"
"170.832824"
"$GPRMC,195912,A,2516.4286,N,07919.8392,W,4.0,279.5,190615,7.4,"
"##MN-00 00 57 0121 02759 6505 565040 023923 201"
"170.83287"
"#increment_net"
"$GPRMC,195916,A,2516.4294,N,07919.8440,W,4.0,279.5,190615,7.4,"
"##MN-00 00 56 0122 02761 6504 315648 023917 202"
"170.832917"
"$GPRMC,195920,A,2516.4303,N,07919.8490,W,4.0,279.5,190615,7.4,"
"##MN-00 00 55 0123 02763 6503 561992 023935 202"
"170.832963"
"$GPRMC,195924,A,2516.4310,N,07919.8538,W,4.0,279.2,190615,7.4,"
"##MN-00 00 55 0124 02766 6502 552688 023924 202"
"170.833009"
"$GPRMC,195928,A,2516.4318,N,07919.8587,W,4.0,278.7,190615,7.4,"
"##MN-00 00 55 0125 02767 6501 534472 023945 202"
"170.833056"
"$GPRMC,195932,A,2516.4328,N,07919.8638,W,4.0,278.5,190615,7.4,"
"##MN-00 00 55 0126 02768 6500 554560 023934 202"
"170.833102"
"$GPRMC,195936,A,2516.4337,N,07919.8688,W,4.0,278.4,190615,7.4,"
"##MN-00 00 55 0127 02773 6498 537672 023948 202"
"170.833148"
"$GPRMC,195940,A,2516.4344,N,07919.8737,W,4.0,278.9,190615,7.4,"
"##MN-00 00 55 0129 02772 6498 786624 023939 202"
"170.833194"
"$GPRMC,195944,A,2516.4352,N,07919.8786,W,4.0,279.5,190615,7.4,"
"##MN-00 00 54 0130 02776 6496 538624 023928 202"
"170.833241"
"$GPRMC,195948,A,2516.4359,N,07919.8835,W,4.0,279.7,190615,7.4,"
"##MN-00 00 54 0131 02777 6495 538664 023936 202"
"170.833299"
"$GPRMC,195952,A,2516.4368,N,07919.8884,W,4.0,280.2,190615,7.4,"
"##MN-00 00 54 0132 02777 6494 538720 023933 202"
"170.833345"
"$GPRMC,195956,A,2516.4377,N,07919.8931,W,4.0,280.6,190615,7.4,"
"##MN-00 00 54 0133 02779 6493 538800 023953 202"
"170.833391"
"$GPRMC,200000,A,2516.4388,N,07919.8978,W,4.0,281.6,190615,7.4,"
"##MN-00 00 54 0134 02780 6492 538832 023950 202"
"170.833438"
"$GPRMC,200004,A,2516.4398,N,07919.9028,W,4.1,282.5,190615,7.4,"
"##MN-00 00 54 0135 02780 6490 538888 023943 202"
"170.833484"
"$GPRMC,200008,A,2516.4409,N,07919.9079,W,4.1,282.8,190615,7.4,"
"##MN-00 00 54 0136 02784 6489 538080 023907 202"
"170.83353"
"$GPRMC,200012,A,2516.4420,N,07919.9126,W,4.1,283.9,190615,7.4,"
"##MN-00 00 54 0137 02786 6488 538600 023927 202"
"170.833576"
"$GPRMC,200016,A,2516.4431,N,07919.9177,W,4.2,285.1,190615,7.4,"
"##MN-00 00 54 0138 02788 6486 531032 023922 202"
"170.833623"
"$GPRMC,200020,A,2516.4445,N,07919.9225,W,4.2,285.4,190615,7.4,"
"##MN-00 00 54 0139 02787 6486 526640 023918 202"
"170.833669"
"$GPRMC,200024,A,2516.4456,N,07919.9274,W,4.1,285.1,190615,7.4,"
"##MN-00 00 53 0140 02788 6485 524008 023923 202"
"170.833715"
"$GPRMC,200028,A,2516.4469,N,07919.9324,W,4.1,284.8,190615,7.4,"
"##MN-00 00 53 0141 02790 6483 520512 023918 202"
"170.833762"
"$GPRMC,200032,A,2516.4480,N,07919.9373,W,4.1,285.0,190615,7.4,"
"##MN-00 00 53 0142 02792 6482 517848 023945 202"
"170.833808"
"$GPRMC,200036,A,2516.4492,N,07919.9423,W,4.1,285.3,190615,7.4,"
"##MN-00 00 53 0143 02790 6481 516064 023919 202"
"170.833854"
"$GPRMC,200040,A,2516.4503,N,07919.9473,W,4.1,285.3,190615,7.4,"
"##MN-00 00 52 0145 02795 6480 511600 023924 202"
"170.8339"
"$GPRMC,200044,A,2516.4514,N,07919.9521,W,4.1,285.0,190615,7.4,"
"##MN-00 00 52 0146 02795 6478 511664 023924 201"
"170.833947"
"$GPRMC,200048,A,2516.4525,N,07919.9568,W,4.1,285.2,190615,7.4,"
"##MN-00 00 52 0147 02796 6477 510824 023928 202"
"170.833993"
"$GPRMC,200052,A,2516.4536,N,07919.9617,W,4.1,285.1,190615,7.4,"
"##MN-00 00 51 0148 02798 6476 507248 023932 202"
"170.834039"
"$GPRMC,200056,A,2516.4547,N,07919.9665,W,4.1,284.5,190615,7.4,"
"##MN-00 00 51 0149 02800 6475 503712 023926 202"
"170.834086"
"$GPRMC,200100,A,2516.4560,N,07919.9715,W,4.2,284.4,190615,7.4,"
"##MN-00 00 51 0150 02799 6474 501472 023924 202"
"170.834132"
"$GPRMC,200104,A,2516.4570,N,07919.9765,W,4.2,283.7,190615,7.4,"
"##MN-00 00 52 0151 02803 6472 496624 023936 202"
"170.834178"
"$GPRMC,200108,A,2516.4582,N,07919.9813,W,4.1,283.4,190615,7.4,"
"##MN+00 00 52 0152 02803 6471 488592 023944 202"
"170.834225"
"$GPRMC,200112,A,2516.4592,N,07919.9860,W,4.1,283.7,190615,7.4,"
"##MN+00 00 52 0153 02803 6470 485040 023943 201"
"170.834271"
"$GPRMC,200116,A,2516.4601,N,07919.9904,W,4.1,283.8,190615,7.4,"
"##MN+00 00 56 0154 02801 6469 482400 023949 201"
"170.834317"
"#increment_net"
"$GPRMC,200120,A,2516.4612,N,07919.9953,W,4.2,283.4,190615,7.4,"
"##MN-00 00 55 0155 02806 6467 483328 023940 201"
"170.834363"
"$GPRMC,200124,A,2516.4619,N,07920.0000,W,4.2,283.1,190615,7.4,"
"##MN-00 00 54 0156 02803 6466 360872 023942 202"
"170.83441"
"$GPRMC,200128,A,2516.4629,N,07920.0051,W,4.2,283.5,190615,7.4,"
"##MN-00 00 54 0157 02803 6465 486016 023958 202"
"170.834456"
"$GPRMC,200132,A,2516.4640,N,07920.0101,W,4.2,283.0,190615,7.4,"
"##MN-00 00 53 0158 02805 6464 729152 023953 202"
"170.834502"
"$GPRMC,200136,A,2516.4651,N,07920.0155,W,4.2,283.4,190615,7.4,"
"##MN-00 00 54 0159 02804 6463 482968 023948 202"
"170.834549"
"$GPRMC,200140,A,2516.4664,N,07920.0206,W,4.2,283.4,190615,7.4,"
"##MN-00 00 53 0161 02805 6461 481680 023964 202"
"170.834595"
"$GPRMC,200144,A,2516.4675,N,07920.0257,W,4.2,283.0,190615,7.4,"
"##MN-00 00 53 0162 02805 6460 482608 023927 202"
"170.834641"
"$GPRMC,200148,A,2516.4684,N,07920.0308,W,4.2,283.3,190615,7.4,"
"##MN-00 00 54 0163 02804 6459 482656 023900 202"
"170.834687"
"$GPRMC,200152,A,2516.4695,N,07920.0357,W,4.2,283.8,190615,7.4,"
"##MN-00 00 54 0164 02806 6458 482672 023904 202"
"170.834734"
"$GPRMC,200156,A,2516.4708,N,07920.0406,W,4.2,284.3,190615,7.4,"
"##MN-00 00 53 0165 02804 6457 238608 023908 202"
"170.83478"
"$GPRMC,200200,A,2516.4719,N,07920.0455,W,4.2,284.3,190615,7.4,"
"##MN-00 00 53 0166 02805 6455 473816 023921 202"
"170.834826"
"$GPRMC,200204,A,2516.4730,N,07920.0506,W,4.2,284.3,190615,7.4,"
"##MN-00 00 53 0167 02805 6454 472032 023929 202"
"170.834873"
"$GPRMC,200208,A,2516.4742,N,07920.0558,W,4.2,284.5,190615,7.4,"
"##MN-00 00 53 0168 02804 6453 466304 023917 202"
"170.834919"
"$GPRMC,200212,A,2516.4755,N,07920.0608,W,4.2,284.6,190615,7.4,"
"##MN-00 00 53 0169 02805 6451 466752 023913 202"
"170.834965"
"$GPRMC,200216,A,2516.4767,N,07920.0659,W,4.2,284.6,190615,7.4,"
"##MN-00 00 53 0170 02805 6451 959248 023927 202"
"170.835012"
"$GPRMC,200220,A,2516.4781,N,07920.0712,W,4.2,284.7,190615,7.4,"
"##MN-00 00 53 0171 02805 6450 463248 023916 202"
"170.835058"
"$GPRMC,200224,A,2516.4792,N,07920.0762,W,4.2,284.5,190615,7.4,"
"##MN-00 00 53 0173 02804 6448 208480 023933 202"
"170.835104"
"$GPRMC,200228,A,2516.4803,N,07920.0811,W,4.2,284.4,190615,7.4,"
"##MN-00 00 53 0174 02803 6447 461992 023926 202"
"170.83515"
"$GPRMC,200232,A,2516.4814,N,07920.0860,W,4.2,284.1,190615,7.4,"
"##MN-00 00 53 0175 02804 6446 452656 023914 202"
"170.835197"
"$GPRMC,200236,A,2516.4823,N,07920.0897,W,4.2,283.9,190615,7.4,"
"##MN-00 00 53 0176 02804 6444 579544 023927 202"
"170.835243"
"$GPRMC,200240,A,2516.4836,N,07920.0961,W,4.2,283.7,190615,7.4,"
"##MN-00 00 54 0177 02803 6443 461600 023933 202"
"170.835289"
"$GPRMC,200244,A,2516.4849,N,07920.1013,W,4.2,283.3,190615,7.4,"
"##MN-00 00 53 0178 02803 6442 451400 023930 202"
"170.835336"
"$GPRMC,200248,A,2516.4860,N,07920.1064,W,4.2,283.3,190615,7.4,"
"##MN-00 00 53 0179 02803 6441 697192 023950 202"
"170.835382"
"$GPRMC,200252,A,2516.4871,N,07920.1114,W,4.2,283.1,190615,7.4,"
"##MN-00 00 53 0180 02804 6440 445648 023921 202"
"170.835428"
"$GPRMC,200256,A,2516.4882,N,07920.1165,W,4.2,282.7,190615,7.4,"
"##MN-00 00 53 0181 02802 6439 434096 023939 202"
"170.835475"
"$GPRMC,200300,A,2516.4892,N,07920.1212,W,4.2,283.1,190615,7.4,"
"##MN-00 00 53 0182 02805 6437 446640 023941 202"
"170.835521"
"$GPRMC,200304,A,2516.4904,N,07920.1265,W,4.2,283.6,190615,7.4,"
"##MN-00 00 53 0183 02802 6436 430600 023930 202"
"170.835567"
"$GPRMC,200308,A,2516.4914,N,07920.1315,W,4.2,283.3,190615,7.4,"
"##MN-00 00 53 0184 02804 6435 423472 023920 201"
"170.835613"
"$GPRMC,200312,A,2516.4922,N,07920.1365,W,4.2,283.1,190615,7.4,"
"##MN-00 00 53 0186 02804 6433 427944 023901 201"
"170.83566"
"$GPRMC,200316,A,2516.4933,N,07920.1414,W,4.2,283.1,190615,7.4,"
"##MN+00 00 53 0187 02802 6432 426208 023888 202"
"170.835706"
"$GPRMC,200320,A,2516.4944,N,07920.1463,W,4.2,283.6,190615,7.4,"
"##MN+00 00 53 0188 02803 6431 426224 023885 201"
"170.835752"
"$GPRMC,200324,A,2516.4955,N,07920.1508,W,4.2,283.7,190615,7.4,"
"##MN+00 00 58 0189 02804 6430 299328 023894 201"
"170.835799"
"#increment_net"
"$GPRMC,200328,A,2516.4966,N,07920.1557,W,4.2,283.9,190615,7.4,"
"##MN-00 00 56 0190 02805 6429 437888 023885 201"
"170.835845"
"$GPRMC,200333,A,2516.4980,N,07920.1618,W,4.2,283.6,190615,7.4,"
"##MN-00 00 56 0191 02804 6428 425456 023883 202"
"170.835891"
"$GPRMC,200336,A,2516.4990,N,07920.1656,W,4.2,284.1,190615,7.4,"
"##MN-00 00 56 0192 02803 6427 427312 023901 202"
"170.835938"
"$GPRMC,200340,A,2516.5000,N,07920.1705,W,4.2,283.7,190615,7.4,"
"##MN-00 00 56 0193 02806 6425 422840 023872 202"
"170.835984"
"$GPRMC,200344,A,2516.5009,N,07920.1754,W,4.2,283.3,190615,7.4,"
"##MN-00 00 56 0194 02803 6424 424624 023853 202"
"170.83603"
"$GPRMC,200348,A,2516.5020,N,07920.1804,W,4.2,283.2,190615,7.4,"
"##MN-00 00 56 0195 02803 6423 432208 023849 202"
"170.836076"
"$GPRMC,200352,A,2516.5034,N,07920.1857,W,4.2,284.1,190615,7.4,"
"##MN-00 00 56 0196 02804 6422 424688 023843 202"
"170.836123"
"$GPRMC,200357,A,2516.5048,N,07920.1919,W,4.2,284.3,190615,7.4,"
"##MN-00 00 56 0197 02805 6421 426920 023842 202"
"170.836169"
"$GPRMC,200401,A,2516.5060,N,07920.1970,W,4.2,284.4,190615,7.4,"
"##MN-00 00 56 0198 02805 6420 668696 023860 202"
"170.836215"
"$GPRMC,200405,A,2516.5073,N,07920.2020,W,4.2,284.8,190615,7.4,"
"##MN-00 00 56 0199 02803 6418 415792 023868 202"
"170.836262"
"$GPRMC,200409,A,2516.5084,N,07920.2070,W,4.2,285.3,190615,7.4,"
"##MN-00 00 56 0201 02804 6417 414496 023866 202"
"170.836308"
"$GPRMC,200413,A,2516.5096,N,07920.2120,W,4.2,285.3,190615,7.4,"
"##MN-00 00 56 0202 02803 6416 412304 023873 202"
"170.836354"
"$GPRMC,200417,A,2516.5110,N,07920.2169,W,4.2,285.3,190615,7.4,"
"##MN-00 00 56 0203 02804 6415 410504 023875 202"
"170.8364"
"$GPRMC,200421,A,2516.5121,N,07920.2219,W,4.2,285.0,190615,7.4,"
"##MN-00 00 56 0204 02804 6413 163776 023868 202"
"170.836447"
"$GPRMC,200425,A,2516.5132,N,07920.2267,W,4.2,284.7,190615,7.4,"
"##MN-00 00 55 0205 02805 6412 657264 023858 201"
"170.836493"
"$GPRMC,200429,A,2516.5143,N,07920.2317,W,4.2,283.9,190615,7.4,"
"##MN-00 00 55 0206 02806 6411 280992 023872 202"
"170.836551"
"$GPRMC,200433,A,2516.5154,N,07920.2366,W,4.2,283.7,190615,7.4,"
"##MN-00 00 55 0207 02803 6410 397248 023869 202"
"170.836597"
"$GPRMC,200437,A,2516.5164,N,07920.2417,W,4.2,283.4,190615,7.4,"
"##MN-00 00 55 0208 02803 6409 396848 023877 202"
"170.836644"
"$GPRMC,200441,A,2516.5175,N,07920.2467,W,4.2,283.6,190615,7.4,"
"##MN-00 00 55 0209 02805 6407 398208 023874 202"
"170.83669"
"$GPRMC,200445,A,2516.5186,N,07920.2518,W,4.2,283.4,190615,7.4,"
"##MN-00 00 55 0210 02804 6406 403144 023878 202"
"170.836736"
"$GPRMC,200449,A,2516.5197,N,07920.2569,W,4.2,283.1,190615,7.4,"
"##MN-00 00 55 0211 02803 6405 402704 023880 201"
"170.836782"
"$GPRMC,200453,A,2516.5208,N,07920.2616,W,4.2,283.1,190615,7.4,"
"##MN-00 00 55 0212 02803 6404 389336 023881 201"
"170.836829"
"$GPRMC,200457,A,2516.5219,N,07920.2668,W,4.2,283.4,190615,7.4,"
"##MN-00 00 55 0213 02804 6403 386688 023880 202"
"170.836875"
"$GPRMC,200501,A,2516.5230,N,07920.2718,W,4.2,283.4,190615,7.4,"
"##MN-00 00 55 0214 02803 6402 396064 023886 202"
"170.836921"
"$GPRMC,200505,A,2516.5243,N,07920.2769,W,4.2,283.3,190615,7.4,"
"##MN-00 00 55 0215 02804 6401 637408 023878 202"
"170.836968"
"$GPRMC,200509,A,2516.5255,N,07920.2819,W,4.2,284.0,190615,7.4,"
"##MN-00 00 55 0216 02806 6399 385888 023889 202"
"170.837014"
"$GPRMC,200513,A,2516.5268,N,07920.2868,W,4.2,284.5,190615,7.4,"
"##MN-00 00 55 0218 02804 6398 380976 023897 202"
"170.83706"
"$GPRMC,200517,A,2516.5279,N,07920.2916,W,4.2,285.0,190615,7.4,"
"##MN-00 00 55 0219 02804 6397 378800 023886 201"
"170.837106"
"$GPRMC,200521,A,2516.5293,N,07920.2967,W,4.2,285.1,190615,7.4,"
"##MN-00 00 55 0220 02805 6396 374328 023910 201"
"170.837153"
"$GPRMC,200525,A,2516.5305,N,07920.3017,W,4.2,285.7,190615,7.4,"
"##MN-00 00 55 0221 02803 6395 128432 023917 202"
"170.837199"
"$GPRMC,200529,A,2516.5316,N,07920.3067,W,4.2,286.1,190615,7.4,"
"##MN-00 00 55 0222 02803 6394 367160 023908 201"
"170.837245"
"$GPRMC,200533,A,2516.5327,N,07920.3116,W,4.2,286.2,190615,7.4,"
"##MN+00 00 55 0223 02803 6393 372544 023915 202"
"170.837292"
"$GPRMC,200537,A,2516.5340,N,07920.3168,W,4.2,286.0,190615,7.4,"
"##MN+00 00 55 0224 02804 6392 368544 023902 201"
"170.837338"
"$GPRMC,200541,A,2516.5352,N,07920.3219,W,4.2,285.9,190615,7.4,"
"##MN+00 00 58 0225 02804 6390 621008 023923 201"
"170.837384"
"#increment_net"
"$GPRMC,200545,A,2516.5366,N,07920.3270,W,4.2,285.9,190615,7.4,"
"##MN-00 00 57 0226 02803 6389 370832 023913 201"
"170.837431"
"$GPRMC,200549,A,2516.5380,N,07920.3321,W,4.2,285.6,190615,7.4,"
"##MN-00 00 56 0227 02805 6388 369944 023928 202"
"170.837477"
"$GPRMC,200553,A,2516.5392,N,07920.3371,W,4.2,285.0,190615,7.4,"
"##MN-00 00 56 0228 02804 6387 370000 023892 202"
"170.837523"
"$GPRMC,200557,A,2516.5403,N,07920.3419,W,4.2,284.8,190615,7.4,"
"##MN-00 00 55 0229 02806 6386 369976 023899 202"
"170.837569"
"$GPRMC,200601,A,2516.5414,N,07920.3465,W,4.2,284.8,190615,7.4,"
"##MN-00 00 55 0230 02805 6385 115184 023884 201"
"170.837616"
"$GPRMC,200605,A,2516.5427,N,07920.3515,W,4.2,284.8,190615,7.4,"
"##MN-00 00 55 0231 02804 6384 375760 023890 201"
"170.837662"
"$GPRMC,200609,A,2516.5438,N,07920.3563,W,4.1,284.5,190615,7.4,"
"##MN-00 00 55 0232 02806 6383 355680 023869 202"
"170.837708"
"$GPRMC,200613,A,2516.5449,N,07920.3613,W,4.2,284.2,190615,7.4,"
"##MN-00 00 55 0233 02805 6381 376688 023863 202"
"170.837755"
"$GPRMC,200617,A,2516.5461,N,07920.3661,W,4.2,284.3,190615,7.4,"
"##MN-00 00 55 0234 02807 6380 748400 023869 202"
"170.837801"
"$GPRMC,200621,A,2516.5471,N,07920.3707,W,4.2,284.2,190615,7.4,"
"##MN-00 00 54 0236 02806 6379 370064 023852 201"
"170.837847"
"$GPRMC,200625,A,2516.5484,N,07920.3761,W,4.2,283.8,190615,7.4,"
"##MN-00 00 55 0237 02805 6378 370488 023860 201"
"170.837893"
"$GPRMC,200629,A,2516.5495,N,07920.3808,W,4.2,284.8,190615,7.4,"
"##MN-00 00 54 0238 02807 6377 369184 023861 201"
"170.83794"
"$GPRMC,200633,A,2516.5507,N,07920.3855,W,4.2,284.7,190615,7.4,"
"##MN-00 00 55 0239 02806 6376 367400 023874 202"
"170.837986"
"$GPRMC,200637,A,2516.5518,N,07920.3902,W,4.2,284.6,190615,7.4,"
"##MN-00 00 54 0240 02806 6374 362928 023886 201"
"170.838032"
"$GPRMC,200641,A,2516.5532,N,07920.3952,W,4.2,285.1,190615,7.4,"
"##MN-00 00 54 0241 02806 6374 238664 023884 202"
"170.838079"
"$GPRMC,200645,A,2516.5544,N,07920.4000,W,4.2,285.0,190615,7.4,"
"##MN-00 00 55 0242 02805 6373 346864 023887 201"
"170.838125"
"$GPRMC,200649,A,2516.5557,N,07920.4050,W,4.2,285.5,190615,7.4,"
"##MN-00 00 54 0243 02806 6371 356264 023887 201"
"170.838171"
"$GPRMC,200653,A,2516.5571,N,07920.4100,W,4.2,285.8,190615,7.4,"
"##MN-00 00 54 0244 02806 6371 350512 023898 202"
"170.838218"
"$GPRMC,200657,A,2516.5590,N,07920.4152,W,4.2,286.2,190615,7.4,"
"##MN-00 00 54 0245 02807 6369 346944 023884 201"
"170.838264"
"$GPRMC,200701,A,2516.5605,N,07920.4202,W,4.2,286.7,190615,7.4,"
"##MN-00 00 54 0246 02806 6368 353632 023897 202"
"170.83831"
"$GPRMC,200705,A,2516.5618,N,07920.4252,W,4.2,286.4,190615,7.4,"
"##MN-00 00 54 0247 02807 6367 861680 023888 201"
"170.838356"
"$GPRMC,200709,A,2516.5631,N,07920.4303,W,4.2,286.9,190615,7.4,"
"##MN-00 00 54 0248 02806 6366 346528 023899 201"
"170.838403"
"$GPRMC,200713,A,2516.5645,N,07920.4353,W,4.2,286.6,190615,7.4,"
"##MN-00 00 54 0249 02805 6365 347024 023891 201"
"170.838449"
"$GPRMC,200717,A,2516.5661,N,07920.4401,W,4.2,286.6,190615,7.4,"
"##MN-00 00 54 0250 02807 6364 215152 023903 201"
"170.838495"
"$GPRMC,200721,A,2516.5674,N,07920.4451,W,4.2,286.9,190615,7.4,"
"##MN-00 00 54 0251 02806 6363 477008 023898 201"
"170.838542"
"$GPRMC,200725,A,2516.5685,N,07920.4501,W,4.2,286.7,190615,7.4,"
"##MN-00 00 54 0253 02807 6362 332816 023903 201"
"170.838588"
"$GPRMC,200729,A,2516.5698,N,07920.4550,W,4.2,286.2,190615,7.4,"
"##MN-00 00 54 0254 02807 6361 342648 023902 201"
"170.838634"
"$GPRMC,200733,A,2516.5710,N,07920.4599,W,4.2,285.8,190615,7.4,"
"##MN-00 00 54 0255 02808 6359 338192 023896 201"
"170.838681"
"$GPRMC,200737,A,2516.5723,N,07920.4650,W,4.2,285.8,190615,7.4,"
"##MN-00 00 54 0256 02807 6359 596032 023906 201"
"170.838727"
"$GPRMC,200741,A,2516.5734,N,07920.4700,W,4.2,285.4,190615,7.4,"
"##MN-00 00 54 0257 02806 6358 337360 023903 202"
"170.838773"
"$GPRMC,200745,A,2516.5745,N,07920.4748,W,4.2,285.4,190615,7.4,"
"##MN-00 00 54 0258 02808 6356 213080 023904 201"
"170.838819"
"$GPRMC,200749,A,2516.5756,N,07920.4798,W,4.2,284.9,190615,7.4,"
"##MN-00 00 54 0259 02807 6356 325824 023900 202"
"170.838866"
"$GPRMC,200753,A,2516.5767,N,07920.4848,W,4.2,284.8,190615,7.4,"
"##MN-00 00 54 0260 02806 6355 587200 023916 201"
"170.838912"
"$GPRMC,200757,A,2516.5782,N,07920.4895,W,4.2,284.7,190615,7.4,"
"##MN-00 00 54 0261 02806 6353 331216 023908 201"
"170.838958"
"$GPRMC,200801,A,2516.5797,N,07920.4944,W,4.1,284.3,190615,7.4,"
"##MN-00 00 54 0262 02807 6352 324112 023908 201"
"170.839005"
"$GPRMC,200805,A,2516.5810,N,07920.4994,W,4.1,284.5,190615,7.4,"
"##MN-00 00 54 0263 02806 6351 191400 023925 201"
"170.839051"
"$GPRMC,200809,A,2516.5822,N,07920.5044,W,4.2,284.6,190615,7.4,"
"##MN-00 00 54 0264 02806 6350 841536 023924 201"
"170.839097"
"$GPRMC,200813,A,2516.5833,N,07920.5094,W,4.2,284.5,190615,7.4,"
"##MN-00 00 54 0265 02806 6349 316128 023934 201"
"170.839144"
"$GPRMC,200817,A,2516.5846,N,07920.5141,W,4.2,284.5,190615,7.4,"
"##MN-00 00 54 0266 02807 6348 059536 023930 201"
"170.83919"
"$GPRMC,200822,A,2516.5861,N,07920.5202,W,4.2,285.4,190615,7.4,"
"##MN-00 00 54 0268 02805 6347 315664 023935 201"
"170.839236"
"$GPRMC,200826,A,2516.5872,N,07920.5251,W,4.2,285.9,190615,7.4,"
"##MN-00 00 54 0269 02805 6346 566800 023940 201"
"170.839282"
"$GPRMC,200830,A,2516.5887,N,07920.5301,W,4.2,286.2,190615,7.4,"
"##MN-00 00 54 0270 02805 6345 313488 023932 201"
"170.839329"
"$GPRMC,200834,A,2516.5902,N,07920.5351,W,4.2,286.5,190615,7.4,"
"##MN-00 00 54 0271 02806 6344 313520 023930 201"
"170.839375"
"$GPRMC,200838,A,2516.5916,N,07920.5401,W,4.2,286.6,190615,7.4,"
"##MN-00 00 54 0272 02803 6343 313504 023949 201"
"170.839421"
"$GPRMC,200842,A,2516.5930,N,07920.5449,W,4.2,286.5,190615,7.4,"
"##MN-00 00 54 0273 02804 6342 313536 023931 201"
"170.839468"
"$GPRMC,200846,A,2516.5945,N,07920.5499,W,4.2,286.8,190615,7.4,"
"##MN-00 00 54 0274 02805 6341 313520 023932 201"
"170.839514"
"$GPRMC,200849,A,2516.5954,N,07920.5535,W,4.1,286.7,190615,7.4,"
"##MN-00 00 54 0275 02806 6340 313480 023931 201"
"170.83956"
"$GPRMC,200854,A,2516.5969,N,07920.5594,W,4.2,286.6,190615,7.4,"
"##MN-00 00 54 0276 02804 6339 313520 023923 201"
"170.839606"
"$GPRMC,200858,A,2516.5981,N,07920.5643,W,4.1,286.0,190615,7.4,"
"##MN-00 00 54 0277 02805 6338 190152 023929 201"
"170.839653"
"$GPRMC,200901,A,2516.5992,N,07920.5680,W,4.1,286.9,190615,7.4,"
"##MN-00 00 54 0278 02805 6337 565608 023915 201"
"170.839711"
"$GPRMC,200906,A,2516.6006,N,07920.5741,W,4.1,285.9,190615,7.4,"
"##MN-00 00 54 0279 02806 6336 049008 023908 201"
"170.839757"
"$GPRMC,200910,A,2516.6021,N,07920.5792,W,4.0,285.4,190615,7.4,"
"##MN-00 00 54 0280 02807 6335 574528 023911 202"
"170.839803"
"$GPRMC,200914,A,2516.6034,N,07920.5840,W,4.0,285.3,190615,7.4,"
"##MN-00 00 54 0281 02805 6334 313664 023903 201"
"170.83985"
"$GPRMC,200918,A,2516.6044,N,07920.5887,W,4.0,285.3,190615,7.4,"
"##MN-00 00 54 0282 02807 6333 313648 023899 201"
"170.839896"
"$GPRMC,200922,A,2516.6057,N,07920.5936,W,4.0,285.8,190615,7.4,"
"##MN-00 00 54 0283 02804 6332 313648 023912 201"
"170.839942"
"$GPRMC,200926,A,2516.6068,N,07920.5983,W,4.0,286.1,190615,7.4,"
"##MN-00 00 54 0284 02807 6331 440040 023910 201"
"170.839988"
"$GPRMC,200930,A,2516.6081,N,07920.6030,W,4.0,286.2,190615,7.4,"
"##MN-00 00 54 0285 02806 6330 307000 023913 201"
"170.840035"
"$GPRMC,200934,A,2516.6093,N,07920.6077,W,4.0,286.3,190615,7.4,"
"##MN-00 00 54 0287 02806 6329 306560 023921 201"
"170.840081"
"$GPRMC,200938,A,2516.6107,N,07920.6127,W,4.1,286.4,190615,7.4,"
"##MN-00 00 54 0288 02806 6328 302584 023905 201"
"170.840127"
"$GPRMC,200942,A,2516.6120,N,07920.6174,W,4.1,286.4,190615,7.4,"
"##MN-00 00 54 0289 02806 6328 301216 023915 201"
"170.840174"
"$GPRMC,200946,A,2516.6133,N,07920.6223,W,4.1,286.3,190615,7.4,"
"##MN+00 00 54 0290 02805 6326 299056 023924 201"
"170.84022"
"$GPRMC,200950,A,2516.6147,N,07920.6272,W,4.1,286.3,190615,7.4,"
"##MN+00 00 54 0291 02805 6326 554960 023915 201"
"170.840266"
"$GPRMC,200954,A,2516.6158,N,07920.6324,W,4.2,286.0,190615,7.4,"
"##MN+00 00 55 0292 02805 6324 295520 023904 201"
"170.840312"
"$GPRMC,200958,A,2516.6172,N,07920.6373,W,4.2,285.9,190615,7.4,"
"##MN-00 00 55 0293 02807 6323 296000 023917 201"
"170.840359"
"#increment_net"
"$GPRMC,201002,A,2516.6186,N,07920.6420,W,4.2,286.1,190615,7.4,"
"##MN-00 00 55 0294 02806 6322 295096 023923 201"
"170.840405"
"$GPRMC,201006,A,2516.6198,N,07920.6467,W,4.2,286.4,190615,7.4,"
"##MN-00 00 55 0295 02805 6322 423304 023912 201"
"170.840451"
"$GPRMC,201010,A,2516.6212,N,07920.6517,W,4.2,286.3,190615,7.4,"
"##MN-00 00 55 0296 02805 6320 293392 023913 202"
"170.840498"
"$GPRMC,201014,A,2516.6225,N,07920.6564,W,4.2,286.3,190615,7.4,"
"##MN-00 00 55 0297 02805 6320 291160 023930 202"
"170.840544"
"$GPRMC,201018,A,2516.6236,N,07920.6601,W,4.2,286.7,190615,7.4,"
"##MN-00 00 55 0298 02805 6319 289856 023927 201"
"170.84059"
"$GPRMC,201022,A,2516.6248,N,07920.6651,W,4.2,286.7,190615,7.4,"
"##MN-00 00 55 0299 02806 6318 414416 023925 201"
"170.840637"
"$GPRMC,201026,A,2516.6261,N,07920.6702,W,4.2,286.4,190615,7.4,"
"##MN-00 00 55 0300 02805 6317 285392 023925 202"
"170.840683"
"$GPRMC,201030,A,2516.6273,N,07920.6750,W,4.1,286.5,190615,7.4,"
"##MN-00 00 55 0302 02806 6316 285432 023927 201"
"170.840729"
"$GPRMC,201034,A,2516.6290,N,07920.6810,W,4.1,286.7,190615,7.4,"
"##MN-00 00 55 0303 02806 6315 160728 023932 201"
"170.840775"
"$GPRMC,201038,A,2516.6302,N,07920.6857,W,4.1,286.3,190615,7.4,"
"##MN-00 00 55 0304 02808 6314 286304 023929 201"
"170.840822"
"$GPRMC,201042,A,2516.6316,N,07920.6905,W,4.1,286.7,190615,7.4,"
"##MN-00 00 55 0305 02805 6313 535624 023926 201"
"170.840868"
"$GPRMC,201046,A,2516.6330,N,07920.6958,W,4.1,287.1,190615,7.4,"
"##MN-00 00 55 0306 02807 6312 280080 023929 201"
"170.840914"
"$GPRMC,201050,A,2516.6342,N,07920.7008,W,4.1,287.5,190615,7.4,"
"##MN-00 00 55 0307 02806 6311 278808 023929 201"
"170.840961"
"$GPRMC,201054,A,2516.6357,N,07920.7056,W,4.1,287.5,190615,7.4,"
"##MN-00 00 55 0308 02804 6310 276608 023938 201"
"170.841007"
"$GPRMC,201058,A,2516.6373,N,07920.7106,W,4.1,287.5,190615,7.4,"
"##MN-00 00 55 0309 02806 6309 144272 023927 201"
"170.841053"
"$GPRMC,201102,A,2516.6388,N,07920.7154,W,4.1,287.8,190615,7.4,"
"##MN-00 00 55 0310 02806 6309 273936 023925 201"
"170.8411"
"$GPRMC,201106,A,2516.6403,N,07920.7204,W,4.2,288.3,190615,7.4,"
"##MN-00 00 55 0311 02803 6308 533512 023935 201"
"170.841146"
"$GPRMC,201110,A,2516.6418,N,07920.7251,W,4.2,288.0,190615,7.4,"
"##MN-00 00 55 0312 02805 6307 142944 023940 201"
"170.841192"
"$GPRMC,201114,A,2516.6432,N,07920.7299,W,4.2,288.2,190615,7.4,"
"##MN-00 00 55 0313 02806 6306 771696 023928 201"
"170.841238"
"$GPRMC,201118,A,2516.6446,N,07920.7346,W,4.2,288.5,190615,7.4,"
"##MN-00 00 55 0314 02804 6305 392288 023945 201"
"170.841285"
"$GPRMC,201122,A,2516.6460,N,07920.7393,W,4.1,288.0,190615,7.4,"
"##MN-00 00 55 0315 02805 6304 260544 023952 201"
"170.841331"
"$GPRMC,201126,A,2516.6475,N,07920.7440,W,4.1,287.6,190615,7.4,"
"##MN-00 00 55 0316 02805 6303 137616 023945 201"
"170.841377"
"$GPRMC,201130,A,2516.6487,N,07920.7487,W,4.1,287.4,190615,7.4,"
"##MN-00 00 55 0318 02805 6302 240960 023947 201"
"170.841424"
"$GPRMC,201134,A,2516.6501,N,07920.7536,W,4.1,287.1,190615,7.4,"
"##MN-00 00 55 0319 02806 6301 264608 023952 201"
"170.84147"
"$GPRMC,201138,A,2516.6515,N,07920.7587,W,4.1,286.9,190615,7.4,"
"##MN-00 00 55 0320 02805 6301 249448 023954 201"
"170.841516"
"$GPRMC,201142,A,2516.6527,N,07920.7634,W,4.1,286.9,190615,7.4,"
"##MN-00 00 55 0321 02806 6300 515200 023960 201"
"170.841563"
"$GPRMC,201146,A,2516.6541,N,07920.7684,W,4.1,286.9,190615,7.4,"
"##MN-00 00 55 0322 02805 6299 267320 023948 201"
"170.841609"
"$GPRMC,201150,A,2516.6555,N,07920.7735,W,4.1,286.7,190615,7.4,"
"##MN-00 00 55 0323 02806 6297 236608 023952 201"
"170.841655"
"$GPRMC,201154,A,2516.6569,N,07920.7783,W,4.1,286.4,190615,7.4,"
"##MN-00 00 55 0324 02804 6297 261120 023956 201"
"170.841701"
"$GPRMC,201158,A,2516.6581,N,07920.7832,W,4.1,286.2,190615,7.4,"
"##MN-00 00 55 0325 02803 6296 249072 023944 201"
"170.841748"
"$GPRMC,201202,A,2516.6594,N,07920.7879,W,4.1,286.0,190615,7.4,"
"##MN-00 00 55 0326 02805 6295 647520 023943 201"
"170.841794"
"$GPRMC,201206,A,2516.6606,N,07920.7927,W,4.1,286.0,190615,7.4,"
"##MN+00 00 55 0327 02801 6294 649112 023954 201"
"170.84184"
"$GPRMC,201210,A,2516.6619,N,07920.7977,W,4.1,286.2,190615,7.4,"
"##MN+00 00 55 0328 02804 6294 271408 023945 201"
"170.841887"
"$GPRMC,201214,A,2516.6631,N,07920.8024,W,4.1,286.5,190615,7.4,"
"##MN+00 00 58 0330 02802 6293 250032 023933 201"
"170.841933"
"#increment_net"
"$GPRMC,201218,A,2516.6645,N,07920.8072,W,4.1,286.4,190615,7.4,"
"##MN-00 00 56 0331 02801 6292 779920 023947 201"
"170.841979"
"$GPRMC,201222,A,2516.6657,N,07920.8121,W,4.1,286.5,190615,7.4,"
"##MN-00 00 56 0332 02802 6291 257232 023937 201"
"170.842025"
"$GPRMC,201226,A,2516.6671,N,07920.8169,W,4.1,286.7,190615,7.4,"
"##MN-00 00 55 0333 02800 6290 041200 023940 201"
"170.842072"
"$GPRMC,201230,A,2516.6684,N,07920.8217,W,4.2,286.7,190615,7.4,"
"##MN-00 00 55 0334 02801 6289 257240 023929 202"
"170.842118"
"$GPRMC,201234,A,2516.6698,N,07920.8266,W,4.2,287.2,190615,7.4,"
"##MN-00 00 55 0335 02801 6288 274176 023939 201"
"170.842164"
"$GPRMC,201238,A,2516.6713,N,07920.8314,W,4.2,287.7,190615,7.4,"
"##MN-00 00 55 0336 02801 6288 248744 023920 201"
"170.842211"
"$GPRMC,201242,A,2516.6727,N,07920.8363,W,4.2,288.1,190615,7.4,"
"##MN-00 00 55 0337 02802 6287 518592 023927 201"
"170.842257"
"$GPRMC,201246,A,2516.6742,N,07920.8411,W,4.2,288.3,190615,7.4,"
"##MN-00 00 55 0338 02802 6286 258176 023931 201"
"170.842303"
"$GPRMC,201250,A,2516.6756,N,07920.8459,W,4.2,288.3,190615,7.4,"
"##MN-00 00 55 0339 02803 6285 130352 023922 201"
"170.84235"
"$GPRMC,201254,A,2516.6771,N,07920.8508,W,4.2,288.7,190615,7.4,"
"##MN-00 00 55 0340 02802 6284 762208 023942 201"
"170.842396"
"$GPRMC,201258,A,2516.6786,N,07920.8555,W,4.2,289.0,190615,7.4,"
"##MN-00 00 55 0341 02800 6283 905328 023932 201"
"170.842442"
"$GPRMC,201302,A,2516.6801,N,07920.8602,W,4.2,289.3,190615,7.4,"
"##MN-00 00 55 0343 02801 6282 250176 023945 201"
"170.842488"
"$GPRMC,201307,A,2516.6819,N,07920.8663,W,4.2,289.5,190615,7.4,"
"##MN-00 00 55 0344 02800 6281 375736 023939 201"
"170.842535"
"$GPRMC,201311,A,2516.6834,N,07920.8710,W,4.2,289.5,190615,7.4,"
"##MN-00 00 55 0345 02800 6280 644904 023940 201"
"170.842581"
"$GPRMC,201315,A,2516.6851,N,07920.8758,W,4.2,289.6,190615,7.4,"
"##MN-00 00 55 0346 02800 6280 229776 023930 201"
"170.842627"
"$GPRMC,201319,A,2516.6866,N,07920.8806,W,4.2,289.6,190615,7.4,"
"##MN-00 00 55 0347 02801 6279 250304 023945 201"
"170.842674"
"$GPRMC,201323,A,2516.6881,N,07920.8855,W,4.2,289.2,190615,7.4,"
"##MN-00 00 55 0348 02799 6278 751632 023946 201"
"170.84272"
"$GPRMC,201327,A,2516.6897,N,07920.8903,W,4.2,289.2,190615,7.4,"
"##MN-00 00 55 0349 02799 6278 240048 023952 201"
"170.842766"
"$GPRMC,201331,A,2516.6912,N,07920.8950,W,4.2,288.7,190615,7.4,"
"##MN-00 00 55 0350 02801 6277 237824 023940 201"
"170.842824"
"$GPRMC,201335,A,2516.6926,N,07920.9000,W,4.2,288.5,190615,7.4,"
"##MN-00 00 55 0351 02800 6276 892064 023945 201"
"170.84287"
"$GPRMC,201339,A,2516.6942,N,07920.9051,W,4.1,287.9,190615,7.4,"
"##MN-00 00 55 0352 02800 6275 236944 023931 201"
"170.842917"
"$GPRMC,201343,A,2516.6956,N,07920.9102,W,4.1,287.4,190615,7.4,"
"##MN-00 00 55 0353 02800 6274 236064 023945 201"
"170.842963"
"$GPRMC,201347,A,2516.6971,N,07920.9151,W,4.1,286.7,190615,7.4,"
"##MN-00 00 55 0354 02800 6273 235224 023941 201"
"170.843009"
"$GPRMC,201351,A,2516.6985,N,07920.9198,W,4.1,287.0,190615,7.4,"
"##MN-00 00 55 0356 02801 6272 233392 023944 201"
"170.843056"
"$GPRMC,201355,A,2516.6999,N,07920.9246,W,4.1,287.1,190615,7.4,"
"##MN-00 00 55 0357 02800 6272 231200 023937 201"
"170.843102"
"$GPRMC,201359,A,2516.7014,N,07920.9296,W,4.1,287.1,190615,7.4,"
"##MN-00 00 55 0358 02801 6271 018272 023941 201"
"170.843148"
"$GPRMC,201403,A,2516.7029,N,07920.9346,W,4.1,287.2,190615,7.4,"
"##MN-00 00 55 0359 02800 6270 231624 023937 201"
"170.843194"
"$GPRMC,201407,A,2516.7043,N,07920.9394,W,4.1,287.1,190615,7.4,"
"##MN-00 00 55 0360 02800 6269 742800 023939 201"
"170.843241"
"$GPRMC,201411,A,2516.7057,N,07920.9443,W,4.1,287.4,190615,7.4,"
"##MN-00 00 55 0361 02799 6268 631672 023946 201"
"170.843287"
"$GPRMC,201415,A,2516.7071,N,07920.9491,W,4.1,288.0,190615,7.4,"
"##MN-00 00 55 0362 02799 6268 225408 023946 201"
"170.843333"
"$GPRMC,201419,A,2516.7086,N,07920.9541,W,4.1,288.2,190615,7.4,"
"##MN-00 00 55 0363 02799 6267 219200 023938 201"
"170.84338"
"$GPRMC,201423,A,2516.7101,N,07920.9588,W,4.1,288.3,190615,7.4,"
"##MN+00 00 55 0364 02800 6266 227256 023947 201"
"170.843426"
"$GPRMC,201427,A,2516.7115,N,07920.9635,W,4.2,289.2,190615,7.4,"
"##MN+00 00 55 0365 02800 6265 246928 023946 201"
"170.843472"
"$GPRMC,201431,A,2516.7130,N,07920.9682,W,4.2,289.3,190615,7.4,"
"##MN+00 00 56 0366 02799 6265 477496 023940 201"
"170.843518"
"#increment_net"
"$GPRMC,201435,A,2516.7144,N,07920.9729,W,4.2,289.5,190615,7.4,"
"##MN-00 00 55 0368 02799 6264 233232 023942 201"
"170.843565"
"$GPRMC,201439,A,2516.7158,N,07920.9776,W,4.2,289.4,190615,7.4,"
"##MN-00 00 55 0369 02799 6263 214776 023939 201"
"170.843611"
"$GPRMC,201443,A,2516.7170,N,07920.9821,W,4.2,289.2,190615,7.4,"
"##MN-00 00 55 0370 02797 6262 483296 023943 201"
"170.843657"
"$GPRMC,201447,A,2516.7184,N,07920.9868,W,4.2,289.4,190615,7.4,"
"##MN-00 00 55 0371 02800 6261 004176 023950 201"
"170.843704"
"$GPRMC,201451,A,2516.7202,N,07920.9917,W,4.2,289.9,190615,7.4,"
"##MN-00 00 55 0372 02798 6261 219776 023941 201"
"170.84375"
"$GPRMC,201455,A,2516.7217,N,07920.9965,W,4.2,290.1,190615,7.4,"
"##MN-00 00 55 0373 02797 6260 226496 023948 201"
"170.843796"
"$GPRMC,201459,A,2516.7233,N,07921.0012,W,4.2,290.0,190615,7.4,"
"##MN-00 00 55 0374 02796 6259 214048 023954 201"
"170.843843"
"$GPRMC,201503,A,2516.7248,N,07921.0059,W,4.2,289.9,190615,7.4,"
"##MN-00 00 55 0375 02797 6258 215792 023948 201"
"170.843889"
"$GPRMC,201507,A,2516.7263,N,07921.0106,W,4.2,289.9,190615,7.4,"
"##MN-00 00 55 0377 02796 6258 224712 023957 201"
"170.843935"
"$GPRMC,201511,A,2516.7278,N,07921.0155,W,4.2,289.7,190615,7.4,"
"##MN-00 00 54 0378 02797 6257 191712 023950 201"
"170.843982"
"$GPRMC,201515,A,2516.7292,N,07921.0202,W,4.2,289.7,190615,7.4,"
"##MN-00 00 54 0379 02797 6256 211344 023951 201"
"170.844028"
"$GPRMC,201519,A,2516.7309,N,07921.0249,W,4.2,289.9,190615,7.4,"
"##MN-00 00 54 0380 02795 6255 205096 023958 201"
"170.844074"
"$GPRMC,201523,A,2516.7324,N,07921.0297,W,4.1,289.9,190615,7.4,"
"##MN-00 00 54 0381 02796 6255 479264 023964 201"
"170.84412"
"$GPRMC,201527,A,2516.7339,N,07921.0345,W,4.1,289.5,190615,7.4,"
"##MN-00 00 54 0382 02797 6253 204224 023955 201"
"170.844167"
"$GPRMC,201531,A,2516.7354,N,07921.0394,W,4.1,289.5,190615,7.4,"
"##MN-00 00 54 0383 02795 6253 717120 023956 201"
"170.844213"
"$GPRMC,201535,A,2516.7370,N,07921.0441,W,4.1,288.9,190615,7.4,"
"##MN-00 00 54 0384 02796 6252 594840 023946 201"
"170.844259"
"$GPRMC,201539,A,2516.7386,N,07921.0486,W,4.1,289.1,190615,7.4,"
"##MN-00 00 54 0385 02794 6251 202368 023972 201"
"170.844306"
"$GPRMC,201543,A,2516.7401,N,07921.0535,W,4.0,289.8,190615,7.4,"
"##MN-00 00 54 0386 02795 6251 201072 023973 201"
"170.844352"
"$GPRMC,201547,A,2516.7418,N,07921.0582,W,4.1,289.6,190615,7.4,"
"##MN-00 00 54 0388 02797 6250 861968 023963 201"
"170.844398"
"$GPRMC,201551,A,2516.7433,N,07921.0632,W,4.1,289.9,190615,7.4,"
"##MN-00 00 54 0389 02799 6249 205056 023969 201"
"170.844444"
"$GPRMC,201555,A,2516.7447,N,07921.0680,W,4.0,289.5,190615,7.4,"
"##MN-00 00 54 0390 02798 6249 190792 023964 201"
"170.844491"
"$GPRMC,201559,A,2516.7462,N,07921.0728,W,4.1,289.3,190615,7.4,"
"##MN-00 00 54 0391 02798 6248 725120 023962 201"
"170.844537"
"$GPRMC,201603,A,2516.7479,N,07921.0774,W,4.0,289.2,190615,7.4,"
"##MN-00 00 54 0392 02797 6247 592112 023970 201"
"170.844583"
"$GPRMC,201607,A,2516.7495,N,07921.0821,W,4.0,289.5,190615,7.4,"
"##MN-00 00 54 0393 02797 6246 725104 023971 201"
"170.84463"
"$GPRMC,201611,A,2516.7511,N,07921.0870,W,4.0,289.8,190615,7.4,"
"##MN-00 00 54 0394 02794 6246 200584 023964 201"
"170.844676"
"$GPRMC,201615,A,2516.7527,N,07921.0918,W,4.1,290.1,190615,7.4,"
"##MN-00 00 54 0395 02796 6245 200552 023972 201"
"170.844722"
"$GPRMC,201619,A,2516.7544,N,07921.0965,W,4.1,290.4,190615,7.4,"
"##MN-00 00 54 0397 02795 6244 200592 023982 201"
"170.844769"
"$GPRMC,201623,A,2516.7562,N,07921.1015,W,4.1,291.0,190615,7.4,"
"##MN-00 00 54 0398 02796 6243 592088 023981 201"
"170.844815"
"$GPRMC,201627,A,2516.7577,N,07921.1056,W,4.1,291.5,190615,7.4,"
"##MN-00 00 54 0399 02796 6243 200592 023970 201"
"170.844861"
"$GPRMC,201631,A,2516.7592,N,07921.1100,W,4.2,291.8,190615,7.4,"
"##MN+00 00 54 0400 02795 6242 200576 023955 201"
"170.844907"
"$GPRMC,201635,A,2516.7607,N,07921.1147,W,4.2,291.8,190615,7.4,"
"##MN+00 00 54 0401 02795 6241 200544 023964 201"
"170.844954"
"$GPRMC,201639,A,2516.7625,N,07921.1192,W,4.2,291.9,190615,7.4,"
"##MN+00 00 58 0402 02794 6240 200584 023946 201"
"170.845"
"#increment_net"
"$GPRMC,201643,A,2516.7642,N,07921.1237,W,4.2,292.1,190615,7.4,"
"##MN-00 00 55 0403 02795 6240 200576 023951 201"
"170.845046"
"$GPRMC,201647,A,2516.7660,N,07921.1287,W,4.2,292.3,190615,7.4,"
"##MN-00 00 55 0405 02793 6239 200552 023949 201"
"170.845093"
"$GPRMC,201651,A,2516.7679,N,07921.1337,W,4.2,292.4,190615,7.4,"
"##MN-00 00 55 0406 02796 6239 462840 023942 201"
"170.845139"
"$GPRMC,201655,A,2516.7696,N,07921.1383,W,4.2,292.5,190615,7.4,"
"##MN-00 00 55 0407 02795 6238 200592 023958 201"
"170.845185"
"$GPRMC,201659,A,2516.7714,N,07921.1431,W,4.1,292.2,190615,7.4,"
"##MN-00 00 55 0408 02794 6237 200608 023942 201"
"170.845231"
"$GPRMC,201703,A,2516.7732,N,07921.1477,W,4.1,292.1,190615,7.4,"
"##MN-00 00 55 0409 02793 6236 200608 023944 201"
"170.845278"
"$GPRMC,201707,A,2516.7748,N,07921.1522,W,4.0,292.2,190615,7.4,"
"##MN-00 00 55 0410 02795 6236 201024 023942 201"
"170.845324"
"$GPRMC,201711,A,2516.7766,N,07921.1569,W,4.0,292.2,190615,7.4,"
"##MN-00 00 55 0411 02792 6235 199664 023948 201"
"170.84537"
"$GPRMC,201715,A,2516.7783,N,07921.1615,W,4.0,291.9,190615,7.4,"
"##MN-00 00 55 0412 02795 6234 200600 023949 201"
"170.845417"
"$GPRMC,201719,A,2516.7798,N,07921.1659,W,4.0,291.7,190615,7.4,"
"##MN-00 00 55 0413 02793 6234 197928 023962 201"
"170.845463"
"$GPRMC,201723,A,2516.7815,N,07921.1705,W,4.0,291.5,190615,7.4,"
"##MN-00 00 55 0415 02792 6233 205968 023960 201"
"170.845509"
"$GPRMC,201727,A,2516.7831,N,07921.1750,W,4.0,291.1,190615,7.4,"
"##MN-00 00 55 0416 02793 6233 200600 023957 201"
"170.845556"
"$GPRMC,201732,A,2516.7849,N,07921.1807,W,4.0,291.0,190615,7.4,"
"##MN-00 00 55 0417 02792 6232 200608 023963 201"
"170.845602"
"$GPRMC,201736,A,2516.7867,N,07921.1853,W,3.9,291.2,190615,7.4,"
"##MN-00 00 55 0418 02791 6231 199704 023955 201"
"170.845648"
"$GPRMC,201739,A,2516.7878,N,07921.1886,W,3.9,291.2,190615,7.4,"
"##MN-00 00 55 0419 02792 6230 199696 023948 201"
"170.845694"
"$GPRMC,201744,A,2516.7899,N,07921.1944,W,3.9,291.3,190615,7.4,"
"##MN-00 00 55 0420 02791 6230 197048 023946 201"
"170.845741"
"$GPRMC,201748,A,2516.7914,N,07921.1991,W,4.0,290.9,190615,7.4,"
"##MN-00 00 55 0421 02792 6229 195248 023953 201"
"170.845787"
"$GPRMC,201752,A,2516.7927,N,07921.2025,W,4.0,290.8,190615,7.4,"
"##MN-00 00 55 0422 02792 6229 585464 023959 201"
"170.845833"
"$GPRMC,201756,A,2516.7948,N,07921.2085,W,4.0,291.0,190615,7.4,"
"##MN-00 00 55 0423 02791 6228 199696 023954 201"
"170.84588"
"$GPRMC,201800,A,2516.7964,N,07921.2129,W,4.0,291.5,190615,7.4,"
"##MN-00 00 55 0425 02793 6227 180064 023962 201"
"170.845926"
"$GPRMC,201804,A,2516.7981,N,07921.2173,W,4.0,291.5,190615,7.4,"
"##MN-00 00 55 0426 02791 6227 201888 023960 201"
"170.845972"
"$GPRMC,201808,A,2516.7997,N,07921.2219,W,4.0,291.4,190615,7.4,"
"##MN-00 00 55 0427 02792 6226 188112 023962 201"
"170.846019"
"$GPRMC,201812,A,2516.8013,N,07921.2267,W,4.0,291.5,190615,7.4,"
"##MN-00 00 55 0428 02792 6225 194360 023957 201"
"170.846076"
"$GPRMC,201816,A,2516.8029,N,07921.2316,W,4.0,291.7,190615,7.4,"
"##MN-00 00 55 0429 02792 6225 179248 023958 201"
"170.846123"
"$GPRMC,201820,A,2516.8047,N,07921.2363,W,4.0,292.5,190615,7.4,"
"##MN-00 00 54 0430 02794 6224 445960 023959 201"
"170.846169"
"$GPRMC,201824,A,2516.8065,N,07921.2411,W,4.0,292.7,190615,7.4,"
"##MN-00 00 54 0431 02791 6223 578816 023954 201"
"170.846215"
"$GPRMC,201828,A,2516.8083,N,07921.2457,W,4.0,292.9,190615,7.4,"
"##MN-00 00 54 0432 02791 6223 200672 023958 201"
"170.846262"
"$GPRMC,201832,A,2516.8100,N,07921.2503,W,4.0,292.7,190615,7.4,"
"##MN-00 00 54 0433 02792 6222 182360 023954 201"
"170.846308"
"$GPRMC,201836,A,2516.8116,N,07921.2547,W,4.0,292.6,190615,7.4,"
"##MN-00 00 54 0435 02791 6221 184608 023959 201"
"170.846354"
"$GPRMC,201840,A,2516.8134,N,07921.2592,W,4.0,292.4,190615,7.4,"
"##MN+00 00 54 0436 02791 6221 182368 023956 201"
"170.8464"
"$GPRMC,201844,A,2516.8152,N,07921.2637,W,4.0,292.1,190615,7.4,"
"##MN+00 00 54 0437 02793 6220 173952 023967 201"
"170.846447"
"$GPRMC,201848,A,2516.8169,N,07921.2682,W,4.0,291.8,190615,7.4,"
"##MN+00 00 59 0438 02792 6220 444216 023955 201"
"170.846493"
"$GPRMC,201852,A,2516.8185,N,07921.2728,W,4.0,291.5,190615,7.4,"
"##MN-00 00 57 0439 02793 6220 181568 023970 201"
"170.846539"
"$GPRMC,201856,A,2516.8201,N,07921.2774,W,4.0,291.3,190615,7.4,"
"##MN-00 00 55 0440 02793 6219 181072 023973 201"
"170.846586"
"#increment_net"
"$GPRMC,201900,A,2516.8217,N,07921.2819,W,4.0,290.9,190615,7.4,"
"##MN-00 00 54 0442 02791 6218 834864 023968 201"
"170.846632"
"$GPRMC,201904,A,2516.8234,N,07921.2866,W,4.0,290.9,190615,7.4,"
"##MN-00 00 54 0443 02791 6218 181104 023961 201"
"170.846678"
"$GPRMC,201908,A,2516.8250,N,07921.2915,W,4.0,290.7,190615,7.4,"
"##MN-00 00 53 0444 02793 6217 179304 023970 201"
"170.846725"
"$GPRMC,201912,A,2516.8268,N,07921.2962,W,4.1,290.6,190615,7.4,"
"##MN-00 00 53 0445 02795 6216 178416 023962 201"
"170.846771"
"$GPRMC,201916,A,2516.8285,N,07921.3010,W,4.2,290.5,190615,7.4,"
"##MN-00 00 52 0447 02794 6216 177112 023975 201"
"170.846817"
"$GPRMC,201920,A,2516.8300,N,07921.3058,W,4.1,289.9,190615,7.4,"
"##MN-00 00 52 0448 02793 6215 974880 023964 201"
"170.846863"
"$GPRMC,201924,A,2516.8318,N,07921.3107,W,4.2,289.5,190615,7.4,"
"##MN-00 00 52 0449 02796 6214 429992 023969 201"
"170.84691"
"$GPRMC,201928,A,2516.8335,N,07921.3155,W,4.2,289.8,190615,7.4,"
"##MN-00 00 52 0451 02796 6214 175328 023965 201"
"170.846956"
"$GPRMC,201932,A,2516.8350,N,07921.3204,W,4.2,289.8,190615,7.4,"
"##MN-00 00 52 0452 02796 6213 970432 023970 201"
"170.847002"
"$GPRMC,201936,A,2516.8367,N,07921.3252,W,4.2,290.0,190615,7.4,"
"##MN-00 00 52 0453 02796 6213 167752 023973 201"
"170.847049"
"$GPRMC,201940,A,2516.8383,N,07921.3302,W,4.2,289.7,190615,7.4,"
"##MN-00 00 52 0455 02797 6213 179360 023981 201"
"170.847095"
"$GPRMC,201944,A,2516.8401,N,07921.3350,W,4.2,290.0,190615,7.4,"
"##MN-00 00 52 0456 02797 6212 306216 023969 201"
"170.847141"
"$GPRMC,201948,A,2516.8416,N,07921.3397,W,4.2,290.4,190615,7.4,"
"##MN-00 00 52 0457 02797 6211 682512 023961 201"
"170.847188"
"$GPRMC,201952,A,2516.8433,N,07921.3443,W,4.2,290.9,190615,7.4,"
"##MN-00 00 52 0459 02795 6211 566480 023968 201"
"170.847234"
"$GPRMC,201956,A,2516.8449,N,07921.3493,W,4.2,291.2,190615,7.4,"
"##MN-00 00 52 0460 02795 6210 175832 023972 201"
"170.84728"
"$GPRMC,202000,A,2516.8466,N,07921.3541,W,4.2,291.2,190615,7.4,"
"##MN-00 00 52 0461 02795 6210 159776 023974 201"
"170.847326"
"$GPRMC,202004,A,2516.8484,N,07921.3592,W,4.2,291.2,190615,7.4,"
"##MN-00 00 52 0463 02794 6209 170488 023974 201"
"170.847373"
"$GPRMC,202008,A,2516.8503,N,07921.3642,W,4.3,291.4,190615,7.4,"
"##MN-00 00 52 0464 02794 6208 167888 023973 201"
"170.847419"
"$GPRMC,202012,A,2516.8521,N,07921.3692,W,4.3,291.2,190615,7.4,"
"##MN-00 00 52 0465 02791 6208 171856 023974 201"
"170.847465"
"$GPRMC,202016,A,2516.8539,N,07921.3743,W,4.3,291.4,190615,7.4,"
"##MN-00 00 52 0467 02794 6207 158032 023980 201"
"170.847512"
"$GPRMC,202020,A,2516.8556,N,07921.3791,W,4.3,291.3,190615,7.3,"
"##MN-00 00 52 0468 02791 6207 430088 023974 201"
"170.847558"
"$GPRMC,202024,A,2516.8573,N,07921.3840,W,4.3,291.2,190615,7.3,"
"##MN-00 00 52 0469 02791 6206 294680 023977 201"
"170.847604"
"$GPRMC,202028,A,2516.8591,N,07921.3891,W,4.3,291.6,190615,7.3,"
"##MN-00 00 52 0470 02790 6206 163360 023982 201"
"170.84765"
"$GPRMC,202032,A,2516.8609,N,07921.3939,W,4.3,291.8,190615,7.3,"
"##MN-00 00 52 0472 02790 6205 164744 023985 201"
"170.847697"
"$GPRMC,202036,A,2516.8625,N,07921.3990,W,4.3,291.6,190615,7.3,"
"##MN-00 00 52 0473 02789 6204 164240 023983 201"
"170.847743"
"$GPRMC,202040,A,2516.8643,N,07921.4039,W,4.3,291.3,190615,7.3,"
"##MN-00 00 52 0474 02787 6204 162488 023975 201"
"170.847789"
"$GPRMC,202044,A,2516.8661,N,07921.4090,W,4.3,291.5,190615,7.3,"
"##MN-00 00 52 0476 02786 6203 162464 023977 201"
"170.847836"
"$GPRMC,202048,A,2516.8679,N,07921.4138,W,4.3,291.5,190615,7.3,"
"##MN-00 00 52 0477 02787 6203 554432 023982 201"
"170.847882"
"$GPRMC,202052,A,2516.8696,N,07921.4187,W,4.2,291.0,190615,7.3,"
"##MN-00 00 52 0478 02786 6203 162496 023984 201"
"170.847928"
"$GPRMC,202056,A,2516.8712,N,07921.4235,W,4.2,290.7,190615,7.3,"
"##MN-00 00 52 0480 02783 6202 162952 023988 201"
"170.847975"
"$GPRMC,202100,A,2516.8729,N,07921.4285,W,4.2,290.3,190615,7.3,"
"##MN-00 00 52 0481 02782 6201 162952 023971 201"
"170.848021"
"$GPRMC,202104,A,2516.8744,N,07921.4329,W,4.2,290.1,190615,7.3,"
"##MN-00 00 52 0482 02781 6201 162528 023986 201"
"170.848067"
"$GPRMC,202108,A,2516.8758,N,07921.4375,W,4.2,290.0,190615,7.3,"
