" Tow: 7Wgelzo   RVWS/WS15161"
" Date: 24/06/2015"
" Temperature Probe #  4762    Conductivity Probe #  710"
" Pressure Probe #  159"
" Flow Meter Calibration  4.71 (m/count)  "
"175.989583"
"$GPRMC,234456,A,2539.0874,N,08003.8515,W,0.5,215.3,240615,6.9,"
"##MN-00 00 72 0000 01520 6662 429626 827626 195"
"175.98963"
"$GPRMC,234501,A,2539.0869,N,08003.8518,W,0.6,217.7,240615,6.9,"
"##MN-00 00 72 0000 01521 6661 429872 827672 195"
"175.989676"
"$GPRMC,234505,A,2539.0864,N,08003.8522,W,0.5,219.3,240615,6.9,"
"##MN-00 00 72 0000 01522 6661 429959 827740 195"
"175.989722"
"$GPRMC,234509,A,2539.0859,N,08003.8527,W,0.5,219.9,240615,6.9,"
"##MN-00 00 58 0000 01521 6661 430235 827685 195"
"175.989769"
"$GPRMC,234513,A,2539.0854,N,08003.8533,W,0.5,220.0,240615,6.9,"
"##MN-00 00 58 0000 01523 6660 431149 827743 195"
"175.989815"
"$GPRMC,234517,A,2539.0849,N,08003.8537,W,0.5,219.6,240615,6.9,"
"##MN-00 00 58 0000 01520 6660 431645 827540 195"
"175.989861"
"$GPRMC,234521,A,2539.0845,N,08003.8540,W,0.5,220.3,240615,6.9,"
"##MN-00 00 58 0000 01520 6660 431915 827411 195"
"175.989907"
"$GPRMC,234525,A,2539.0842,N,08003.8545,W,0.5,222.1,240615,6.9,"
"##MN-00 00 58 0000 01521 6660 432179 827407 195"
"175.989954"
"$GPRMC,234529,A,2539.0838,N,08003.8551,W,0.5,223.4,240615,6.9,"
"##MN-00 00 58 0000 01523 6659 432598 827485 195"
"175.99"
"$GPRMC,234533,A,2539.0836,N,08003.8555,W,0.5,225.7,240615,6.9,"
"##MN-00 00 58 0001 01521 6659 432693 827688 195"
"175.990046"
"$GPRMC,234537,A,2539.0835,N,08003.8559,W,0.4,228.9,240615,6.9,"
"##MN-00 00 06 0001 01521 6659 437755 261604 195"
"175.990093"
"$GPRMC,234541,A,2539.0835,N,08003.8566,W,0.4,233.2,240615,6.9,"
"##MN-00 00 05 0002 01523 6658 437992 206923 195"
"175.990139"
"$GPRMC,234545,A,2539.0833,N,08003.8570,W,0.4,239.3,240615,6.9,"
"##MN-00 00 06 0004 01522 6658 438059 203374 195"
"175.990185"
"$GPRMC,234549,A,2539.0833,N,08003.8574,W,0.4,245.7,240615,6.9,"
"##MN-00 00 07 0005 01526 6658 438091 203437 195"
"175.990232"
"$GPRMC,234553,A,2539.0833,N,08003.8578,W,0.4,252.7,240615,6.9,"
"##MN-00 00 07 0006 01528 6657 438092 203439 195"
"175.990278"
"$GPRMC,234557,A,2539.0835,N,08003.8581,W,0.4,262.0,240615,6.9,"
"##MN-00 00 07 0007 01532 6657 438112 203447 195"
"175.990324"
"$GPRMC,234601,A,2539.0838,N,08003.8585,W,0.4,273.5,240615,6.9,"
"##MN-00 00 07 0008 01533 6657 438177 203503 195"
"175.99037"
"$GPRMC,234605,A,2539.0843,N,08003.8589,W,0.4,283.1,240615,6.9,"
"##MN-00 00 06 0009 01538 6656 438231 203502 195"
"175.990417"
"$GPRMC,234609,A,2539.0847,N,08003.8595,W,0.4,292.4,240615,6.9,"
"##MN-00 00 06 0010 01543 6656 438243 203523 195"
"175.990463"
"$GPRMC,234613,A,2539.0849,N,08003.8598,W,0.4,299.4,240615,6.9,"
"##MN-00 00 06 0011 01549 6655 438610 203675 195"
"175.990509"
"$GPRMC,234617,A,2539.0854,N,08003.8600,W,0.4,305.3,240615,6.9,"
"##MN-00 00 06 0012 01556 6654 439905 203963 195"
"175.990556"
"$GPRMC,234621,A,2539.0858,N,08003.8603,W,0.4,309.7,240615,6.9,"
"##MN-00 00 06 0013 01561 6654 440696 204139 195"
"175.990602"
"$GPRMC,234625,A,2539.0860,N,08003.8605,W,0.4,312.9,240615,6.9,"
"##MN-00 00 06 0014 01568 6653 441105 204229 195"
"175.990648"
"$GPRMC,234629,A,2539.0865,N,08003.8607,W,0.4,315.5,240615,6.9,"
"##MN-00 00 06 0015 01570 6652 441151 204210 195"
"175.990694"
"$GPRMC,234633,A,2539.0871,N,08003.8610,W,0.4,318.2,240615,6.9,"
"##MN-00 00 06 0016 01576 6651 441148 204192 195"
"175.990752"
"$GPRMC,234637,A,2539.0876,N,08003.8614,W,0.4,321.0,240615,6.9,"
"##MN-00 00 06 0017 01580 6650 441155 204163 195"
"175.990799"
"$GPRMC,234641,A,2539.0882,N,08003.8617,W,0.4,324.0,240615,6.9,"
"##MN-00 00 06 0018 01583 6649 441178 204175 195"
"175.990845"
"$GPRMC,234645,A,2539.0886,N,08003.8620,W,0.4,326.5,240615,6.9,"
"##MN-00 00 06 0019 01590 6649 441212 204180 195"
"175.990891"
"$GPRMC,234649,A,2539.0891,N,08003.8623,W,0.5,327.9,240615,6.9,"
"##MN-00 00 06 0020 01593 6648 441223 204174 195"
"175.990937"
"$GPRMC,234653,A,2539.0894,N,08003.8624,W,0.5,327.9,240615,6.9,"
"##MN-00 00 06 0021 01597 6647 441172 204160 195"
"175.990984"
"$GPRMC,234657,A,2539.0898,N,08003.8627,W,0.4,327.6,240615,6.9,"
"##MN-00 00 06 0022 01598 6646 441104 204131 195"
"175.99103"
"$GPRMC,234701,A,2539.0899,N,08003.8630,W,0.4,325.0,240615,6.9,"
"##MN-00 00 06 0023 01599 6645 441113 204119 195"
"175.991076"
"$GPRMC,234706,A,2539.0900,N,08003.8636,W,0.3,319.6,240615,6.9,"
"##MN-00 00 06 0024 01603 6643 441106 204115 195"
"175.991123"
"$GPRMC,234710,A,2539.0899,N,08003.8642,W,0.4,308.0,240615,6.9,"
"##MN-00 00 06 0025 01605 6642 441118 204117 195"
"175.991169"
"$GPRMC,234713,A,2539.0898,N,08003.8645,W,0.5,297.8,240615,6.9,"
"##MN-00 00 06 0026 01604 6641 441147 204121 195"
"175.991215"
"$GPRMC,234717,A,2539.0898,N,08003.8649,W,0.4,291.3,240615,6.9,"
"##MN-00 00 06 0027 01604 6640 441146 204115 195"
"175.991262"
"$GPRMC,234721,A,2539.0895,N,08003.8653,W,0.4,280.2,240615,6.9,"
"##MN-00 00 06 0028 01608 6638 441146 204114 195"
"175.991308"
"$GPRMC,234726,A,2539.0894,N,08003.8658,W,0.4,272.7,240615,6.9,"
"##MN-00 00 06 0029 01612 6637 441123 204111 195"
"175.991354"
"$GPRMC,234730,A,2539.0891,N,08003.8663,W,0.4,267.8,240615,6.9,"
"##MN-00 00 06 0030 01611 6635 441083 204101 195"
"175.9914"
"$GPRMC,234734,A,2539.0889,N,08003.8667,W,0.3,263.4,240615,6.9,"
"##MN-00 00 06 0031 01614 6634 441087 204089 195"
"175.991447"
"$GPRMC,234738,A,2539.0887,N,08003.8670,W,0.3,258.1,240615,6.9,"
"##MN-00 00 06 0032 01615 6633 441087 204087 195"
"175.991493"
"$GPRMC,234742,A,2539.0883,N,08003.8672,W,0.4,252.3,240615,6.9,"
"##MN-00 00 06 0033 01615 6632 441088 204085 195"
"175.991539"
"$GPRMC,234746,A,2539.0882,N,08003.8675,W,0.3,247.3,240615,6.9,"
"##MN-00 00 06 0035 01616 6630 441075 204075 195"
"175.991586"
"$GPRMC,234750,A,2539.0878,N,08003.8679,W,0.4,240.6,240615,6.9,"
"##MN-00 00 06 0036 01615 6629 441085 204076 195"
"175.991632"
"$GPRMC,234754,A,2539.0876,N,08003.8681,W,0.4,236.7,240615,6.9,"
"##MN-00 00 06 0037 01620 6628 441092 204083 195"
"175.991678"
"$GPRMC,234758,A,2539.0873,N,08003.8683,W,0.4,234.1,240615,6.9,"
"##MN-00 00 06 0038 01619 6626 441095 204081 195"
"175.991725"
"$GPRMC,234802,A,2539.0872,N,08003.8686,W,0.4,230.1,240615,6.9,"
"##MN-00 00 06 0039 01622 6624 441093 204079 195"
"175.991771"
"$GPRMC,234806,A,2539.0871,N,08003.8689,W,0.4,228.7,240615,6.9,"
"##MN-00 00 06 0041 01622 6622 441083 204077 195"
"175.991817"
"$GPRMC,234810,A,2539.0866,N,08003.8693,W,0.4,227.8,240615,6.9,"
"##MN-00 00 06 0042 01627 6621 441100 204076 195"
"175.991863"
"$GPRMC,234814,A,2539.0865,N,08003.8696,W,0.3,226.3,240615,6.9,"
"##MN-00 00 06 0043 01629 6619 441131 204081 195"
"175.99191"
"$GPRMC,234818,A,2539.0860,N,08003.8699,W,0.4,225.6,240615,6.9,"
"##MN-00 00 06 0044 01628 6618 441142 204084 195"
"175.991956"
"$GPRMC,234822,A,2539.0858,N,08003.8703,W,0.4,225.6,240615,6.9,"
"##MN-00 00 06 0046 01629 6617 441153 204088 195"
"175.992002"
"$GPRMC,234826,A,2539.0854,N,08003.8707,W,0.4,226.0,240615,6.9,"
"##MN-00 00 06 0047 01631 6615 441170 204091 195"
"175.992049"
"$GPRMC,234830,A,2539.0851,N,08003.8710,W,0.4,227.2,240615,6.9,"
"##MN-00 00 06 0048 01634 6614 441141 204082 195"
"175.992095"
"$GPRMC,234834,A,2539.0848,N,08003.8714,W,0.4,228.9,240615,6.9,"
"##MN-00 00 06 0049 01637 6613 441130 204078 195"
"175.992141"
"$GPRMC,234838,A,2539.0846,N,08003.8718,W,0.4,230.8,240615,6.9,"
"##MN-00 00 06 0051 01637 6611 441128 204076 195"
"175.992188"
"$GPRMC,234842,A,2539.0843,N,08003.8723,W,0.4,232.7,240615,6.9,"
"##MN-00 00 06 0052 01639 6609 441119 204071 195"
"175.992234"
"$GPRMC,234846,A,2539.0838,N,08003.8728,W,0.4,233.9,240615,6.9,"
"##MN-00 00 06 0053 01642 6607 441119 204067 195"
"175.99228"
"$GPRMC,234850,A,2539.0835,N,08003.8732,W,0.4,234.7,240615,6.9,"
"##MN-00 00 06 0054 01643 6606 441114 204065 195"
"175.992326"
"$GPRMC,234854,A,2539.0831,N,08003.8736,W,0.5,235.3,240615,6.9,"
"##MN-00 00 06 0055 01644 6604 441113 204063 195"
"175.992373"
"$GPRMC,234858,A,2539.0829,N,08003.8741,W,0.4,235.0,240615,6.9,"
"##MN-00 00 06 0057 01647 6603 441111 204059 195"
"175.992419"
"$GPRMC,234902,A,2539.0826,N,08003.8746,W,0.4,235.2,240615,6.9,"
"##MN-00 00 06 0058 01650 6602 441104 204054 195"
"175.992465"
"$GPRMC,234906,A,2539.0822,N,08003.8750,W,0.4,235.0,240615,6.9,"
"##MN-00 00 06 0059 01649 6600 441101 204053 195"
"175.992512"
"$GPRMC,234910,A,2539.0818,N,08003.8754,W,0.4,234.7,240615,6.9,"
"##MN-00 00 06 0060 01651 6598 441101 204053 195"
"175.992558"
"$GPRMC,234914,A,2539.0815,N,08003.8756,W,0.4,234.5,240615,6.9,"
"##MN-00 00 06 0061 01656 6597 441108 204053 195"
"175.992604"
"$GPRMC,234918,A,2539.0815,N,08003.8759,W,0.4,233.7,240615,6.9,"
"##MN-00 00 06 0063 01658 6595 441119 204052 195"
"175.99265"
"$GPRMC,234922,A,2539.0811,N,08003.8762,W,0.3,233.6,240615,6.9,"
"##MN-00 00 06 0064 01663 6594 441125 204053 195"
"175.992697"
"$GPRMC,234926,A,2539.0809,N,08003.8766,W,0.3,233.1,240615,6.9,"
"##MN-00 00 06 0065 01667 6592 441145 204055 195"
"175.992743"
"$GPRMC,234930,A,2539.0808,N,08003.8769,W,0.3,232.9,240615,6.9,"
"##MN-00 00 06 0066 01667 6591 441175 204060 195"
"175.992789"
"$GPRMC,234934,A,2539.0806,N,08003.8772,W,0.4,232.2,240615,6.9,"
"##MN-00 00 06 0067 01669 6589 441190 204062 195"
"175.992836"
"$GPRMC,234938,A,2539.0804,N,08003.8775,W,0.4,232.3,240615,6.9,"
"##MN-00 00 06 0069 01676 6587 441205 204064 195"
"175.992882"
"$GPRMC,234942,A,2539.0804,N,08003.8779,W,0.3,232.8,240615,6.9,"
"##MN-00 00 06 0070 01676 6586 441212 204062 195"
"175.992928"
"$GPRMC,234946,A,2539.0801,N,08003.8783,W,0.3,234.7,240615,6.9,"
"##MN-00 00 06 0071 01676 6584 441226 204061 195"
"175.992975"
"$GPRMC,234950,A,2539.0799,N,08003.8787,W,0.4,236.4,240615,6.9,"
"##MN-00 00 06 0072 01681 6583 441238 204061 195"
"175.993021"
"$GPRMC,234954,A,2539.0795,N,08003.8791,W,0.4,237.5,240615,6.9,"
"##MN-00 00 06 0074 01684 6581 441237 204063 195"
"175.993067"
"$GPRMC,234958,A,2539.0793,N,08003.8797,W,0.3,237.4,240615,6.9,"
"##MN+00 00 06 0075 01686 6580 441237 204062 195"
"175.993113"
"$GPRMC,235002,A,2539.0790,N,08003.8801,W,0.4,237.0,240615,6.9,"
"##MN+00 00 06 0076 01689 6578 441261 204064 195"
"175.99316"
"$GPRMC,235006,A,2539.0786,N,08003.8804,W,0.4,237.4,240615,6.9,"
"##MN+00 00 06 0077 01690 6576 441292 204067 195"
"175.993206"
"$GPRMC,235010,A,2539.0783,N,08003.8808,W,0.4,237.0,240615,6.9,"
"##MN-00 00 06 0078 01688 6574 441292 204071 195"
"175.993252"
"$GPRMC,235014,A,2539.0782,N,08003.8812,W,0.4,237.4,240615,6.9,"
"##MN+00 00 06 0079 01688 6573 441271 204068 195"
"175.993299"
"$GPRMC,235018,A,2539.0779,N,08003.8818,W,0.4,238.1,240615,6.9,"
"##MN+00 00 06 0081 01689 6571 441252 204065 195"
"175.993345"
"$GPRMC,235022,A,2539.0778,N,08003.8822,W,0.4,240.2,240615,6.9,"
"##MN+00 00 06 0082 01687 6570 441241 204063 195"
"175.993391"
"$GPRMC,235026,A,2539.0775,N,08003.8826,W,0.4,243.3,240615,6.9,"
"##MN-00 00 06 0083 01689 6568 441238 204063 195"
"175.993438"
"#increment_net"
"$GPRMC,235030,A,2539.0775,N,08003.8831,W,0.4,245.4,240615,6.9,"
"##MN-00 00 06 0084 01688 6566 441239 204062 195"
"175.993484"
"$GPRMC,235034,A,2539.0772,N,08003.8835,W,0.4,247.5,240615,6.9,"
"##MN-00 00 06 0085 01686 6565 441233 204062 195"
"175.99353"
"$GPRMC,235038,A,2539.0771,N,08003.8840,W,0.4,249.3,240615,6.9,"
"##MN-00 00 06 0086 01689 6563 441230 204061 195"
"175.993576"
"$GPRMC,235042,A,2539.0771,N,08003.8844,W,0.4,250.4,240615,6.9,"
"##MN-00 00 06 0087 01688 6562 441233 204062 195"
"175.993623"
"$GPRMC,235046,A,2539.0770,N,08003.8849,W,0.4,251.9,240615,6.9,"
"##MN-00 00 06 0089 01689 6560 441247 204063 195"
"175.993669"
"$GPRMC,235050,A,2539.0768,N,08003.8853,W,0.4,253.0,240615,6.9,"
"##MN-00 00 04 0090 01684 6558 441247 204065 195"
"175.993715"
"$GPRMC,235054,A,2539.0768,N,08003.8856,W,0.4,254.1,240615,6.9,"
"##MN-00 00 06 0091 01682 6557 441241 204064 195"
"175.993762"
"$GPRMC,235058,A,2539.0768,N,08003.8859,W,0.3,256.6,240615,6.9,"
"##MN-00 00 06 0092 01685 6555 441240 204064 195"
"175.993808"
"$GPRMC,235102,A,2539.0768,N,08003.8863,W,0.3,258.4,240615,6.9,"
"##MN-00 00 06 0093 01683 6554 441248 204065 195"
"175.993854"
"$GPRMC,235106,A,2539.0768,N,08003.8867,W,0.3,260.4,240615,6.9,"
"##MN-00 00 06 0094 01682 6552 441272 204069 195"
"175.9939"
"$GPRMC,235110,A,2539.0766,N,08003.8871,W,0.3,261.3,240615,6.9,"
"##MN-00 00 06 0095 01682 6551 441271 204069 195"
"175.993947"
"$GPRMC,235114,A,2539.0766,N,08003.8876,W,0.3,262.1,240615,6.9,"
"##MN-00 00 06 0096 01682 6549 441254 204069 195"
"175.994005"
"$GPRMC,235118,A,2539.0767,N,08003.8880,W,0.4,263.6,240615,6.9,"
"##MN-00 00 06 0098 01678 6548 441248 204068 195"
"175.994051"
"$GPRMC,235122,A,2539.0767,N,08003.8885,W,0.4,264.9,240615,6.9,"
"##MN-00 00 06 0099 01680 6546 441249 204069 195"
"175.994097"
"$GPRMC,235126,A,2539.0767,N,08003.8891,W,0.4,265.8,240615,6.9,"
"##MN-00 00 06 0100 01678 6545 441254 204069 195"
"175.994143"
"$GPRMC,235130,A,2539.0768,N,08003.8895,W,0.4,267.3,240615,6.9,"
"##MN-00 00 06 0101 01676 6543 441246 204069 195"
"175.99419"
"$GPRMC,235134,A,2539.0768,N,08003.8899,W,0.4,267.8,240615,6.9,"
"##MN-00 00 06 0102 01677 6541 441237 204067 195"
"175.994236"
"$GPRMC,235138,A,2539.0768,N,08003.8905,W,0.4,268.1,240615,6.9,"
"##MN-00 00 06 0103 01673 6540 441208 204062 195"
"175.994282"
"$GPRMC,235142,A,2539.0766,N,08003.8908,W,0.4,267.5,240615,6.9,"
"##MN-00 00 06 0104 01673 6539 441206 204061 195"
"175.994329"
"$GPRMC,235146,A,2539.0765,N,08003.8913,W,0.4,266.2,240615,6.9,"
"##MN-00 00 06 0105 01670 6537 441191 204060 195"
"175.994375"
"$GPRMC,235151,A,2539.0765,N,08003.8917,W,0.4,266.7,240615,6.9,"
"##MN-00 00 06 0107 01670 6536 441186 204059 195"
"175.994421"
"$GPRMC,235154,A,2539.0767,N,08003.8920,W,0.3,267.2,240615,6.9,"
"##MN-00 00 06 0108 01667 6534 441192 204061 195"
"175.994468"
"$GPRMC,235158,A,2539.0767,N,08003.8925,W,0.3,268.3,240615,6.9,"
"##MN-00 00 06 0109 01666 6533 441194 204063 195"
"175.994514"
"$GPRMC,235202,A,2539.0767,N,08003.8928,W,0.3,269.2,240615,6.9,"
"##MN-00 00 06 0110 01665 6531 441207 204066 195"
"175.99456"
"$GPRMC,235206,A,2539.0767,N,08003.8932,W,0.3,270.1,240615,6.9,"
"##MN-00 00 06 0111 01666 6530 441211 204070 195"
"175.994606"
"$GPRMC,235210,A,2539.0768,N,08003.8936,W,0.3,270.8,240615,6.9,"
"##MN-00 00 06 0112 01664 6528 441205 204070 195"
"175.994653"
"$GPRMC,235214,A,2539.0766,N,08003.8939,W,0.3,271.3,240615,6.9,"
"##MN-00 00 06 0113 01663 6527 441201 204069 195"
"175.994699"
"$GPRMC,235219,A,2539.0767,N,08003.8945,W,0.3,271.7,240615,6.9,"
"##MN-00 00 06 0115 01660 6525 441201 204068 195"
"175.994745"
"$GPRMC,235223,A,2539.0766,N,08003.8949,W,0.3,271.7,240615,6.9,"
"##MN-00 00 06 0116 01659 6524 441204 204070 195"
"175.994792"
"$GPRMC,235227,A,2539.0766,N,08003.8952,W,0.3,271.1,240615,6.9,"
"##MN-00 00 06 0117 01656 6523 441196 204070 195"
"175.994838"
"$GPRMC,235231,A,2539.0767,N,08003.8956,W,0.3,271.3,240615,6.9,"
"##MN-00 00 06 0118 01655 6521 441189 204067 195"
"175.994884"
"$GPRMC,235235,A,2539.0766,N,08003.8960,W,0.3,271.3,240615,6.9,"
"##MN-00 00 06 0119 01654 6520 441181 204065 195"
"175.994931"
"$GPRMC,235239,A,2539.0766,N,08003.8964,W,0.3,271.8,240615,6.9,"
"##MN-00 00 06 0120 01652 6519 441169 204063 195"
"175.994977"
"$GPRMC,235243,A,2539.0766,N,08003.8970,W,0.3,271.9,240615,6.9,"
"##MN-00 00 06 0121 01650 6517 441151 204061 195"
"175.995023"
"$GPRMC,235247,A,2539.0766,N,08003.8972,W,0.3,271.0,240615,6.9,"
"##MN-00 00 06 0123 01648 6516 441131 204058 195"
"175.995069"
"$GPRMC,235251,A,2539.0764,N,08003.8978,W,0.3,270.8,240615,6.9,"
"##MN-00 00 06 0124 01648 6514 441118 204054 195"
"175.995116"
"$GPRMC,235255,A,2539.0764,N,08003.8982,W,0.4,270.4,240615,6.9,"
"##MN-00 00 06 0125 01647 6513 441100 204050 195"
"175.995162"
"$GPRMC,235259,A,2539.0764,N,08003.8988,W,0.4,270.2,240615,6.9,"
"##MN-00 00 06 0126 01647 6512 441100 204049 195"
"175.995208"
"$GPRMC,235303,A,2539.0764,N,08003.8992,W,0.4,270.4,240615,6.9,"
"##MN-00 00 06 0127 01644 6510 441103 204049 195"
"175.995255"
"$GPRMC,235307,A,2539.0764,N,08003.8996,W,0.4,269.5,240615,6.9,"
"##MN-00 00 06 0128 01643 6509 441100 204050 195"
"175.995301"
"$GPRMC,235311,A,2539.0766,N,08003.8999,W,0.4,269.2,240615,6.9,"
"##MN-00 00 06 0129 01642 6507 441127 204060 195"
"175.995347"
"$GPRMC,235315,A,2539.0764,N,08003.9002,W,0.4,269.1,240615,6.9,"
"##MN-00 00 06 0130 01640 6506 441166 204067 195"
"175.995394"
"$GPRMC,235319,A,2539.0765,N,08003.9008,W,0.4,268.8,240615,6.9,"
"##MN-00 00 06 0132 01638 6505 441225 204087 195"
"175.99544"
"$GPRMC,235323,A,2539.0764,N,08003.9014,W,0.3,268.9,240615,6.9,"
"##MN-00 00 06 0133 01637 6504 441237 204096 195"
"175.995486"
"$GPRMC,235327,A,2539.0764,N,08003.9019,W,0.3,268.7,240615,6.9,"
"##MN-00 00 06 0134 01636 6503 441234 204099 195"
"175.995532"
"$GPRMC,235331,A,2539.0764,N,08003.9025,W,0.3,267.6,240615,6.9,"
"##MN-00 00 06 0135 01632 6501 441234 204101 195"
"175.995579"
"$GPRMC,235335,A,2539.0764,N,08003.9029,W,0.3,267.7,240615,6.9,"
"##MN-00 00 06 0136 01633 6500 441233 204105 195"
"175.995625"
"$GPRMC,235339,A,2539.0764,N,08003.9035,W,0.3,267.7,240615,6.9,"
"##MN-00 00 06 0137 01631 6499 441205 204098 195"
"175.995671"
"$GPRMC,235343,A,2539.0764,N,08003.9039,W,0.3,268.1,240615,6.9,"
"##MN-00 00 06 0138 01628 6497 441195 204096 195"
"175.995718"
"$GPRMC,235347,A,2539.0762,N,08003.9042,W,0.3,268.1,240615,6.9,"
"##MN-00 00 06 0139 01629 6496 441217 204100 195"
"175.995764"
"$GPRMC,235351,A,2539.0764,N,08003.9046,W,0.3,267.4,240615,6.9,"
"##MN-00 00 06 0140 01628 6494 441143 204088 195"
"175.99581"
"$GPRMC,235355,A,2539.0763,N,08003.9051,W,0.3,266.7,240615,6.9,"
"##MN+00 00 06 0141 01625 6493 441135 204082 195"
"175.995856"
"$GPRMC,235359,A,2539.0761,N,08003.9055,W,0.3,266.0,240615,6.9,"
"##MN+00 00 06 0143 01620 6492 441151 204086 195"
"175.995903"
"$GPRMC,235403,A,2539.0760,N,08003.9059,W,0.3,265.2,240615,6.9,"
"##MN+00 00 06 0144 01619 6491 441136 204086 195"
"175.995949"
"$GPRMC,235407,A,2539.0760,N,08003.9064,W,0.3,265.2,240615,6.9,"
"##MN-00 00 06 0145 01617 6489 441107 204084 195"
"175.995995"
"$GPRMC,235411,A,2539.0760,N,08003.9068,W,0.3,264.7,240615,6.9,"
"##MN-00 00 06 0146 01614 6488 441104 204086 195"
"175.996042"
"$GPRMC,235415,A,2539.0760,N,08003.9072,W,0.4,265.9,240615,6.9,"
"##MN-00 00 06 0147 01612 6487 441110 204092 195"
"175.996088"
"$GPRMC,235419,A,2539.0760,N,08003.9077,W,0.4,266.2,240615,6.9,"
"##MN-00 00 06 0148 01610 6486 441119 204098 195"
"175.996134"
"$GPRMC,235423,A,2539.0759,N,08003.9083,W,0.4,266.7,240615,6.9,"
"##MN+00 00 06 0149 01611 6485 441183 204119 195"
"175.996181"
"$GPRMC,235427,A,2539.0759,N,08003.9084,W,0.4,267.9,240615,6.9,"
"##MN+00 00 06 0150 01606 6483 441195 204130 195"
"175.996227"
"$GPRMC,235431,A,2539.0757,N,08003.9093,W,0.4,267.5,240615,6.9,"
"##MN+00 00 06 0151 01605 6482 441275 204159 195"
"175.996273"
"#increment_net"
"$GPRMC,235435,A,2539.0757,N,08003.9100,W,0.4,270.2,240615,6.9,"
"##MN-00 00 06 0152 01603 6481 441314 204188 195"
"175.996319"
"$GPRMC,235439,A,2539.0758,N,08003.9107,W,0.4,271.7,240615,6.9,"
"##MN-00 00 06 0154 01602 6480 441316 204194 195"
"175.996366"
"$GPRMC,235443,A,2539.0759,N,08003.9111,W,0.4,272.8,240615,6.9,"
"##MN-00 00 06 0155 01600 6478 441344 204193 195"
"175.996412"
"$GPRMC,235447,A,2539.0760,N,08003.9116,W,0.4,274.0,240615,6.9,"
"##MN-00 00 06 0156 01598 6477 441376 204200 195"
"175.996458"
"$GPRMC,235451,A,2539.0760,N,08003.9122,W,0.4,274.9,240615,6.9,"
"##MN-00 00 06 0157 01595 6476 441383 204220 195"
"175.996505"
"$GPRMC,235455,A,2539.0761,N,08003.9126,W,0.4,276.0,240615,6.9,"
"##MN-00 00 06 0158 01593 6474 441389 204226 195"
"175.996551"
"$GPRMC,235459,A,2539.0762,N,08003.9130,W,0.4,276.4,240615,6.9,"
"##MN-00 00 06 0159 01592 6473 441362 204227 195"
"175.996597"
"$GPRMC,235503,A,2539.0764,N,08003.9136,W,0.3,276.5,240615,6.9,"
"##MN-00 00 06 0160 01590 6472 441335 204224 195"
"175.996644"
"$GPRMC,235507,A,2539.0764,N,08003.9140,W,0.4,275.9,240615,6.9,"
"##MN-00 00 06 0161 01588 6471 441307 204223 195"
"175.99669"
"$GPRMC,235511,A,2539.0764,N,08003.9144,W,0.3,275.1,240615,6.9,"
"##MN-00 00 06 0162 01586 6470 441268 204222 195"
"175.996736"
"$GPRMC,235515,A,2539.0764,N,08003.9148,W,0.3,274.7,240615,6.9,"
"##MN-00 00 06 0164 01584 6469 441261 204221 195"
"175.996782"
"$GPRMC,235519,A,2539.0765,N,08003.9152,W,0.3,275.7,240615,6.9,"
"##MN-00 00 06 0165 01582 6467 441252 204224 195"
"175.996829"
"$GPRMC,235523,A,2539.0765,N,08003.9156,W,0.3,275.5,240615,6.9,"
"##MN-00 00 06 0166 01580 6466 441260 204232 195"
"175.996875"
"$GPRMC,235527,A,2539.0765,N,08003.9160,W,0.3,275.4,240615,6.9,"
"##MN-00 00 06 0167 01577 6465 441270 204247 195"
"175.996921"
"$GPRMC,235531,A,2539.0764,N,08003.9162,W,0.3,273.9,240615,6.9,"
"##MN-00 00 06 0168 01572 6464 441283 204255 195"
"175.996968"
"$GPRMC,235535,A,2539.0764,N,08003.9164,W,0.3,271.5,240615,6.9,"
"##MN-00 00 06 0169 01572 6462 441277 204263 195"
"175.997014"
"$GPRMC,235539,A,2539.0764,N,08003.9169,W,0.3,267.4,240615,6.9,"
"##MN+00 00 06 0170 01569 6461 441270 204267 195"
"175.99706"
"$GPRMC,235543,A,2539.0764,N,08003.9173,W,0.3,265.5,240615,6.9,"
"##MN+00 00 06 0171 01566 6460 441188 204260 195"
"175.997106"
"$GPRMC,235547,A,2539.0764,N,08003.9176,W,0.3,265.0,240615,6.9,"
"##MN+00 00 06 0173 01566 6459 441231 204262 195"
"175.997153"
"$GPRMC,235551,A,2539.0764,N,08003.9180,W,0.3,264.8,240615,6.9,"
"##MN-00 00 06 0174 01562 6458 441208 204259 195"
"175.997199"
"$GPRMC,235555,A,2539.0764,N,08003.9181,W,0.3,266.5,240615,6.9,"
"##MN-00 00 06 0175 01558 6457 440990 204210 195"
"175.997257"
"$GPRMC,235559,A,2539.0764,N,08003.9185,W,0.4,267.7,240615,6.9,"
"##MN-00 00 07 0176 01556 6456 440826 204182 195"
"175.997303"
"$GPRMC,235603,A,2539.0764,N,08003.9188,W,0.4,268.9,240615,6.9,"
"##MN-00 00 07 0177 01553 6454 440915 204181 195"
"175.99735"
"$GPRMC,235607,A,2539.0765,N,08003.9196,W,0.4,269.3,240615,6.9,"
"##MN-00 00 06 0178 01552 6453 440519 204107 195"
"175.997396"
"$GPRMC,235611,A,2539.0767,N,08003.9202,W,0.4,269.1,240615,6.9,"
"##MN-00 00 07 0179 01550 6452 439629 203858 195"
"175.997442"
"$GPRMC,235615,A,2539.0767,N,08003.9209,W,0.4,269.2,240615,6.9,"
"##MN-00 00 07 0180 01548 6451 439626 203873 195"
"175.997488"
"$GPRMC,235619,A,2539.0767,N,08003.9214,W,0.4,267.8,240615,6.9,"
"##MN-00 00 07 0181 01546 6450 439676 203887 195"
"175.997535"
"$GPRMC,235624,A,2539.0765,N,08003.9219,W,0.4,267.2,240615,6.9,"
"##MN-00 00 07 0183 01540 6449 439228 203777 195"
"175.997581"
"$GPRMC,235627,A,2539.0764,N,08003.9221,W,0.4,266.9,240615,6.9,"
"##MN-00 00 07 0184 01539 6447 438850 203690 195"
"175.997627"
"$GPRMC,235631,A,2539.0764,N,08003.9227,W,0.4,266.2,240615,6.9,"
"##MN-00 00 07 0185 01537 6446 438655 203615 195"
"175.997674"
"$GPRMC,235635,A,2539.0764,N,08003.9231,W,0.5,265.4,240615,6.9,"
"##MN+00 00 07 0186 01534 6445 438710 203599 195"
"175.99772"
"$GPRMC,235639,A,2539.0764,N,08003.9231,W,0.4,265.3,240615,6.9,"
"##MN+00 00 07 0187 01532 6444 438648 203571 195"
"175.997766"
"$GPRMC,235643,A,2539.0764,N,08003.9235,W,0.4,267.2,240615,6.9,"
"##MN+00 00 07 0188 01531 6443 438581 203563 195"
"175.997813"
"$GPRMC,235647,A,2539.0765,N,08003.9241,W,0.4,269.4,240615,6.9,"
"##MN-00 00 07 0189 01526 6442 438481 203549 195"
"175.997859"
"$GPRMC,235652,A,2539.0768,N,08003.9249,W,0.4,271.3,240615,6.9,"
"##MN-00 00 07 0190 01526 6441 438466 203532 195"
"175.997905"
"#increment_net"
"$GPRMC,235656,A,2539.0767,N,08003.9250,W,0.4,273.4,240615,6.9,"
"##MN-00 00 07 0191 01525 6440 438554 203556 195"
"175.997951"
"$GPRMC,235700,A,2539.0768,N,08003.9253,W,0.3,274.2,240615,6.9,"
"##MN-00 00 07 0192 01525 6439 438523 203538 195"
"175.997998"
"$GPRMC,235704,A,2539.0768,N,08003.9257,W,0.3,275.0,240615,6.9,"
"##MN-00 00 07 0193 01524 6438 438488 203531 195"
"175.998044"
"$GPRMC,235708,A,2539.0768,N,08003.9263,W,0.3,275.2,240615,6.9,"
"##MN-00 00 07 0195 01524 6437 438464 203523 195"
"175.99809"
"$GPRMC,235712,A,2539.0768,N,08003.9267,W,0.3,274.8,240615,6.9,"
"##MN-00 00 08 0196 01527 6436 438456 203517 195"
"175.998137"
"$GPRMC,235716,A,2539.0768,N,08003.9270,W,0.3,272.9,240615,6.9,"
"##MN-00 00 08 0196 01525 6435 438419 203512 195"
"175.998183"
"$GPRMC,235720,A,2539.0768,N,08003.9275,W,0.3,270.2,240615,6.9,"
"##MN-00 00 08 0198 01525 6434 438435 203517 195"
"175.998229"
"$GPRMC,235724,A,2539.0768,N,08003.9281,W,0.3,269.1,240615,6.9,"
"##MN-00 00 07 0199 01527 6433 438464 203521 195"
"175.998275"
"$GPRMC,235728,A,2539.0768,N,08003.9285,W,0.3,268.7,240615,6.9,"
"##MN-00 00 07 0200 01527 6432 438403 203506 195"
"175.998322"
"$GPRMC,235732,A,2539.0768,N,08003.9289,W,0.4,268.2,240615,6.9,"
"##MN+00 00 08 0201 01524 6431 438366 203496 195"
"175.998368"
"$GPRMC,235736,A,2539.0768,N,08003.9296,W,0.4,268.7,240615,6.9,"
"##MN+00 00 08 0202 01525 6430 438379 203499 195"
"175.998414"
"$GPRMC,235740,A,2539.0767,N,08003.9300,W,0.4,269.7,240615,6.9,"
"##MN+00 00 07 0203 01525 6429 438423 203512 195"
"175.998461"
"$GPRMC,235744,A,2539.0766,N,08003.9307,W,0.4,270.3,240615,6.9,"
"##MN+00 00 08 0204 01524 6428 438457 205538 195"
"175.998507"
"$GPRMC,235748,A,2539.0766,N,08003.9311,W,0.4,270.3,240615,6.9,"
"##MN+00 00 07 0205 01523 6427 438723 263725 195"
"175.998553"
"$GPRMC,235752,A,2539.0766,N,08003.9315,W,0.4,270.6,240615,6.9,"
"##MN+00 00 08 0206 01522 6426 439446 304643 195"
"175.9986"
"#increment_net"
"$GPRMC,235756,A,2539.0766,N,08003.9319,W,0.4,271.0,240615,6.9,"
"##MN+00 00 09 0207 01524 6425 440931 580668 195"
"175.998646"
"$GPRMC,235800,A,2539.0767,N,08003.9326,W,0.5,270.7,240615,6.9,"
"##MN+00 00 49 0208 01524 6425 441386 433998 195"
"175.998692"
"$GPRMC,235804,A,2539.0767,N,08003.9332,W,0.4,270.0,240615,6.9,"
"##MN+00 00 42 0209 01523 6424 445918 827814 195"
"175.998738"
"$GPRMC,235808,A,2539.0767,N,08003.9336,W,0.4,269.3,240615,6.9,"
"##MN-00 00 54 0210 01524 6423 449659 827824 195"
"175.998785"
"$GPRMC,235812,A,2539.0767,N,08003.9344,W,0.4,268.5,240615,6.9,"
"##MN+00 00 54 0211 01523 6422 451804 827826 195"
"175.998831"
"$GPRMC,235816,A,2539.0768,N,08003.9350,W,0.4,268.8,240615,6.9,"
"##MN+00 00 54 0212 01524 6421 453671 827829 195"
"175.998877"
"$GPRMC,235820,A,2539.0768,N,08003.9352,W,0.4,268.4,240615,6.9,"
"##MN+00 00 54 0212 01524 6420 454985 827830 195"
"175.998924"
"#increment_net"
"$GPRMC,235824,A,2539.0766,N,08003.9358,W,0.4,266.7,240615,6.9,"
"##MN-00 00 55 0212 01524 6420 455455 827833 195"
