" Tow: 7WM-A   RVWS/WS15161"
" Date: 22/06/2015"
" Temperature Probe #  4762    Conductivity Probe #  710"
" Pressure Probe #  159"
" Flow Meter Calibration  4.71 (m/count)  "
"175.650185"
"$GPRMC,152424,A,2519.4267,N,08003.5481,W,8.7,23.5,240615,6.9,W"
"##MN-00 00 52 0000 01521 6502 418590 827394 197"
"175.650231"
"$GPRMC,153617,A,2520.8167,N,08003.0428,W,2.6,308.3,240615,6.9,"
"##MN-00 00 52 0000 01520 6504 416812 827796 197"
"175.650486"
"$GPRMC,153638,A,2520.8248,N,08003.0556,W,2.4,307.8,240615,6.9,"
"##MN-00 00 52 0000 01523 6510 417418 827795 197"
"175.650532"
"$GPRMC,153643,A,2520.8270,N,08003.0586,W,2.4,306.5,240615,6.9,"
"##MN-00 00 52 0000 01520 6511 417918 827795 197"
"175.650579"
"$GPRMC,153647,A,2520.8289,N,08003.0610,W,2.4,306.4,240615,6.9,"
"##MN-00 00 52 0000 01520 6512 417742 827795 197"
"175.650625"
"$GPRMC,153651,A,2520.8307,N,08003.0633,W,2.5,306.3,240615,6.9,"
"##MN-00 00 52 0000 01521 6512 417453 827793 197"
"175.650671"
"$GPRMC,153655,A,2520.8324,N,08003.0658,W,2.5,306.5,240615,6.9,"
"##MN-00 00 52 0000 01521 6513 417246 827795 197"
"175.650718"
"$GPRMC,153659,A,2520.8340,N,08003.0683,W,2.4,306.0,240615,6.9,"
"##MN-00 00 52 0000 01522 6514 417426 827795 197"
"175.650764"
"$GPRMC,153703,A,2520.8358,N,08003.0708,W,2.5,306.3,240615,6.9,"
"##MN-00 00 52 0000 01520 6515 417700 827793 197"
"175.65081"
"$GPRMC,153707,A,2520.8372,N,08003.0733,W,2.5,306.7,240615,6.9,"
"##MN-00 00 52 0000 01523 6515 417363 827793 197"
"175.650856"
"$GPRMC,153711,A,2520.8389,N,08003.0758,W,2.6,307.0,240615,6.9,"
"##MN-00 00 51 0000 01521 6516 417156 827793 197"
"175.650903"
"$GPRMC,153715,A,2520.8405,N,08003.0784,W,2.6,306.7,240615,6.9,"
"##MN-00 00 57 0000 01521 6517 416820 827793 197"
"175.650949"
"$GPRMC,153719,A,2520.8422,N,08003.0809,W,2.5,306.3,240615,6.9,"
"##MN-00 00 57 0000 01523 6517 416269 827723 197"
"175.650995"
"$GPRMC,153723,A,2520.8438,N,08003.0835,W,2.6,306.2,240615,6.9,"
"##MN-00 00 57 0000 01522 6518 416447 827791 197"
"175.651042"
"$GPRMC,153727,A,2520.8456,N,08003.0863,W,2.6,306.1,240615,6.9,"
"##MN-00 00 57 0000 01521 6519 416728 827792 197"
"175.651088"
"$GPRMC,153731,A,2520.8474,N,08003.0889,W,2.6,305.9,240615,6.9,"
"##MN-00 00 57 0000 01520 6519 416757 827791 197"
"175.651134"
"$GPRMC,153735,A,2520.8492,N,08003.0915,W,2.6,306.4,240615,6.9,"
"##MN-00 00 57 0000 01522 6520 416744 827791 197"
"175.651192"
"$GPRMC,153739,A,2520.8510,N,08003.0941,W,2.6,306.3,240615,6.9,"
"##MN-00 00 57 0000 01522 6520 416603 827791 197"
"175.651238"
"$GPRMC,153743,A,2520.8526,N,08003.0968,W,2.6,306.1,240615,6.9,"
"##MN-00 00 57 0000 01519 6520 416635 827791 197"
"175.651285"
"$GPRMC,153747,A,2520.8542,N,08003.0994,W,2.6,305.9,240615,6.9,"
"##MN-00 00 58 0000 01520 6521 416391 827790 197"
"175.651331"
"$GPRMC,153751,A,2520.8560,N,08003.1022,W,2.7,305.5,240615,6.9,"
"##MN-00 00 57 0000 01521 6521 416531 827787 197"
"175.651377"
"$GPRMC,153755,A,2520.8577,N,08003.1048,W,2.7,304.8,240615,6.9,"
"##MN-00 00 57 0000 01522 6522 416462 827786 197"
"175.651424"
"$GPRMC,153759,A,2520.8592,N,08003.1077,W,2.6,304.5,240615,6.9,"
"##MN-00 00 58 0000 01522 6522 417485 827786 197"
"175.65147"
"$GPRMC,153803,A,2520.8609,N,08003.1103,W,2.7,304.5,240615,6.9,"
"##MN-00 00 58 0000 01523 6522 418155 827786 197"
"175.651516"
"$GPRMC,153807,A,2520.8625,N,08003.1131,W,2.6,304.5,240615,6.9,"
"##MN-00 00 61 0000 01521 6523 417930 827786 197"
"175.651562"
"$GPRMC,153811,A,2520.8640,N,08003.1156,W,2.6,304.2,240615,6.9,"
"##MN-00 00 58 0000 01522 6523 417825 827786 197"
"175.651609"
"$GPRMC,153815,A,2520.8658,N,08003.1183,W,2.5,304.2,240615,6.9,"
"##MN-00 00 58 0000 01522 6524 417369 827718 197"
"175.651655"
"$GPRMC,153819,A,2520.8674,N,08003.1208,W,2.5,304.3,240615,6.9,"
"##MN-00 00 58 0000 01521 6524 417155 827785 197"
"175.651701"
"$GPRMC,153823,A,2520.8690,N,08003.1233,W,2.5,304.3,240615,6.9,"
"##MN-00 00 58 0000 01521 6525 416941 827785 197"
"175.651748"
"$GPRMC,153827,A,2520.8705,N,08003.1258,W,2.5,304.3,240615,6.9,"
"##MN-00 00 58 0000 01520 6524 417319 827784 196"
"175.651794"
"$GPRMC,153831,A,2520.8721,N,08003.1284,W,2.5,303.8,240615,6.9,"
"##MN-00 00 58 0000 01522 6525 417513 827784 197"
"175.65184"
"$GPRMC,153835,A,2520.8738,N,08003.1311,W,2.5,304.1,240615,6.9,"
"##MN-00 00 73 0000 01521 6525 417634 827760 197"
"175.651887"
"$GPRMC,153839,A,2520.8754,N,08003.1337,W,2.5,303.8,240615,6.9,"
"##MN-00 00 72 0000 01521 6526 418215 827759 197"
"175.651933"
"$GPRMC,153843,A,2520.8770,N,08003.1363,W,2.5,303.5,240615,6.9,"
"##MN-00 00 66 0000 01520 6526 419379 827777 197"
"175.651979"
"$GPRMC,153847,A,2520.8786,N,08003.1391,W,2.6,303.2,240615,6.9,"
"##MN-00 00 50 0000 01522 6526 421253 827788 197"
"175.652025"
"$GPRMC,153851,A,2520.8805,N,08003.1420,W,2.7,303.4,240615,6.9,"
"##MN-00 00 50 0000 01523 6527 422714 827789 197"
"175.652072"
"$GPRMC,153855,A,2520.8821,N,08003.1445,W,2.6,302.9,240615,6.9,"
"##MN-00 00 45 0000 01524 6527 422955 827792 197"
"175.652118"
"$GPRMC,153859,A,2520.8837,N,08003.1470,W,2.5,303.0,240615,6.9,"
"##MN-00 00 45 0000 01522 6527 423690 827793 197"
"175.652164"
"$GPRMC,153903,A,2520.8850,N,08003.1497,W,2.4,303.1,240615,6.9,"
"##MN-00 00 45 0000 01522 6528 424745 827793 197"
"175.652211"
"$GPRMC,153907,A,2520.8864,N,08003.1522,W,2.5,303.8,240615,6.9,"
"##MN-00 00 45 0000 01523 6528 424933 827793 196"
"175.652257"
"$GPRMC,153912,A,2520.8878,N,08003.1550,W,2.3,304.6,240615,6.9,"
"##MN-00 00 46 0000 01525 6529 424954 827727 197"
"175.652303"
"$GPRMC,153916,A,2520.8892,N,08003.1571,W,2.2,305.1,240615,6.9,"
"##MN-00 00 47 0001 01523 6529 425812 827795 196"
"175.65235"
"$GPRMC,153920,A,2520.8904,N,08003.1589,W,2.1,305.1,240615,6.9,"
"##MN-00 00 46 0001 01523 6529 426756 827796 196"
"175.652396"
"$GPRMC,153924,A,2520.8918,N,08003.1607,W,1.9,305.6,240615,6.9,"
"##MN-00 00 46 0001 01522 6530 428529 827796 197"
"175.652442"
"$GPRMC,153928,A,2520.8932,N,08003.1626,W,1.9,306.2,240615,6.9,"
"##MN-00 00 45 0001 01521 6530 429846 827797 197"
"175.652488"
"$GPRMC,153932,A,2520.8946,N,08003.1644,W,1.9,307.3,240615,6.9,"
"##MN-00 00 42 0001 01522 6530 436135 230472 197"
"175.652535"
"$GPRMC,153936,A,2520.8961,N,08003.1665,W,1.9,308.6,240615,6.9,"
"##MN-00 00 08 0002 01523 6531 439168 203480 196"
"175.652581"
"$GPRMC,153940,A,2520.8976,N,08003.1684,W,2.1,309.7,240615,6.9,"
"##MN-00 00 36 0003 01522 6531 438865 203800 196"
"175.652627"
"$GPRMC,153944,A,2520.8994,N,08003.1701,W,2.1,311.7,240615,6.9,"
"##MN-00 00 04 0004 01523 6531 439119 224271 196"
"175.652674"
"$GPRMC,153948,A,2520.9012,N,08003.1717,W,2.1,313.3,240615,6.9,"
"##MN-00 00 03 0005 01525 6532 439215 204912 196"
"175.65272"
"$GPRMC,153952,A,2520.9030,N,08003.1734,W,2.1,315.1,240615,6.9,"
"##MN-00 00 03 0005 01524 6532 439235 203876 197"
"175.652766"
"$GPRMC,153956,A,2520.9048,N,08003.1752,W,2.1,316.0,240615,6.9,"
"##MN-00 00 03 0006 01526 6532 439242 203658 196"
"175.652812"
"$GPRMC,154000,A,2520.9066,N,08003.1770,W,2.2,317.0,240615,6.9,"
"##MN-00 00 03 0007 01529 6532 439283 203590 196"
"175.652859"
"$GPRMC,154004,A,2520.9084,N,08003.1788,W,2.2,318.3,240615,6.9,"
"##MN-00 00 03 0008 01534 6533 439425 203601 196"
"175.652905"
"$GPRMC,154008,A,2520.9104,N,08003.1806,W,2.2,319.2,240615,6.9,"
"##MN-00 00 03 0009 01534 6533 439628 203634 196"
"175.652951"
"$GPRMC,154012,A,2520.9124,N,08003.1819,W,2.2,320.1,240615,6.9,"
"##MN-00 00 04 0010 01536 6533 439736 203653 196"
"175.652998"
"$GPRMC,154016,A,2520.9144,N,08003.1837,W,2.2,320.9,240615,6.9,"
"##MN-00 00 03 0011 01539 6533 439723 203671 196"
"175.653044"
"$GPRMC,154020,A,2520.9163,N,08003.1854,W,2.2,321.3,240615,6.9,"
"##MN-00 00 04 0012 01540 6533 439825 203688 196"
"175.65309"
"$GPRMC,154024,A,2520.9182,N,08003.1871,W,2.2,321.5,240615,6.9,"
"##MN-00 00 04 0013 01544 6533 439919 203696 196"
"175.653137"
"$GPRMC,154028,A,2520.9203,N,08003.1887,W,2.2,322.1,240615,6.9,"
"##MN-00 00 04 0014 01549 6533 439973 203700 196"
"175.653183"
"$GPRMC,154032,A,2520.9220,N,08003.1904,W,2.1,322.7,240615,6.9,"
"##MN-00 00 04 0015 01554 6532 440023 203698 196"
"175.653229"
"$GPRMC,154036,A,2520.9238,N,08003.1919,W,2.1,323.0,240615,6.9,"
"##MN-00 00 03 0016 01555 6532 440086 203726 196"
"175.653275"
"$GPRMC,154040,A,2520.9257,N,08003.1934,W,2.1,323.7,240615,6.9,"
"##MN-00 00 04 0017 01559 6532 440176 203729 196"
"175.653322"
"$GPRMC,154044,A,2520.9276,N,08003.1951,W,2.1,323.9,240615,6.9,"
"##MN-00 00 04 0018 01563 6532 440217 203754 196"
"175.653368"
"$GPRMC,154048,A,2520.9294,N,08003.1966,W,2.1,324.6,240615,6.9,"
"##MN-00 00 04 0019 01565 6531 440256 203760 196"
"175.653414"
"$GPRMC,154052,A,2520.9314,N,08003.1983,W,2.1,324.8,240615,6.9,"
"##MN-00 00 04 0020 01570 6531 440278 203759 196"
"175.653461"
"$GPRMC,154056,A,2520.9333,N,08003.1996,W,2.1,324.4,240615,6.9,"
"##MN-00 00 04 0021 01572 6530 440290 203766 196"
"175.653507"
"$GPRMC,154100,A,2520.9350,N,08003.2009,W,2.1,324.8,240615,6.9,"
"##MN-00 00 04 0022 01574 6530 440299 203771 196"
"175.653553"
"$GPRMC,154104,A,2520.9368,N,08003.2023,W,2.0,324.7,240615,6.9,"
"##MN-00 00 03 0023 01581 6529 440307 203773 196"
"175.6536"
"$GPRMC,154108,A,2520.9386,N,08003.2038,W,1.9,324.9,240615,6.9,"
"##MN-00 00 03 0024 01584 6529 440324 203773 196"
"175.653646"
"$GPRMC,154112,A,2520.9404,N,08003.2052,W,1.9,324.6,240615,6.9,"
"##MN-00 00 03 0025 01588 6528 440329 203770 196"
"175.653692"
"$GPRMC,154116,A,2520.9422,N,08003.2064,W,1.9,324.5,240615,6.9,"
"##MN-00 00 04 0026 01590 6527 440339 203774 196"
"175.653738"
"$GPRMC,154120,A,2520.9440,N,08003.2078,W,1.9,324.1,240615,6.9,"
"##MN-00 00 03 0027 01594 6527 440358 203776 196"
"175.653785"
"$GPRMC,154124,A,2520.9458,N,08003.2092,W,1.8,324.4,240615,6.9,"
"##MN-00 00 03 0028 01595 6526 440378 203780 196"
"175.653831"
"$GPRMC,154128,A,2520.9474,N,08003.2103,W,1.8,324.8,240615,6.9,"
"##MN-00 00 03 0029 01598 6525 440389 203779 196"
"175.653877"
"$GPRMC,154132,A,2520.9492,N,08003.2117,W,1.8,325.0,240615,6.9,"
"##MN-00 00 04 0030 01601 6524 440401 203781 196"
"175.653924"
"$GPRMC,154136,A,2520.9510,N,08003.2129,W,1.9,324.7,240615,6.9,"
"##MN-00 00 03 0031 01606 6524 440404 203781 196"
"175.65397"
"$GPRMC,154140,A,2520.9527,N,08003.2142,W,1.8,324.7,240615,6.9,"
"##MN-00 00 03 0032 01609 6523 440407 203782 196"
"175.654016"
"$GPRMC,154144,A,2520.9542,N,08003.2157,W,1.8,324.4,240615,6.9,"
"##MN-00 00 03 0033 01611 6522 440417 203783 196"
"175.654063"
"$GPRMC,154148,A,2520.9557,N,08003.2169,W,1.8,324.7,240615,6.9,"
"##MN-00 00 03 0034 01615 6521 440431 203786 196"
"175.654109"
"$GPRMC,154152,A,2520.9575,N,08003.2182,W,1.8,325.3,240615,6.9,"
"##MN-00 00 03 0035 01618 6520 440439 203786 196"
"175.654155"
"$GPRMC,154156,A,2520.9592,N,08003.2194,W,1.8,325.6,240615,6.9,"
"##MN-00 00 03 0036 01621 6519 440443 203787 196"
"175.654201"
"$GPRMC,154200,A,2520.9608,N,08003.2207,W,1.8,325.6,240615,6.9,"
"##MN-00 00 03 0037 01626 6519 440456 203787 196"
"175.654248"
"$GPRMC,154204,A,2520.9625,N,08003.2218,W,1.7,325.8,240615,6.9,"
"##MN-00 00 03 0038 01628 6518 440460 203788 196"
"175.654306"
"$GPRMC,154208,A,2520.9643,N,08003.2229,W,1.7,325.8,240615,6.9,"
"##MN-00 00 03 0039 01632 6517 440457 203787 196"
"175.654352"
"$GPRMC,154212,A,2520.9659,N,08003.2243,W,1.7,325.4,240615,6.9,"
"##MN-00 00 03 0040 01633 6516 440453 203786 196"
"175.654398"
"$GPRMC,154216,A,2520.9677,N,08003.2255,W,1.8,324.7,240615,6.9,"
"##MN-00 00 03 0041 01637 6515 440461 203784 196"
"175.654444"
"$GPRMC,154220,A,2520.9694,N,08003.2269,W,1.8,324.3,240615,6.9,"
"##MN-00 00 04 0042 01642 6514 440470 203785 196"
"175.654491"
"$GPRMC,154224,A,2520.9709,N,08003.2283,W,1.8,324.3,240615,6.9,"
"##MN-00 00 03 0043 01641 6513 440479 203786 196"
"175.654537"
"$GPRMC,154228,A,2520.9724,N,08003.2298,W,1.8,324.1,240615,6.9,"
"##MN-00 00 03 0044 01644 6512 440481 203787 196"
"175.654583"
"$GPRMC,154232,A,2520.9742,N,08003.2313,W,1.9,324.1,240615,6.9,"
"##MN-00 00 04 0045 01646 6511 440486 203788 196"
"175.65463"
"$GPRMC,154236,A,2520.9760,N,08003.2328,W,1.9,324.1,240615,6.9,"
"##MN-00 00 04 0046 01650 6510 440486 203787 196"
"175.654676"
"$GPRMC,154240,A,2520.9774,N,08003.2337,W,1.8,324.5,240615,6.9,"
"##MN-00 00 03 0047 01655 6509 440492 203787 196"
"175.654722"
"$GPRMC,154244,A,2520.9796,N,08003.2355,W,1.8,324.8,240615,6.9,"
"##MN-00 00 03 0048 01658 6508 440495 203787 196"
"175.654769"
"$GPRMC,154248,A,2520.9816,N,08003.2367,W,1.9,325.1,240615,6.9,"
"##MN-00 00 03 0049 01660 6507 440504 203786 196"
"175.654815"
"$GPRMC,154252,A,2520.9831,N,08003.2379,W,1.9,324.9,240615,6.9,"
"##MN-00 00 04 0050 01663 6506 440511 203787 196"
"175.654861"
"$GPRMC,154256,A,2520.9847,N,08003.2392,W,1.9,324.8,240615,6.9,"
"##MN-00 00 04 0051 01666 6505 440512 203788 196"
"175.654907"
"$GPRMC,154300,A,2520.9865,N,08003.2406,W,1.9,324.7,240615,6.9,"
"##MN-00 00 03 0052 01669 6504 440516 203788 196"
"175.654954"
"$GPRMC,154304,A,2520.9886,N,08003.2420,W,1.9,323.6,240615,6.9,"
"##MN-00 00 03 0053 01673 6503 440520 203789 196"
"175.655"
"$GPRMC,154308,A,2520.9906,N,08003.2431,W,1.9,323.5,240615,6.9,"
"##MN-00 00 04 0054 01674 6502 440524 203790 196"
"175.655046"
"$GPRMC,154312,A,2520.9922,N,08003.2443,W,2.0,323.2,240615,6.9,"
"##MN-00 00 03 0055 01680 6501 440533 203792 196"
"175.655093"
"$GPRMC,154316,A,2520.9940,N,08003.2457,W,1.9,323.8,240615,6.9,"
"##MN-00 00 03 0056 01683 6500 440534 203792 196"
"175.655139"
"$GPRMC,154320,A,2520.9958,N,08003.2469,W,1.9,325.0,240615,6.9,"
"##MN-00 00 03 0057 01686 6499 440529 203789 196"
"175.655185"
"$GPRMC,154324,A,2520.9976,N,08003.2482,W,1.8,326.2,240615,6.9,"
"##MN-00 00 04 0058 01691 6498 440526 203789 196"
"175.655231"
"$GPRMC,154328,A,2520.9993,N,08003.2493,W,1.7,327.1,240615,6.9,"
"##MN-00 00 04 0059 01694 6497 440527 203788 196"
"175.655278"
"$GPRMC,154332,A,2521.0009,N,08003.2504,W,1.7,327.5,240615,6.9,"
"##MN-00 00 03 0060 01698 6496 440537 203790 196"
"175.655324"
"$GPRMC,154336,A,2521.0024,N,08003.2518,W,1.7,327.6,240615,6.9,"
"##MN-00 00 03 0061 01701 6495 440534 203788 196"
"175.65537"
"$GPRMC,154340,A,2521.0040,N,08003.2532,W,1.7,327.3,240615,6.9,"
"##MN-00 00 03 0062 01705 6494 440535 203788 196"
"175.655417"
"$GPRMC,154344,A,2521.0055,N,08003.2544,W,1.8,326.6,240615,6.9,"
"##MN-00 00 03 0063 01707 6493 440540 203789 196"
"175.655463"
"$GPRMC,154348,A,2521.0069,N,08003.2559,W,1.8,325.8,240615,6.9,"
"##MN-00 00 03 0064 01713 6492 440541 203788 196"
"175.655509"
"$GPRMC,154352,A,2521.0087,N,08003.2569,W,1.8,325.3,240615,6.9,"
"##MN-00 00 03 0065 01716 6491 440540 203788 196"
"175.655556"
"$GPRMC,154357,A,2521.0110,N,08003.2583,W,1.8,325.4,240615,6.9,"
"##MN-00 00 03 0066 01717 6489 440553 203791 196"
"175.655602"
"$GPRMC,154401,A,2521.0125,N,08003.2598,W,1.8,325.3,240615,6.9,"
"##MN-00 00 03 0067 01721 6488 440567 203793 196"
"175.655648"
"$GPRMC,154405,A,2521.0143,N,08003.2610,W,1.8,325.3,240615,6.9,"
"##MN-00 00 03 0068 01723 6488 440577 203794 196"
"175.655694"
"$GPRMC,154409,A,2521.0161,N,08003.2624,W,1.8,324.5,240615,6.9,"
"##MN-00 00 03 0069 01726 6486 440578 203795 196"
"175.655741"
"$GPRMC,154413,A,2521.0179,N,08003.2639,W,1.9,324.4,240615,6.9,"
"##MN-00 00 04 0069 01729 6485 440578 203794 196"
"175.655787"
"$GPRMC,154417,A,2521.0197,N,08003.2655,W,1.9,324.7,240615,6.9,"
"##MN-00 00 03 0070 01731 6484 440580 203795 196"
"175.655833"
"$GPRMC,154421,A,2521.0214,N,08003.2667,W,1.9,324.8,240615,6.9,"
"##MN-00 00 03 0071 01733 6484 440591 203797 196"
"175.65588"
"$GPRMC,154425,A,2521.0230,N,08003.2682,W,1.9,325.0,240615,6.9,"
"##MN-00 00 04 0072 01738 6482 440600 203797 196"
"175.655926"
"$GPRMC,154429,A,2521.0248,N,08003.2695,W,1.8,324.8,240615,6.9,"
"##MN-00 00 03 0073 01741 6481 440604 203798 196"
"175.655972"
"$GPRMC,154433,A,2521.0266,N,08003.2709,W,1.8,324.9,240615,6.9,"
"##MN-00 00 03 0074 01744 6480 440600 203797 196"
"175.656019"
"$GPRMC,154437,A,2521.0284,N,08003.2722,W,1.9,324.1,240615,6.9,"
"##MN-00 00 03 0075 01745 6479 440590 203794 196"
"175.656065"
"$GPRMC,154441,A,2521.0304,N,08003.2738,W,2.0,324.0,240615,6.9,"
"##MN-00 00 03 0076 01748 6478 440611 203800 196"
"175.656111"
"$GPRMC,154445,A,2521.0323,N,08003.2753,W,2.1,323.9,240615,6.9,"
"##MN-00 00 04 0077 01753 6477 440630 203801 196"
"175.656157"
"$GPRMC,154449,A,2521.0344,N,08003.2768,W,2.0,324.0,240615,6.9,"
"##MN-00 00 03 0078 01757 6476 440636 203803 196"
"175.656204"
"$GPRMC,154453,A,2521.0362,N,08003.2782,W,2.1,324.5,240615,6.9,"
"##MN-00 00 03 0079 01759 6474 440642 203804 196"
"175.65625"
"$GPRMC,154457,A,2521.0380,N,08003.2796,W,2.1,325.1,240615,6.9,"
"##MN-00 00 03 0080 01760 6473 440647 203805 196"
"175.656296"
"$GPRMC,154501,A,2521.0399,N,08003.2811,W,2.1,324.8,240615,6.9,"
"##MN-00 00 03 0081 01762 6472 440659 203806 196"
"175.656343"
"$GPRMC,154505,A,2521.0420,N,08003.2825,W,2.1,324.5,240615,6.9,"
"##MN-00 00 03 0082 01768 6471 440670 203808 196"
"175.656389"
"$GPRMC,154509,A,2521.0439,N,08003.2840,W,2.1,324.6,240615,6.9,"
"##MN+00 00 03 0083 01771 6470 440678 203810 196"
"175.656435"
"$GPRMC,154513,A,2521.0457,N,08003.2854,W,2.0,324.6,240615,6.9,"
"##MN+00 00 03 0084 01774 6470 440687 203811 196"
"175.656481"
"$GPRMC,154517,A,2521.0474,N,08003.2868,W,2.0,324.7,240615,6.9,"
"##MN+00 00 03 0085 01770 6468 440700 203815 196"
"175.656528"
"$GPRMC,154521,A,2521.0492,N,08003.2880,W,2.0,324.9,240615,6.9,"
"##MN+00 00 03 0086 01774 6467 440708 203817 196"
"175.656574"
"$GPRMC,154525,A,2521.0510,N,08003.2894,W,1.9,325.0,240615,6.9,"
"##MN+00 00 04 0087 01771 6466 440719 203820 196"
"175.65662"
"$GPRMC,154529,A,2521.0529,N,08003.2908,W,2.0,324.9,240615,6.9,"
"##MN+00 00 04 0088 01776 6465 440744 203822 196"
"175.656667"
"$GPRMC,154533,A,2521.0549,N,08003.2923,W,2.0,325.5,240615,6.9,"
"##MN-00 00 04 0089 01775 6464 440792 203830 196"
"175.656713"
"#increment_net"
"$GPRMC,154537,A,2521.0569,N,08003.2937,W,2.1,325.9,240615,6.9,"
"##MN-00 00 04 0090 01777 6463 440894 203847 196"
"175.656759"
"$GPRMC,154541,A,2521.0590,N,08003.2952,W,2.1,326.7,240615,6.9,"
"##MN-00 00 04 0091 01777 6462 440951 203860 196"
"175.656806"
"$GPRMC,154545,A,2521.0609,N,08003.2966,W,2.0,326.9,240615,6.9,"
"##MN-00 00 04 0092 01778 6461 440974 203862 196"
"175.656852"
"$GPRMC,154549,A,2521.0630,N,08003.2980,W,2.2,326.7,240615,6.9,"
"##MN-00 00 05 0093 01778 6460 440943 203862 196"
"175.656898"
"$GPRMC,154553,A,2521.0649,N,08003.2993,W,2.2,326.2,240615,6.9,"
"##MN-00 00 04 0095 01778 6459 440975 203870 196"
"175.656944"
"$GPRMC,154557,A,2521.0670,N,08003.3006,W,2.1,326.2,240615,6.9,"
"##MN-00 00 04 0096 01777 6458 440948 203865 196"
"175.656991"
"$GPRMC,154601,A,2521.0692,N,08003.3017,W,2.1,326.5,240615,6.9,"
"##MN-00 00 04 0097 01779 6457 440960 203873 196"
"175.657037"
"$GPRMC,154605,A,2521.0716,N,08003.3032,W,2.2,326.6,240615,6.9,"
"##MN-00 00 04 0098 01781 6456 441048 203891 196"
"175.657083"
"$GPRMC,154609,A,2521.0739,N,08003.3046,W,2.2,326.5,240615,6.9,"
"##MN-00 00 04 0099 01781 6455 441099 203899 196"
"175.65713"
"$GPRMC,154613,A,2521.0760,N,08003.3064,W,2.3,326.0,240615,6.9,"
"##MN-00 00 03 0100 01779 6453 441060 203894 196"
"175.657176"
"$GPRMC,154617,A,2521.0781,N,08003.3079,W,2.3,325.3,240615,6.9,"
"##MN-00 00 04 0101 01779 6452 441102 203900 196"
"175.657222"
"$GPRMC,154621,A,2521.0804,N,08003.3092,W,2.2,325.4,240615,6.9,"
"##MN-00 00 05 0102 01781 6451 441151 203913 196"
"175.657269"
"$GPRMC,154625,A,2521.0826,N,08003.3105,W,2.3,325.6,240615,6.9,"
"##MN-00 00 04 0103 01782 6450 441194 203924 196"
"175.657315"
"$GPRMC,154629,A,2521.0847,N,08003.3122,W,2.3,325.7,240615,6.9,"
"##MN-00 00 04 0104 01779 6449 441222 203932 196"
"175.657361"
"$GPRMC,154633,A,2521.0865,N,08003.3139,W,2.3,325.6,240615,6.9,"
"##MN+00 00 04 0105 01780 6448 441207 203931 196"
"175.657407"
"$GPRMC,154637,A,2521.0883,N,08003.3154,W,2.2,326.0,240615,6.9,"
"##MN+00 00 03 0106 01781 6447 441156 203924 196"
"175.657454"
"$GPRMC,154641,A,2521.0901,N,08003.3169,W,2.2,326.2,240615,6.9,"
"##MN+00 00 04 0108 01781 6446 441127 203912 196"
"175.657512"
"$GPRMC,154645,A,2521.0920,N,08003.3181,W,2.1,326.4,240615,6.9,"
"##MN+00 00 04 0109 01782 6445 441147 203922 196"
"175.657558"
"$GPRMC,154649,A,2521.0938,N,08003.3194,W,2.1,326.7,240615,6.9,"
"##MN+00 00 04 0110 01782 6444 441222 203935 196"
"175.657604"
"$GPRMC,154653,A,2521.0959,N,08003.3208,W,2.0,326.8,240615,6.9,"
"##MN+00 00 04 0111 01786 6443 441292 203947 196"
"175.65765"
"#increment_net"
"$GPRMC,154657,A,2521.0977,N,08003.3223,W,1.9,327.0,240615,6.9,"
"##MN-00 00 04 0112 01787 6442 441355 203968 196"
"175.657697"
"$GPRMC,154701,A,2521.0999,N,08003.3234,W,1.9,327.0,240615,6.9,"
"##MN-00 00 04 0113 01784 6441 441369 203967 196"
"175.657743"
"$GPRMC,154705,A,2521.1016,N,08003.3248,W,1.9,327.4,240615,6.9,"
"##MN-00 00 04 0114 01784 6440 441382 203970 196"
"175.657789"
"$GPRMC,154709,A,2521.1034,N,08003.3262,W,2.0,326.9,240615,6.9,"
"##MN-00 00 04 0115 01786 6438 441340 203963 196"
"175.657836"
"$GPRMC,154713,A,2521.1053,N,08003.3273,W,1.9,327.3,240615,6.9,"
"##MN-00 00 04 0116 01784 6438 441290 203954 196"
"175.657882"
"$GPRMC,154717,A,2521.1073,N,08003.3285,W,1.9,327.2,240615,6.9,"
"##MN-00 00 04 0117 01784 6436 441287 203954 196"
"175.657928"
"$GPRMC,154721,A,2521.1092,N,08003.3295,W,1.9,327.0,240615,6.9,"
"##MN-00 00 04 0118 01783 6435 441316 203961 196"
"175.657975"
"$GPRMC,154725,A,2521.1106,N,08003.3316,W,1.9,327.5,240615,6.9,"
"##MN+00 00 04 0119 01782 6434 441334 203962 196"
"175.658021"
"$GPRMC,154729,A,2521.1122,N,08003.3331,W,1.9,327.6,240615,6.9,"
"##MN+00 00 04 0120 01785 6434 441315 203958 196"
"175.658067"
"$GPRMC,154733,A,2521.1140,N,08003.3342,W,1.9,327.9,240615,6.9,"
"##MN+00 00 04 0121 01784 6433 441362 203969 196"
"175.658113"
"$GPRMC,154737,A,2521.1154,N,08003.3356,W,1.9,328.2,240615,6.9,"
"##MN-00 00 04 0122 01787 6431 441390 203976 196"
"175.65816"
"$GPRMC,154741,A,2521.1172,N,08003.3367,W,1.8,328.4,240615,6.9,"
"##MN-00 00 04 0123 01785 6430 441451 203988 196"
"175.658206"
"$GPRMC,154745,A,2521.1190,N,08003.3379,W,1.8,328.9,240615,6.9,"
"##MN-00 00 04 0124 01785 6429 441440 203987 196"
"175.658252"
"$GPRMC,154749,A,2521.1208,N,08003.3390,W,1.8,328.6,240615,6.9,"
"##MN+00 00 04 0125 01785 6428 441481 203998 196"
"175.658299"
"$GPRMC,154753,A,2521.1227,N,08003.3405,W,1.9,328.1,240615,6.9,"
"##MN+00 00 04 0126 01784 6427 441418 203991 196"
"175.658345"
"$GPRMC,154757,A,2521.1247,N,08003.3418,W,1.9,328.4,240615,6.9,"
"##MN+00 00 04 0127 01789 6426 441391 203982 196"
"175.658391"
"#increment_net"
"$GPRMC,154801,A,2521.1266,N,08003.3429,W,1.9,328.4,240615,6.9,"
"##MN-00 00 04 0128 01788 6425 441511 204016 196"
"175.658437"
"$GPRMC,154805,A,2521.1286,N,08003.3439,W,1.9,328.0,240615,6.9,"
"##MN-00 00 04 0129 01787 6424 441486 204000 196"
"175.658484"
"$GPRMC,154809,A,2521.1305,N,08003.3450,W,1.9,327.9,240615,6.9,"
"##MN-00 00 04 0131 01787 6423 441371 203972 196"
"175.65853"
"$GPRMC,154813,A,2521.1320,N,08003.3465,W,1.9,327.8,240615,6.9,"
"##MN-00 00 04 0132 01785 6422 441429 203985 196"
"175.658576"
"$GPRMC,154817,A,2521.1339,N,08003.3476,W,1.9,327.7,240615,6.9,"
"##MN-00 00 04 0133 01785 6421 441492 204015 196"
"175.658623"
"$GPRMC,154822,A,2521.1363,N,08003.3491,W,1.8,327.5,240615,6.9,"
"##MN-00 00 04 0134 01786 6420 441623 204033 196"
"175.658669"
"$GPRMC,154825,A,2521.1378,N,08003.3498,W,1.9,326.8,240615,6.9,"
"##MN-00 00 04 0135 01785 6419 441626 204028 196"
"175.658715"
"$GPRMC,154829,A,2521.1395,N,08003.3512,W,1.9,327.1,240615,6.9,"
"##MN-00 00 04 0136 01786 6418 441541 204016 196"
"175.658762"
"$GPRMC,154834,A,2521.1415,N,08003.3530,W,1.8,327.2,240615,6.9,"
"##MN-00 00 04 0137 01782 6417 441478 204003 196"
"175.658808"
"$GPRMC,154838,A,2521.1433,N,08003.3544,W,1.8,327.3,240615,6.9,"
"##MN+00 00 04 0138 01786 6415 441469 204003 196"
"175.658854"
"$GPRMC,154841,A,2521.1446,N,08003.3552,W,1.8,326.9,240615,6.9,"
"##MN+00 00 04 0139 01782 6415 441466 203997 196"
"175.6589"
"$GPRMC,154846,A,2521.1467,N,08003.3567,W,1.8,327.4,240615,6.9,"
"##MN+00 00 04 0140 01784 6414 441498 204003 196"
"175.658947"
"$GPRMC,154849,A,2521.1479,N,08003.3577,W,1.8,327.8,240615,6.9,"
"##MN+00 00 04 0141 01783 6413 441489 204004 196"
"175.658993"
"$GPRMC,154853,A,2521.1497,N,08003.3591,W,1.8,327.9,240615,6.9,"
"##MN+00 00 04 0142 01783 6412 441490 204005 196"
"175.659039"
"$GPRMC,154858,A,2521.1518,N,08003.3603,W,1.8,327.2,240615,6.9,"
"##MN+00 00 04 0143 01785 6410 441490 204007 196"
"175.659086"
"$GPRMC,154902,A,2521.1536,N,08003.3616,W,1.8,327.1,240615,6.9,"
"##MN-00 00 04 0144 01784 6409 441515 204011 196"
"175.659132"
"#increment_net"
"$GPRMC,154906,A,2521.1552,N,08003.3627,W,1.8,328.0,240615,6.9,"
"##MN-00 00 04 0146 01784 6408 441538 204015 196"
"175.659178"
"$GPRMC,154910,A,2521.1570,N,08003.3636,W,1.7,328.6,240615,6.9,"
"##MN-00 00 04 0147 01785 6407 441550 204017 196"
"175.659225"
"$GPRMC,154914,A,2521.1586,N,08003.3647,W,1.7,328.5,240615,6.9,"
"##MN-00 00 04 0148 01785 6406 441539 204016 196"
"175.659271"
"$GPRMC,154918,A,2521.1601,N,08003.3660,W,1.7,327.7,240615,6.9,"
"##MN-00 00 04 0149 01783 6405 441508 204005 196"
"175.659317"
"$GPRMC,154922,A,2521.1617,N,08003.3674,W,1.8,327.9,240615,6.9,"
"##MN-00 00 04 0150 01781 6404 441473 203999 196"
"175.659363"
"$GPRMC,154926,A,2521.1633,N,08003.3685,W,1.7,327.7,240615,6.9,"
"##MN-00 00 04 0151 01784 6403 441481 203994 196"
"175.65941"
"$GPRMC,154930,A,2521.1651,N,08003.3696,W,1.8,327.4,240615,6.9,"
"##MN-00 00 04 0152 01783 6402 441376 203976 196"
"175.659456"
"$GPRMC,154934,A,2521.1669,N,08003.3710,W,1.8,327.2,240615,6.9,"
"##MN+00 00 04 0153 01783 6401 441355 203970 196"
"175.659502"
"$GPRMC,154938,A,2521.1686,N,08003.3721,W,1.9,327.3,240615,6.9,"
"##MN+00 00 04 0155 01782 6400 441347 203970 196"
"175.659549"
"$GPRMC,154942,A,2521.1706,N,08003.3730,W,1.8,327.8,240615,6.9,"
"##MN+00 00 04 0156 01780 6399 441369 203974 196"
"175.659595"
"$GPRMC,154946,A,2521.1725,N,08003.3741,W,1.8,327.9,240615,6.9,"
"##MN-00 00 04 0157 01782 6398 441370 203976 196"
"175.659641"
"$GPRMC,154950,A,2521.1743,N,08003.3754,W,1.8,328.4,240615,6.9,"
"##MN-00 00 04 0158 01786 6397 441349 203973 196"
"175.659688"
"$GPRMC,154954,A,2521.1761,N,08003.3766,W,1.9,328.9,240615,6.9,"
"##MN+00 00 04 0159 01784 6396 441322 203965 196"
"175.659734"
"$GPRMC,154958,A,2521.1774,N,08003.3775,W,1.8,329.5,240615,6.9,"
"##MN+00 00 04 0160 01786 6395 441293 203956 196"
"175.65978"
"$GPRMC,155002,A,2521.1790,N,08003.3786,W,1.8,330.1,240615,6.9,"
"##MN+00 00 04 0161 01787 6394 441348 203969 196"
"175.659826"
"#increment_net"
"$GPRMC,155006,A,2521.1808,N,08003.3800,W,1.8,330.0,240615,6.9,"
"##MN-00 00 04 0163 01791 6393 441538 204009 196"
"175.659873"
"$GPRMC,155010,A,2521.1830,N,08003.3815,W,1.8,329.8,240615,6.9,"
"##MN-00 00 03 0164 01793 6392 441581 204022 196"
"175.659919"
"$GPRMC,155014,A,2521.1847,N,08003.3827,W,1.8,329.1,240615,6.9,"
"##MN-00 00 04 0165 01803 6391 441650 204039 196"
"175.659965"
"$GPRMC,155018,A,2521.1862,N,08003.3840,W,1.7,327.9,240615,6.9,"
"##MN-00 00 04 0167 01809 6391 441713 204054 196"
"175.660012"
"$GPRMC,155022,A,2521.1879,N,08003.3851,W,1.7,326.9,240615,6.9,"
"##MN-00 00 04 0168 01811 6389 441790 204072 196"
"175.660058"
"$GPRMC,155026,A,2521.1894,N,08003.3862,W,1.7,326.1,240615,6.9,"
"##MN-00 00 06 0170 01813 6388 441873 204091 196"
"175.660104"
"$GPRMC,155030,A,2521.1909,N,08003.3873,W,1.7,325.0,240615,6.9,"
"##MN-00 00 04 0171 01813 6387 441910 204100 196"
"175.66015"
"$GPRMC,155034,A,2521.1924,N,08003.3880,W,1.6,324.5,240615,6.9,"
"##MN-00 00 04 0172 01814 6386 441921 204104 196"
"175.660197"
"$GPRMC,155038,A,2521.1941,N,08003.3887,W,1.6,324.4,240615,6.9,"
"##MN-00 00 04 0174 01812 6386 441933 204107 196"
"175.660243"
"$GPRMC,155042,A,2521.1953,N,08003.3898,W,1.5,324.3,240615,6.9,"
"##MN-00 00 04 0175 01814 6384 441938 204108 196"
"175.660289"
"$GPRMC,155046,A,2521.1966,N,08003.3906,W,1.5,324.4,240615,6.9,"
"##MN-00 00 04 0177 01814 6383 441942 204109 196"
"175.660336"
"$GPRMC,155050,A,2521.1978,N,08003.3918,W,1.5,324.4,240615,6.9,"
"##MN-00 00 04 0178 01811 6383 441939 204108 196"
"175.660382"
"$GPRMC,155054,A,2521.1992,N,08003.3934,W,1.5,324.2,240615,6.9,"
"##MN-00 00 04 0180 01811 6381 441923 204106 196"
"175.660428"
"$GPRMC,155058,A,2521.2003,N,08003.3945,W,1.5,323.5,240615,6.9,"
"##MN-00 00 04 0181 01809 6381 441918 204104 196"
"175.660475"
"$GPRMC,155102,A,2521.2020,N,08003.3953,W,1.5,323.6,240615,6.9,"
"##MN-00 00 04 0182 01808 6380 441908 204103 196"
"175.660521"
"$GPRMC,155106,A,2521.2036,N,08003.3964,W,1.6,323.4,240615,6.9,"
"##MN-00 00 04 0184 01805 6379 441897 204101 196"
"175.660567"
"$GPRMC,155110,A,2521.2053,N,08003.3974,W,1.6,324.2,240615,6.9,"
"##MN-00 00 04 0185 01805 6377 441894 204101 196"
"175.660613"
"$GPRMC,155114,A,2521.2068,N,08003.3986,W,1.7,324.4,240615,6.9,"
"##MN-00 00 04 0187 01800 6377 441885 204099 196"
"175.66066"
"$GPRMC,155118,A,2521.2086,N,08003.4000,W,1.8,324.2,240615,6.9,"
"##MN-00 00 04 0188 01797 6376 441861 204093 196"
"175.660706"
"$GPRMC,155122,A,2521.2104,N,08003.4014,W,1.9,324.1,240615,6.9,"
"##MN-00 00 04 0190 01794 6375 441817 204084 196"
"175.660764"
"$GPRMC,155126,A,2521.2126,N,08003.4030,W,2.0,324.0,240615,6.9,"
"##MN-00 00 04 0191 01795 6374 441761 204071 196"
"175.66081"
"$GPRMC,155130,A,2521.2150,N,08003.4048,W,2.1,324.1,240615,6.9,"
"##MN-00 00 04 0192 01792 6373 441738 204067 196"
"175.660856"
"$GPRMC,155134,A,2521.2173,N,08003.4064,W,2.2,324.7,240615,6.9,"
"##MN-00 00 04 0194 01788 6372 441712 204061 196"
"175.660903"
"$GPRMC,155138,A,2521.2197,N,08003.4079,W,2.3,324.2,240615,6.9,"
"##MN-00 00 04 0195 01787 6371 441692 204058 196"
"175.660949"
"$GPRMC,155142,A,2521.2220,N,08003.4095,W,2.4,324.1,240615,6.9,"
"##MN-00 00 04 0197 01785 6370 441677 204053 196"
"175.660995"
"$GPRMC,155146,A,2521.2242,N,08003.4113,W,2.4,323.9,240615,6.9,"
"##MN-00 00 04 0198 01783 6369 441661 204050 196"
"175.661042"
"$GPRMC,155150,A,2521.2266,N,08003.4133,W,2.5,324.4,240615,6.9,"
"##MN-00 00 04 0199 01779 6368 441632 204044 196"
"175.661088"
"$GPRMC,155154,A,2521.2292,N,08003.4152,W,2.6,324.2,240615,6.9,"
"##MN-00 00 04 0201 01777 6367 441589 204037 196"
"175.661134"
"$GPRMC,155158,A,2521.2317,N,08003.4176,W,2.8,324.9,240615,6.9,"
"##MN-00 00 04 0202 01774 6366 441527 204022 196"
"175.661181"
"$GPRMC,155202,A,2521.2343,N,08003.4198,W,2.9,325.0,240615,6.9,"
"##MN-00 00 04 0204 01772 6365 441403 203987 196"
"175.661227"
"$GPRMC,155206,A,2521.2372,N,08003.4221,W,3.0,325.9,240615,6.9,"
"##MN-00 00 04 0205 01771 6364 441345 203979 196"
"175.661273"
"$GPRMC,155210,A,2521.2403,N,08003.4245,W,3.1,326.7,240615,6.9,"
"##MN-00 00 04 0207 01765 6363 441214 203958 196"
"175.661319"
"$GPRMC,155214,A,2521.2433,N,08003.4267,W,3.1,327.2,240615,6.9,"
"##MN-00 00 04 0208 01764 6362 441147 203931 196"
"175.661366"
"$GPRMC,155218,A,2521.2466,N,08003.4289,W,3.2,327.3,240615,6.9,"
"##MN-00 00 04 0209 01759 6361 441096 203921 196"
"175.661412"
"$GPRMC,155222,A,2521.2500,N,08003.4313,W,3.3,327.3,240615,6.9,"
"##MN-00 00 04 0211 01753 6361 440991 203898 196"
"175.661458"
"$GPRMC,155226,A,2521.2533,N,08003.4336,W,3.4,326.7,240615,6.9,"
"##MN-00 00 04 0212 01751 6360 440921 203876 196"
"175.661505"
"$GPRMC,155230,A,2521.2566,N,08003.4361,W,3.5,326.7,240615,6.9,"
"##MN-00 00 04 0214 01745 6359 440842 203855 196"
"175.661551"
"$GPRMC,155234,A,2521.2599,N,08003.4383,W,3.5,326.6,240615,6.9,"
"##MN-00 00 04 0215 01740 6358 440775 203844 196"
"175.661597"
"$GPRMC,155238,A,2521.2632,N,08003.4408,W,3.5,326.3,240615,6.9,"
"##MN-00 00 04 0217 01733 6357 440740 203839 196"
"175.661644"
"$GPRMC,155242,A,2521.2664,N,08003.4430,W,3.5,326.3,240615,6.9,"
"##MN-00 00 04 0218 01729 6356 440720 203830 196"
"175.66169"
"$GPRMC,155246,A,2521.2696,N,08003.4454,W,3.4,326.5,240615,6.9,"
"##MN-00 00 04 0220 01726 6356 440706 203830 196"
"175.661736"
"$GPRMC,155250,A,2521.2726,N,08003.4478,W,3.5,326.4,240615,6.9,"
"##MN-00 00 04 0221 01723 6354 440691 203822 196"
"175.661782"
"$GPRMC,155254,A,2521.2762,N,08003.4501,W,3.5,326.2,240615,6.9,"
"##MN-00 00 04 0223 01715 6353 440682 203820 196"
"175.661829"
"$GPRMC,155258,A,2521.2794,N,08003.4523,W,3.5,326.4,240615,6.9,"
"##MN-00 00 04 0224 01711 6353 440682 203820 196"
"175.661875"
"$GPRMC,155302,A,2521.2827,N,08003.4546,W,3.5,326.6,240615,6.9,"
"##MN-00 00 04 0226 01708 6352 440673 203818 196"
"175.661921"
"$GPRMC,155307,A,2521.2867,N,08003.4577,W,3.5,326.4,240615,6.9,"
"##MN-00 00 04 0227 01700 6351 440656 203815 196"
"175.661968"
"$GPRMC,155311,A,2521.2901,N,08003.4599,W,3.5,326.6,240615,6.9,"
"##MN-00 00 04 0229 01696 6350 440654 203815 196"
"175.662014"
"$GPRMC,155315,A,2521.2934,N,08003.4624,W,3.6,326.6,240615,6.9,"
"##MN-00 00 04 0231 01694 6349 440664 203818 196"
"175.66206"
"$GPRMC,155318,A,2521.2959,N,08003.4642,W,3.6,326.7,240615,6.9,"
"##MN-00 00 04 0232 01689 6348 440671 203819 196"
"175.662106"
"$GPRMC,155322,A,2521.2992,N,08003.4667,W,3.6,327.0,240615,6.9,"
"##MN-00 00 04 0234 01686 6347 440665 203817 196"
"175.662153"
"$GPRMC,155327,A,2521.3033,N,08003.4697,W,3.6,326.7,240615,6.9,"
"##MN-00 00 04 0235 01682 6347 440653 203815 196"
"175.662199"
"$GPRMC,155331,A,2521.3068,N,08003.4722,W,3.6,326.8,240615,6.9,"
"##MN-00 00 04 0237 01678 6345 440646 203814 196"
"175.662245"
"$GPRMC,155335,A,2521.3102,N,08003.4747,W,3.6,326.6,240615,6.9,"
"##MN-00 00 07 0238 01674 6345 440645 203815 196"
"175.662292"
"$GPRMC,155339,A,2521.3136,N,08003.4772,W,3.6,327.2,240615,6.9,"
"##MN-00 00 05 0240 01671 6344 440651 203816 196"
"175.662338"
"$GPRMC,155343,A,2521.3170,N,08003.4795,W,3.6,327.2,240615,6.9,"
"##MN-00 00 04 0241 01665 6343 440641 203814 196"
"175.662384"
"$GPRMC,155347,A,2521.3203,N,08003.4820,W,3.6,326.8,240615,6.9,"
"##MN-00 00 04 0243 01662 6342 440635 203814 196"
"175.662431"
"$GPRMC,155351,A,2521.3237,N,08003.4848,W,3.6,326.4,240615,6.9,"
"##MN-00 00 04 0244 01658 6342 440635 203813 196"
"175.662477"
"$GPRMC,155355,A,2521.3271,N,08003.4877,W,3.6,326.6,240615,6.9,"
"##MN-00 00 04 0246 01657 6341 440629 203812 196"
"175.662523"
"$GPRMC,155359,A,2521.3304,N,08003.4902,W,3.6,326.6,240615,6.9,"
"##MN-00 00 04 0248 01650 6340 440632 203813 196"
"175.662569"
"$GPRMC,155403,A,2521.3337,N,08003.4928,W,3.6,326.4,240615,6.9,"
"##MN-00 00 04 0249 01647 6339 440632 203814 196"
"175.662616"
"$GPRMC,155407,A,2521.3369,N,08003.4949,W,3.6,326.3,240615,6.9,"
"##MN-00 00 04 0251 01643 6339 440627 203812 196"
"175.662662"
"$GPRMC,155411,A,2521.3402,N,08003.4971,W,3.5,326.2,240615,6.9,"
"##MN-00 00 04 0252 01641 6338 440619 203811 196"
"175.662708"
"$GPRMC,155415,A,2521.3436,N,08003.4993,W,3.5,326.4,240615,6.9,"
"##MN-00 00 04 0254 01635 6337 440614 203810 196"
"175.662755"
"$GPRMC,155419,A,2521.3467,N,08003.5015,W,3.5,326.6,240615,6.9,"
"##MN-00 00 04 0255 01631 6336 440602 203808 196"
"175.662801"
"$GPRMC,155423,A,2521.3501,N,08003.5038,W,3.5,326.6,240615,6.9,"
"##MN-00 00 04 0257 01632 6335 440600 203809 196"
"175.662847"
"$GPRMC,155427,A,2521.3534,N,08003.5063,W,3.5,326.7,240615,6.9,"
"##MN-00 00 04 0258 01627 6335 440595 203808 196"
"175.662894"
"$GPRMC,155431,A,2521.3566,N,08003.5087,W,3.5,326.7,240615,6.9,"
"##MN-00 00 04 0260 01623 6334 440592 203808 196"
"175.66294"
"$GPRMC,155435,A,2521.3599,N,08003.5110,W,3.6,326.5,240615,6.9,"
"##MN-00 00 04 0262 01621 6333 440597 203808 196"
"175.662986"
"$GPRMC,155439,A,2521.3632,N,08003.5135,W,3.6,326.5,240615,6.9,"
"##MN-00 00 04 0263 01617 6332 440593 203807 196"
"175.663032"
"$GPRMC,155443,A,2521.3665,N,08003.5162,W,3.6,326.2,240615,6.9,"
"##MN-00 00 04 0265 01612 6332 440583 203805 196"
"175.663079"
"$GPRMC,155447,A,2521.3700,N,08003.5188,W,3.6,326.2,240615,6.9,"
"##MN-00 00 04 0266 01610 6331 440561 203802 196"
"175.663125"
"$GPRMC,155451,A,2521.3734,N,08003.5210,W,3.6,326.4,240615,6.9,"
"##MN-00 00 04 0268 01604 6330 440556 203802 196"
"175.663171"
"$GPRMC,155455,A,2521.3768,N,08003.5235,W,3.6,326.4,240615,6.9,"
"##MN-00 00 04 0269 01602 6329 440554 203801 196"
"175.663218"
"$GPRMC,155459,A,2521.3802,N,08003.5258,W,3.6,326.3,240615,6.9,"
"##MN-00 00 04 0271 01598 6328 440530 203797 196"
"175.663264"
"$GPRMC,155503,A,2521.3835,N,08003.5283,W,3.6,326.4,240615,6.9,"
"##MN-00 00 05 0273 01597 6328 440508 203792 196"
"175.66331"
"$GPRMC,155507,A,2521.3871,N,08003.5307,W,3.6,326.2,240615,6.9,"
"##MN-00 00 04 0274 01592 6327 440491 203788 196"
"175.663356"
"$GPRMC,155511,A,2521.3904,N,08003.5336,W,3.6,326.3,240615,6.9,"
"##MN-00 00 04 0276 01591 6326 440481 203786 196"
"175.663403"
"$GPRMC,155515,A,2521.3939,N,08003.5361,W,3.6,325.9,240615,6.9,"
"##MN-00 00 04 0277 01586 6326 440460 203780 196"
"175.663449"
"$GPRMC,155519,A,2521.3972,N,08003.5388,W,3.7,325.6,240615,6.9,"
"##MN-00 00 04 0279 01582 6325 440424 203774 196"
"175.663495"
"$GPRMC,155523,A,2521.4007,N,08003.5413,W,3.7,325.1,240615,6.9,"
"##MN-00 00 04 0280 01580 6324 440392 203766 196"
"175.663542"
"$GPRMC,155527,A,2521.4041,N,08003.5439,W,3.7,325.0,240615,6.9,"
"##MN-00 00 05 0282 01574 6324 440337 203759 196"
"175.663588"
"$GPRMC,155531,A,2521.4073,N,08003.5462,W,3.6,325.6,240615,6.9,"
"##MN-00 00 05 0283 01572 6323 440284 203747 196"
"175.663634"
"$GPRMC,155535,A,2521.4109,N,08003.5485,W,3.6,325.9,240615,6.9,"
"##MN-00 00 04 0285 01569 6322 440224 203732 196"
"175.663681"
"$GPRMC,155539,A,2521.4141,N,08003.5509,W,3.6,325.7,240615,6.9,"
"##MN-00 00 04 0287 01565 6321 440162 203719 196"
"175.663727"
"$GPRMC,155543,A,2521.4174,N,08003.5531,W,3.6,326.0,240615,6.9,"
"##MN-00 00 04 0288 01562 6321 440130 203712 196"
"175.663773"
"$GPRMC,155547,A,2521.4207,N,08003.5560,W,3.6,325.6,240615,6.9,"
"##MN-00 00 05 0290 01559 6320 440072 203704 196"
"175.663819"
"$GPRMC,155551,A,2521.4240,N,08003.5585,W,3.6,325.3,240615,6.9,"
"##MN-00 00 05 0291 01556 6319 440042 203696 196"
"175.663866"
"$GPRMC,155555,A,2521.4272,N,08003.5611,W,3.6,325.4,240615,6.9,"
"##MN-00 00 05 0293 01552 6318 439943 203667 196"
"175.663912"
"$GPRMC,155559,A,2521.4305,N,08003.5636,W,3.6,325.3,240615,6.9,"
"##MN-00 00 05 0294 01550 6318 439778 203639 196"
"175.663958"
"$GPRMC,155603,A,2521.4337,N,08003.5659,W,3.6,325.3,240615,6.9,"
"##MN-00 00 05 0296 01545 6317 439610 203600 196"
"175.664016"
"$GPRMC,155607,A,2521.4369,N,08003.5683,W,3.6,325.3,240615,6.9,"
"##MN-00 00 05 0297 01542 6316 439514 203576 196"
"175.664063"
"$GPRMC,155611,A,2521.4402,N,08003.5708,W,3.6,325.2,240615,6.9,"
"##MN-00 00 05 0299 01541 6316 439501 203573 196"
"175.664109"
"$GPRMC,155615,A,2521.4435,N,08003.5737,W,3.6,324.8,240615,6.9,"
"##MN-00 00 05 0300 01536 6315 439334 203531 196"
"175.664155"
"$GPRMC,155619,A,2521.4467,N,08003.5762,W,3.6,324.5,240615,6.9,"
"##MN-00 00 06 0302 01532 6314 439157 203499 196"
"175.664201"
"$GPRMC,155623,A,2521.4500,N,08003.5791,W,3.6,325.0,240615,6.9,"
"##MN-00 00 06 0303 01533 6314 439028 203486 196"
