" Tow: 7WM-B   RVWS/WS15161"
" Date: 22/06/2015"
" Temperature Probe #  4762    Conductivity Probe #  710"
" Pressure Probe #  159"
" Flow Meter Calibration  4.71 (m/count)  "
"175.690995"
"$GPRMC,155629,A,2521.4549,N,08003.5827,W,3.6,324.7,240615,6.9,"
"##MN-00 00 85 0000 01533 6042 420965 827485 196"
"175.691042"
"$GPRMC,163503,A,2523.1404,N,08003.9446,W,0.8,323.9,240615,6.9,"
"##MN-00 00 86 0000 01532 6045 417880 827807 196"
"175.691088"
"$GPRMC,163507,A,2523.1407,N,08003.9451,W,0.8,324.7,240615,6.9,"
"##MN-00 00 86 0000 01534 6047 417649 827808 196"
"175.691134"
"$GPRMC,163511,A,2523.1414,N,08003.9457,W,0.9,324.3,240615,6.9,"
"##MN-00 00 86 0000 01530 6049 417734 827808 196"
"175.691181"
"$GPRMC,163515,A,2523.1418,N,08003.9461,W,0.9,325.4,240615,6.9,"
"##MN-00 00 86 0000 01533 6051 416862 827807 196"
"175.691227"
"$GPRMC,163519,A,2523.1422,N,08003.9466,W,0.8,326.0,240615,6.9,"
"##MN-00 00 86 0000 01532 6054 416148 827808 196"
"175.691273"
"$GPRMC,163523,A,2523.1429,N,08003.9473,W,0.6,325.7,240615,6.9,"
"##MN-00 00 86 0000 01530 6056 414744 827807 196"
"175.691319"
"$GPRMC,163527,A,2523.1435,N,08003.9480,W,0.7,324.4,240615,6.9,"
"##MN-00 00 86 0000 01533 6057 413844 827808 196"
"175.691366"
"$GPRMC,163531,A,2523.1439,N,08003.9483,W,0.7,322.9,240615,6.9,"
"##MN-00 00 86 0000 01531 6059 414670 827739 196"
"175.691412"
"$GPRMC,163535,A,2523.1443,N,08003.9488,W,0.7,321.6,240615,6.9,"
"##MN-00 00 86 0000 01532 6061 415211 827806 196"
"175.691458"
"$GPRMC,163539,A,2523.1451,N,08003.9496,W,0.8,321.6,240615,6.9,"
"##MN-00 00 86 0000 01531 6063 416228 827805 196"
"175.691505"
"$GPRMC,163543,A,2523.1454,N,08003.9503,W,0.8,321.6,240615,6.9,"
"##MN-00 00 86 0000 01531 6065 417027 827804 196"
"175.691551"
"$GPRMC,163547,A,2523.1458,N,08003.9509,W,0.7,319.9,240615,6.9,"
"##MN-00 00 86 0000 01531 6067 417764 827803 196"
"175.691597"
"$GPRMC,163551,A,2523.1461,N,08003.9516,W,0.6,317.4,240615,6.9,"
"##MN-00 00 86 0000 01531 6068 419029 827803 196"
"175.691644"
"$GPRMC,163555,A,2523.1464,N,08003.9521,W,0.6,314.3,240615,6.9,"
"##MN-00 00 86 0000 01533 6070 419574 827803 196"
"175.69169"
"$GPRMC,163559,A,2523.1465,N,08003.9527,W,0.6,310.4,240615,6.9,"
"##MN-00 00 86 0000 01532 6071 419820 827737 196"
"175.691736"
"$GPRMC,163603,A,2523.1469,N,08003.9531,W,0.5,308.2,240615,6.9,"
"##MN-00 00 86 0000 01532 6073 420462 827802 196"
"175.691782"
"$GPRMC,163607,A,2523.1472,N,08003.9538,W,0.4,306.3,240615,6.9,"
"##MN-00 00 86 0000 01530 6074 420816 827802 196"
"175.691829"
"$GPRMC,163611,A,2523.1480,N,08003.9545,W,0.4,302.8,240615,6.9,"
"##MN-00 00 86 0000 01531 6076 420350 827802 196"
"175.691875"
"$GPRMC,163615,A,2523.1487,N,08003.9553,W,0.5,301.2,240615,6.9,"
"##MN-00 00 86 0000 01532 6078 419975 827803 196"
"175.691921"
"$GPRMC,163619,A,2523.1486,N,08003.9557,W,0.5,302.6,240615,6.9,"
"##MN-00 00 86 0000 01531 6079 419985 827802 196"
"175.691968"
"$GPRMC,163623,A,2523.1487,N,08003.9563,W,0.5,302.4,240615,6.9,"
"##MN-00 00 86 0000 01531 6081 420580 827802 196"
"175.692014"
"$GPRMC,163627,A,2523.1487,N,08003.9567,W,0.4,301.0,240615,6.9,"
"##MN-00 00 86 0000 01531 6082 419817 827801 196"
"175.69206"
"$GPRMC,163631,A,2523.1484,N,08003.9571,W,0.5,299.7,240615,6.9,"
"##MN-00 00 86 0000 01533 6084 419585 827800 196"
"175.692106"
"$GPRMC,163635,A,2523.1486,N,08003.9574,W,0.6,302.6,240615,6.9,"
"##MN-00 00 86 0000 01531 6085 419532 827800 196"
"175.692153"
"$GPRMC,163639,A,2523.1486,N,08003.9577,W,0.8,314.2,240615,6.9,"
"##MN-00 00 86 0000 01532 6086 418513 827799 196"
"175.692199"
"$GPRMC,163643,A,2523.1494,N,08003.9588,W,0.6,316.2,240615,6.9,"
"##MN-00 00 86 0000 01533 6088 418309 827732 196"
"175.692245"
"$GPRMC,163647,A,2523.1496,N,08003.9593,W,0.5,313.9,240615,6.9,"
"##MN-00 00 87 0000 01530 6089 418990 827733 196"
"175.692292"
"$GPRMC,163651,A,2523.1497,N,08003.9599,W,0.5,308.9,240615,6.9,"
"##MN-00 00 87 0000 01533 6090 419061 827799 196"
"175.692338"
"$GPRMC,163655,A,2523.1495,N,08003.9603,W,0.5,304.8,240615,6.9,"
"##MN-00 00 86 0000 01531 6091 419471 827799 196"
"175.692384"
"$GPRMC,163659,A,2523.1494,N,08003.9612,W,0.6,299.7,240615,6.9,"
"##MN-00 00 87 0000 01533 6093 418824 827799 196"
"175.692431"
"$GPRMC,163703,A,2523.1496,N,08003.9614,W,0.8,297.6,240615,6.9,"
"##MN-00 00 86 0000 01532 6094 418594 827799 196"
"175.692488"
"$GPRMC,163707,A,2523.1498,N,08003.9621,W,0.8,299.7,240615,6.9,"
"##MN-00 00 86 0000 01532 6096 418127 827799 196"
"175.692535"
"$GPRMC,163711,A,2523.1501,N,08003.9629,W,0.6,298.6,240615,6.9,"
"##MN-00 00 86 0000 01531 6097 418661 827799 196"
"175.692581"
"$GPRMC,163715,A,2523.1501,N,08003.9636,W,0.6,296.8,240615,6.9,"
"##MN-00 00 86 0000 01531 6098 419281 827800 196"
"175.692627"
"$GPRMC,163719,A,2523.1503,N,08003.9642,W,0.6,294.1,240615,6.9,"
"##MN-00 00 86 0000 01532 6099 419231 827799 196"
"175.692674"
"$GPRMC,163723,A,2523.1503,N,08003.9649,W,0.6,292.2,240615,6.9,"
"##MN-00 00 86 0000 01531 6101 419303 827731 196"
"175.69272"
"$GPRMC,163727,A,2523.1505,N,08003.9655,W,0.7,294.3,240615,6.9,"
"##MN-00 00 87 0000 01531 6102 418848 827799 196"
"175.692766"
"$GPRMC,163731,A,2523.1505,N,08003.9662,W,0.6,297.4,240615,6.9,"
"##MN-00 00 86 0000 01531 6103 418514 827799 196"
"175.692813"
"$GPRMC,163735,A,2523.1508,N,08003.9669,W,0.6,297.2,240615,6.9,"
"##MN-00 00 81 0000 01533 6104 418951 827799 196"
"175.692859"
"$GPRMC,163739,A,2523.1508,N,08003.9676,W,0.5,296.7,240615,6.9,"
"##MN-00 00 72 0000 01532 6105 419906 827798 196"
"175.692905"
"$GPRMC,163743,A,2523.1510,N,08003.9682,W,0.4,294.6,240615,6.9,"
"##MN-00 00 69 0000 01532 6106 421386 827799 196"
"175.692951"
"$GPRMC,163747,A,2523.1512,N,08003.9687,W,0.4,292.5,240615,6.9,"
"##MN-00 00 58 0000 01532 6108 422554 827732 196"
"175.692998"
"$GPRMC,163751,A,2523.1514,N,08003.9691,W,0.4,291.2,240615,6.9,"
"##MN-00 00 53 0000 01532 6109 423916 827799 196"
"175.693044"
"$GPRMC,163755,A,2523.1514,N,08003.9696,W,0.4,289.7,240615,6.9,"
"##MN-00 00 45 0000 01534 6110 424666 827732 196"
"175.69309"
"$GPRMC,163759,A,2523.1516,N,08003.9702,W,0.5,287.9,240615,6.9,"
"##MN-00 00 45 0000 01531 6111 425323 827800 196"
"175.693137"
"$GPRMC,163803,A,2523.1518,N,08003.9707,W,0.4,284.1,240615,6.9,"
"##MN-00 00 46 0000 01532 6113 426469 827801 196"
"175.693183"
"$GPRMC,163807,A,2523.1523,N,08003.9715,W,0.5,283.4,240615,6.9,"
"##MN-00 00 46 0000 01532 6114 426903 827802 196"
"175.693229"
"$GPRMC,163811,A,2523.1526,N,08003.9722,W,0.5,284.9,240615,6.9,"
"##MN-00 00 47 0000 01533 6114 427298 827801 196"
"175.693275"
"$GPRMC,163815,A,2523.1530,N,08003.9729,W,0.5,286.0,240615,6.9,"
"##MN-00 00 48 0000 01530 6116 426640 827801 196"
"175.693322"
"$GPRMC,163819,A,2523.1530,N,08003.9734,W,0.6,288.9,240615,6.9,"
"##MN-00 00 40 0000 01534 6117 433760 248505 196"
"175.693368"
"$GPRMC,163823,A,2523.1534,N,08003.9740,W,0.6,292.1,240615,6.9,"
"##MN-00 00 03 0001 01532 6118 438013 204351 196"
"175.693414"
"$GPRMC,163827,A,2523.1541,N,08003.9751,W,0.7,296.0,240615,6.9,"
"##MN-00 00 04 0002 01534 6120 438139 203245 196"
"175.693461"
"$GPRMC,163831,A,2523.1548,N,08003.9759,W,0.8,299.6,240615,6.9,"
"##MN-00 00 05 0003 01531 6120 438363 203276 196"
"175.693507"
"$GPRMC,163835,A,2523.1555,N,08003.9765,W,0.9,304.8,240615,6.9,"
"##MN-00 00 03 0004 01531 6122 438360 203290 196"
"175.693553"
"$GPRMC,163839,A,2523.1561,N,08003.9772,W,0.9,309.8,240615,6.9,"
"##MN-00 00 03 0005 01535 6123 438447 203270 196"
"175.6936"
"$GPRMC,163843,A,2523.1570,N,08003.9776,W,0.9,315.4,240615,6.9,"
"##MN-00 00 03 0006 01533 6124 438621 203366 196"
"175.693646"
"$GPRMC,163847,A,2523.1579,N,08003.9780,W,0.9,319.7,240615,6.9,"
"##MN-00 00 03 0007 01536 6125 438705 203424 196"
"175.693692"
"$GPRMC,163852,A,2523.1588,N,08003.9782,W,0.9,325.1,240615,6.9,"
"##MN-00 00 03 0008 01543 6126 438741 203437 196"
"175.693738"
"$GPRMC,163856,A,2523.1597,N,08003.9787,W,0.9,328.9,240615,6.9,"
"##MN-00 00 03 0009 01545 6127 438759 203457 196"
"175.693785"
"$GPRMC,163900,A,2523.1609,N,08003.9792,W,1.0,331.8,240615,6.9,"
"##MN-00 00 04 0010 01550 6128 438952 203491 196"
"175.693831"
"$GPRMC,163903,A,2523.1617,N,08003.9795,W,1.0,333.7,240615,6.9,"
"##MN-00 00 03 0011 01551 6129 439058 203504 196"
"175.693877"
"$GPRMC,163908,A,2523.1630,N,08003.9803,W,1.1,334.2,240615,6.9,"
"##MN-00 00 04 0011 01555 6130 439148 203532 196"
"175.693924"
"$GPRMC,163911,A,2523.1638,N,08003.9806,W,1.1,334.4,240615,6.9,"
"##MN-00 00 03 0012 01561 6130 439291 203580 196"
"175.69397"
"$GPRMC,163916,A,2523.1649,N,08003.9814,W,1.1,334.4,240615,6.9,"
"##MN-00 00 04 0013 01564 6131 439436 203630 196"
"175.694016"
"$GPRMC,163920,A,2523.1659,N,08003.9819,W,1.0,333.8,240615,6.9,"
"##MN-00 00 03 0014 01568 6132 439682 203663 196"
"175.694062"
"$GPRMC,163924,A,2523.1669,N,08003.9826,W,1.0,333.1,240615,6.9,"
"##MN-00 00 04 0015 01572 6133 439742 203665 196"
"175.694109"
"$GPRMC,163928,A,2523.1678,N,08003.9831,W,1.0,333.4,240615,6.9,"
"##MN-00 00 04 0016 01574 6134 439846 203684 196"
"175.694155"
"$GPRMC,163932,A,2523.1689,N,08003.9837,W,1.0,333.0,240615,6.9,"
"##MN-00 00 04 0017 01577 6134 439978 203731 196"
"175.694201"
"$GPRMC,163936,A,2523.1699,N,08003.9841,W,1.0,332.7,240615,6.9,"
"##MN-00 00 04 0018 01577 6135 440139 203771 196"
"175.694248"
"$GPRMC,163940,A,2523.1707,N,08003.9845,W,1.0,332.3,240615,6.9,"
"##MN-00 00 04 0019 01583 6136 440297 203800 196"
"175.694294"
"$GPRMC,163944,A,2523.1718,N,08003.9852,W,1.1,331.8,240615,6.9,"
"##MN-00 00 04 0020 01590 6136 440427 203836 196"
"175.69434"
"$GPRMC,163948,A,2523.1732,N,08003.9860,W,1.2,331.9,240615,6.9,"
"##MN-00 00 04 0021 01592 6137 440531 203845 196"
"175.694387"
"$GPRMC,163952,A,2523.1745,N,08003.9867,W,1.2,333.2,240615,6.9,"
"##MN-00 00 04 0022 01597 6137 440589 203842 196"
"175.694433"
"$GPRMC,163956,A,2523.1753,N,08003.9870,W,1.2,333.2,240615,6.9,"
"##MN-00 00 04 0022 01600 6138 440665 203868 196"
"175.694479"
"$GPRMC,164000,A,2523.1761,N,08003.9873,W,1.2,333.5,240615,6.9,"
"##MN-00 00 03 0023 01603 6138 440693 203873 196"
"175.694525"
"$GPRMC,164004,A,2523.1772,N,08003.9878,W,1.1,334.0,240615,6.9,"
"##MN-00 00 04 0024 01606 6139 440718 203877 196"
"175.694572"
"$GPRMC,164008,A,2523.1786,N,08003.9885,W,1.1,333.9,240615,6.9,"
"##MN-00 00 04 0025 01608 6139 440730 203878 196"
"175.694618"
"$GPRMC,164012,A,2523.1797,N,08003.9892,W,1.0,334.3,240615,6.9,"
"##MN-00 00 04 0026 01612 6140 440739 203877 196"
"175.694664"
"$GPRMC,164016,A,2523.1808,N,08003.9897,W,1.0,335.3,240615,6.9,"
"##MN-00 00 04 0027 01614 6140 440738 203876 196"
"175.694711"
"$GPRMC,164020,A,2523.1819,N,08003.9902,W,1.0,335.6,240615,6.9,"
"##MN-00 00 04 0028 01618 6140 440741 203871 196"
"175.694757"
"$GPRMC,164024,A,2523.1829,N,08003.9907,W,1.0,336.5,240615,6.9,"
"##MN-00 00 03 0029 01623 6141 440750 203876 196"
"175.694803"
"$GPRMC,164028,A,2523.1837,N,08003.9910,W,1.0,336.9,240615,6.9,"
"##MN-00 00 03 0030 01624 6141 440770 203881 196"
"175.69485"
"$GPRMC,164032,A,2523.1847,N,08003.9915,W,1.0,336.7,240615,6.9,"
"##MN-00 00 03 0031 01629 6141 440780 203882 196"
"175.694896"
"$GPRMC,164036,A,2523.1855,N,08003.9920,W,0.9,336.3,240615,6.9,"
"##MN-00 00 04 0032 01632 6142 440795 203887 196"
"175.694942"
"$GPRMC,164040,A,2523.1863,N,08003.9924,W,1.0,336.1,240615,6.9,"
"##MN-00 00 06 0033 01632 6142 440821 203892 196"
"175.694988"
"$GPRMC,164044,A,2523.1870,N,08003.9928,W,0.9,336.8,240615,6.9,"
"##MN-00 00 04 0034 01636 6142 440865 203903 196"
"175.695035"
"$GPRMC,164048,A,2523.1879,N,08003.9931,W,0.9,337.1,240615,6.9,"
"##MN-00 00 05 0035 01641 6142 440905 203915 196"
"175.695081"
"$GPRMC,164052,A,2523.1891,N,08003.9939,W,0.9,338.4,240615,6.9,"
"##MN-00 00 04 0035 01644 6143 440922 203918 196"
"175.695127"
"$GPRMC,164056,A,2523.1904,N,08003.9944,W,0.9,338.3,240615,6.9,"
"##MN-00 00 04 0036 01648 6143 440919 203917 196"
"175.695174"
"$GPRMC,164100,A,2523.1916,N,08003.9949,W,1.0,338.9,240615,6.9,"
"##MN-00 00 03 0037 01651 6143 440925 203919 196"
"175.69522"
"$GPRMC,164104,A,2523.1927,N,08003.9953,W,1.0,339.7,240615,6.9,"
"##MN-00 00 04 0038 01654 6143 440925 203917 196"
"175.695266"
"$GPRMC,164108,A,2523.1935,N,08003.9957,W,0.9,339.7,240615,6.9,"
"##MN-00 00 04 0039 01659 6144 440915 203913 196"
"175.695313"
"$GPRMC,164112,A,2523.1945,N,08003.9961,W,1.1,337.3,240615,6.9,"
"##MN-00 00 04 0039 01661 6144 440898 203907 196"
"175.695359"
"$GPRMC,164116,A,2523.1955,N,08003.9967,W,1.0,336.8,240615,6.9,"
"##MN-00 00 04 0040 01662 6144 440881 203903 196"
"175.695405"
"$GPRMC,164120,A,2523.1966,N,08003.9972,W,1.0,334.4,240615,6.9,"
"##MN-00 00 04 0041 01666 6144 440877 203901 196"
"175.695451"
"$GPRMC,164124,A,2523.1974,N,08003.9978,W,1.0,333.7,240615,6.9,"
"##MN-00 00 05 0042 01669 6144 440884 203901 196"
"175.695498"
"$GPRMC,164128,A,2523.1984,N,08003.9982,W,1.0,331.6,240615,6.9,"
"##MN-00 00 04 0043 01672 6144 440896 203902 196"
"175.695544"
"$GPRMC,164132,A,2523.1995,N,08003.9986,W,1.0,330.7,240615,6.9,"
"##MN-00 00 04 0044 01677 6145 440905 203902 196"
"175.69559"
"$GPRMC,164136,A,2523.2003,N,08003.9989,W,1.0,330.3,240615,6.9,"
"##MN-00 00 03 0045 01680 6145 440916 203906 196"
"175.695637"
"$GPRMC,164140,A,2523.2013,N,08003.9996,W,1.0,329.9,240615,6.9,"
"##MN-00 00 05 0046 01682 6145 440916 203906 196"
"175.695683"
"$GPRMC,164144,A,2523.2021,N,08004.0000,W,1.0,329.6,240615,6.9,"
"##MN-00 00 04 0047 01684 6145 440919 203906 196"
"175.695741"
"$GPRMC,164148,A,2523.2031,N,08004.0007,W,0.9,330.0,240615,6.9,"
"##MN-00 00 03 0048 01688 6145 440936 203910 196"
"175.695787"
"$GPRMC,164152,A,2523.2039,N,08004.0011,W,0.9,330.2,240615,6.9,"
"##MN-00 00 04 0049 01691 6146 440945 203912 196"
"175.695833"
"$GPRMC,164156,A,2523.2047,N,08004.0016,W,0.9,329.8,240615,6.9,"
"##MN-00 00 04 0050 01694 6145 440944 203912 196"
"175.69588"
"$GPRMC,164200,A,2523.2056,N,08004.0019,W,1.0,330.2,240615,6.9,"
"##MN-00 00 03 0051 01697 6145 440972 203915 196"
"175.695926"
"$GPRMC,164204,A,2523.2065,N,08004.0026,W,0.9,329.4,240615,6.9,"
"##MN-00 00 04 0052 01698 6146 440979 203916 196"
"175.695972"
"$GPRMC,164208,A,2523.2078,N,08004.0034,W,1.0,329.6,240615,6.9,"
"##MN-00 00 04 0053 01702 6145 440992 203919 196"
"175.696019"
"$GPRMC,164212,A,2523.2087,N,08004.0041,W,1.0,329.3,240615,6.9,"
"##MN-00 00 04 0054 01706 6146 440998 203921 196"
"175.696065"
"$GPRMC,164216,A,2523.2097,N,08004.0046,W,1.0,329.0,240615,6.9,"
"##MN-00 00 03 0055 01710 6146 441004 203922 196"
"175.696111"
"$GPRMC,164220,A,2523.2108,N,08004.0054,W,1.1,327.7,240615,6.9,"
"##MN-00 00 04 0056 01713 6146 441014 203924 196"
"175.696157"
"$GPRMC,164224,A,2523.2119,N,08004.0061,W,1.1,327.9,240615,6.9,"
"##MN-00 00 03 0057 01715 6146 441019 203925 196"
"175.696204"
"$GPRMC,164228,A,2523.2130,N,08004.0069,W,1.1,328.3,240615,6.9,"
"##MN-00 00 04 0058 01720 6146 441019 203925 196"
"175.69625"
"$GPRMC,164232,A,2523.2141,N,08004.0076,W,1.1,328.2,240615,6.9,"
"##MN-00 00 03 0058 01725 6146 441023 203924 196"
"175.696296"
"$GPRMC,164236,A,2523.2151,N,08004.0084,W,1.1,327.0,240615,6.9,"
"##MN-00 00 04 0059 01726 6146 441026 203925 196"
"175.696343"
"$GPRMC,164240,A,2523.2162,N,08004.0092,W,1.1,325.4,240615,6.9,"
"##MN-00 00 03 0060 01726 6146 441033 203926 196"
"175.696389"
"$GPRMC,164244,A,2523.2170,N,08004.0101,W,1.2,324.5,240615,6.9,"
"##MN-00 00 04 0061 01730 6146 441047 203926 196"
"175.696435"
"$GPRMC,164248,A,2523.2180,N,08004.0109,W,1.2,323.7,240615,6.9,"
"##MN-00 00 03 0062 01732 6146 441071 203930 196"
"175.696481"
"$GPRMC,164252,A,2523.2191,N,08004.0116,W,1.2,323.3,240615,6.9,"
"##MN-00 00 04 0063 01735 6146 441099 203935 196"
"175.696528"
"$GPRMC,164256,A,2523.2202,N,08004.0127,W,1.2,321.4,240615,6.9,"
"##MN-00 00 03 0064 01737 6146 441113 203947 196"
"175.696574"
"$GPRMC,164300,A,2523.2216,N,08004.0141,W,1.2,320.4,240615,6.9,"
"##MN-00 00 03 0065 01740 6146 441126 203950 196"
"175.69662"
"$GPRMC,164304,A,2523.2229,N,08004.0156,W,1.3,320.3,240615,6.9,"
"##MN-00 00 03 0066 01743 6146 441143 203951 196"
"175.696667"
"$GPRMC,164308,A,2523.2242,N,08004.0167,W,1.3,320.9,240615,6.9,"
"##MN-00 00 04 0067 01748 6146 441171 203960 196"
"175.696713"
"$GPRMC,164312,A,2523.2253,N,08004.0184,W,1.3,320.7,240615,6.9,"
"##MN-00 00 03 0068 01751 6146 441252 203984 196"
"175.696759"
"$GPRMC,164316,A,2523.2264,N,08004.0196,W,1.3,320.0,240615,6.9,"
"##MN-00 00 04 0069 01755 6146 441380 204014 196"
"175.696806"
"$GPRMC,164320,A,2523.2277,N,08004.0209,W,1.4,319.1,240615,6.9,"
"##MN-00 00 04 0070 01754 6146 441446 204040 196"
"175.696852"
"$GPRMC,164324,A,2523.2291,N,08004.0218,W,1.5,319.2,240615,6.9,"
"##MN-00 00 04 0071 01757 6146 441473 204042 196"
"175.696898"
"$GPRMC,164328,A,2523.2305,N,08004.0229,W,1.5,319.3,240615,6.9,"
"##MN-00 00 04 0072 01758 6146 441543 204062 196"
"175.696944"
"$GPRMC,164332,A,2523.2318,N,08004.0242,W,1.6,318.6,240615,6.9,"
"##MN-00 00 03 0073 01763 6146 441607 204085 196"
"175.696991"
"$GPRMC,164336,A,2523.2329,N,08004.0254,W,1.6,317.4,240615,6.9,"
"##MN-00 00 05 0074 01763 6146 441657 204094 196"
"175.697037"
"$GPRMC,164340,A,2523.2343,N,08004.0267,W,1.6,317.3,240615,6.9,"
"##MN-00 00 04 0075 01765 6146 441697 204104 196"
"175.697083"
"$GPRMC,164344,A,2523.2354,N,08004.0279,W,1.5,317.4,240615,6.9,"
"##MN-00 00 05 0076 01770 6146 441710 204115 196"
"175.69713"
"$GPRMC,164348,A,2523.2365,N,08004.0290,W,1.5,316.8,240615,6.9,"
"##MN-00 00 03 0077 01772 6146 441714 204115 196"
"175.697176"
"$GPRMC,164352,A,2523.2376,N,08004.0303,W,1.4,316.8,240615,6.9,"
"##MN-00 00 02 0078 01774 6146 441735 204120 196"
"175.697222"
"$GPRMC,164357,A,2523.2393,N,08004.0315,W,1.3,317.7,240615,6.9,"
"##MN-00 00 42 0079 01775 6146 441919 204174 196"
"175.697268"
"$GPRMC,164400,A,2523.2404,N,08004.0322,W,1.4,318.2,240615,6.9,"
"##MN-00 00 41 0080 01775 6146 442098 204210 196"
"175.697315"
"$GPRMC,164404,A,2523.2418,N,08004.0332,W,1.3,320.1,240615,6.9,"
"##MN-00 00 03 0081 01775 6146 442044 204206 196"
"175.697361"
"$GPRMC,164409,A,2523.2433,N,08004.0343,W,1.4,322.5,240615,6.9,"
"##MN-00 00 45 0082 01775 6146 442010 204202 196"
"175.697407"
"$GPRMC,164413,A,2523.2447,N,08004.0354,W,1.3,323.3,240615,6.9,"
"##MN-00 00 46 0083 01775 6146 442057 204224 196"
"175.697454"
"$GPRMC,164416,A,2523.2455,N,08004.0361,W,1.3,323.6,240615,6.9,"
"##MN-00 00 46 0084 01776 6146 442163 204241 196"
"175.6975"
"$GPRMC,164421,A,2523.2472,N,08004.0372,W,1.4,324.6,240615,6.9,"
"##MN+00 00 45 0085 01776 6146 442280 204275 196"
"175.697546"
"$GPRMC,164425,A,2523.2484,N,08004.0381,W,1.4,324.5,240615,6.9,"
"##MN+00 00 46 0086 01780 6146 442343 204273 196"
"175.697593"
"$GPRMC,164429,A,2523.2498,N,08004.0391,W,1.5,323.9,240615,6.9,"
"##MN+00 00 03 0087 01781 6146 442376 204278 196"
"175.697639"
"$GPRMC,164433,A,2523.2512,N,08004.0405,W,1.3,323.5,240615,6.9,"
"##MN-00 00 02 0088 01781 6146 442466 204298 196"
"175.697685"
"$GPRMC,164437,A,2523.2524,N,08004.0415,W,1.3,322.8,240615,6.9,"
"##MN-00 00 03 0089 01780 6145 442565 204317 196"
"175.697731"
"$GPRMC,164441,A,2523.2536,N,08004.0427,W,1.3,322.2,240615,6.9,"
"##MN+00 00 47 0090 01778 6145 442642 204349 196"
"175.697778"
"$GPRMC,164445,A,2523.2548,N,08004.0438,W,1.5,320.9,240615,6.9,"
"##MN+00 00 47 0091 01780 6145 442707 204359 196"
"175.697824"
"$GPRMC,164449,A,2523.2560,N,08004.0449,W,1.5,320.5,240615,6.9,"
"##MN+00 00 04 0092 01783 6145 442727 204372 196"
"175.69787"
"$GPRMC,164453,A,2523.2573,N,08004.0464,W,1.5,320.2,240615,6.9,"
"##MN-00 00 04 0093 01784 6145 442755 204378 196"
"175.697917"
"#increment_net"
"$GPRMC,164457,A,2523.2587,N,08004.0478,W,1.5,320.3,240615,6.9,"
"##MN-00 00 46 0094 01781 6145 442764 204378 196"
"175.697963"
"$GPRMC,164501,A,2523.2598,N,08004.0491,W,1.5,320.0,240615,6.9,"
"##MN-00 00 03 0095 01783 6145 442747 204378 196"
"175.698009"
"$GPRMC,164505,A,2523.2609,N,08004.0499,W,1.5,319.9,240615,6.9,"
"##MN-00 00 04 0096 01780 6145 442750 204376 196"
"175.698056"
"$GPRMC,164509,A,2523.2621,N,08004.0509,W,1.5,319.9,240615,6.9,"
"##MN-00 00 02 0098 01781 6145 442767 204379 196"
"175.698102"
"$GPRMC,164513,A,2523.2632,N,08004.0517,W,1.5,319.6,240615,6.9,"
"##MN-00 00 04 0099 01780 6144 442788 204390 196"
"175.698148"
"$GPRMC,164517,A,2523.2645,N,08004.0527,W,1.5,319.6,240615,6.9,"
"##MN-00 00 42 0100 01780 6144 442815 204397 196"
"175.698194"
"$GPRMC,164521,A,2523.2657,N,08004.0538,W,1.4,320.0,240615,6.9,"
"##MN-00 00 45 0101 01779 6144 442816 204393 196"
"175.698241"
"$GPRMC,164525,A,2523.2672,N,08004.0550,W,1.4,320.7,240615,6.9,"
"##MN-00 00 08 0102 01781 6144 442796 204392 196"
"175.698287"
"$GPRMC,164529,A,2523.2686,N,08004.0563,W,1.4,321.4,240615,6.9,"
"##MN-00 00 04 0103 01780 6144 442826 204397 196"
"175.698333"
"$GPRMC,164533,A,2523.2699,N,08004.0572,W,1.5,321.6,240615,6.9,"
"##MN-00 00 48 0104 01778 6144 442842 204402 196"
"175.69838"
"$GPRMC,164537,A,2523.2711,N,08004.0585,W,1.5,321.4,240615,6.9,"
"##MN-00 00 05 0105 01778 6144 442867 204405 196"
"175.698426"
"$GPRMC,164541,A,2523.2725,N,08004.0597,W,1.5,321.3,240615,6.9,"
"##MN+00 00 04 0106 01780 6143 442861 204407 196"
"175.698472"
"$GPRMC,164545,A,2523.2737,N,08004.0611,W,1.3,321.5,240615,6.9,"
"##MN+00 00 03 0107 01781 6143 442842 204406 196"
"175.698519"
"$GPRMC,164549,A,2523.2750,N,08004.0621,W,1.3,321.1,240615,6.9,"
"##MN+00 00 05 0108 01779 6143 442752 204384 196"
"175.698565"
"$GPRMC,164553,A,2523.2762,N,08004.0630,W,1.4,321.5,240615,6.9,"
"##MN+00 00 46 0110 01779 6143 442694 204376 196"
"175.698611"
"$GPRMC,164557,A,2523.2773,N,08004.0640,W,1.3,321.0,240615,6.9,"
"##MN+00 00 05 0111 01783 6143 442723 204386 196"
"175.698657"
"$GPRMC,164601,A,2523.2784,N,08004.0650,W,1.3,321.3,240615,6.9,"
"##MN+00 00 05 0112 01782 6143 442848 204408 196"
"175.698704"
"$GPRMC,164605,A,2523.2794,N,08004.0662,W,1.2,320.6,240615,6.9,"
"##MN-00 00 04 0113 01781 6143 442903 204419 196"
"175.69875"
"#increment_net"
"$GPRMC,164609,A,2523.2808,N,08004.0675,W,1.3,319.5,240615,6.9,"
"##MN-00 00 04 0114 01780 6143 442916 204421 196"
"175.698796"
"$GPRMC,164613,A,2523.2820,N,08004.0686,W,1.4,318.6,240615,6.9,"
"##MN-00 00 06 0115 01778 6142 442899 204421 196"
"175.698843"
"$GPRMC,164617,A,2523.2831,N,08004.0697,W,1.4,318.4,240615,6.9,"
"##MN-00 00 04 0116 01776 6142 442877 204418 196"
"175.698889"
"$GPRMC,164621,A,2523.2844,N,08004.0710,W,1.5,318.3,240615,6.9,"
"##MN-00 00 04 0117 01776 6142 442839 204409 196"
"175.698935"
"$GPRMC,164625,A,2523.2856,N,08004.0723,W,1.4,318.3,240615,6.9,"
"##MN-00 00 04 0118 01775 6142 442771 204398 196"
"175.698993"
"$GPRMC,164629,A,2523.2870,N,08004.0733,W,1.5,318.9,240615,6.9,"
"##MN-00 00 04 0120 01775 6142 442710 204387 196"
"175.699039"
"$GPRMC,164633,A,2523.2881,N,08004.0742,W,1.4,318.7,240615,6.9,"
"##MN-00 00 04 0121 01771 6141 442661 204378 196"
"175.699086"
"$GPRMC,164637,A,2523.2894,N,08004.0751,W,1.5,319.0,240615,6.9,"
"##MN-00 00 46 0122 01772 6141 442576 204360 196"
"175.699132"
"$GPRMC,164641,A,2523.2906,N,08004.0762,W,1.5,320.1,240615,6.9,"
"##MN+00 00 04 0123 01771 6141 442522 204351 196"
"175.699178"
"$GPRMC,164645,A,2523.2919,N,08004.0775,W,1.5,320.6,240615,6.9,"
"##MN+00 00 04 0124 01772 6141 442542 204358 196"
"175.699225"
"$GPRMC,164649,A,2523.2932,N,08004.0785,W,1.5,320.4,240615,6.9,"
"##MN+00 00 04 0125 01773 6141 442562 204361 196"
"175.699271"
"$GPRMC,164653,A,2523.2943,N,08004.0796,W,1.5,320.3,240615,6.9,"
"##MN-00 00 04 0126 01772 6141 442545 204358 196"
"175.699317"
"$GPRMC,164657,A,2523.2959,N,08004.0809,W,1.5,319.8,240615,6.9,"
"##MN-00 00 04 0127 01770 6140 442470 204345 196"
"175.699363"
"$GPRMC,164701,A,2523.2971,N,08004.0824,W,1.6,319.0,240615,6.9,"
"##MN+00 00 04 0128 01772 6140 442389 204327 196"
"175.69941"
"$GPRMC,164705,A,2523.2982,N,08004.0838,W,1.6,317.9,240615,6.9,"
"##MN+00 00 04 0129 01771 6140 442343 204310 196"
"175.699456"
"$GPRMC,164709,A,2523.2996,N,08004.0852,W,1.7,317.1,240615,6.9,"
"##MN+00 00 05 0130 01773 6140 442344 204311 196"
"175.699502"
"$GPRMC,164713,A,2523.3010,N,08004.0867,W,1.7,316.6,240615,6.9,"
"##MN-00 00 05 0132 01773 6140 442436 204330 196"
"175.699549"
"#increment_net"
"$GPRMC,164717,A,2523.3022,N,08004.0882,W,1.7,316.5,240615,6.9,"
"##MN-00 00 47 0133 01769 6140 442521 204349 196"
"175.699595"
"$GPRMC,164721,A,2523.3039,N,08004.0897,W,1.7,316.4,240615,6.9,"
"##MN-00 00 05 0134 01770 6139 442543 204350 196"
"175.699641"
"$GPRMC,164725,A,2523.3051,N,08004.0914,W,1.7,316.1,240615,6.9,"
"##MN-00 00 04 0135 01770 6139 442497 204343 196"
"175.699687"
"$GPRMC,164729,A,2523.3065,N,08004.0929,W,1.7,316.5,240615,6.9,"
"##MN-00 00 05 0136 01767 6139 442415 204327 196"
"175.699734"
"$GPRMC,164733,A,2523.3080,N,08004.0944,W,1.7,317.3,240615,6.9,"
"##MN-00 00 05 0137 01767 6139 442334 204306 196"
"175.69978"
"$GPRMC,164737,A,2523.3094,N,08004.0959,W,1.6,318.0,240615,6.9,"
"##MN-00 00 05 0138 01766 6139 442179 204273 196"
"175.699826"
"$GPRMC,164741,A,2523.3108,N,08004.0975,W,1.6,318.7,240615,6.9,"
"##MN-00 00 05 0140 01765 6138 442082 204250 196"
"175.699873"
"$GPRMC,164745,A,2523.3122,N,08004.0988,W,1.7,319.0,240615,6.9,"
"##MN+00 00 05 0141 01767 6138 442066 204245 196"
"175.699919"
"$GPRMC,164749,A,2523.3134,N,08004.1006,W,1.7,319.4,240615,6.9,"
"##MN+00 00 05 0142 01764 6138 442080 204241 196"
"175.699965"
"$GPRMC,164753,A,2523.3144,N,08004.1019,W,1.7,320.0,240615,6.9,"
"##MN+00 00 04 0143 01766 6138 442111 204250 196"
"175.700012"
"$GPRMC,164757,A,2523.3159,N,08004.1029,W,1.7,319.6,240615,6.9,"
"##MN-00 00 04 0144 01768 6138 442066 204236 196"
"175.700058"
"$GPRMC,164801,A,2523.3177,N,08004.1040,W,1.7,320.2,240615,6.9,"
"##MN-00 00 04 0145 01768 6138 442048 204227 196"
"175.700104"
"$GPRMC,164805,A,2523.3192,N,08004.1051,W,1.6,320.7,240615,6.9,"
"##MN+00 00 04 0146 01768 6137 442001 204209 196"
"175.70015"
"$GPRMC,164809,A,2523.3206,N,08004.1062,W,1.6,320.0,240615,6.9,"
"##MN+00 00 04 0147 01764 6137 441950 204198 196"
"175.700197"
"$GPRMC,164813,A,2523.3221,N,08004.1074,W,1.7,319.8,240615,6.9,"
"##MN+00 00 04 0149 01770 6137 441958 204201 196"
"175.700243"
"$GPRMC,164817,A,2523.3235,N,08004.1089,W,1.6,319.7,240615,6.9,"
"##MN-00 00 05 0150 01768 6137 442237 204300 196"
"175.700289"
"#increment_net"
"$GPRMC,164821,A,2523.3250,N,08004.1102,W,1.6,319.5,240615,6.9,"
"##MN-00 00 04 0151 01769 6137 442519 204344 196"
"175.700336"
"$GPRMC,164826,A,2523.3266,N,08004.1118,W,1.6,319.3,240615,6.9,"
"##MN-00 00 04 0152 01770 6136 442338 204308 196"
"175.700382"
"$GPRMC,164830,A,2523.3281,N,08004.1131,W,1.5,319.6,240615,6.9,"
"##MN-00 00 04 0153 01767 6136 442106 204245 196"
"175.700428"
"$GPRMC,164834,A,2523.3293,N,08004.1142,W,1.5,319.6,240615,6.9,"
"##MN-00 00 04 0154 01766 6136 442003 204223 196"
"175.700475"
"$GPRMC,164838,A,2523.3304,N,08004.1154,W,1.5,319.1,240615,6.9,"
"##MN-00 00 04 0155 01766 6136 441956 204207 196"
"175.700521"
"$GPRMC,164841,A,2523.3314,N,08004.1163,W,1.7,318.4,240615,6.9,"
"##MN-00 00 04 0157 01767 6136 441933 204202 196"
"175.700567"
"$GPRMC,164845,A,2523.3326,N,08004.1175,W,1.6,317.9,240615,6.9,"
"##MN-00 00 04 0158 01766 6136 441929 204198 196"
"175.700613"
"$GPRMC,164849,A,2523.3342,N,08004.1189,W,1.6,318.5,240615,6.9,"
"##MN-00 00 04 0159 01767 6136 441938 204199 196"
"175.70066"
"$GPRMC,164853,A,2523.3357,N,08004.1201,W,1.6,318.6,240615,6.9,"
"##MN-00 00 04 0160 01767 6135 441960 204205 196"
"175.700706"
"$GPRMC,164857,A,2523.3371,N,08004.1214,W,1.7,318.3,240615,6.9,"
"##MN+00 00 04 0161 01764 6135 441984 204211 196"
"175.700752"
"$GPRMC,164901,A,2523.3386,N,08004.1226,W,1.6,317.8,240615,6.9,"
"##MN+00 00 04 0162 01763 6135 441994 204215 196"
"175.700799"
"$GPRMC,164906,A,2523.3401,N,08004.1246,W,1.6,317.3,240615,6.9,"
"##MN+00 00 04 0164 01766 6135 441987 204212 196"
"175.700845"
"$GPRMC,164910,A,2523.3412,N,08004.1261,W,1.6,317.3,240615,6.9,"
"##MN-00 00 04 0165 01761 6135 441936 204197 196"
"175.700891"
"$GPRMC,164914,A,2523.3425,N,08004.1275,W,1.6,317.9,240615,6.9,"
"##MN+00 00 04 0166 01764 6135 441867 204179 196"
"175.700938"
"$GPRMC,164918,A,2523.3438,N,08004.1290,W,1.6,317.5,240615,6.9,"
"##MN+00 00 04 0167 01766 6135 441811 204161 196"
"175.700984"
"$GPRMC,164922,A,2523.3452,N,08004.1304,W,1.6,318.6,240615,6.9,"
"##MN+00 00 05 0168 01768 6134 441796 204160 196"
"175.70103"
"$GPRMC,164926,A,2523.3466,N,08004.1319,W,1.6,317.9,240615,6.9,"
"##MN-00 00 05 0170 01768 6134 441902 204191 196"
"175.701076"
"$GPRMC,164930,A,2523.3479,N,08004.1331,W,1.6,317.3,240615,6.9,"
"##MN-00 00 05 0171 01775 6134 442069 204250 196"
"175.701123"
"#increment_net"
"$GPRMC,164934,A,2523.3492,N,08004.1344,W,1.6,316.6,240615,6.9,"
"##MN-00 00 04 0173 01779 6134 442838 204420 196"
"175.701169"
"$GPRMC,164938,A,2523.3505,N,08004.1358,W,1.6,316.1,240615,6.9,"
"##MN-00 00 04 0174 01789 6133 443244 204499 196"
"175.701215"
"$GPRMC,164942,A,2523.3517,N,08004.1369,W,1.6,316.1,240615,6.9,"
"##MN-00 00 04 0175 01791 6133 443311 204530 196"
"175.701262"
"$GPRMC,164946,A,2523.3528,N,08004.1377,W,1.5,315.6,240615,6.9,"
"##MN-00 00 04 0177 01794 6133 443346 204524 196"
"175.701308"
"$GPRMC,164950,A,2523.3542,N,08004.1392,W,1.4,314.7,240615,6.9,"
"##MN-00 00 04 0178 01793 6133 443359 204536 196"
"175.701354"
"$GPRMC,164954,A,2523.3556,N,08004.1407,W,1.5,313.9,240615,6.9,"
"##MN-00 00 04 0180 01793 6133 443366 204540 196"
"175.7014"
"$GPRMC,164958,A,2523.3564,N,08004.1418,W,1.5,313.4,240615,6.9,"
"##MN-00 00 04 0182 01792 6132 443379 204542 196"
"175.701447"
"$GPRMC,165002,A,2523.3575,N,08004.1432,W,1.5,312.6,240615,6.9,"
"##MN-00 00 04 0183 01793 6132 443396 204551 196"
"175.701493"
"$GPRMC,165006,A,2523.3591,N,08004.1452,W,1.5,311.8,240615,6.9,"
"##MN-00 00 04 0185 01791 6132 443410 204555 196"
"175.701539"
"$GPRMC,165010,A,2523.3603,N,08004.1465,W,1.4,312.0,240615,6.9,"
"##MN-00 00 04 0186 01788 6132 443415 204556 196"
"175.701586"
"$GPRMC,165014,A,2523.3615,N,08004.1481,W,1.5,311.9,240615,6.9,"
"##MN-00 00 04 0188 01787 6132 443423 204558 196"
"175.701632"
"$GPRMC,165018,A,2523.3626,N,08004.1495,W,1.5,311.1,240615,6.9,"
"##MN-00 00 04 0189 01787 6132 443435 204565 196"
"175.701678"
"$GPRMC,165022,A,2523.3638,N,08004.1510,W,1.6,311.1,240615,6.9,"
"##MN-00 00 04 0191 01786 6132 443450 204572 196"
"175.701725"
"$GPRMC,165026,A,2523.3651,N,08004.1528,W,1.6,311.2,240615,6.9,"
"##MN-00 00 04 0192 01781 6131 443459 204577 196"
"175.701771"
"$GPRMC,165030,A,2523.3662,N,08004.1546,W,1.6,311.1,240615,6.9,"
"##MN-00 00 04 0194 01781 6131 443464 204581 196"
"175.701817"
"$GPRMC,165034,A,2523.3674,N,08004.1558,W,1.6,310.8,240615,6.9,"
"##MN-00 00 04 0196 01777 6131 443471 204585 196"
"175.701863"
"$GPRMC,165038,A,2523.3682,N,08004.1573,W,1.6,310.6,240615,6.9,"
"##MN-00 00 04 0197 01776 6130 443487 204591 196"
"175.70191"
"$GPRMC,165042,A,2523.3691,N,08004.1589,W,1.5,310.7,240615,6.9,"
"##MN-00 00 04 0199 01776 6130 443499 204603 196"
"175.701956"
"$GPRMC,165046,A,2523.3704,N,08004.1605,W,1.6,311.9,240615,6.9,"
"##MN-00 00 04 0200 01772 6130 443490 204606 196"
"175.702002"
"$GPRMC,165050,A,2523.3718,N,08004.1622,W,1.6,312.8,240615,6.9,"
"##MN-00 00 04 0201 01770 6130 443023 204505 196"
"175.702049"
"$GPRMC,165054,A,2523.3732,N,08004.1637,W,1.7,313.6,240615,6.9,"
"##MN-00 00 04 0203 01767 6130 442249 204323 196"
"175.702095"
"$GPRMC,165058,A,2523.3748,N,08004.1654,W,1.7,314.2,240615,6.9,"
"##MN-00 00 04 0204 01764 6130 441861 204195 196"
"175.702141"
"$GPRMC,165102,A,2523.3763,N,08004.1669,W,1.8,314.6,240615,6.9,"
"##MN-00 00 04 0206 01763 6129 441743 204175 196"
"175.702188"
"$GPRMC,165106,A,2523.3777,N,08004.1684,W,1.8,314.4,240615,6.9,"
"##MN-00 00 04 0207 01761 6129 441690 204167 196"
"175.702245"
"$GPRMC,165110,A,2523.3794,N,08004.1698,W,1.9,314.8,240615,6.9,"
"##MN-00 00 04 0209 01759 6129 441662 204139 196"
"175.702292"
"$GPRMC,165114,A,2523.3810,N,08004.1716,W,2.1,314.3,240615,6.9,"
"##MN-00 00 04 0210 01755 6129 441619 204124 196"
"175.702338"
"$GPRMC,165118,A,2523.3827,N,08004.1731,W,2.1,314.0,240615,6.9,"
"##MN-00 00 04 0212 01754 6129 441577 204117 196"
"175.702384"
"$GPRMC,165122,A,2523.3846,N,08004.1752,W,2.2,313.8,240615,6.9,"
"##MN-00 00 04 0213 01749 6128 441521 204094 196"
"175.702431"
"$GPRMC,165126,A,2523.3864,N,08004.1771,W,2.3,314.0,240615,6.9,"
"##MN-00 00 04 0215 01746 6128 441456 204073 196"
"175.702477"
"$GPRMC,165130,A,2523.3888,N,08004.1793,W,2.4,314.6,240615,6.9,"
"##MN-00 00 04 0216 01745 6128 441473 204080 196"
"175.702523"
"$GPRMC,165134,A,2523.3909,N,08004.1817,W,2.4,314.6,240615,6.9,"
"##MN-00 00 04 0218 01740 6128 441481 204076 196"
"175.702569"
"$GPRMC,165138,A,2523.3929,N,08004.1837,W,2.5,315.2,240615,6.9,"
"##MN-00 00 04 0219 01736 6127 441321 204028 196"
"175.702616"
"$GPRMC,165142,A,2523.3951,N,08004.1861,W,2.6,315.9,240615,6.9,"
"##MN-00 00 04 0221 01731 6128 441236 204005 196"
"175.702662"
"$GPRMC,165146,A,2523.3972,N,08004.1883,W,2.7,316.3,240615,6.9,"
"##MN-00 00 04 0222 01728 6127 441202 204002 196"
"175.702708"
"$GPRMC,165150,A,2523.3996,N,08004.1907,W,2.8,316.1,240615,6.9,"
"##MN-00 00 04 0224 01724 6127 441212 204005 196"
"175.702755"
"$GPRMC,165154,A,2523.4018,N,08004.1931,W,2.9,316.5,240615,6.9,"
"##MN-00 00 04 0225 01719 6127 441231 204014 196"
"175.702801"
"$GPRMC,165158,A,2523.4043,N,08004.1952,W,2.9,316.8,240615,6.9,"
"##MN-00 00 04 0227 01717 6127 441266 204025 196"
"175.702847"
"$GPRMC,165202,A,2523.4068,N,08004.1976,W,3.0,317.3,240615,6.9,"
"##MN-00 00 04 0228 01716 6127 441282 204030 196"
"175.702893"
"$GPRMC,165206,A,2523.4094,N,08004.1999,W,3.0,317.7,240615,6.9,"
"##MN-00 00 04 0230 01711 6126 441244 204021 196"
"175.70294"
"$GPRMC,165210,A,2523.4120,N,08004.2024,W,3.1,318.4,240615,6.9,"
"##MN-00 00 04 0231 01704 6126 441217 204010 196"
"175.702986"
"$GPRMC,165214,A,2523.4148,N,08004.2053,W,3.1,318.9,240615,6.9,"
"##MN-00 00 04 0233 01702 6126 441201 204009 196"
"175.703032"
"$GPRMC,165218,A,2523.4174,N,08004.2081,W,3.2,319.6,240615,6.9,"
"##MN-00 00 04 0234 01700 6126 441210 204012 196"
"175.703079"
"$GPRMC,165222,A,2523.4203,N,08004.2107,W,3.3,319.9,240615,6.9,"
"##MN-00 00 04 0236 01694 6126 441201 204011 196"
"175.703125"
"$GPRMC,165226,A,2523.4235,N,08004.2133,W,3.3,321.0,240615,6.9,"
"##MN-00 00 04 0237 01689 6126 441210 204011 196"
"175.703171"
"$GPRMC,165230,A,2523.4265,N,08004.2160,W,3.4,321.8,240615,6.9,"
"##MN-00 00 04 0239 01687 6126 441188 204003 196"
"175.703218"
"$GPRMC,165234,A,2523.4297,N,08004.2184,W,3.5,322.0,240615,6.9,"
"##MN-00 00 04 0240 01683 6125 441141 203993 196"
"175.703264"
"$GPRMC,165238,A,2523.4328,N,08004.2209,W,3.6,322.2,240615,6.9,"
"##MN-00 00 04 0242 01680 6125 441127 203993 196"
"175.70331"
"$GPRMC,165242,A,2523.4359,N,08004.2237,W,3.6,322.3,240615,6.9,"
"##MN-00 00 04 0243 01676 6125 441172 204016 196"
"175.703357"
"$GPRMC,165246,A,2523.4390,N,08004.2265,W,3.5,322.4,240615,6.9,"
"##MN-00 00 04 0245 01674 6125 441243 204032 196"
"175.703403"
"$GPRMC,165250,A,2523.4420,N,08004.2291,W,3.5,322.5,240615,6.9,"
"##MN-00 00 04 0246 01667 6125 441260 204034 196"
"175.703449"
"$GPRMC,165254,A,2523.4451,N,08004.2319,W,3.5,322.4,240615,6.9,"
"##MN-00 00 04 0248 01664 6125 441260 204039 196"
"175.703495"
"$GPRMC,165259,A,2523.4488,N,08004.2352,W,3.4,321.7,240615,6.9,"
"##MN-00 00 04 0249 01660 6125 441293 204053 196"
"175.703542"
"$GPRMC,165302,A,2523.4510,N,08004.2373,W,3.5,321.1,240615,6.9,"
"##MN-00 00 04 0251 01655 6124 441320 204062 196"
"175.703588"
"$GPRMC,165306,A,2523.4539,N,08004.2399,W,3.4,320.4,240615,6.9,"
"##MN-00 00 04 0253 01649 6124 441333 204065 196"
"175.703634"
"$GPRMC,165311,A,2523.4576,N,08004.2432,W,3.4,320.5,240615,6.9,"
"##MN-00 00 04 0254 01646 6124 441323 204064 196"
"175.703681"
"$GPRMC,165314,A,2523.4599,N,08004.2453,W,3.5,320.4,240615,6.9,"
"##MN-00 00 04 0256 01641 6124 441321 204066 196"
"175.703727"
"$GPRMC,165318,A,2523.4628,N,08004.2480,W,3.4,320.0,240615,6.9,"
"##MN-00 00 04 0257 01638 6124 441319 204067 196"
"175.703773"
"$GPRMC,165322,A,2523.4657,N,08004.2505,W,3.4,319.7,240615,6.9,"
"##MN-00 00 04 0259 01634 6124 441318 204067 196"
"175.703819"
"$GPRMC,165327,A,2523.4695,N,08004.2538,W,3.4,319.8,240615,6.9,"
"##MN-00 00 04 0260 01632 6124 441312 204066 196"
"175.703866"
"$GPRMC,165331,A,2523.4724,N,08004.2565,W,3.4,320.0,240615,6.9,"
"##MN-00 00 04 0262 01630 6123 441305 204065 196"
"175.703912"
"$GPRMC,165335,A,2523.4753,N,08004.2592,W,3.5,320.2,240615,6.9,"
"##MN-00 00 04 0264 01624 6123 441290 204062 196"
"175.703958"
"$GPRMC,165339,A,2523.4782,N,08004.2619,W,3.5,320.0,240615,6.9,"
"##MN-00 00 04 0265 01619 6123 441267 204057 196"
"175.704005"
"$GPRMC,165343,A,2523.4813,N,08004.2646,W,3.5,320.1,240615,6.9,"
"##MN-00 00 04 0267 01615 6123 441252 204053 196"
"175.704051"
"$GPRMC,165347,A,2523.4843,N,08004.2674,W,3.5,319.8,240615,6.9,"
"##MN-00 00 04 0269 01612 6123 441225 204046 196"
"175.704097"
"$GPRMC,165351,A,2523.4872,N,08004.2702,W,3.5,319.8,240615,6.9,"
"##MN-00 00 04 0270 01608 6123 441174 204031 196"
"175.704144"
"$GPRMC,165355,A,2523.4903,N,08004.2731,W,3.5,319.6,240615,6.9,"
"##MN-00 00 05 0272 01601 6123 441113 204017 196"
"175.70419"
"$GPRMC,165359,A,2523.4933,N,08004.2760,W,3.5,319.7,240615,6.9,"
"##MN-00 00 04 0273 01599 6123 441079 204011 196"
"175.704236"
"$GPRMC,165403,A,2523.4964,N,08004.2786,W,3.5,320.3,240615,6.9,"
"##MN-00 00 05 0275 01597 6123 441060 204007 196"
"175.704282"
"$GPRMC,165407,A,2523.4994,N,08004.2814,W,3.6,320.4,240615,6.9,"
"##MN-00 00 04 0277 01593 6123 441049 204005 196"
"175.704329"
"$GPRMC,165411,A,2523.5023,N,08004.2841,W,3.5,320.3,240615,6.9,"
"##MN-00 00 05 0278 01589 6122 441047 204005 196"
"175.704375"
"$GPRMC,165415,A,2523.5052,N,08004.2868,W,3.5,320.1,240615,6.9,"
"##MN-00 00 04 0280 01587 6122 441042 204002 196"
"175.704421"
"$GPRMC,165419,A,2523.5083,N,08004.2894,W,3.5,320.2,240615,6.9,"
"##MN-00 00 04 0281 01582 6122 440993 203986 196"
"175.704468"
"$GPRMC,165423,A,2523.5114,N,08004.2919,W,3.5,320.3,240615,6.9,"
"##MN-00 00 04 0283 01582 6122 440952 203982 196"
"175.704514"
"$GPRMC,165427,A,2523.5143,N,08004.2946,W,3.5,320.2,240615,6.9,"
"##MN-00 00 05 0285 01575 6122 440948 203985 196"
"175.70456"
"$GPRMC,165431,A,2523.5172,N,08004.2973,W,3.4,320.3,240615,6.9,"
"##MN-00 00 05 0286 01574 6122 440943 203984 196"
"175.704606"
"$GPRMC,165435,A,2523.5201,N,08004.3000,W,3.4,320.4,240615,6.9,"
"##MN-00 00 05 0288 01571 6122 440935 203981 196"
"175.704653"
"$GPRMC,165439,A,2523.5232,N,08004.3028,W,3.4,319.4,240615,6.9,"
"##MN-00 00 05 0289 01564 6122 440931 203982 196"
"175.704699"
"$GPRMC,165443,A,2523.5261,N,08004.3056,W,3.4,319.4,240615,6.9,"
"##MN-00 00 05 0291 01561 6122 440877 203968 196"
"175.704745"
"$GPRMC,165447,A,2523.5291,N,08004.3082,W,3.4,319.5,240615,6.9,"
"##MN-00 00 05 0292 01558 6121 440742 203945 196"
"175.704792"
"$GPRMC,165451,A,2523.5319,N,08004.3108,W,3.4,319.2,240615,6.9,"
"##MN-00 00 05 0294 01557 6122 440475 203880 196"
"175.704838"
"$GPRMC,165455,A,2523.5348,N,08004.3136,W,3.3,319.3,240615,6.9,"
"##MN-00 00 05 0295 01551 6122 440297 203852 196"
"175.704884"
"$GPRMC,165459,A,2523.5376,N,08004.3161,W,3.4,319.7,240615,6.9,"
"##MN-00 00 05 0297 01547 6121 440103 203771 196"
"175.704931"
"$GPRMC,165503,A,2523.5403,N,08004.3188,W,3.3,319.5,240615,6.9,"
"##MN-00 00 05 0299 01540 6121 439785 203722 196"
"175.704977"
"$GPRMC,165507,A,2523.5434,N,08004.3217,W,3.4,319.8,240615,6.9,"
"##MN-00 00 05 0300 01538 6121 439388 203645 196"
"175.705023"
"$GPRMC,165511,A,2523.5463,N,08004.3245,W,3.4,319.4,240615,6.9,"
"##MN-00 00 06 0301 01540 6121 438863 203512 196"
"175.705069"
"$GPRMC,165515,A,2523.5490,N,08004.3273,W,3.4,319.1,240615,6.9,"
"##MN-00 00 06 0303 01535 6121 438750 203490 196"
