" Tow: 7WM   RVWS/WS15161"
" Date: 24/06/2015"
" Temperature Probe #  4762    Conductivity Probe #  710"
" Pressure Probe #  188"
" Flow Meter Calibration  4.71 (m/count)  "
"175.78588"
"$GPRMC,185135,A,2529.4474,N,08002.0918,W,3.3,303.3,240615,6.9,"
"##MN-00 00 80 0000 02739 7595 472565 386535 199"
"175.785926"
"$GPRMC,185140,A,2529.4498,N,08002.0961,W,3.2,302.8,240615,6.9,"
"##MN-00 00 80 0000 02739 7596 154912 023675 200"
"175.785972"
"$GPRMC,185144,A,2529.4513,N,08002.0994,W,3.2,301.9,240615,6.9,"
"##MN-00 00 80 0000 02739 7597 568320 023686 200"
"175.786088"
"$GPRMC,185154,A,2529.4560,N,08002.1077,W,3.1,302.4,240615,6.9,"
"##MN-00 00 80 0000 02738 7601 625044 023678 200"
"175.786134"
"$GPRMC,185159,A,2529.4583,N,08002.1118,W,3.0,302.1,240615,6.9,"
"##MN-00 00 79 0000 02740 7603 780832 023682 200"
"175.786204"
"$GPRMC,185203,A,2529.4599,N,08002.1149,W,3.0,302.0,240615,6.9,"
"##MN-00 00 79 0000 02740 7604 639007 023689 200"
"175.78625"
"$GPRMC,185208,A,2529.4619,N,08002.1189,W,3.0,301.4,240615,6.9,"
"##MN-00 00 80 0000 02738 7606 985312 023706 199"
"175.786296"
"$GPRMC,185212,A,2529.4637,N,08002.1221,W,2.9,301.0,240615,6.9,"
"##MN-00 00 79 0000 02739 7608 559152 023703 200"
"175.786343"
"$GPRMC,185216,A,2529.4654,N,08002.1251,W,2.9,300.6,240615,6.9,"
"##MN-00 00 80 0000 02739 7609 560440 023704 199"
"175.786389"
"$GPRMC,185220,A,2529.4669,N,08002.1282,W,2.8,300.3,240615,6.9,"
"##MN-00 00 80 0000 02739 7610 780608 023723 200"
"175.786435"
"$GPRMC,185224,A,2529.4684,N,08002.1311,W,2.8,299.8,240615,6.9,"
"##MN-00 00 75 0000 02739 7612 670248 023701 200"
"175.786481"
"$GPRMC,185228,A,2529.4698,N,08002.1340,W,2.8,300.0,240615,6.9,"
"##MN-00 00 58 0000 02740 7613 331216 023680 199"
"175.786528"
"$GPRMC,185232,A,2529.4713,N,08002.1369,W,2.8,299.5,240615,6.9,"
"##MN-00 00 43 0000 02738 7615 784904 023676 199"
"175.786574"
"$GPRMC,185236,A,2529.4731,N,08002.1399,W,2.7,299.2,240615,6.9,"
"##MN-00 00 37 0000 02740 7616 984808 023676 200"
"175.78662"
"$GPRMC,185240,A,2529.4742,N,08002.1427,W,2.6,298.7,240615,6.9,"
"##MN-00 00 23 0000 02737 7618 644032 023694 200"
"175.786667"
"$GPRMC,185244,A,2529.4755,N,08002.1456,W,2.6,298.4,240615,6.9,"
"##MN-00 00 10 0000 02740 7619 591288 023679 200"
"175.786713"
"$GPRMC,185248,A,2529.4767,N,08002.1483,W,2.5,297.6,240615,6.9,"
"##MN-00 00 06 0000 02739 7620 001808 023687 200"
"175.786759"
"$GPRMC,185252,A,2529.4781,N,08002.1511,W,2.5,297.5,240615,6.9,"
"##MN-00 00 00 0000 02741 7622 711296 023685 200"
"175.786806"
"$GPRMC,185256,A,2529.4791,N,08002.1537,W,2.5,297.8,240615,6.9,"
"##MN-00 00 00 0000 02739 7623 013344 023683 200"
"175.786852"
"$GPRMC,185300,A,2529.4800,N,08002.1564,W,2.5,298.1,240615,6.9,"
"##MN-00 00 00 0000 02741 7625 707264 023664 200"
"175.786898"
"$GPRMC,185304,A,2529.4811,N,08002.1590,W,2.5,298.3,240615,6.9,"
"##MN-00 00 04 0000 02740 7626 813984 023669 200"
"175.786944"
"$GPRMC,185308,A,2529.4825,N,08002.1618,W,2.5,298.3,240615,6.9,"
"##MN-00 00 22 0000 02741 7627 027960 023674 200"
"175.786991"
"$GPRMC,185312,A,2529.4842,N,08002.1647,W,2.5,299.0,240615,6.9,"
"##MN-00 00 31 0000 02739 7629 833568 023675 199"
"175.787037"
"$GPRMC,185316,A,2529.4856,N,08002.1673,W,2.5,300.2,240615,6.9,"
"##MN-00 00 37 0000 02742 7630 293680 023662 200"
"175.787083"
"$GPRMC,185320,A,2529.4875,N,08002.1702,W,2.6,301.7,240615,6.9,"
"##MN-00 00 44 0000 02741 7632 819264 023667 200"
"175.78713"
"$GPRMC,185324,A,2529.4896,N,08002.1730,W,2.6,302.6,240615,6.9,"
"##MN-00 00 44 0000 02741 7634 402184 023680 200"
"175.787176"
"$GPRMC,185328,A,2529.4912,N,08002.1756,W,2.6,303.8,240615,6.9,"
"##MN-00 00 50 0000 02739 7635 625200 023663 200"
"175.787222"
"$GPRMC,185332,A,2529.4929,N,08002.1781,W,2.6,304.5,240615,6.9,"
"##MN-00 00 52 0000 02738 7636 414744 023669 200"
"175.787268"
"$GPRMC,185336,A,2529.4946,N,08002.1806,W,2.6,305.2,240615,6.9,"
"##MN-00 00 55 0000 02740 7638 832432 023660 200"
"175.787315"
"$GPRMC,185340,A,2529.4965,N,08002.1832,W,2.6,306.2,240615,6.9,"
"##MN-00 00 49 0000 02739 7639 627200 023675 200"
"175.787361"
"$GPRMC,185344,A,2529.4982,N,08002.1857,W,2.5,306.7,240615,6.9,"
"##MN-00 00 51 0000 02737 7640 582144 023669 200"
"175.787407"
"$GPRMC,185348,A,2529.5000,N,08002.1883,W,2.6,306.8,240615,6.9,"
"##MN-00 00 51 0000 02738 7642 918616 023685 200"
"175.787454"
"$GPRMC,185352,A,2529.5016,N,08002.1909,W,2.6,307.1,240615,6.9,"
"##MN-00 00 52 0000 02736 7644 558240 023681 200"
"175.7875"
"$GPRMC,185357,A,2529.5038,N,08002.1940,W,2.6,307.6,240615,6.9,"
"##MN-00 00 51 0000 02736 7644 792744 023654 200"
"175.787546"
"$GPRMC,185400,A,2529.5048,N,08002.1958,W,2.6,307.8,240615,6.9,"
"##MN-00 00 50 0001 02738 7646 777792 023658 199"
"175.787593"
"$GPRMC,185405,A,2529.5070,N,08002.1991,W,2.5,307.7,240615,6.9,"
"##MN-00 00 50 0001 02738 7647 658672 023667 199"
"175.787639"
"$GPRMC,185408,A,2529.5085,N,08002.2010,W,2.5,307.8,240615,6.9,"
"##MN-00 00 50 0001 02737 7648 745088 023695 200"
"175.787685"
"$GPRMC,185412,A,2529.5103,N,08002.2034,W,2.5,308.2,240615,6.9,"
"##MN-00 00 50 0002 02738 7650 501832 023648 200"
"175.787731"
"$GPRMC,185417,A,2529.5121,N,08002.2061,W,2.4,309.2,240615,6.9,"
"##MN-00 00 50 0003 02737 7651 134784 023645 200"
"175.787778"
"$GPRMC,185421,A,2529.5138,N,08002.2085,W,2.3,309.7,240615,6.9,"
"##MN-00 00 50 0004 02738 7652 390720 023668 200"
"175.787824"
"$GPRMC,185425,A,2529.5154,N,08002.2106,W,2.3,309.9,240615,6.9,"
"##MN-00 00 50 0005 02737 7652 079056 023675 200"
"175.78787"
"$GPRMC,185429,A,2529.5168,N,08002.2126,W,2.2,309.7,240615,6.9,"
"##MN-00 00 50 0005 02734 7654 462552 023681 200"
"175.787917"
"$GPRMC,185433,A,2529.5185,N,08002.2147,W,2.2,309.9,240615,6.9,"
"##MN-00 00 50 0006 02735 7655 681376 023663 199"
"175.787963"
"$GPRMC,185437,A,2529.5196,N,08002.2165,W,2.2,309.8,240615,6.9,"
"##MN-00 00 50 0007 02735 7655 441536 023674 200"
"175.788009"
"$GPRMC,185441,A,2529.5211,N,08002.2184,W,2.1,310.2,240615,6.9,"
"##MN-00 00 50 0008 02735 7656 419904 023666 199"
"175.788056"
"$GPRMC,185445,A,2529.5224,N,08002.2204,W,2.1,310.8,240615,6.9,"
"##MN-00 00 50 0009 02734 7656 753664 023685 200"
"175.788102"
"$GPRMC,185449,A,2529.5235,N,08002.2218,W,2.2,311.2,240615,6.9,"
"##MN-00 00 50 0009 02735 7657 173584 023669 199"
"175.788148"
"$GPRMC,185453,A,2529.5257,N,08002.2243,W,2.2,311.9,240615,6.9,"
"##MN-00 00 50 0010 02734 7658 434856 023680 200"
"175.788194"
"$GPRMC,185457,A,2529.5273,N,08002.2263,W,2.1,311.8,240615,6.9,"
"##MN-00 00 50 0011 02737 7658 149440 023679 199"
"175.788241"
"$GPRMC,185501,A,2529.5287,N,08002.2283,W,2.2,311.9,240615,6.9,"
"##MN-00 00 51 0011 02732 7659 369704 023691 200"
"175.788287"
"$GPRMC,185505,A,2529.5309,N,08002.2303,W,2.2,312.3,240615,6.9,"
"##MN-00 00 50 0012 02734 7659 353120 023673 199"
"175.788333"
"$GPRMC,185509,A,2529.5329,N,08002.2323,W,2.2,312.3,240615,6.9,"
"##MN-00 00 50 0012 02734 7659 576216 023673 199"
"175.78838"
"$GPRMC,185513,A,2529.5347,N,08002.2345,W,2.2,311.8,240615,6.9,"
"##MN-00 00 50 0013 02734 7659 559840 023663 200"
"175.788426"
"$GPRMC,185517,A,2529.5363,N,08002.2366,W,2.2,311.7,240615,6.9,"
"##MN-00 00 50 0014 02735 7659 436200 023662 200"
"175.788472"
"$GPRMC,185521,A,2529.5378,N,08002.2388,W,2.2,311.3,240615,6.9,"
"##MN-00 00 51 0015 02734 7659 079280 023663 199"
"175.788519"
"$GPRMC,185525,A,2529.5388,N,08002.2407,W,2.2,310.6,240615,6.9,"
"##MN-00 00 50 0016 02735 7659 522440 023669 199"
"175.788565"
"$GPRMC,185529,A,2529.5403,N,08002.2426,W,2.2,310.4,240615,6.9,"
"##MN-00 00 50 0017 02736 7659 290848 023660 199"
"175.788611"
"$GPRMC,185533,A,2529.5420,N,08002.2447,W,2.2,310.4,240615,6.9,"
"##MN-00 00 50 0017 02733 7658 508112 023659 200"
"175.788657"
"$GPRMC,185537,A,2529.5436,N,08002.2468,W,2.2,310.2,240615,6.9,"
"##MN-00 00 50 0018 02736 7658 266464 023664 200"
"175.788704"
"$GPRMC,185541,A,2529.5453,N,08002.2489,W,2.2,310.8,240615,6.9,"
"##MN-00 00 50 0019 02737 7658 369328 023661 200"
"175.78875"
"$GPRMC,185545,A,2529.5467,N,08002.2509,W,2.2,311.0,240615,6.9,"
"##MN-00 00 50 0020 02735 7657 467800 023682 200"
"175.788796"
"$GPRMC,185549,A,2529.5485,N,08002.2529,W,2.1,310.7,240615,6.9,"
"##MN-00 00 50 0021 02736 7657 000288 023657 200"
"175.788843"
"$GPRMC,185553,A,2529.5497,N,08002.2548,W,2.0,310.4,240615,6.9,"
"##MN-00 00 50 0022 02737 7656 334512 023666 199"
"175.7889"
"$GPRMC,185557,A,2529.5511,N,08002.2566,W,1.9,310.0,240615,6.9,"
"##MN-00 00 50 0022 02735 7656 896192 023667 200"
"175.788947"
"$GPRMC,185601,A,2529.5525,N,08002.2584,W,1.8,309.8,240615,6.9,"
"##MN-00 00 50 0023 02737 7655 608432 023668 200"
"175.788993"
"$GPRMC,185605,A,2529.5537,N,08002.2601,W,1.8,309.9,240615,6.9,"
"##MN-00 00 50 0024 02734 7654 413664 023693 199"
"175.789039"
"$GPRMC,185609,A,2529.5551,N,08002.2616,W,1.8,310.1,240615,6.9,"
"##MN-00 00 50 0025 02739 7653 337336 023683 199"
"175.789086"
"$GPRMC,185613,A,2529.5560,N,08002.2631,W,1.8,310.4,240615,6.9,"
"##MN-00 00 50 0026 02737 7652 398096 023673 199"
"175.789132"
"$GPRMC,185617,A,2529.5569,N,08002.2645,W,1.8,310.9,240615,6.9,"
"##MN-00 00 50 0027 02738 7651 390064 023688 199"
"175.789178"
"$GPRMC,185621,A,2529.5587,N,08002.2662,W,1.7,311.8,240615,6.9,"
"##MN-00 00 50 0028 02739 7650 965968 023683 199"
"175.789225"
"$GPRMC,185625,A,2529.5602,N,08002.2678,W,1.7,311.3,240615,6.9,"
"##MN-00 00 50 0029 02738 7649 370040 023691 200"
"175.789271"
"$GPRMC,185629,A,2529.5616,N,08002.2695,W,1.7,310.8,240615,6.9,"
"##MN-00 00 51 0029 02741 7647 127872 023693 200"
"175.789317"
"$GPRMC,185633,A,2529.5627,N,08002.2710,W,1.7,310.3,240615,6.9,"
"##MN-00 00 50 0030 02741 7646 236928 023673 199"
"175.789363"
"$GPRMC,185637,A,2529.5638,N,08002.2727,W,1.7,309.8,240615,6.9,"
"##MN-00 00 50 0031 02742 7645 339632 023687 200"
"175.78941"
"$GPRMC,185641,A,2529.5648,N,08002.2743,W,1.6,308.8,240615,6.9,"
"##MN-00 00 50 0032 02741 7643 103080 023674 199"
"175.789456"
"$GPRMC,185645,A,2529.5658,N,08002.2760,W,1.7,308.7,240615,6.9,"
"##MN-00 00 51 0033 02741 7642 320384 023669 199"
"175.789502"
"$GPRMC,185649,A,2529.5669,N,08002.2776,W,1.7,308.3,240615,6.9,"
"##MN-00 00 50 0034 02744 7641 079328 023705 199"
"175.789549"
"$GPRMC,185653,A,2529.5681,N,08002.2793,W,1.7,308.1,240615,6.9,"
"##MN-00 00 50 0035 02743 7639 377760 023687 199"
"175.789595"
"$GPRMC,185657,A,2529.5692,N,08002.2811,W,1.8,307.7,240615,6.9,"
"##MN-00 00 50 0035 02746 7637 549792 023683 200"
"175.789641"
"$GPRMC,185701,A,2529.5705,N,08002.2827,W,1.8,307.7,240615,6.9,"
"##MN-00 00 50 0036 02745 7635 517776 023685 200"
"175.789687"
"$GPRMC,185705,A,2529.5717,N,08002.2844,W,1.8,308.0,240615,6.9,"
"##MN-00 00 50 0037 02747 7634 455208 023691 199"
"175.789734"
"$GPRMC,185709,A,2529.5725,N,08002.2862,W,1.8,307.7,240615,6.9,"
"##MN-00 00 50 0038 02751 7632 264384 023676 199"
"175.78978"
"$GPRMC,185713,A,2529.5745,N,08002.2881,W,1.8,307.7,240615,6.9,"
"##MN-00 00 51 0039 02750 7630 366448 023707 199"
"175.789826"
"$GPRMC,185717,A,2529.5761,N,08002.2902,W,1.9,307.4,240615,6.9,"
"##MN-00 00 50 0040 02749 7628 830432 023722 200"
"175.789873"
"$GPRMC,185721,A,2529.5777,N,08002.2921,W,1.9,307.2,240615,6.9,"
"##MN-00 00 51 0041 02751 7626 357456 023680 199"
"175.789919"
"$GPRMC,185725,A,2529.5790,N,08002.2941,W,1.8,307.3,240615,6.9,"
"##MN-00 00 50 0041 02754 7624 818304 023684 199"
"175.789965"
"$GPRMC,185729,A,2529.5804,N,08002.2959,W,1.8,307.0,240615,6.9,"
"##MN-00 00 51 0042 02754 7622 041432 023691 199"
"175.790012"
"$GPRMC,185733,A,2529.5818,N,08002.2980,W,1.9,307.5,240615,6.9,"
"##MN-00 00 51 0043 02755 7620 032240 023687 199"
"175.790058"
"$GPRMC,185737,A,2529.5826,N,08002.2998,W,1.9,306.8,240615,6.9,"
"##MN-00 00 50 0044 02755 7618 722808 023710 199"
"175.790104"
"$GPRMC,185741,A,2529.5839,N,08002.3016,W,1.9,306.7,240615,6.9,"
"##MN-00 00 50 0045 02756 7616 598384 023714 199"
"175.79015"
"$GPRMC,185745,A,2529.5851,N,08002.3035,W,1.9,306.9,240615,6.9,"
"##MN-00 00 50 0046 02758 7613 189232 023723 199"
"175.790197"
"$GPRMC,185749,A,2529.5865,N,08002.3051,W,1.9,307.4,240615,6.9,"
"##MN-00 00 50 0047 02763 7611 998552 023699 199"
"175.790243"
"$GPRMC,185753,A,2529.5879,N,08002.3071,W,1.9,307.9,240615,6.9,"
"##MN-00 00 50 0047 02761 7609 986640 023706 199"
"175.790289"
"$GPRMC,185757,A,2529.5891,N,08002.3089,W,1.9,307.7,240615,6.9,"
"##MN-00 00 50 0048 02762 7607 451976 023702 199"
"175.790336"
"$GPRMC,185801,A,2529.5904,N,08002.3105,W,1.8,307.5,240615,6.9,"
"##MN-00 00 50 0049 02765 7604 145200 023701 199"
"175.790382"
"$GPRMC,185805,A,2529.5916,N,08002.3122,W,1.8,307.7,240615,6.9,"
"##MN-00 00 50 0050 02767 7602 659232 023735 199"
"175.790428"
"$GPRMC,185809,A,2529.5926,N,08002.3139,W,1.8,307.1,240615,6.9,"
"##MN-00 00 50 0051 02768 7599 951552 023731 199"
"175.790475"
"$GPRMC,185813,A,2529.5938,N,08002.3157,W,1.8,306.9,240615,6.9,"
"##MN-00 00 50 0052 02770 7597 832464 023729 199"
"175.790521"
"$GPRMC,185817,A,2529.5949,N,08002.3173,W,1.8,306.9,240615,6.9,"
"##MN-00 00 51 0053 02771 7594 936768 023699 199"
"175.790567"
"$GPRMC,185821,A,2529.5958,N,08002.3188,W,1.8,306.6,240615,6.9,"
"##MN-00 00 50 0054 02772 7592 928040 023719 200"
"175.790613"
"$GPRMC,185825,A,2529.5969,N,08002.3202,W,1.8,306.9,240615,6.9,"
"##MN-00 00 50 0054 02775 7589 921952 023714 199"
"175.79066"
"$GPRMC,185830,A,2529.5988,N,08002.3226,W,1.7,306.7,240615,6.9,"
"##MN-00 00 50 0055 02778 7587 611144 023736 199"
"175.790706"
"$GPRMC,185833,A,2529.5999,N,08002.3241,W,1.7,306.8,240615,6.9,"
"##MN-00 00 50 0056 02779 7584 078672 023738 199"
"175.790752"
"$GPRMC,185838,A,2529.6016,N,08002.3262,W,1.7,307.3,240615,6.9,"
"##MN-00 00 50 0057 02783 7581 369696 023753 199"
"175.790799"
"$GPRMC,185841,A,2529.6024,N,08002.3273,W,1.7,308.0,240615,6.9,"
"##MN-00 00 50 0058 02785 7579 306272 023720 199"
"175.790845"
"$GPRMC,185846,A,2529.6042,N,08002.3298,W,1.8,309.4,240615,6.9,"
"##MN-00 00 50 0058 02784 7576 565472 023738 199"
"175.790891"
"$GPRMC,185850,A,2529.6056,N,08002.3316,W,1.9,310.0,240615,6.9,"
"##MN-00 00 50 0059 02790 7573 328944 023721 199"
"175.790938"
"$GPRMC,185854,A,2529.6068,N,08002.3335,W,1.9,310.3,240615,6.9,"
"##MN-00 00 51 0060 02791 7570 162984 023750 199"
"175.790984"
"$GPRMC,185858,A,2529.6081,N,08002.3353,W,1.9,309.8,240615,6.9,"
"##MN-00 00 51 0061 02795 7567 605120 023756 199"
"175.79103"
"$GPRMC,185902,A,2529.6095,N,08002.3372,W,2.1,309.0,240615,6.9,"
"##MN-00 00 50 0062 02799 7564 431472 023750 199"
"175.791076"
"$GPRMC,185906,A,2529.6111,N,08002.3393,W,2.1,308.6,240615,6.9,"
"##MN-00 00 50 0063 02801 7562 547984 023774 199"
"175.791123"
"$GPRMC,185910,A,2529.6126,N,08002.3414,W,2.2,308.8,240615,6.9,"
"##MN-00 00 50 0064 02805 7559 833472 023751 199"
"175.791169"
"$GPRMC,185914,A,2529.6143,N,08002.3436,W,2.2,308.8,240615,6.9,"
"##MN-00 00 50 0064 02804 7556 822472 023740 199"
"175.791215"
"$GPRMC,185918,A,2529.6158,N,08002.3455,W,2.2,309.0,240615,6.9,"
"##MN-00 00 50 0065 02812 7553 230640 023751 199"
"175.791262"
"$GPRMC,185922,A,2529.6172,N,08002.3475,W,2.2,309.5,240615,6.9,"
"##MN-00 00 49 0066 02814 7550 687000 023757 199"
"175.791308"
"$GPRMC,185926,A,2529.6187,N,08002.3497,W,2.2,309.6,240615,6.9,"
"##MN+00 00 49 0067 02819 7547 783264 023758 199"
"175.791354"
"$GPRMC,185930,A,2529.6204,N,08002.3517,W,2.2,309.7,240615,6.9,"
"##MN+00 00 49 0068 02819 7544 783408 023775 199"
"175.7914"
"$GPRMC,185934,A,2529.6219,N,08002.3540,W,2.2,309.5,240615,6.9,"
"##MN+00 00 49 0069 02825 7541 202672 023771 199"
"175.791447"
"$GPRMC,185938,A,2529.6233,N,08002.3559,W,2.3,309.4,240615,6.9,"
"##MN-00 00 54 0070 02827 7538 662176 023762 199"
"175.791493"
"$GPRMC,185942,A,2529.6248,N,08002.3581,W,2.3,309.1,240615,6.9,"
"##MN-00 00 50 0071 02832 7535 187760 023768 200"
"175.791539"
"#increment_net"
"$GPRMC,185946,A,2529.6263,N,08002.3603,W,2.3,308.9,240615,6.9,"
"##MN-00 00 49 0072 02835 7532 641432 023753 199"
"175.791586"
"$GPRMC,185950,A,2529.6281,N,08002.3625,W,2.3,308.5,240615,6.9,"
"##MN-00 00 49 0073 02840 7529 750160 023772 199"
"175.791632"
"$GPRMC,185954,A,2529.6295,N,08002.3649,W,2.2,308.0,240615,6.9,"
"##MN-00 00 49 0074 02843 7526 734696 023790 199"
"175.791678"
"$GPRMC,185958,A,2529.6312,N,08002.3671,W,2.3,307.5,240615,6.9,"
"##MN-00 00 49 0075 02847 7523 727200 023790 199"
"175.791725"
"$GPRMC,190002,A,2529.6327,N,08002.3692,W,2.3,308.1,240615,6.9,"
"##MN-00 00 49 0076 02848 7519 727328 023793 199"
"175.791771"
"$GPRMC,190006,A,2529.6341,N,08002.3714,W,2.3,308.0,240615,6.9,"
"##MN-00 00 50 0077 02852 7516 147440 023776 199"
"175.791817"
"$GPRMC,190010,A,2529.6353,N,08002.3736,W,2.2,308.1,240615,6.9,"
"##MN-00 00 49 0078 02857 7513 724448 023774 199"
"175.791863"
"$GPRMC,190014,A,2529.6367,N,08002.3757,W,2.3,307.9,240615,6.9,"
"##MN-00 00 49 0079 02858 7510 946048 023780 199"
"175.79191"
"$GPRMC,190018,A,2529.6382,N,08002.3780,W,2.3,307.8,240615,6.9,"
"##MN-00 00 48 0080 02861 7506 704144 023789 199"
"175.791956"
"$GPRMC,190022,A,2529.6400,N,08002.3802,W,2.3,308.0,240615,6.9,"
"##MN-00 00 49 0081 02865 7503 699360 023786 199"
"175.792002"
"$GPRMC,190026,A,2529.6414,N,08002.3824,W,2.3,307.8,240615,6.9,"
"##MN-00 00 49 0082 02868 7500 565440 023794 199"
"175.792049"
"$GPRMC,190030,A,2529.6431,N,08002.3847,W,2.3,308.4,240615,6.9,"
"##MN-00 00 49 0083 02870 7497 671024 023776 199"
"175.792095"
"$GPRMC,190034,A,2529.6447,N,08002.3867,W,2.3,308.7,240615,6.9,"
"##MN-00 00 52 0084 02873 7494 382000 023805 199"
"175.792153"
"$GPRMC,190038,A,2529.6461,N,08002.3887,W,2.2,309.1,240615,6.9,"
"##MN-00 00 49 0085 02874 7490 436160 023797 199"
"175.792199"
"$GPRMC,190042,A,2529.6476,N,08002.3909,W,2.1,308.7,240615,6.9,"
"##MN-00 00 51 0085 02879 7487 669096 023788 199"
"175.792245"
"$GPRMC,190046,A,2529.6493,N,08002.3930,W,2.2,309.0,240615,6.9,"
"##MN-00 00 48 0086 02882 7484 658048 023790 199"
"175.792292"
"$GPRMC,190050,A,2529.6508,N,08002.3949,W,2.1,309.3,240615,6.9,"
"##MN-00 00 49 0087 02882 7480 649272 023801 199"
"175.792338"
"$GPRMC,190054,A,2529.6523,N,08002.3968,W,2.1,309.5,240615,6.9,"
"##MN-00 00 48 0088 02885 7477 641328 023803 199"
"175.792384"
"$GPRMC,190058,A,2529.6541,N,08002.3990,W,2.2,309.4,240615,6.9,"
"##MN-00 00 50 0089 02888 7473 987064 023807 199"
"175.792431"
"$GPRMC,190102,A,2529.6561,N,08002.4012,W,2.2,309.0,240615,6.9,"
"##MN-00 00 50 0090 02888 7470 734656 023810 199"
"175.792477"
"$GPRMC,190106,A,2529.6581,N,08002.4035,W,2.2,308.8,240615,6.9,"
"##MN-00 00 48 0091 02892 7467 379808 023818 199"
"175.792523"
"$GPRMC,190110,A,2529.6597,N,08002.4057,W,2.3,308.7,240615,6.9,"
"##MN-00 00 48 0092 02894 7463 614992 023821 199"
"175.792569"
"$GPRMC,190114,A,2529.6609,N,08002.4080,W,2.2,307.9,240615,6.9,"
"##MN-00 00 49 0093 02894 7460 037760 023798 199"
"175.792616"
"$GPRMC,190118,A,2529.6624,N,08002.4102,W,2.3,307.7,240615,6.9,"
"##MN-00 00 49 0094 02898 7457 604928 023801 199"
"175.792662"
"$GPRMC,190122,A,2529.6638,N,08002.4126,W,2.3,307.1,240615,6.9,"
"##MN-00 00 51 0095 02898 7453 595696 023807 199"
"175.792708"
"$GPRMC,190126,A,2529.6653,N,08002.4147,W,2.2,307.4,240615,6.9,"
"##MN-00 00 50 0096 02900 7450 420816 023822 199"
"175.792755"
"$GPRMC,190130,A,2529.6667,N,08002.4169,W,2.2,307.3,240615,6.9,"
"##MN+00 00 48 0097 02900 7446 585168 023813 199"
"175.792801"
"$GPRMC,190134,A,2529.6684,N,08002.4191,W,2.3,307.5,240615,6.9,"
"##MN+00 00 48 0098 02901 7443 571504 023831 199"
"175.792847"
"$GPRMC,190138,A,2529.6698,N,08002.4212,W,2.2,307.7,240615,6.9,"
"##MN+00 00 51 0099 02904 7440 560448 023847 199"
"175.792893"
"$GPRMC,190142,A,2529.6711,N,08002.4234,W,2.2,307.7,240615,6.9,"
"##MN-00 00 53 0100 02905 7436 440792 023852 199"
"175.79294"
"#increment_net"
"$GPRMC,190146,A,2529.6725,N,08002.4256,W,2.3,308.2,240615,6.9,"
"##MN-00 00 49 0101 02908 7432 558896 023813 199"
"175.792986"
"$GPRMC,190150,A,2529.6740,N,08002.4277,W,2.3,308.5,240615,6.9,"
"##MN-00 00 50 0102 02908 7429 677464 023814 199"
"175.793032"
"$GPRMC,190154,A,2529.6756,N,08002.4297,W,2.3,309.0,240615,6.9,"
"##MN-00 00 49 0103 02909 7426 550128 023828 199"
"175.793079"
"$GPRMC,190158,A,2529.6769,N,08002.4317,W,2.3,308.5,240615,6.9,"
"##MN-00 00 49 0104 02910 7422 658472 023837 199"
"175.793125"
"$GPRMC,190202,A,2529.6786,N,08002.4339,W,2.2,308.6,240615,6.9,"
"##MN-00 00 50 0105 02909 7419 004560 023831 199"
"175.793171"
"$GPRMC,190206,A,2529.6801,N,08002.4361,W,2.3,308.0,240615,6.9,"
"##MN-00 00 49 0106 02911 7415 407912 023842 199"
"175.793218"
"$GPRMC,190210,A,2529.6818,N,08002.4383,W,2.3,307.6,240615,6.9,"
"##MN-00 00 49 0107 02912 7412 512600 023858 199"
"175.793264"
"$GPRMC,190214,A,2529.6833,N,08002.4404,W,2.2,308.1,240615,6.9,"
"##MN-00 00 50 0108 02912 7408 977264 023842 199"
"175.79331"
"$GPRMC,190218,A,2529.6850,N,08002.4427,W,2.3,308.2,240615,6.9,"
"##MN-00 00 51 0109 02913 7405 502136 023842 199"
"175.793356"
"$GPRMC,190222,A,2529.6866,N,08002.4451,W,2.3,307.8,240615,6.9,"
"##MN-00 00 49 0110 02915 7401 502656 023834 199"
"175.793403"
"$GPRMC,190226,A,2529.6883,N,08002.4473,W,2.4,307.7,240615,6.9,"
"##MN-00 00 49 0110 02916 7398 501864 023843 199"
"175.793449"
"$GPRMC,190230,A,2529.6898,N,08002.4495,W,2.4,307.6,240615,6.9,"
"##MN-00 00 50 0111 02914 7395 729168 023839 199"
"175.793495"
"$GPRMC,190234,A,2529.6913,N,08002.4517,W,2.3,307.6,240615,6.9,"
"##MN-00 00 49 0112 02914 7391 486072 023828 199"
"175.793542"
"$GPRMC,190238,A,2529.6928,N,08002.4541,W,2.3,307.3,240615,6.9,"
"##MN-00 00 51 0113 02918 7388 036400 023848 199"
"175.793588"
"$GPRMC,190242,A,2529.6944,N,08002.4563,W,2.3,307.2,240615,6.9,"
"##MN-00 00 50 0114 02915 7384 668464 023859 199"
"175.793634"
"$GPRMC,190246,A,2529.6960,N,08002.4585,W,2.3,307.1,240615,6.9,"
"##MN-00 00 49 0115 02913 7381 228864 023850 199"
"175.793681"
"$GPRMC,190250,A,2529.6975,N,08002.4608,W,2.3,307.3,240615,6.9,"
"##MN-00 00 50 0116 02915 7377 810584 023874 199"
"175.793727"
"$GPRMC,190254,A,2529.6991,N,08002.4631,W,2.4,307.7,240615,6.9,"
"##MN-00 00 52 0117 02914 7374 926720 023877 199"
"175.793773"
"$GPRMC,190259,A,2529.7010,N,08002.4658,W,2.3,307.7,240615,6.9,"
"##MN-00 00 50 0118 02917 7370 684768 023864 199"
"175.793819"
"$GPRMC,190302,A,2529.7021,N,08002.4675,W,2.3,307.5,240615,6.9,"
"##MN-00 00 50 0119 02916 7367 685328 023825 199"
"175.793866"
"$GPRMC,190306,A,2529.7036,N,08002.4697,W,2.2,307.1,240615,6.9,"
"##MN-00 00 49 0120 02915 7363 445728 023827 199"
"175.793912"
"$GPRMC,190310,A,2529.7050,N,08002.4718,W,2.3,307.4,240615,6.9,"
"##MN-00 00 49 0121 02917 7360 672992 023865 199"
"175.793958"
"$GPRMC,190315,A,2529.7068,N,08002.4747,W,2.2,307.0,240615,6.9,"
"##MN-00 00 51 0122 02918 7356 666768 023860 199"
"175.794005"
"$GPRMC,190318,A,2529.7081,N,08002.4762,W,2.3,307.2,240615,6.9,"
"##MN-00 00 52 0123 02918 7353 658800 023854 199"
"175.794051"
"$GPRMC,190323,A,2529.7100,N,08002.4790,W,2.3,307.5,240615,6.9,"
"##MN-00 00 54 0124 02918 7350 657136 023877 199"
"175.794097"
"$GPRMC,190327,A,2529.7112,N,08002.4812,W,2.3,307.3,240615,6.9,"
"##MN-00 00 53 0125 02917 7346 651896 023870 199"
"175.794144"
"$GPRMC,190331,A,2529.7126,N,08002.4832,W,2.2,307.1,240615,6.9,"
"##MN-00 00 50 0126 02916 7342 066480 023895 199"
"175.79419"
"$GPRMC,190335,A,2529.7144,N,08002.4852,W,2.2,307.7,240615,6.9,"
"##MN-00 00 50 0127 02918 7339 512520 023900 199"
"175.794236"
"$GPRMC,190339,A,2529.7162,N,08002.4874,W,2.2,308.6,240615,6.9,"
"##MN+00 00 49 0128 02919 7335 866592 023894 199"
"175.794282"
"$GPRMC,190343,A,2529.7176,N,08002.4892,W,2.2,309.2,240615,6.9,"
"##MN+00 00 50 0129 02918 7332 508688 023846 199"
"175.794329"
"$GPRMC,190347,A,2529.7193,N,08002.4915,W,2.1,308.7,240615,6.9,"
"##MN+00 00 50 0130 02918 7328 630840 023862 199"
"175.794375"
"$GPRMC,190351,A,2529.7209,N,08002.4936,W,2.2,308.6,240615,6.9,"
"##MN-00 00 54 0131 02921 7325 051872 023868 199"
"175.794421"
"#increment_net"
"$GPRMC,190355,A,2529.7223,N,08002.4957,W,2.1,308.1,240615,6.9,"
"##MN-00 00 51 0132 02919 7321 855088 023887 199"
"175.794468"
"$GPRMC,190359,A,2529.7238,N,08002.4978,W,2.1,308.4,240615,6.9,"
"##MN-00 00 52 0133 02917 7318 996224 023880 199"
"175.794514"
"$GPRMC,190403,A,2529.7255,N,08002.5000,W,2.2,308.2,240615,6.9,"
"##MN-00 00 51 0134 02919 7315 557608 023884 199"
"175.79456"
"$GPRMC,190407,A,2529.7271,N,08002.5022,W,2.2,308.3,240615,6.9,"
"##MN-00 00 51 0135 02920 7311 912280 023880 199"
"175.794606"
"$GPRMC,190411,A,2529.7285,N,08002.5043,W,2.3,308.0,240615,6.9,"
"##MN-00 00 53 0136 02920 7308 356944 023901 199"
"175.794653"
"$GPRMC,190415,A,2529.7303,N,08002.5063,W,2.2,308.0,240615,6.9,"
"##MN-00 00 52 0137 02923 7305 416616 023898 199"
"175.794699"
"$GPRMC,190419,A,2529.7320,N,08002.5087,W,2.3,308.0,240615,6.9,"
"##MN-00 00 52 0138 02919 7301 002320 023918 199"
"175.794745"
"$GPRMC,190423,A,2529.7335,N,08002.5109,W,2.3,307.6,240615,6.9,"
"##MN-00 00 52 0139 02921 7297 413280 023884 199"
"175.794792"
"$GPRMC,190427,A,2529.7352,N,08002.5133,W,2.3,307.6,240615,6.9,"
"##MN-00 00 52 0140 02921 7294 488144 023867 199"
"175.794838"
"$GPRMC,190431,A,2529.7365,N,08002.5159,W,2.3,306.9,240615,6.9,"
"##MN-00 00 51 0141 02921 7291 809744 023877 199"
"175.794884"
"$GPRMC,190435,A,2529.7379,N,08002.5186,W,2.3,306.8,240615,6.9,"
"##MN-00 00 51 0142 02920 7287 452256 023879 199"
"175.794931"
"$GPRMC,190439,A,2529.7393,N,08002.5210,W,2.3,306.7,240615,6.9,"
"##MN-00 00 51 0143 02920 7284 186224 023893 199"
"175.794977"
"$GPRMC,190443,A,2529.7410,N,08002.5233,W,2.3,306.8,240615,6.9,"
"##MN-00 00 54 0144 02921 7280 655920 023904 199"
"175.795023"
"$GPRMC,190447,A,2529.7422,N,08002.5257,W,2.4,306.9,240615,6.9,"
"##MN-00 00 53 0145 02920 7277 550008 023901 199"
"175.795069"
"$GPRMC,190451,A,2529.7440,N,08002.5278,W,2.4,306.8,240615,6.9,"
"##MN-00 00 52 0146 02923 7274 214960 023909 199"
"175.795116"
"$GPRMC,190455,A,2529.7455,N,08002.5298,W,2.3,306.9,240615,6.9,"
"##MN-00 00 53 0147 02921 7270 541688 023901 199"
"175.795162"
"$GPRMC,190459,A,2529.7471,N,08002.5323,W,2.3,306.9,240615,6.9,"
"##MN-00 00 52 0148 02921 7266 534112 023905 199"
"175.795208"
"$GPRMC,190503,A,2529.7484,N,08002.5345,W,2.3,306.6,240615,6.9,"
"##MN-00 00 53 0149 02922 7263 646856 023907 199"
"175.795255"
"$GPRMC,190507,A,2529.7497,N,08002.5368,W,2.1,306.5,240615,6.9,"
"##MN-00 00 54 0150 02922 7260 755984 023916 199"
"175.795301"
"$GPRMC,190511,A,2529.7513,N,08002.5387,W,2.1,306.2,240615,6.9,"
"##MN-00 00 54 0151 02920 7256 638088 023881 199"
"175.795347"
"$GPRMC,190515,A,2529.7527,N,08002.5408,W,2.2,306.2,240615,6.9,"
"##MN-00 00 51 0152 02922 7253 295128 023884 199"
"175.795405"
"$GPRMC,190519,A,2529.7541,N,08002.5426,W,2.1,306.5,240615,6.9,"
"##MN-00 00 52 0153 02924 7249 242320 023900 199"
"175.795451"
"$GPRMC,190523,A,2529.7546,N,08002.5445,W,2.1,307.0,240615,6.9,"
"##MN-00 00 52 0153 02924 7246 585288 023892 199"
"175.795498"
"$GPRMC,190527,A,2529.7559,N,08002.5466,W,2.1,307.0,240615,6.9,"
"##MN-00 00 52 0154 02922 7242 507936 023895 199"
"175.795544"
"$GPRMC,190531,A,2529.7574,N,08002.5488,W,2.1,306.9,240615,6.9,"
"##MN-00 00 52 0155 02922 7239 616640 023906 199"
"175.79559"
"$GPRMC,190535,A,2529.7592,N,08002.5510,W,2.1,306.2,240615,6.9,"
"##MN-00 00 52 0156 02923 7236 689200 023911 199"
"175.795637"
"$GPRMC,190539,A,2529.7610,N,08002.5531,W,2.1,306.7,240615,6.9,"
"##MN-00 00 53 0157 02924 7233 162336 023907 199"
"175.795683"
"$GPRMC,190543,A,2529.7627,N,08002.5553,W,2.1,306.6,240615,6.9,"
"##MN-00 00 52 0158 02923 7229 561968 023915 199"
"175.795729"
"$GPRMC,190547,A,2529.7642,N,08002.5574,W,2.1,306.1,240615,6.9,"
"##MN-00 00 53 0159 02922 7226 472544 023904 199"
"175.795775"
"$GPRMC,190551,A,2529.7656,N,08002.5596,W,2.1,306.5,240615,6.9,"
"##MN+00 00 52 0160 02924 7222 465936 023933 199"
"175.795822"
"$GPRMC,190555,A,2529.7670,N,08002.5618,W,2.2,306.3,240615,6.9,"
"##MN+00 00 51 0161 02925 7219 226880 023900 199"
"175.795868"
"$GPRMC,190559,A,2529.7681,N,08002.5639,W,2.3,306.6,240615,6.9,"
"##MN+00 00 52 0162 02924 7216 463816 023887 199"
"175.795914"
"$GPRMC,190603,A,2529.7700,N,08002.5661,W,2.2,307.3,240615,6.9,"
"##MN-00 00 55 0163 02925 7212 299448 023868 199"
"175.795961"
"#increment_net"
"$GPRMC,190607,A,2529.7714,N,08002.5683,W,2.3,307.3,240615,6.9,"
"##MN-00 00 51 0164 02923 7209 222608 023895 199"
"175.796007"
"$GPRMC,190611,A,2529.7735,N,08002.5709,W,2.4,308.0,240615,6.9,"
"##MN-00 00 52 0165 02923 7206 410424 023899 199"
"175.796053"
"$GPRMC,190615,A,2529.7751,N,08002.5733,W,2.3,308.0,240615,6.9,"
"##MN-00 00 50 0166 02925 7203 695680 023913 199"
"175.7961"
"$GPRMC,190619,A,2529.7764,N,08002.5758,W,2.3,308.0,240615,6.9,"
"##MN-00 00 50 0167 02924 7199 243944 023905 199"
"175.796146"
"$GPRMC,190623,A,2529.7776,N,08002.5782,W,2.2,307.7,240615,6.9,"
"##MN-00 00 50 0168 02924 7196 235024 023918 199"
"175.796192"
"$GPRMC,190627,A,2529.7790,N,08002.5803,W,2.3,307.2,240615,6.9,"
"##MN-00 00 50 0169 02925 7192 678816 023921 199"
"175.796238"
"$GPRMC,190631,A,2529.7809,N,08002.5828,W,2.3,307.0,240615,6.9,"
"##MN-00 00 51 0170 02927 7189 490368 023910 199"
"175.796285"
"$GPRMC,190635,A,2529.7829,N,08002.5853,W,2.4,307.0,240615,6.9,"
"##MN-00 00 51 0171 02924 7186 412448 023921 199"
"175.796331"
"$GPRMC,190639,A,2529.7838,N,08002.5874,W,2.4,306.8,240615,6.9,"
"##MN-00 00 52 0172 02923 7182 250720 023923 199"
"175.796377"
"$GPRMC,190643,A,2529.7859,N,08002.5899,W,2.3,306.6,240615,6.9,"
"##MN-00 00 50 0173 02923 7179 514872 023943 199"
"175.796424"
"$GPRMC,190647,A,2529.7877,N,08002.5922,W,2.2,306.4,240615,6.9,"
"##MN-00 00 52 0174 02924 7176 356160 023913 199"
"175.79647"
"$GPRMC,190651,A,2529.7892,N,08002.5944,W,2.2,306.7,240615,6.9,"
"##MN-00 00 51 0175 02924 7173 408400 023915 199"
"175.796516"
"$GPRMC,190655,A,2529.7909,N,08002.5966,W,2.2,306.8,240615,6.9,"
"##MN-00 00 51 0176 02924 7169 890336 023903 199"
"175.796563"
"$GPRMC,190659,A,2529.7924,N,08002.5987,W,2.2,306.4,240615,6.9,"
"##MN-00 00 52 0177 02923 7166 644528 023903 199"
"175.796609"
"$GPRMC,190703,A,2529.7939,N,08002.6008,W,2.2,306.4,240615,6.9,"
"##MN-00 00 50 0178 02925 7163 882416 023901 199"
"175.796655"
"$GPRMC,190707,A,2529.7956,N,08002.6029,W,2.1,306.4,240615,6.9,"
"##MN-00 00 52 0179 02926 7160 393016 023889 199"
"175.796701"
"$GPRMC,190711,A,2529.7968,N,08002.6048,W,2.1,306.4,240615,6.9,"
"##MN-00 00 53 0180 02925 7156 311376 023895 199"
"175.796748"
"$GPRMC,190715,A,2529.7979,N,08002.6069,W,2.1,306.1,240615,6.9,"
"##MN-00 00 51 0181 02925 7153 509128 023901 199"
"175.796794"
"$GPRMC,190719,A,2529.7992,N,08002.6087,W,2.1,306.2,240615,6.9,"
"##MN-00 00 51 0182 02923 7150 017408 023856 199"
"175.79684"
"$GPRMC,190723,A,2529.8008,N,08002.6109,W,2.0,306.6,240615,6.9,"
"##MN-00 00 51 0183 02925 7147 494784 023834 199"
"175.796887"
"$GPRMC,190727,A,2529.8022,N,08002.6132,W,2.1,306.4,240615,6.9,"
"##MN-00 00 51 0184 02924 7143 750984 023808 199"
"175.796933"
"$GPRMC,190732,A,2529.8043,N,08002.6160,W,2.1,306.5,240615,6.9,"
"##MN-00 00 52 0185 02924 7141 351456 023777 199"
"175.796979"
"$GPRMC,190736,A,2529.8058,N,08002.6181,W,2.1,306.4,240615,6.9,"
"##MN-00 00 50 0186 02924 7137 394744 023811 199"
"175.797025"
"$GPRMC,190739,A,2529.8069,N,08002.6199,W,2.2,306.0,240615,6.9,"
"##MN-00 00 51 0187 02924 7134 603232 023796 199"
"175.797072"
"$GPRMC,190743,A,2529.8083,N,08002.6223,W,2.2,306.3,240615,6.9,"
"##MN-00 00 52 0188 02924 7131 202560 023752 199"
"175.797118"
"$GPRMC,190747,A,2529.8097,N,08002.6246,W,2.3,306.1,240615,6.9,"
"##MN-00 00 52 0189 02923 7127 635848 023755 199"
"175.797164"
"$GPRMC,190751,A,2529.8112,N,08002.6265,W,2.3,306.5,240615,6.9,"
"##MN-00 00 52 0189 02925 7124 686896 023750 199"
"175.797211"
"$GPRMC,190755,A,2529.8127,N,08002.6287,W,2.3,306.5,240615,6.9,"
"##MN-00 00 52 0190 02925 7121 788408 023755 199"
"175.797257"
"$GPRMC,190800,A,2529.8147,N,08002.6313,W,2.3,306.7,240615,6.9,"
"##MN-00 00 51 0191 02924 7118 804328 023761 199"
"175.797303"
"$GPRMC,190804,A,2529.8162,N,08002.6335,W,2.3,307.0,240615,6.9,"
"##MN-00 00 52 0192 02925 7115 641584 023749 199"
"175.79735"
"$GPRMC,190808,A,2529.8177,N,08002.6358,W,2.3,306.7,240615,6.9,"
"##MN-00 00 52 0193 02923 7112 875336 023757 199"
"175.797396"
"$GPRMC,190812,A,2529.8192,N,08002.6380,W,2.3,306.5,240615,6.9,"
"##MN-00 00 52 0194 02925 7108 364240 023756 199"
"175.797442"
"$GPRMC,190816,A,2529.8206,N,08002.6403,W,2.3,306.1,240615,6.9,"
"##MN-00 00 51 0195 02926 7105 013264 023757 199"
"175.797488"
"$GPRMC,190820,A,2529.8221,N,08002.6424,W,2.3,306.4,240615,6.9,"
"##MN-00 00 53 0196 02923 7102 436872 023746 199"
"175.797535"
"$GPRMC,190824,A,2529.8235,N,08002.6446,W,2.2,306.6,240615,6.9,"
"##MN-00 00 51 0197 02924 7099 843856 023754 199"
"175.797581"
"$GPRMC,190828,A,2529.8250,N,08002.6468,W,2.2,306.9,240615,6.9,"
"##MN-00 00 52 0198 02923 7096 002384 023747 199"
"175.797627"
"$GPRMC,190832,A,2529.8263,N,08002.6490,W,2.3,307.2,240615,6.9,"
"##MN-00 00 53 0199 02924 7093 801320 023770 199"
"175.797674"
"$GPRMC,190836,A,2529.8278,N,08002.6512,W,2.3,307.0,240615,6.9,"
"##MN-00 00 50 0200 02923 7090 461384 023765 199"
"175.79772"
"$GPRMC,190840,A,2529.8295,N,08002.6533,W,2.3,307.3,240615,6.9,"
"##MN-00 00 52 0201 02924 7087 991264 023767 199"
"175.797766"
"$GPRMC,190844,A,2529.8311,N,08002.6555,W,2.2,307.7,240615,6.9,"
"##MN-00 00 50 0202 02923 7083 408424 023737 199"
"175.797812"
"$GPRMC,190848,A,2529.8328,N,08002.6575,W,2.2,307.7,240615,6.9,"
"##MN-00 00 51 0203 02924 7081 341936 023740 199"
"175.797859"
"$GPRMC,190852,A,2529.8344,N,08002.6595,W,2.2,308.2,240615,6.9,"
"##MN-00 00 54 0204 02924 7077 177984 023743 199"
"175.797905"
"$GPRMC,190856,A,2529.8357,N,08002.6616,W,2.2,307.4,240615,6.9,"
"##MN-00 00 52 0205 02920 7074 807464 023750 199"
"175.797951"
"$GPRMC,190900,A,2529.8373,N,08002.6637,W,2.2,307.0,240615,6.9,"
"##MN-00 00 50 0206 02924 7071 437888 023749 199"
"175.797998"
"$GPRMC,190904,A,2529.8386,N,08002.6660,W,2.2,306.9,240615,6.9,"
"##MN-00 00 52 0207 02923 7068 642528 023753 199"
"175.798044"
"$GPRMC,190908,A,2529.8402,N,08002.6680,W,2.1,306.5,240615,6.9,"
"##MN-00 00 52 0208 02925 7065 153152 023758 199"
"175.79809"
"$GPRMC,190912,A,2529.8416,N,08002.6702,W,2.2,306.4,240615,6.9,"
"##MN-00 00 52 0209 02923 7062 024512 023775 199"
"175.798137"
"$GPRMC,190916,A,2529.8430,N,08002.6724,W,2.2,306.6,240615,6.9,"
"##MN-00 00 51 0210 02924 7059 386152 023759 199"
"175.798183"
"$GPRMC,190920,A,2529.8452,N,08002.6748,W,2.2,306.9,240615,6.9,"
"##MN-00 00 52 0211 02925 7056 022864 023765 199"
"175.798229"
"$GPRMC,190924,A,2529.8469,N,08002.6770,W,2.2,306.8,240615,6.9,"
"##MN-00 00 53 0212 02922 7053 660336 023751 199"
"175.798275"
"$GPRMC,190928,A,2529.8481,N,08002.6792,W,2.2,307.1,240615,6.9,"
"##MN-00 00 51 0213 02924 7050 254528 023759 199"
"175.798322"
"$GPRMC,190932,A,2529.8492,N,08002.6813,W,2.2,307.1,240615,6.9,"
"##MN-00 00 54 0214 02924 7047 647448 023780 199"
"175.798368"
"$GPRMC,190936,A,2529.8506,N,08002.6832,W,2.2,307.6,240615,6.9,"
"##MN-00 00 51 0215 02924 7044 044896 023777 199"
"175.798414"
"$GPRMC,190940,A,2529.8523,N,08002.6853,W,2.2,307.5,240615,6.9,"
"##MN-00 00 53 0216 02923 7041 687528 023777 199"
"175.798461"
"$GPRMC,190944,A,2529.8539,N,08002.6873,W,2.2,307.8,240615,6.9,"
"##MN-00 00 53 0217 02924 7038 147168 023747 199"
"175.798507"
"$GPRMC,190948,A,2529.8556,N,08002.6894,W,2.2,307.8,240615,6.9,"
"##MN-00 00 51 0218 02924 7035 638736 023760 199"
"175.798553"
"$GPRMC,190952,A,2529.8568,N,08002.6916,W,2.2,307.4,240615,6.9,"
"##MN-00 00 52 0219 02924 7032 632096 023754 199"
"175.7986"
"$GPRMC,190956,A,2529.8585,N,08002.6937,W,2.2,307.2,240615,6.9,"
"##MN-00 00 52 0220 02922 7029 792192 023748 199"
"175.798657"
"$GPRMC,191000,A,2529.8602,N,08002.6960,W,2.3,306.8,240615,6.9,"
"##MN-00 00 51 0221 02924 7026 028240 023752 199"
"175.798704"
"$GPRMC,191004,A,2529.8615,N,08002.6983,W,2.3,306.1,240615,6.9,"
"##MN-00 00 52 0222 02924 7023 025664 023761 199"
"175.79875"
"$GPRMC,191008,A,2529.8628,N,08002.7008,W,2.3,305.9,240615,6.9,"
"##MN-00 00 52 0223 02923 7020 738272 023754 199"
"175.798796"
"$GPRMC,191012,A,2529.8640,N,08002.7032,W,2.4,305.8,240615,6.9,"
"##MN+00 00 52 0224 02922 7017 214048 023757 199"
"175.798843"
"$GPRMC,191016,A,2529.8651,N,08002.7050,W,2.4,305.7,240615,6.9,"
"##MN+00 00 52 0225 02925 7014 013760 023756 199"
"175.798889"
"$GPRMC,191020,A,2529.8667,N,08002.7077,W,2.4,305.5,240615,6.9,"
"##MN+00 00 54 0226 02923 7012 008848 023756 199"
"175.798935"
"$GPRMC,191024,A,2529.8680,N,08002.7100,W,2.3,305.8,240615,6.9,"
"##MN-00 00 55 0227 02923 7008 885584 023747 199"
"175.798982"
"#increment_net"
"$GPRMC,191028,A,2529.8694,N,08002.7124,W,2.3,305.6,240615,6.9,"
"##MN-00 00 52 0228 02922 7006 438672 023750 199"
"175.799028"
"$GPRMC,191032,A,2529.8711,N,08002.7146,W,2.3,306.0,240615,6.9,"
"##MN-00 00 52 0229 02921 7003 875408 023778 199"
"175.799074"
"$GPRMC,191036,A,2529.8726,N,08002.7167,W,2.3,306.2,240615,6.9,"
"##MN-00 00 51 0230 02921 7000 587648 023780 199"
"175.79912"
"$GPRMC,191040,A,2529.8741,N,08002.7189,W,2.3,306.1,240615,6.9,"
"##MN-00 00 52 0231 02921 6997 988624 023761 199"
"175.799167"
"$GPRMC,191044,A,2529.8755,N,08002.7211,W,2.2,306.2,240615,6.9,"
"##MN-00 00 53 0232 02920 6994 989584 023774 199"
"175.799213"
"$GPRMC,191048,A,2529.8770,N,08002.7233,W,2.1,306.2,240615,6.9,"
"##MN-00 00 51 0233 02922 6992 985184 023745 199"
"175.799259"
"$GPRMC,191052,A,2529.8787,N,08002.7254,W,2.1,306.6,240615,6.9,"
"##MN-00 00 52 0234 02924 6988 981168 023753 199"
"175.799306"
"$GPRMC,191056,A,2529.8801,N,08002.7276,W,2.1,306.5,240615,6.9,"
"##MN-00 00 53 0235 02922 6986 977248 023761 199"
"175.799352"
"$GPRMC,191100,A,2529.8815,N,08002.7295,W,2.1,306.5,240615,6.9,"
"##MN-00 00 54 0236 02923 6983 971936 023753 199"
"175.799398"
"$GPRMC,191104,A,2529.8826,N,08002.7317,W,2.1,306.7,240615,6.9,"
"##MN-00 00 53 0237 02919 6980 967504 023768 199"
"175.799444"
"$GPRMC,191108,A,2529.8838,N,08002.7337,W,2.1,306.5,240615,6.9,"
"##MN-00 00 50 0238 02921 6977 686424 023749 199"
"175.799491"
"$GPRMC,191112,A,2529.8849,N,08002.7355,W,2.1,306.4,240615,6.9,"
"##MN-00 00 54 0239 02921 6974 961360 023760 199"
"175.799537"
"$GPRMC,191116,A,2529.8864,N,08002.7377,W,2.2,306.9,240615,6.9,"
"##MN-00 00 53 0240 02922 6971 960992 023758 199"
"175.799583"
"$GPRMC,191120,A,2529.8882,N,08002.7399,W,2.2,306.9,240615,6.9,"
"##MN-00 00 52 0241 02921 6969 952552 023761 199"
"175.79963"
"$GPRMC,191124,A,2529.8898,N,08002.7422,W,2.2,306.5,240615,6.9,"
"##MN-00 00 52 0242 02920 6966 950784 023772 199"
"175.799676"
"$GPRMC,191128,A,2529.8914,N,08002.7446,W,2.3,306.6,240615,6.9,"
"##MN-00 00 52 0243 02923 6963 948160 023765 199"
"175.799722"
"$GPRMC,191132,A,2529.8928,N,08002.7468,W,2.3,306.8,240615,6.9,"
"##MN-00 00 51 0244 02923 6961 943776 023772 199"
"175.799769"
"$GPRMC,191136,A,2529.8942,N,08002.7493,W,2.4,306.6,240615,6.9,"
"##MN-00 00 53 0245 02922 6958 933944 023804 199"
"175.799815"
"$GPRMC,191140,A,2529.8960,N,08002.7514,W,2.4,306.8,240615,6.9,"
"##MN-00 00 53 0246 02923 6955 643504 023788 199"
"175.799861"
"$GPRMC,191144,A,2529.8972,N,08002.7540,W,2.3,306.8,240615,6.9,"
"##MN-00 00 52 0247 02920 6952 556816 023785 199"
"175.799907"
"$GPRMC,191148,A,2529.8990,N,08002.7561,W,2.3,306.7,240615,6.9,"
"##MN-00 00 53 0248 02922 6949 370928 023764 199"
"175.799954"
"$GPRMC,191152,A,2529.9008,N,08002.7581,W,2.3,306.4,240615,6.9,"
"##MN-00 00 52 0249 02922 6946 931944 023775 199"
"175.80"
"$GPRMC,191156,A,2529.9023,N,08002.7603,W,2.3,306.3,240615,6.9,"
"##MN-00 00 52 0250 02920 6944 929760 023761 199"
"175.800046"
"$GPRMC,191200,A,2529.9041,N,08002.7626,W,2.3,306.6,240615,6.9,"
"##MN-00 00 52 0251 02921 6941 924520 023771 199"
"175.800093"
"$GPRMC,191204,A,2529.9055,N,08002.7650,W,2.3,306.7,240615,6.9,"
"##MN-00 00 53 0252 02923 6938 919184 023759 199"
"175.800139"
"$GPRMC,191208,A,2529.9069,N,08002.7674,W,2.3,307.0,240615,6.9,"
"##MN-00 00 52 0253 02923 6936 395784 023774 199"
"175.800185"
"$GPRMC,191212,A,2529.9084,N,08002.7699,W,2.3,306.5,240615,6.9,"
"##MN-00 00 53 0254 02923 6933 912560 023781 199"
"175.800231"
"$GPRMC,191216,A,2529.9098,N,08002.7720,W,2.3,306.8,240615,6.9,"
"##MN-00 00 51 0255 02922 6931 907696 023782 199"
"175.800278"
"$GPRMC,191220,A,2529.9113,N,08002.7742,W,2.2,306.7,240615,6.9,"
"##MN-00 00 52 0256 02922 6928 623448 023784 199"
"175.800324"
"$GPRMC,191224,A,2529.9128,N,08002.7764,W,2.3,307.0,240615,6.9,"
"##MN-00 00 52 0257 02922 6925 903248 023781 199"
"175.80037"
"$GPRMC,191228,A,2529.9142,N,08002.7785,W,2.2,307.2,240615,6.9,"
"##MN-00 00 51 0258 02920 6922 896176 023785 199"
"175.800417"
"$GPRMC,191232,A,2529.9155,N,08002.7804,W,2.0,306.9,240615,6.9,"
"##MN-00 00 52 0259 02921 6919 894464 023788 199"
"175.800463"
"$GPRMC,191236,A,2529.9170,N,08002.7825,W,1.9,307.0,240615,6.9,"
"##MN-00 00 52 0260 02922 6917 889600 023789 199"
"175.800509"
"$GPRMC,191241,A,2529.9185,N,08002.7852,W,2.0,307.3,240615,6.9,"
"##MN-00 00 54 0260 02919 6914 881168 023826 199"
"175.800556"
"$GPRMC,191245,A,2529.9198,N,08002.7872,W,2.0,307.5,240615,6.9,"
"##MN+00 00 52 0261 02921 6912 875856 023825 199"
"175.800602"
"$GPRMC,191249,A,2529.9211,N,08002.7892,W,2.1,307.8,240615,6.9,"
"##MN+00 00 52 0262 02922 6909 875040 023825 199"
"175.800648"
"$GPRMC,191252,A,2529.9221,N,08002.7908,W,2.1,308.3,240615,6.9,"
"##MN+00 00 51 0263 02921 6906 876368 023818 199"
"175.800694"
"$GPRMC,191257,A,2529.9240,N,08002.7934,W,2.1,307.9,240615,6.9,"
"##MN-00 00 54 0264 02922 6903 876016 023817 199"
"175.800741"
"#increment_net"
"$GPRMC,191301,A,2529.9258,N,08002.7952,W,2.1,307.5,240615,6.9,"
"##MN-00 00 52 0265 02923 6901 875168 023812 199"
"175.800787"
"$GPRMC,191305,A,2529.9276,N,08002.7973,W,2.1,307.3,240615,6.9,"
"##MN-00 00 50 0266 02922 6898 876096 023811 199"
"175.800833"
"$GPRMC,191309,A,2529.9292,N,08002.7993,W,2.1,306.5,240615,6.9,"
"##MN-00 00 52 0267 02922 6896 630320 023786 199"
"175.80088"
"$GPRMC,191313,A,2529.9305,N,08002.8017,W,2.2,306.1,240615,6.9,"
"##MN-00 00 50 0268 02922 6893 585208 023804 199"
"175.800926"
"$GPRMC,191317,A,2529.9319,N,08002.8038,W,2.2,305.9,240615,6.9,"
"##MN-00 00 51 0269 02923 6890 621504 023804 199"
"175.800972"
"$GPRMC,191321,A,2529.9333,N,08002.8061,W,2.2,306.0,240615,6.9,"
"##MN-00 00 50 0270 02922 6888 857576 023793 199"
"175.801019"
"$GPRMC,191325,A,2529.9351,N,08002.8083,W,2.3,306.5,240615,6.9,"
"##MN-00 00 50 0271 02921 6885 855840 023807 199"
"175.801065"
"$GPRMC,191329,A,2529.9365,N,08002.8107,W,2.2,306.5,240615,6.9,"
"##MN-00 00 52 0272 02921 6883 850960 023804 199"
"175.801111"
"$GPRMC,191333,A,2529.9377,N,08002.8125,W,2.3,306.4,240615,6.9,"
"##MN-00 00 50 0273 02922 6880 288240 023802 199"
"175.801157"
"$GPRMC,191337,A,2529.9395,N,08002.8150,W,2.2,306.2,240615,6.9,"
"##MN-00 00 52 0274 02922 6878 847944 023808 199"
"175.801204"
"$GPRMC,191341,A,2529.9409,N,08002.8173,W,2.3,306.7,240615,6.9,"
"##MN-00 00 52 0275 02922 6875 841272 023816 199"
"175.80125"
"$GPRMC,191345,A,2529.9423,N,08002.8197,W,2.3,307.1,240615,6.9,"
"##MN-00 00 52 0276 02920 6872 838224 023824 199"
"175.801296"
"$GPRMC,191349,A,2529.9441,N,08002.8217,W,2.3,307.6,240615,6.9,"
"##MN-00 00 51 0277 02922 6870 832024 023830 199"
"175.801343"
"$GPRMC,191353,A,2529.9455,N,08002.8240,W,2.2,307.7,240615,6.9,"
"##MN-00 00 53 0278 02919 6867 819552 023860 199"
"175.801389"
"$GPRMC,191357,A,2529.9471,N,08002.8259,W,2.2,308.1,240615,6.9,"
"##MN-00 00 51 0279 02920 6865 699808 023869 199"
"175.801435"
"$GPRMC,191401,A,2529.9485,N,08002.8280,W,2.2,307.8,240615,6.9,"
"##MN-00 00 52 0280 02919 6862 819664 023857 199"
"175.801481"
"$GPRMC,191405,A,2529.9502,N,08002.8302,W,2.1,307.3,240615,6.9,"
"##MN-00 00 50 0281 02922 6859 819720 023852 199"
"175.801528"
"$GPRMC,191409,A,2529.9518,N,08002.8324,W,2.2,306.8,240615,6.9,"
"##MN-00 00 52 0282 02921 6857 819696 023836 199"
"175.801574"
"$GPRMC,191413,A,2529.9535,N,08002.8343,W,2.2,306.6,240615,6.9,"
"##MN-00 00 53 0283 02922 6855 819744 023842 199"
"175.80162"
"$GPRMC,191417,A,2529.9550,N,08002.8364,W,2.2,306.8,240615,6.9,"
"##MN-00 00 50 0284 02923 6852 819792 023839 199"
"175.801667"
"$GPRMC,191421,A,2529.9564,N,08002.8389,W,2.2,307.0,240615,6.9,"
"##MN-00 00 50 0285 02920 6850 819400 023820 199"
"175.801713"
"$GPRMC,191425,A,2529.9576,N,08002.8412,W,2.2,306.9,240615,6.9,"
"##MN-00 00 52 0286 02922 6847 570824 023822 199"
"175.801759"
"$GPRMC,191429,A,2529.9590,N,08002.8434,W,2.2,306.8,240615,6.9,"
"##MN-00 00 52 0287 02922 6845 496496 023823 199"
"175.801806"
"$GPRMC,191433,A,2529.9604,N,08002.8457,W,2.2,306.7,240615,6.9,"
"##MN-00 00 50 0288 02920 6842 406056 023831 199"
"175.801852"
"$GPRMC,191437,A,2529.9618,N,08002.8479,W,2.2,306.3,240615,6.9,"
"##MN-00 00 50 0289 02923 6840 801248 023829 199"
"175.80191"
"$GPRMC,191441,A,2529.9637,N,08002.8499,W,2.2,306.5,240615,6.9,"
"##MN-00 00 51 0290 02920 6837 399440 023837 199"
"175.801956"
"$GPRMC,191445,A,2529.9652,N,08002.8520,W,2.1,306.5,240615,6.9,"
"##MN-00 00 51 0291 02919 6835 795040 023846 199"
"175.802002"
"$GPRMC,191449,A,2529.9664,N,08002.8541,W,2.1,306.7,240615,6.9,"
"##MN-00 00 52 0292 02920 6832 791576 023844 199"
"175.802049"
"$GPRMC,191453,A,2529.9677,N,08002.8562,W,2.1,306.7,240615,6.9,"
"##MN+00 00 52 0293 02920 6830 232832 023837 199"
"175.802095"
"$GPRMC,191457,A,2529.9698,N,08002.8584,W,2.1,307.2,240615,6.9,"
"##MN+00 00 51 0294 02921 6827 388448 023841 199"
"175.802141"
"$GPRMC,191501,A,2529.9713,N,08002.8602,W,2.2,307.0,240615,6.9,"
"##MN+00 00 52 0295 02922 6825 507776 023839 199"
"175.802188"
"#increment_net"
"$GPRMC,191505,A,2529.9731,N,08002.8624,W,2.1,307.1,240615,6.9,"
"##MN-00 00 52 0295 02920 6823 537840 023865 199"
"175.802234"
"$GPRMC,191509,A,2529.9745,N,08002.8645,W,2.2,307.5,240615,6.9,"
"##MN-00 00 48 0296 02920 6820 610256 023887 199"
"175.80228"
"$GPRMC,191513,A,2529.9756,N,08002.8667,W,2.2,307.4,240615,6.9,"
"##MN-00 00 47 0297 02922 6818 522768 023879 199"
"175.802326"
"$GPRMC,191517,A,2529.9771,N,08002.8689,W,2.2,306.9,240615,6.9,"
"##MN-00 00 47 0298 02919 6815 484328 023875 199"
"175.802373"
"$GPRMC,191521,A,2529.9787,N,08002.8710,W,2.3,307.0,240615,6.9,"
"##MN-00 00 47 0299 02919 6813 773088 023886 199"
"175.802419"
"$GPRMC,191525,A,2529.9802,N,08002.8733,W,2.3,306.5,240615,6.9,"
"##MN-00 00 47 0300 02920 6811 465856 023881 199"
"175.802465"
"$GPRMC,191529,A,2529.9818,N,08002.8755,W,2.3,306.4,240615,6.9,"
"##MN-00 00 49 0301 02923 6808 436296 023870 199"
"175.802512"
"$GPRMC,191533,A,2529.9834,N,08002.8779,W,2.3,306.7,240615,6.9,"
"##MN-00 00 48 0302 02921 6806 024256 023860 199"
"175.802558"
"$GPRMC,191537,A,2529.9849,N,08002.8801,W,2.3,306.8,240615,6.9,"
"##MN-00 00 50 0303 02922 6803 436384 023848 199"
"175.802604"
"$GPRMC,191541,A,2529.9863,N,08002.8822,W,2.4,307.2,240615,6.9,"
"##MN-00 00 47 0304 02920 6801 465608 023852 199"
"175.80265"
"$GPRMC,191545,A,2529.9876,N,08002.8844,W,2.4,306.7,240615,6.9,"
"##MN-00 00 48 0305 02919 6799 519488 023849 199"
"175.802697"
"$GPRMC,191549,A,2529.9893,N,08002.8866,W,2.4,306.7,240615,6.9,"
"##MN-00 00 49 0306 02921 6796 879328 023852 199"
"175.802743"
"$GPRMC,191553,A,2529.9906,N,08002.8889,W,2.3,307.1,240615,6.9,"
"##MN-00 00 48 0307 02920 6794 203888 023847 199"
"175.802789"
"$GPRMC,191557,A,2529.9922,N,08002.8912,W,2.3,306.5,240615,6.9,"
"##MN-00 00 47 0308 02920 6792 472600 023857 199"
"175.802836"
"$GPRMC,191601,A,2529.9939,N,08002.8931,W,2.3,306.7,240615,6.9,"
"##MN-00 00 48 0309 02919 6789 995120 023863 199"
"175.802882"
"$GPRMC,191605,A,2529.9954,N,08002.8954,W,2.2,306.9,240615,6.9,"
"##MN-00 00 47 0310 02921 6787 342200 023853 199"
"175.802928"
"$GPRMC,191609,A,2529.9971,N,08002.8977,W,2.2,307.6,240615,6.9,"
"##MN-00 00 47 0311 02919 6784 179056 023862 199"
"175.802975"
"$GPRMC,191613,A,2529.9986,N,08002.8999,W,2.2,307.9,240615,6.9,"
"##MN-00 00 47 0312 02921 6782 735160 023866 199"
"175.803021"
"$GPRMC,191617,A,2530.0001,N,08002.9019,W,2.2,307.9,240615,6.9,"
"##MN-00 00 48 0313 02919 6780 740504 023862 199"
"175.803067"
"$GPRMC,191621,A,2530.0013,N,08002.9042,W,2.2,308.0,240615,6.9,"
"##MN-00 00 48 0314 02920 6777 732544 023861 199"
"175.803113"
"$GPRMC,191625,A,2530.0031,N,08002.9064,W,2.2,307.7,240615,6.9,"
"##MN-00 00 48 0315 02920 6775 720048 023872 199"
"175.80316"
"$GPRMC,191629,A,2530.0049,N,08002.9086,W,2.3,308.4,240615,6.9,"
"##MN-00 00 48 0316 02920 6773 740560 023878 199"
"175.803206"
"$GPRMC,191633,A,2530.0066,N,08002.9108,W,2.2,308.2,240615,6.9,"
"##MN-00 00 47 0317 02921 6771 846984 023875 199"
"175.803252"
"$GPRMC,191637,A,2530.0081,N,08002.9130,W,2.2,308.0,240615,6.9,"
"##MN-00 00 47 0318 02920 6768 966720 023894 199"
"175.803299"
"$GPRMC,191641,A,2530.0096,N,08002.9151,W,2.1,307.3,240615,6.9,"
"##MN-00 00 47 0319 02922 6766 553352 023907 199"
"175.803345"
"$GPRMC,191645,A,2530.0112,N,08002.9174,W,2.1,307.3,240615,6.9,"
"##MN-00 00 48 0320 02920 6764 707696 023911 199"
"175.803391"
"$GPRMC,191649,A,2530.0127,N,08002.9195,W,2.2,307.1,240615,6.9,"
"##MN+00 00 48 0321 02923 6762 706384 023909 199"
"175.803437"
"$GPRMC,191653,A,2530.0141,N,08002.9217,W,2.1,307.2,240615,6.9,"
"##MN+00 00 48 0322 02921 6759 587080 023907 199"
"175.803484"
"$GPRMC,191657,A,2530.0154,N,08002.9239,W,2.2,307.2,240615,6.9,"
"##MN+00 00 48 0323 02919 6757 710464 023912 199"
"175.80353"
"#increment_net"
"$GPRMC,191701,A,2530.0171,N,08002.9261,W,2.2,307.5,240615,6.9,"
"##MN-00 00 52 0324 02923 6755 703848 023895 199"
"175.803576"
"$GPRMC,191706,A,2530.0189,N,08002.9290,W,2.3,307.7,240615,6.9,"
"##MN-00 00 48 0325 02923 6753 709648 023902 199"
"175.803623"
"$GPRMC,191710,A,2530.0204,N,08002.9314,W,2.3,307.6,240615,6.9,"
"##MN-00 00 51 0326 02922 6751 706952 023889 199"
"175.803669"
"$GPRMC,191713,A,2530.0211,N,08002.9331,W,2.3,307.7,240615,6.9,"
"##MN-00 00 48 0326 02922 6748 706976 023866 199"
"175.803715"
"$GPRMC,191718,A,2530.0228,N,08002.9361,W,2.3,307.2,240615,6.9,"
"##MN-00 00 50 0327 02922 6746 709704 023852 199"
"175.803762"
"$GPRMC,191722,A,2530.0244,N,08002.9382,W,2.3,307.1,240615,6.9,"
"##MN-00 00 48 0328 02923 6744 139344 023852 199"
"175.803808"
"$GPRMC,191726,A,2530.0258,N,08002.9405,W,2.3,307.1,240615,6.9,"
"##MN-00 00 49 0329 02924 6742 577000 023870 199"
"175.803854"
"$GPRMC,191730,A,2530.0273,N,08002.9429,W,2.2,307.1,240615,6.9,"
"##MN-00 00 48 0330 02922 6739 697248 023870 199"
"175.8039"
"$GPRMC,191734,A,2530.0287,N,08002.9454,W,2.3,306.6,240615,6.9,"
"##MN-00 00 49 0331 02922 6738 290048 023875 199"
"175.803947"
"$GPRMC,191738,A,2530.0300,N,08002.9476,W,2.3,306.9,240615,6.9,"
"##MN-00 00 49 0332 02923 6735 812584 023869 199"
"175.803993"
"$GPRMC,191742,A,2530.0313,N,08002.9498,W,2.2,306.7,240615,6.9,"
"##MN-00 00 49 0333 02922 6733 685760 023868 199"
"175.804039"
"$GPRMC,191746,A,2530.0329,N,08002.9517,W,2.2,306.7,240615,6.9,"
"##MN-00 00 50 0334 02919 6731 658512 023860 199"
"175.804086"
"$GPRMC,191750,A,2530.0345,N,08002.9538,W,2.3,306.9,240615,6.9,"
"##MN-00 00 50 0335 02922 6729 732192 023876 199"
"175.804132"
"$GPRMC,191754,A,2530.0360,N,08002.9559,W,2.2,306.8,240615,6.9,"
"##MN-00 00 52 0336 02922 6727 402736 023884 199"
"175.804178"
"$GPRMC,191758,A,2530.0374,N,08002.9581,W,2.2,307.1,240615,6.9,"
"##MN-00 00 51 0337 02921 6725 683088 023872 199"
"175.804225"
"$GPRMC,191802,A,2530.0394,N,08002.9602,W,2.2,307.3,240615,6.9,"
"##MN-00 00 52 0338 02922 6722 397504 023868 199"
"175.804271"
"$GPRMC,191806,A,2530.0409,N,08002.9621,W,2.2,307.5,240615,6.9,"
"##MN-00 00 49 0339 02919 6720 673296 023879 199"
"175.804317"
"$GPRMC,191810,A,2530.0425,N,08002.9642,W,2.1,307.3,240615,6.9,"
"##MN-00 00 50 0340 02919 6718 676392 023879 199"
"175.804363"
"$GPRMC,191814,A,2530.0442,N,08002.9662,W,2.1,307.7,240615,6.9,"
"##MN-00 00 49 0341 02919 6716 260376 023894 199"
"175.80441"
"$GPRMC,191818,A,2530.0457,N,08002.9682,W,2.1,307.4,240615,6.9,"
"##MN-00 00 51 0342 02919 6714 659136 023891 199"
"175.804456"
"$GPRMC,191822,A,2530.0471,N,08002.9702,W,2.2,307.1,240615,6.9,"
"##MN-00 00 50 0343 02918 6712 252368 023902 199"
"175.804502"
"$GPRMC,191826,A,2530.0485,N,08002.9726,W,2.2,306.9,240615,6.9,"
"##MN-00 00 49 0344 02918 6710 094160 023895 199"
"175.804549"
"$GPRMC,191830,A,2530.0497,N,08002.9747,W,2.3,306.5,240615,6.9,"
"##MN-00 00 52 0345 02919 6708 251968 023896 199"
"175.804595"
"$GPRMC,191834,A,2530.0514,N,08002.9769,W,2.3,307.1,240615,6.9,"
"##MN-00 00 54 0346 02918 6706 902240 023902 199"
"175.804641"
"$GPRMC,191838,A,2530.0531,N,08002.9791,W,2.3,307.0,240615,6.9,"
"##MN-00 00 50 0347 02920 6704 532744 023895 199"
"175.804688"
"$GPRMC,191842,A,2530.0547,N,08002.9812,W,2.3,307.2,240615,6.9,"
"##MN-00 00 50 0348 02918 6702 369616 023906 199"
"175.804734"
"$GPRMC,191846,A,2530.0561,N,08002.9834,W,2.3,307.2,240615,6.9,"
"##MN-00 00 49 0349 02918 6700 650288 023917 199"
"175.80478"
"$GPRMC,191850,A,2530.0573,N,08002.9855,W,2.3,307.3,240615,6.9,"
"##MN-00 00 50 0350 02917 6698 530568 023911 199"
"175.804826"
"$GPRMC,191854,A,2530.0586,N,08002.9881,W,2.3,307.2,240615,6.9,"
"##MN+00 00 50 0351 02917 6696 649504 023899 199"
"175.804873"
"$GPRMC,191858,A,2530.0600,N,08002.9902,W,2.2,306.6,240615,6.9,"
"##MN+00 00 50 0352 02915 6693 380368 023861 199"
"175.804919"
"$GPRMC,191902,A,2530.0618,N,08002.9921,W,2.2,306.3,240615,6.9,"
"##MN+00 00 50 0353 02916 6692 104064 023856 199"
"175.804965"
"$GPRMC,191906,A,2530.0633,N,08002.9940,W,2.1,306.6,240615,6.9,"
"##MN-00 00 56 0354 02915 6690 646032 023880 199"
"175.805012"
"#increment_net"
"$GPRMC,191910,A,2530.0648,N,08002.9960,W,2.1,306.7,240615,6.9,"
"##MN-00 00 50 0355 02916 6688 077520 023881 199"
"175.805069"
"$GPRMC,191914,A,2530.0655,N,08002.9983,W,2.1,306.9,240615,6.9,"
"##MN-00 00 49 0356 02917 6686 238896 023882 199"
"175.805116"
"$GPRMC,191918,A,2530.0661,N,08003.0007,W,2.1,306.7,240615,6.9,"
"##MN-00 00 48 0357 02919 6684 515144 023892 199"
"175.805162"
"$GPRMC,191922,A,2530.0674,N,08003.0029,W,2.1,305.7,240615,6.9,"
"##MN-00 00 46 0358 02920 6682 632736 023888 199"
"175.805208"
"$GPRMC,191926,A,2530.0688,N,08003.0051,W,2.1,305.1,240615,6.9,"
"##MN-00 00 48 0360 02921 6680 348952 023888 199"
"175.805255"
"$GPRMC,191930,A,2530.0706,N,08003.0073,W,2.1,304.8,240615,6.9,"
"##MN-00 00 46 0361 02923 6678 637184 023892 199"
"175.805301"
"$GPRMC,191934,A,2530.0721,N,08003.0095,W,2.1,304.3,240615,6.9,"
"##MN-00 00 48 0362 02924 6676 346368 023879 199"
"175.805347"
"$GPRMC,191938,A,2530.0737,N,08003.0119,W,2.2,303.9,240615,6.9,"
"##MN-00 00 48 0363 02925 6674 383472 023888 199"
"175.805394"
"$GPRMC,191942,A,2530.0750,N,08003.0138,W,2.1,303.7,240615,6.9,"
"##MN-00 00 48 0364 02925 6672 343312 023880 199"
"175.80544"
"$GPRMC,191946,A,2530.0764,N,08003.0159,W,2.2,304.2,240615,6.9,"
"##MN-00 00 46 0366 02926 6670 622304 023901 199"
"175.805486"
"$GPRMC,191950,A,2530.0779,N,08003.0181,W,2.2,304.1,240615,6.9,"
"##MN-00 00 46 0367 02927 6668 223080 023904 199"
"175.805532"
"$GPRMC,191954,A,2530.0793,N,08003.0206,W,2.2,304.2,240615,6.9,"
"##MN-00 00 44 0368 02929 6667 343808 023894 199"
"175.805579"
"$GPRMC,191958,A,2530.0804,N,08003.0231,W,2.2,304.1,240615,6.9,"
"##MN-00 00 45 0369 02927 6665 048416 023908 199"
"175.805625"
"$GPRMC,192002,A,2530.0818,N,08003.0253,W,2.1,303.5,240615,6.9,"
"##MN-00 00 46 0370 02926 6663 475824 023918 199"
"175.805671"
"$GPRMC,192006,A,2530.0833,N,08003.0276,W,2.2,303.4,240615,6.9,"
"##MN-00 00 46 0371 02930 6661 853872 023914 199"
"175.805718"
"$GPRMC,192010,A,2530.0849,N,08003.0301,W,2.2,303.7,240615,6.9,"
"##MN-00 00 47 0373 02928 6659 441000 023919 199"
"175.805764"
"$GPRMC,192014,A,2530.0862,N,08003.0325,W,2.2,303.1,240615,6.9,"
"##MN-00 00 45 0374 02928 6657 356096 023913 199"
"175.80581"
"$GPRMC,192018,A,2530.0875,N,08003.0347,W,2.2,302.6,240615,6.9,"
"##MN-00 00 47 0375 02928 6655 295696 023906 199"
"175.805856"
"$GPRMC,192022,A,2530.0887,N,08003.0369,W,2.2,302.3,240615,6.9,"
"##MN-00 00 45 0376 02928 6653 871392 023905 199"
"175.805903"
"$GPRMC,192026,A,2530.0901,N,08003.0392,W,2.2,301.9,240615,6.9,"
"##MN-00 00 45 0377 02925 6652 040592 023921 199"
"175.805949"
"$GPRMC,192030,A,2530.0915,N,08003.0415,W,2.2,301.6,240615,6.9,"
"##MN-00 00 45 0379 02925 6649 599720 023919 199"
"175.805995"
"$GPRMC,192034,A,2530.0930,N,08003.0439,W,2.2,301.3,240615,6.9,"
"##MN-00 00 45 0380 02925 6648 586912 023934 199"
"175.806042"
"$GPRMC,192038,A,2530.0944,N,08003.0460,W,2.2,301.3,240615,6.9,"
"##MN-00 00 45 0381 02923 6646 320456 023917 199"
"175.806088"
"$GPRMC,192042,A,2530.0956,N,08003.0480,W,2.2,301.4,240615,6.9,"
"##MN-00 00 46 0382 02924 6644 594048 023918 199"
"175.806134"
"$GPRMC,192046,A,2530.0966,N,08003.0502,W,2.2,302.0,240615,6.9,"
"##MN-00 00 46 0383 02920 6642 720536 023888 199"
"175.806181"
"$GPRMC,192050,A,2530.0979,N,08003.0524,W,2.2,302.3,240615,6.9,"
"##MN-00 00 46 0385 02919 6640 720968 023879 199"
"175.806227"
"$GPRMC,192054,A,2530.0990,N,08003.0546,W,2.2,302.6,240615,6.9,"
"##MN-00 00 46 0386 02917 6639 356304 023879 199"
"175.806273"
"$GPRMC,192058,A,2530.0997,N,08003.0567,W,2.1,301.9,240615,6.9,"
"##MN-00 00 46 0387 02916 6637 582528 023892 199"
"175.806319"
"$GPRMC,192102,A,2530.1006,N,08003.0592,W,2.1,301.6,240615,6.9,"
"##MN-00 00 47 0388 02914 6635 587904 023907 199"
"175.806366"
"$GPRMC,192106,A,2530.1014,N,08003.0607,W,2.1,301.1,240615,6.9,"
"##MN-00 00 46 0389 02910 6633 430064 023897 199"
"175.806412"
"$GPRMC,192110,A,2530.1026,N,08003.0630,W,2.1,301.2,240615,6.9,"
"##MN-00 00 45 0391 02909 6632 334064 023904 199"
"175.806458"
"$GPRMC,192114,A,2530.1046,N,08003.0661,W,2.1,301.5,240615,6.9,"
"##MN-00 00 45 0392 02907 6630 577272 023897 199"
"175.806505"
"$GPRMC,192118,A,2530.1064,N,08003.0686,W,2.1,302.7,240615,6.9,"
"##MN-00 00 46 0393 02905 6628 019392 023899 199"
"175.806551"
"$GPRMC,192122,A,2530.1075,N,08003.0708,W,2.1,303.5,240615,6.9,"
"##MN-00 00 48 0394 02904 6626 571904 023906 199"
"175.806597"
"$GPRMC,192126,A,2530.1088,N,08003.0728,W,2.1,304.4,240615,6.9,"
"##MN-00 00 46 0395 02902 6624 570128 023904 199"
"175.806643"
"$GPRMC,192130,A,2530.1103,N,08003.0751,W,2.1,304.2,240615,6.9,"
"##MN-00 00 48 0396 02899 6622 560360 023902 199"
"175.80669"
"$GPRMC,192134,A,2530.1117,N,08003.0773,W,2.2,303.1,240615,6.9,"
"##MN-00 00 45 0398 02898 6621 571984 023906 199"
"175.806736"
"$GPRMC,192138,A,2530.1133,N,08003.0791,W,2.2,303.9,240615,6.9,"
"##MN-00 00 45 0399 02895 6619 566656 023898 199"
"175.806782"
"$GPRMC,192143,A,2530.1154,N,08003.0821,W,2.2,304.2,240615,6.9,"
"##MN-00 00 46 0400 02893 6618 444176 023896 199"
"175.806829"
"$GPRMC,192147,A,2530.1169,N,08003.0845,W,2.2,304.4,240615,6.9,"
"##MN-00 00 46 0401 02890 6616 000800 023899 199"
"175.806875"
"$GPRMC,192151,A,2530.1185,N,08003.0870,W,2.3,304.9,240615,6.9,"
"##MN-00 00 45 0402 02889 6614 565336 023901 199"
"175.806921"
"$GPRMC,192154,A,2530.1197,N,08003.0889,W,2.4,306.0,240615,6.9,"
"##MN-00 00 45 0403 02886 6612 549792 023893 199"
"175.806968"
"$GPRMC,192158,A,2530.1212,N,08003.0911,W,2.3,306.2,240615,6.9,"
"##MN-00 00 46 0405 02884 6611 274896 023917 199"
"175.807014"
"$GPRMC,192202,A,2530.1229,N,08003.0933,W,2.3,306.4,240615,6.9,"
"##MN-00 00 45 0406 02884 6609 421960 023922 199"
"175.80706"
"$GPRMC,192207,A,2530.1251,N,08003.0965,W,2.3,306.3,240615,6.9,"
"##MN-00 00 45 0407 02881 6607 528416 023921 199"
"175.807106"
"$GPRMC,192211,A,2530.1266,N,08003.0991,W,2.4,305.8,240615,6.9,"
"##MN-00 00 44 0408 02878 6605 667800 023922 199"
"175.807153"
"$GPRMC,192215,A,2530.1283,N,08003.1017,W,2.4,305.4,240615,6.9,"
"##MN-00 00 44 0409 02875 6604 544480 023928 199"
"175.807199"
"$GPRMC,192219,A,2530.1301,N,08003.1042,W,2.5,305.6,240615,6.9,"
"##MN-00 00 44 0410 02873 6602 534688 023921 199"
"175.807245"
"$GPRMC,192223,A,2530.1320,N,08003.1067,W,2.5,305.7,240615,6.9,"
"##MN-00 00 45 0412 02871 6600 529360 023921 199"
"175.807292"
"$GPRMC,192227,A,2530.1338,N,08003.1094,W,2.5,305.7,240615,6.9,"
"##MN-00 00 44 0413 02869 6599 541440 023910 199"
"175.807338"
"$GPRMC,192231,A,2530.1356,N,08003.1123,W,2.6,306.3,240615,6.9,"
"##MN-00 00 44 0414 02867 6597 032608 023917 199"
"175.807384"
"$GPRMC,192235,A,2530.1373,N,08003.1150,W,2.6,306.4,240615,6.9,"
"##MN-00 00 44 0415 02864 6595 537472 023932 199"
"175.807431"
"$GPRMC,192239,A,2530.1392,N,08003.1178,W,2.7,306.8,240615,6.9,"
"##MN-00 00 44 0416 02861 6594 537024 023917 199"
"175.807477"
"$GPRMC,192243,A,2530.1411,N,08003.1203,W,2.8,307.0,240615,6.9,"
"##MN-00 00 44 0418 02859 6592 536592 023914 199"
"175.807523"
"$GPRMC,192247,A,2530.1429,N,08003.1230,W,2.8,307.3,240615,6.9,"
"##MN-00 00 44 0419 02855 6590 418168 023887 199"
"175.807569"
"$GPRMC,192251,A,2530.1449,N,08003.1257,W,2.8,307.2,240615,6.9,"
"##MN-00 00 44 0420 02853 6589 537568 023864 199"
"175.807616"
"$GPRMC,192255,A,2530.1469,N,08003.1286,W,2.8,307.2,240615,6.9,"
