" Tow: 7WS-A   RVWS/WS15161"
" Date: 22/06/2015"
" Temperature Probe #  4762    Conductivity Probe #  710"
" Pressure Probe #  159"
" Flow Meter Calibration  4.71 (m/count)  "
"175.58294"
"$GPRMC,135923,A,2514.6872,N,08007.2500,W,1.0,137.6,240615,6.8,"
"##MN-00 00 86 0000 01539 5464 418295 827456 198"
"175.583183"
"$GPRMC,135943,A,2514.6834,N,08007.2454,W,1.1,130.2,240615,6.8,"
"##MN-00 00 86 0000 01539 5472 418224 827512 198"
"175.583275"
"$GPRMC,135952,A,2514.6819,N,08007.2430,W,1.1,125.7,240615,6.8,"
"##MN-00 00 86 0000 01540 5475 416140 827592 198"
"175.583322"
"$GPRMC,135956,A,2514.6812,N,08007.2418,W,1.1,123.9,240615,6.8,"
"##MN-00 00 86 0000 01540 5476 415337 827515 198"
"175.583368"
"$GPRMC,140000,A,2514.6806,N,08007.2406,W,1.1,122.8,240615,6.8,"
"##MN-00 00 86 0000 01541 5478 415353 827583 198"
"175.583414"
"$GPRMC,140004,A,2514.6798,N,08007.2393,W,1.1,121.7,240615,6.8,"
"##MN-00 00 86 0000 01539 5479 415476 827652 198"
"175.583461"
"$GPRMC,140008,A,2514.6790,N,08007.2379,W,1.1,122.2,240615,6.8,"
"##MN-00 00 86 0000 01539 5480 415291 827450 198"
"175.583507"
"$GPRMC,140012,A,2514.6783,N,08007.2367,W,1.2,123.3,240615,6.8,"
"##MN-00 00 86 0000 01539 5482 415498 827446 198"
"175.583553"
"$GPRMC,140016,A,2514.6772,N,08007.2354,W,1.1,125.1,240615,6.8,"
"##MN-00 00 86 0000 01539 5483 415549 827513 198"
"175.5836"
"$GPRMC,140020,A,2514.6765,N,08007.2342,W,1.1,126.9,240615,6.8,"
"##MN-00 00 85 0000 01541 5485 415257 827377 198"
"175.583646"
"$GPRMC,140024,A,2514.6755,N,08007.2330,W,1.1,128.7,240615,6.8,"
"##MN-00 00 85 0000 01541 5487 415288 827314 198"
"175.583692"
"$GPRMC,140028,A,2514.6747,N,08007.2320,W,1.1,130.8,240615,6.8,"
"##MN-00 00 74 0000 01539 5488 415583 827295 198"
"175.583738"
"$GPRMC,140032,A,2514.6740,N,08007.2313,W,1.1,132.1,240615,6.8,"
"##MN-00 00 74 0000 01542 5490 416447 827546 198"
"175.583785"
"$GPRMC,140036,A,2514.6729,N,08007.2306,W,1.1,133.8,240615,6.8,"
"##MN-00 00 66 0000 01539 5491 417092 827081 198"
"175.583831"
"$GPRMC,140040,A,2514.6718,N,08007.2295,W,1.2,134.9,240615,6.8,"
"##MN-00 00 66 0000 01541 5493 417961 827578 198"
"175.583877"
"$GPRMC,140044,A,2514.6709,N,08007.2284,W,1.2,135.9,240615,6.8,"
"##MN-00 00 66 0000 01540 5494 419130 827579 198"
"175.583924"
"$GPRMC,140048,A,2514.6700,N,08007.2274,W,1.2,137.4,240615,6.8,"
"##MN-00 00 66 0000 01540 5496 419803 827443 198"
"175.58397"
"$GPRMC,140052,A,2514.6691,N,08007.2264,W,1.1,138.3,240615,6.8,"
"##MN-00 00 66 0000 01541 5497 421330 827379 198"
"175.584016"
"$GPRMC,140056,A,2514.6683,N,08007.2255,W,1.0,138.6,240615,6.8,"
"##MN-00 00 66 0000 01541 5499 422362 827715 198"
"175.584062"
"$GPRMC,140100,A,2514.6678,N,08007.2249,W,1.1,135.8,240615,6.8,"
"##MN-00 00 66 0000 01541 5500 423685 827102 198"
"175.584109"
"$GPRMC,140104,A,2514.6673,N,08007.2241,W,1.0,131.9,240615,6.8,"
"##MN-00 00 64 0000 01541 5502 432672 293893 198"
"175.584155"
"$GPRMC,140108,A,2514.6669,N,08007.2235,W,0.9,128.8,240615,6.8,"
"##MN-00 00 08 0001 01543 5504 441079 203828 198"
"175.584201"
"$GPRMC,140112,A,2514.6665,N,08007.2229,W,0.8,126.4,240615,6.8,"
"##MN-00 00 10 0002 01542 5505 441472 203989 198"
"175.584248"
"$GPRMC,140116,A,2514.6661,N,08007.2218,W,0.7,122.2,240615,6.8,"
"##MN-00 00 12 0003 01540 5507 441474 203979 198"
"175.584294"
"$GPRMC,140120,A,2514.6660,N,08007.2207,W,0.8,116.5,240615,6.8,"
"##MN-00 00 11 0004 01541 5509 441499 204001 198"
"175.58434"
"$GPRMC,140124,A,2514.6657,N,08007.2196,W,0.8,110.5,240615,6.8,"
"##MN-00 00 11 0004 01547 5510 441535 204079 198"
"175.584387"
"$GPRMC,140128,A,2514.6656,N,08007.2188,W,0.8,107.5,240615,6.8,"
"##MN-00 00 12 0005 01549 5512 441542 204094 198"
"175.584433"
"$GPRMC,140132,A,2514.6656,N,08007.2179,W,0.7,103.3,240615,6.8,"
"##MN-00 00 12 0006 01550 5513 441578 204077 198"
"175.584479"
"$GPRMC,140136,A,2514.6656,N,08007.2169,W,0.6,100.1,240615,6.8,"
"##MN-00 00 12 0007 01550 5515 441603 204120 198"
"175.584525"
"$GPRMC,140140,A,2514.6655,N,08007.2160,W,0.6,98.4,240615,6.8,W"
"##MN-00 00 12 0008 01555 5516 441629 204174 198"
"175.584572"
"$GPRMC,140144,A,2514.6653,N,08007.2151,W,0.8,95.4,240615,6.8,W"
"##MN-00 00 12 0009 01557 5518 441620 204149 198"
"175.584618"
"$GPRMC,140148,A,2514.6653,N,08007.2141,W,0.8,94.3,240615,6.8,W"
"##MN-00 00 13 0010 01560 5520 441611 204177 198"
"175.584664"
"$GPRMC,140152,A,2514.6652,N,08007.2132,W,0.7,94.3,240615,6.8,W"
"##MN-00 00 11 0011 01564 5521 441674 204202 198"
"175.584711"
"$GPRMC,140156,A,2514.6653,N,08007.2125,W,0.7,91.4,240615,6.8,W"
"##MN-00 00 11 0012 01567 5523 441684 204205 198"
"175.584769"
"$GPRMC,140200,A,2514.6653,N,08007.2118,W,0.6,89.6,240615,6.8,W"
"##MN-00 00 12 0012 01572 5525 441626 204190 198"
"175.584815"
"$GPRMC,140204,A,2514.6656,N,08007.2110,W,0.6,87.2,240615,6.8,W"
"##MN-00 00 11 0013 01580 5527 441607 204192 198"
"175.584861"
"$GPRMC,140208,A,2514.6657,N,08007.2102,W,0.6,85.7,240615,6.8,W"
"##MN-00 00 11 0014 01580 5528 441628 204208 198"
"175.584907"
"$GPRMC,140212,A,2514.6657,N,08007.2095,W,0.7,84.0,240615,6.8,W"
"##MN-00 00 11 0015 01583 5530 441612 204195 198"
"175.584954"
"$GPRMC,140216,A,2514.6659,N,08007.2087,W,0.7,83.2,240615,6.8,W"
"##MN-00 00 10 0016 01587 5531 441631 204194 198"
"175.585"
"$GPRMC,140220,A,2514.6659,N,08007.2081,W,0.7,83.3,240615,6.8,W"
"##MN-00 00 10 0017 01589 5533 441668 204200 198"
"175.585046"
"$GPRMC,140224,A,2514.6658,N,08007.2071,W,0.6,83.1,240615,6.8,W"
"##MN-00 00 10 0018 01591 5535 441715 204216 198"
"175.585093"
"$GPRMC,140228,A,2514.6657,N,08007.2062,W,0.6,87.3,240615,6.8,W"
"##MN-00 00 11 0019 01596 5536 441752 204230 198"
"175.585139"
"$GPRMC,140232,A,2514.6658,N,08007.2055,W,0.6,89.2,240615,6.8,W"
"##MN-00 00 10 0020 01598 5538 441719 204216 198"
"175.585185"
"$GPRMC,140236,A,2514.6657,N,08007.2046,W,0.6,89.7,240615,6.8,W"
"##MN-00 00 11 0020 01600 5540 441740 204224 198"
"175.585231"
"$GPRMC,140240,A,2514.6657,N,08007.2038,W,0.6,90.5,240615,6.8,W"
"##MN-00 00 11 0021 01601 5542 441752 204224 198"
"175.585278"
"$GPRMC,140244,A,2514.6657,N,08007.2030,W,0.7,90.2,240615,6.8,W"
"##MN-00 00 11 0022 01606 5543 441760 204227 198"
"175.585324"
"$GPRMC,140248,A,2514.6657,N,08007.2022,W,0.7,90.5,240615,6.8,W"
"##MN-00 00 10 0023 01611 5544 441768 204228 198"
"175.58537"
"$GPRMC,140252,A,2514.6658,N,08007.2012,W,0.6,90.3,240615,6.8,W"
"##MN-00 00 11 0024 01612 5546 441767 204227 198"
"175.585417"
"$GPRMC,140256,A,2514.6658,N,08007.2001,W,0.6,90.4,240615,6.8,W"
"##MN-00 00 10 0025 01616 5548 441757 204226 198"
"175.585463"
"$GPRMC,140300,A,2514.6657,N,08007.1991,W,0.7,90.3,240615,6.8,W"
"##MN-00 00 11 0026 01619 5549 441772 204229 198"
"175.585509"
"$GPRMC,140304,A,2514.6657,N,08007.1984,W,0.7,90.9,240615,6.8,W"
"##MN-00 00 11 0027 01619 5552 441785 204230 198"
"175.585556"
"$GPRMC,140308,A,2514.6657,N,08007.1977,W,0.7,91.8,240615,6.8,W"
"##MN-00 00 11 0028 01622 5553 441784 204232 198"
"175.585602"
"$GPRMC,140313,A,2514.6657,N,08007.1967,W,0.6,93.0,240615,6.8,W"
"##MN-00 00 10 0029 01629 5555 441791 204233 198"
"175.585648"
"$GPRMC,140316,A,2514.6657,N,08007.1960,W,0.7,92.9,240615,6.8,W"
"##MN-00 00 10 0030 01633 5556 441801 204233 198"
"175.585694"
"$GPRMC,140320,A,2514.6657,N,08007.1951,W,0.7,92.7,240615,6.8,W"
"##MN-00 00 10 0031 01632 5558 441804 204233 198"
"175.585741"
"$GPRMC,140324,A,2514.6657,N,08007.1944,W,0.7,92.3,240615,6.8,W"
"##MN-00 00 10 0032 01635 5560 441807 204233 198"
"175.585787"
"$GPRMC,140328,A,2514.6657,N,08007.1937,W,0.8,92.0,240615,6.8,W"
"##MN-00 00 10 0033 01638 5561 441820 204236 198"
"175.585833"
"$GPRMC,140333,A,2514.6656,N,08007.1927,W,0.6,92.1,240615,6.8,W"
"##MN-00 00 10 0034 01643 5563 441843 204239 198"
"175.58588"
"$GPRMC,140337,A,2514.6658,N,08007.1919,W,0.6,91.5,240615,6.8,W"
"##MN-00 00 11 0035 01650 5564 441848 204238 198"
"175.585926"
"$GPRMC,140341,A,2514.6660,N,08007.1913,W,0.6,88.5,240615,6.8,W"
"##MN-00 00 10 0035 01652 5566 441843 204238 198"
"175.585972"
"$GPRMC,140345,A,2514.6662,N,08007.1907,W,0.6,83.6,240615,6.8,W"
"##MN-00 00 10 0036 01658 5568 441830 204236 198"
"175.586019"
"$GPRMC,140349,A,2514.6664,N,08007.1898,W,0.6,81.8,240615,6.8,W"
"##MN+00 00 11 0037 01658 5569 441831 204235 198"
"175.586065"
"$GPRMC,140353,A,2514.6664,N,08007.1888,W,0.6,81.6,240615,6.8,W"
"##MN+00 00 11 0038 01657 5571 441841 204236 198"
"175.586111"
"$GPRMC,140357,A,2514.6664,N,08007.1879,W,0.6,82.2,240615,6.8,W"
"##MN+00 00 11 0039 01657 5573 441845 204237 198"
"175.586157"
"$GPRMC,140401,A,2514.6664,N,08007.1871,W,0.6,82.8,240615,6.8,W"
"##MN-00 00 11 0040 01657 5574 441838 204235 198"
"175.586204"
"$GPRMC,140405,A,2514.6667,N,08007.1865,W,0.7,83.3,240615,6.8,W"
"##MN+00 00 11 0041 01659 5576 441834 204235 198"
"175.58625"
"$GPRMC,140409,A,2514.6667,N,08007.1857,W,0.6,77.8,240615,6.8,W"
"##MN+00 00 12 0042 01656 5577 441829 204233 198"
"175.586296"
"$GPRMC,140413,A,2514.6669,N,08007.1847,W,0.7,73.9,240615,6.8,W"
"##MN+00 00 12 0043 01658 5579 441836 204235 198"
"175.586343"
"#increment_net"
"$GPRMC,140417,A,2514.6671,N,08007.1839,W,0.6,72.3,240615,6.8,W"
"##MN-00 00 12 0044 01659 5581 441852 204236 198"
"175.586389"
"$GPRMC,140421,A,2514.6672,N,08007.1832,W,0.6,71.4,240615,6.8,W"
"##MN-00 00 12 0045 01661 5582 441849 204236 198"
"175.586435"
"$GPRMC,140425,A,2514.6674,N,08007.1825,W,0.6,71.9,240615,6.8,W"
"##MN-00 00 12 0046 01662 5584 441832 204233 198"
"175.586481"
"$GPRMC,140429,A,2514.6677,N,08007.1817,W,0.6,72.7,240615,6.8,W"
"##MN-00 00 12 0047 01661 5586 441810 204230 198"
"175.586528"
"$GPRMC,140433,A,2514.6678,N,08007.1809,W,0.6,72.4,240615,6.8,W"
"##MN-00 00 12 0048 01662 5587 441816 204231 198"
"175.586574"
"$GPRMC,140437,A,2514.6681,N,08007.1799,W,0.8,72.8,240615,6.8,W"
"##MN-00 00 12 0049 01661 5589 441823 204232 198"
"175.58662"
"$GPRMC,140441,A,2514.6682,N,08007.1791,W,0.9,68.6,240615,6.8,W"
"##MN-00 00 12 0050 01663 5590 441842 204234 198"
"175.586667"
"$GPRMC,140445,A,2514.6685,N,08007.1785,W,0.8,65.7,240615,6.8,W"
"##MN-00 00 12 0051 01664 5592 441851 204237 198"
"175.586713"
"$GPRMC,140449,A,2514.6688,N,08007.1781,W,0.7,65.6,240615,6.8,W"
"##MN-00 00 12 0052 01663 5593 441843 204236 198"
"175.586759"
"$GPRMC,140453,A,2514.6689,N,08007.1773,W,0.7,65.2,240615,6.8,W"
"##MN-00 00 12 0053 01664 5595 441834 204235 198"
"175.586806"
"$GPRMC,140457,A,2514.6689,N,08007.1766,W,0.6,66.1,240615,6.8,W"
"##MN-00 00 12 0054 01661 5597 441837 204235 198"
"175.586852"
"$GPRMC,140501,A,2514.6690,N,08007.1758,W,0.6,69.3,240615,6.8,W"
"##MN-00 00 12 0055 01662 5598 441831 204235 198"
"175.586898"
"$GPRMC,140505,A,2514.6691,N,08007.1751,W,0.5,73.1,240615,6.8,W"
"##MN-00 00 12 0056 01661 5600 441829 204235 198"
"175.586944"
"$GPRMC,140509,A,2514.6693,N,08007.1744,W,0.5,75.8,240615,6.8,W"
"##MN-00 00 12 0057 01659 5601 441825 204234 198"
"175.586991"
"$GPRMC,140513,A,2514.6693,N,08007.1736,W,0.6,81.1,240615,6.8,W"
"##MN+00 00 12 0058 01658 5603 441825 204234 198"
"175.587037"
"$GPRMC,140517,A,2514.6693,N,08007.1729,W,0.6,84.0,240615,6.8,W"
"##MN+00 00 12 0059 01658 5605 441820 204234 198"
"175.587083"
"$GPRMC,140521,A,2514.6693,N,08007.1723,W,0.7,85.5,240615,6.8,W"
"##MN+00 00 12 0060 01654 5606 441815 204233 198"
"175.58713"
"$GPRMC,140525,A,2514.6693,N,08007.1713,W,0.6,86.7,240615,6.8,W"
"##MN+00 00 12 0061 01655 5608 441813 204232 198"
"175.587176"
"$GPRMC,140529,A,2514.6693,N,08007.1704,W,0.8,90.3,240615,6.8,W"
"##MN+00 00 12 0062 01658 5609 441813 204232 198"
"175.587222"
"$GPRMC,140533,A,2514.6693,N,08007.1696,W,0.7,91.1,240615,6.8,W"
"##MN+00 00 12 0063 01656 5610 441814 204231 198"
"175.587269"
"$GPRMC,140537,A,2514.6694,N,08007.1687,W,0.7,90.1,240615,6.8,W"
"##MN-00 00 12 0064 01659 5612 441811 204231 198"
"175.587315"
"#increment_net"
"$GPRMC,140541,A,2514.6694,N,08007.1678,W,0.7,89.2,240615,6.8,W"
"##MN-00 00 12 0065 01657 5614 441809 204231 198"
"175.587361"
"$GPRMC,140545,A,2514.6695,N,08007.1669,W,0.7,88.2,240615,6.8,W"
"##MN-00 00 12 0066 01654 5615 441807 204230 198"
"175.587407"
"$GPRMC,140549,A,2514.6696,N,08007.1660,W,0.7,87.2,240615,6.8,W"
"##MN-00 00 12 0067 01654 5616 441807 204230 198"
"175.587454"
"$GPRMC,140553,A,2514.6696,N,08007.1652,W,0.8,86.5,240615,6.8,W"
"##MN-00 00 12 0068 01653 5618 441808 204230 198"
"175.5875"
"$GPRMC,140557,A,2514.6696,N,08007.1644,W,0.7,87.1,240615,6.8,W"
"##MN-00 00 12 0069 01651 5620 441812 204231 198"
"175.587546"
"$GPRMC,140601,A,2514.6696,N,08007.1635,W,0.6,88.0,240615,6.8,W"
"##MN-00 00 12 0071 01650 5621 441806 204230 198"
"175.587593"
"$GPRMC,140605,A,2514.6696,N,08007.1626,W,0.6,89.2,240615,6.8,W"
"##MN-00 00 12 0071 01649 5623 441781 204225 198"
"175.587639"
"$GPRMC,140609,A,2514.6696,N,08007.1618,W,0.7,88.2,240615,6.8,W"
"##MN-00 00 12 0072 01651 5624 441777 204225 198"
"175.587685"
"$GPRMC,140613,A,2514.6698,N,08007.1611,W,0.6,85.7,240615,6.8,W"
"##MN-00 00 12 0073 01652 5625 441796 204228 198"
"175.587731"
"$GPRMC,140617,A,2514.6703,N,08007.1603,W,0.6,82.2,240615,6.8,W"
"##MN-00 00 12 0075 01650 5627 441797 204228 198"
"175.587778"
"$GPRMC,140621,A,2514.6704,N,08007.1595,W,0.6,79.5,240615,6.8,W"
"##MN+00 00 12 0076 01652 5628 441788 204225 198"
"175.587824"
"$GPRMC,140625,A,2514.6709,N,08007.1586,W,0.5,78.3,240615,6.8,W"
"##MN+00 00 12 0077 01652 5630 441788 204227 198"
"175.587882"
"$GPRMC,140629,A,2514.6711,N,08007.1579,W,0.6,77.3,240615,6.8,W"
"##MN+00 00 12 0078 01653 5631 441788 204227 198"
"175.587928"
"$GPRMC,140633,A,2514.6713,N,08007.1571,W,0.6,76.0,240615,6.8,W"
"##MN-00 00 12 0079 01653 5633 441794 204227 198"
"175.587975"
"$GPRMC,140637,A,2514.6714,N,08007.1563,W,0.6,74.0,240615,6.8,W"
"##MN+00 00 12 0080 01652 5634 441802 204229 198"
"175.588021"
"$GPRMC,140641,A,2514.6716,N,08007.1554,W,0.6,73.5,240615,6.8,W"
"##MN+00 00 12 0081 01654 5636 441804 204228 198"
"175.588067"
"$GPRMC,140645,A,2514.6716,N,08007.1547,W,0.6,74.9,240615,6.8,W"
"##MN+00 00 11 0082 01659 5637 441797 204226 198"
"175.588113"
"#increment_net"
"$GPRMC,140649,A,2514.6718,N,08007.1537,W,0.6,76.5,240615,6.8,W"
"##MN-00 00 12 0082 01656 5639 441806 204228 198"
"175.58816"
"$GPRMC,140653,A,2514.6718,N,08007.1528,W,0.6,76.7,240615,6.8,W"
"##MN-00 00 11 0083 01653 5640 441807 204228 198"
"175.588206"
"$GPRMC,140657,A,2514.6718,N,08007.1520,W,0.7,77.7,240615,6.8,W"
"##MN-00 00 11 0084 01653 5641 441800 204227 198"
"175.588252"
"$GPRMC,140701,A,2514.6720,N,08007.1513,W,0.7,78.3,240615,6.8,W"
"##MN-00 00 11 0086 01650 5643 441794 204226 198"
"175.588299"
"$GPRMC,140705,A,2514.6720,N,08007.1506,W,0.7,79.5,240615,6.8,W"
"##MN-00 00 11 0087 01653 5644 441803 204228 198"
"175.588345"
"$GPRMC,140709,A,2514.6720,N,08007.1496,W,0.7,80.7,240615,6.8,W"
"##MN-00 00 11 0088 01651 5646 441780 204224 198"
"175.588391"
"$GPRMC,140713,A,2514.6720,N,08007.1486,W,0.7,81.9,240615,6.8,W"
"##MN-00 00 11 0089 01651 5648 441771 204223 198"
"175.588438"
"$GPRMC,140717,A,2514.6721,N,08007.1475,W,0.8,82.5,240615,6.8,W"
"##MN-00 00 11 0090 01650 5649 441783 204224 198"
"175.588484"
"$GPRMC,140721,A,2514.6721,N,08007.1466,W,0.8,83.0,240615,6.8,W"
"##MN-00 00 11 0091 01649 5650 441789 204226 198"
"175.58853"
"$GPRMC,140725,A,2514.6721,N,08007.1456,W,0.8,83.0,240615,6.8,W"
"##MN-00 00 11 0092 01650 5652 441782 204224 198"
"175.588576"
"$GPRMC,140730,A,2514.6721,N,08007.1444,W,0.8,84.1,240615,6.8,W"
"##MN-00 00 11 0093 01649 5653 441785 204224 198"
"175.588623"
"$GPRMC,140734,A,2514.6721,N,08007.1434,W,0.7,84.7,240615,6.8,W"
"##MN-00 00 11 0094 01647 5655 441795 204225 198"
"175.588669"
"$GPRMC,140737,A,2514.6722,N,08007.1430,W,0.6,85.5,240615,6.8,W"
"##MN-00 00 11 0095 01647 5656 441789 204223 198"
"175.588715"
"$GPRMC,140742,A,2514.6723,N,08007.1419,W,0.7,86.3,240615,6.8,W"
"##MN+00 00 11 0096 01646 5657 441780 204222 198"
"175.588762"
"$GPRMC,140745,A,2514.6725,N,08007.1416,W,0.6,85.5,240615,6.8,W"
"##MN+00 00 11 0097 01648 5659 441773 204222 198"
"175.588808"
"$GPRMC,140749,A,2514.6725,N,08007.1408,W,0.5,84.9,240615,6.8,W"
"##MN+00 00 11 0099 01644 5660 441773 204222 198"
"175.588854"
"$GPRMC,140754,A,2514.6725,N,08007.1398,W,0.6,84.4,240615,6.8,W"
"##MN+00 00 11 0100 01646 5662 441775 204222 198"
"175.5889"
"$GPRMC,140757,A,2514.6727,N,08007.1393,W,0.6,84.9,240615,6.8,W"
"##MN+00 00 11 0101 01645 5663 441785 204223 198"
"175.588947"
"$GPRMC,140802,A,2514.6729,N,08007.1382,W,0.6,85.1,240615,6.8,W"
"##MN+00 00 11 0102 01649 5664 441776 204221 198"
"175.588993"
"$GPRMC,140806,A,2514.6729,N,08007.1374,W,0.6,84.3,240615,6.8,W"
"##MN-00 00 12 0102 01647 5666 441756 204217 198"
"175.589039"
"#increment_net"
"$GPRMC,140810,A,2514.6730,N,08007.1363,W,0.6,83.4,240615,6.8,W"
"##MN-00 00 11 0104 01648 5667 441727 204212 198"
"175.589086"
"$GPRMC,140814,A,2514.6731,N,08007.1354,W,0.8,79.7,240615,6.8,W"
"##MN-00 00 11 0105 01645 5669 441725 204210 198"
"175.589132"
"$GPRMC,140818,A,2514.6733,N,08007.1347,W,0.8,78.0,240615,6.8,W"
"##MN-00 00 11 0106 01648 5670 441728 204211 198"
"175.589178"
"$GPRMC,140822,A,2514.6736,N,08007.1340,W,0.7,76.8,240615,6.8,W"
"##MN-00 00 11 0107 01647 5671 441727 204211 198"
"175.589225"
"$GPRMC,140826,A,2514.6736,N,08007.1333,W,0.6,77.5,240615,6.8,W"
"##MN-00 00 11 0108 01648 5672 441722 204209 198"
"175.589271"
"$GPRMC,140830,A,2514.6738,N,08007.1325,W,0.7,78.3,240615,6.8,W"
"##MN-00 00 11 0109 01647 5674 441733 204211 198"
"175.589317"
"$GPRMC,140834,A,2514.6738,N,08007.1315,W,0.7,79.3,240615,6.8,W"
"##MN-00 00 11 0110 01648 5675 441738 204211 198"
"175.589363"
"$GPRMC,140838,A,2514.6740,N,08007.1306,W,0.7,80.2,240615,6.8,W"
"##MN-00 00 11 0111 01650 5676 441740 204211 198"
"175.58941"
"$GPRMC,140842,A,2514.6743,N,08007.1298,W,0.6,79.9,240615,6.8,W"
"##MN-00 00 11 0112 01649 5678 441751 204213 198"
"175.589456"
"$GPRMC,140846,A,2514.6743,N,08007.1291,W,0.6,79.9,240615,6.8,W"
"##MN-00 00 11 0114 01649 5679 441747 204213 198"
"175.589502"
"$GPRMC,140850,A,2514.6745,N,08007.1283,W,0.6,79.6,240615,6.8,W"
"##MN-00 00 11 0115 01649 5681 441738 204211 198"
"175.589549"
"$GPRMC,140854,A,2514.6745,N,08007.1273,W,0.6,79.5,240615,6.8,W"
"##MN-00 00 11 0116 01647 5682 441741 204211 198"
"175.589595"
"$GPRMC,140858,A,2514.6745,N,08007.1265,W,0.7,80.1,240615,6.8,W"
"##MN+00 00 11 0117 01648 5684 441747 204212 198"
"175.589641"
"$GPRMC,140902,A,2514.6747,N,08007.1256,W,0.7,80.7,240615,6.8,W"
"##MN+00 00 11 0118 01649 5684 441742 204212 198"
"175.589688"
"$GPRMC,140906,A,2514.6747,N,08007.1247,W,0.7,81.9,240615,6.8,W"
"##MN+00 00 11 0119 01648 5686 441742 204213 198"
"175.589734"
"$GPRMC,140910,A,2514.6749,N,08007.1239,W,0.8,83.5,240615,6.8,W"
"##MN+00 00 11 0120 01648 5687 441746 204213 198"
"175.58978"
"$GPRMC,140914,A,2514.6748,N,08007.1232,W,0.7,84.2,240615,6.8,W"
"##MN+00 00 11 0121 01647 5688 441727 204208 198"
"175.589826"
"$GPRMC,140918,A,2514.6750,N,08007.1223,W,0.8,84.2,240615,6.8,W"
"##MN+00 00 11 0122 01648 5690 441728 204208 198"
"175.589873"
"$GPRMC,140922,A,2514.6750,N,08007.1214,W,0.7,83.6,240615,6.8,W"
"##MN-00 00 11 0123 01653 5691 441726 204207 198"
"175.589919"
"#increment_net"
"$GPRMC,140926,A,2514.6749,N,08007.1206,W,0.7,84.6,240615,6.8,W"
"##MN-00 00 11 0125 01658 5692 441726 204207 198"
"175.589965"
"$GPRMC,140930,A,2514.6749,N,08007.1196,W,0.7,86.5,240615,6.8,W"
"##MN-00 00 11 0126 01662 5694 441720 204205 198"
"175.590012"
"$GPRMC,140934,A,2514.6749,N,08007.1187,W,0.7,88.8,240615,6.8,W"
"##MN-00 00 11 0128 01666 5695 441709 204202 198"
"175.590058"
"$GPRMC,140938,A,2514.6749,N,08007.1176,W,0.6,90.1,240615,6.8,W"
"##MN-00 00 11 0129 01671 5696 441711 204202 198"
"175.590104"
"$GPRMC,140942,A,2514.6747,N,08007.1167,W,0.8,95.8,240615,6.8,W"
"##MN-00 00 11 0130 01675 5698 441717 204202 198"
"175.59015"
"$GPRMC,140946,A,2514.6747,N,08007.1159,W,0.9,104.2,240615,6.8,"
"##MN-00 00 11 0132 01680 5699 441729 204205 198"
"175.590197"
"$GPRMC,140950,A,2514.6745,N,08007.1152,W,0.9,111.1,240615,6.8,"
"##MN-00 00 11 0133 01683 5700 441749 204208 198"
"175.590243"
"$GPRMC,140954,A,2514.6746,N,08007.1143,W,0.8,110.5,240615,6.8,"
"##MN-00 00 11 0134 01684 5702 441739 204206 198"
"175.590289"
"$GPRMC,140958,A,2514.6745,N,08007.1135,W,0.8,105.6,240615,6.8,"
"##MN-00 00 10 0136 01684 5703 441743 204206 198"
"175.590336"
"$GPRMC,141002,A,2514.6747,N,08007.1130,W,0.6,100.7,240615,6.8,"
"##MN-00 00 10 0137 01681 5704 441728 204203 198"
"175.590382"
"$GPRMC,141006,A,2514.6747,N,08007.1120,W,0.6,96.0,240615,6.8,W"
"##MN-00 00 10 0138 01683 5705 441735 204214 198"
"175.590428"
"$GPRMC,141010,A,2514.6748,N,08007.1111,W,0.6,92.6,240615,6.8,W"
"##MN-00 00 10 0140 01677 5706 441733 204205 198"
"175.590475"
"$GPRMC,141014,A,2514.6748,N,08007.1101,W,0.7,90.2,240615,6.8,W"
"##MN-00 00 11 0141 01676 5708 441724 204203 198"
"175.590521"
"$GPRMC,141018,A,2514.6749,N,08007.1094,W,0.7,88.3,240615,6.8,W"
"##MN-00 00 10 0142 01670 5709 441722 204203 198"
"175.590567"
"$GPRMC,141022,A,2514.6750,N,08007.1083,W,0.7,87.8,240615,6.8,W"
"##MN-00 00 09 0144 01668 5710 441713 204202 198"
"175.590613"
"$GPRMC,141026,A,2514.6751,N,08007.1077,W,0.6,89.7,240615,6.8,W"
"##MN-00 00 09 0145 01666 5711 441702 204201 198"
"175.59066"
"$GPRMC,141030,A,2514.6752,N,08007.1070,W,0.6,88.1,240615,6.8,W"
"##MN-00 00 09 0147 01662 5713 441708 204202 198"
"175.590706"
"$GPRMC,141034,A,2514.6754,N,08007.1064,W,0.6,82.9,240615,6.8,W"
"##MN-00 00 11 0148 01656 5714 441713 204203 198"
"175.590752"
"$GPRMC,141038,A,2514.6758,N,08007.1058,W,0.6,77.1,240615,6.8,W"
"##MN-00 00 10 0149 01654 5715 441721 204204 198"
"175.590799"
"$GPRMC,141042,A,2514.6761,N,08007.1052,W,0.6,72.5,240615,6.8,W"
"##MN-00 00 10 0150 01654 5716 441725 204205 198"
"175.590845"
"$GPRMC,141046,A,2514.6765,N,08007.1048,W,0.5,69.4,240615,6.8,W"
"##MN-00 00 09 0152 01649 5718 441716 204204 198"
"175.590891"
"$GPRMC,141050,A,2514.6768,N,08007.1040,W,0.5,67.5,240615,6.8,W"
"##MN-00 00 11 0153 01645 5719 441714 204204 198"
"175.590937"
"$GPRMC,141054,A,2514.6771,N,08007.1034,W,0.4,66.6,240615,6.8,W"
"##MN-00 00 09 0154 01640 5720 441708 204204 198"
"175.590984"
"$GPRMC,141058,A,2514.6771,N,08007.1029,W,0.5,66.8,240615,6.8,W"
"##MN-00 00 09 0156 01636 5721 441696 204201 198"
"175.59103"
"$GPRMC,141102,A,2514.6772,N,08007.1023,W,0.4,67.6,240615,6.8,W"
"##MN-00 00 09 0157 01634 5722 441686 204199 198"
"175.591088"
"$GPRMC,141106,A,2514.6773,N,08007.1018,W,0.4,68.7,240615,6.8,W"
"##MN-00 00 11 0158 01631 5723 441648 204194 198"
"175.591134"
"$GPRMC,141110,A,2514.6774,N,08007.1013,W,0.4,70.3,240615,6.8,W"
"##MN-00 00 11 0159 01628 5724 441656 204196 198"
"175.591181"
"$GPRMC,141114,A,2514.6773,N,08007.1009,W,0.5,70.7,240615,6.8,W"
"##MN-00 00 11 0161 01622 5726 441684 204199 198"
"175.591227"
"$GPRMC,141118,A,2514.6778,N,08007.1004,W,0.5,70.6,240615,6.8,W"
"##MN-00 00 09 0162 01617 5727 441671 204197 198"
"175.591273"
"$GPRMC,141122,A,2514.6781,N,08007.0997,W,0.5,70.3,240615,6.8,W"
"##MN-00 00 11 0163 01614 5728 441618 204191 198"
"175.591319"
"$GPRMC,141126,A,2514.6783,N,08007.0991,W,0.5,70.4,240615,6.8,W"
"##MN-00 00 10 0165 01610 5729 441600 204185 198"
"175.591366"
"$GPRMC,141130,A,2514.6786,N,08007.0984,W,0.5,70.7,240615,6.8,W"
"##MN-00 00 11 0166 01603 5731 441625 204190 198"
"175.591412"
"$GPRMC,141134,A,2514.6786,N,08007.0977,W,0.6,69.7,240615,6.8,W"
"##MN-00 00 11 0167 01601 5732 441639 204192 198"
"175.591458"
"$GPRMC,141138,A,2514.6789,N,08007.0971,W,0.8,65.7,240615,6.8,W"
"##MN-00 00 11 0169 01597 5733 441624 204188 198"
"175.591505"
"$GPRMC,141142,A,2514.6792,N,08007.0965,W,0.7,63.2,240615,6.8,W"
"##MN-00 00 11 0170 01593 5734 441620 204188 198"
"175.591551"
"$GPRMC,141146,A,2514.6796,N,08007.0957,W,0.8,61.8,240615,6.8,W"
"##MN-00 00 10 0171 01590 5735 441600 204186 198"
"175.591597"
"$GPRMC,141150,A,2514.6800,N,08007.0950,W,0.7,62.1,240615,6.8,W"
"##MN-00 00 09 0172 01587 5737 441606 204185 198"
"175.591644"
"$GPRMC,141154,A,2514.6804,N,08007.0944,W,0.6,62.6,240615,6.8,W"
"##MN-00 00 09 0173 01581 5738 441585 204176 198"
"175.59169"
"$GPRMC,141158,A,2514.6805,N,08007.0937,W,0.6,64.1,240615,6.8,W"
"##MN-00 00 09 0174 01579 5739 441506 204166 198"
"175.591736"
"$GPRMC,141202,A,2514.6808,N,08007.0930,W,0.7,65.6,240615,6.8,W"
"##MN-00 00 10 0176 01573 5740 441466 204156 198"
"175.591782"
"$GPRMC,141206,A,2514.6808,N,08007.0922,W,0.8,66.6,240615,6.8,W"
"##MN-00 00 09 0177 01569 5741 441509 204164 198"
"175.591829"
"$GPRMC,141210,A,2514.6810,N,08007.0915,W,0.8,67.5,240615,6.8,W"
"##MN-00 00 11 0178 01566 5742 441533 204171 198"
"175.591875"
"$GPRMC,141214,A,2514.6814,N,08007.0908,W,0.7,66.4,240615,6.8,W"
"##MN-00 00 09 0179 01556 5743 441507 204165 198"
"175.591921"
"$GPRMC,141218,A,2514.6817,N,08007.0903,W,0.6,64.9,240615,6.8,W"
"##MN-00 00 09 0180 01552 5744 441416 204148 198"
"175.591968"
"$GPRMC,141222,A,2514.6821,N,08007.0896,W,0.6,63.3,240615,6.8,W"
"##MN-00 00 10 0182 01552 5746 441375 204135 198"
