" Tow: 7WS-B   RVWS/WS15161"
" Date: 22/06/2015"
" Temperature Probe #  4762    Conductivity Probe #  710"
" Pressure Probe #  159"
" Flow Meter Calibration  4.71 (m/count)  "
"175.621921"
"$GPRMC,145530,A,2517.9745,N,08004.5911,W,0.4,125.6,240615,6.8,"
"##MN-00 00 62 0000 01524 6733 417845 827780 198"
"175.621968"
"$GPRMC,145535,A,2517.9742,N,08004.5911,W,0.5,133.4,240615,6.8,"
"##MN-00 00 62 0000 01524 6736 414757 827820 198"
"175.622014"
"$GPRMC,145539,A,2517.9738,N,08004.5910,W,0.6,139.9,240615,6.8,"
"##MN-00 00 62 0000 01524 6738 414809 827752 198"
"175.62206"
"$GPRMC,145543,A,2517.9736,N,08004.5907,W,0.6,145.2,240615,6.8,"
"##MN-00 00 62 0000 01523 6740 414541 827820 198"
"175.622106"
"$GPRMC,145547,A,2517.9731,N,08004.5903,W,0.5,146.9,240615,6.8,"
"##MN-00 00 62 0000 01523 6743 414104 827820 198"
"175.622153"
"$GPRMC,145551,A,2517.9729,N,08004.5899,W,0.5,146.8,240615,6.8,"
"##MN-00 00 62 0000 01524 6745 414252 827820 198"
"175.622199"
"$GPRMC,145555,A,2517.9725,N,08004.5895,W,0.5,146.5,240615,6.8,"
"##MN-00 00 62 0000 01523 6747 414000 827819 198"
"175.622245"
"$GPRMC,145559,A,2517.9724,N,08004.5892,W,0.6,145.8,240615,6.8,"
"##MN-00 00 62 0000 01523 6750 414283 827819 198"
"175.622292"
"$GPRMC,145603,A,2517.9720,N,08004.5889,W,0.5,144.6,240615,6.8,"
"##MN-00 00 62 0000 01523 6752 415474 827819 198"
"175.622338"
"$GPRMC,145607,A,2517.9714,N,08004.5884,W,0.5,143.5,240615,6.8,"
"##MN-00 00 62 0000 01522 6755 416488 827819 198"
"175.622384"
"$GPRMC,145611,A,2517.9713,N,08004.5880,W,0.5,139.3,240615,6.8,"
"##MN-00 00 62 0000 01524 6757 417184 827818 198"
"175.622431"
"$GPRMC,145615,A,2517.9712,N,08004.5878,W,0.5,131.2,240615,6.8,"
"##MN-00 00 62 0000 01523 6759 417922 827818 198"
"175.622477"
"$GPRMC,145619,A,2517.9711,N,08004.5871,W,0.5,126.1,240615,6.8,"
"##MN-00 00 62 0000 01524 6762 417557 827751 198"
"175.622523"
"$GPRMC,145623,A,2517.9708,N,08004.5865,W,0.5,122.7,240615,6.8,"
"##MN-00 00 62 0000 01524 6764 417215 827818 198"
"175.622569"
"$GPRMC,145627,A,2517.9706,N,08004.5857,W,0.5,118.8,240615,6.8,"
"##MN-00 00 62 0000 01524 6766 416378 827817 198"
"175.622616"
"$GPRMC,145631,A,2517.9704,N,08004.5850,W,0.5,115.9,240615,6.8,"
"##MN-00 00 62 0000 01524 6769 416127 827817 198"
"175.622662"
"$GPRMC,145635,A,2517.9704,N,08004.5844,W,0.5,114.9,240615,6.8,"
"##MN-00 00 62 0000 01522 6771 416084 827818 198"
"175.622708"
"$GPRMC,145639,A,2517.9702,N,08004.5839,W,0.6,117.6,240615,6.8,"
"##MN-00 00 62 0000 01525 6774 416328 827817 198"
"175.622755"
"$GPRMC,145643,A,2517.9701,N,08004.5835,W,0.7,121.0,240615,6.8,"
"##MN-00 00 62 0000 01523 6776 416140 827817 198"
"175.622801"
"$GPRMC,145647,A,2517.9698,N,08004.5832,W,0.5,123.0,240615,6.8,"
"##MN-00 00 62 0000 01525 6779 415305 827817 198"
"175.622847"
"$GPRMC,145651,A,2517.9695,N,08004.5827,W,0.5,123.6,240615,6.8,"
"##MN-00 00 62 0000 01523 6781 414867 827749 198"
"175.622894"
"$GPRMC,145655,A,2517.9692,N,08004.5825,W,0.5,124.6,240615,6.8,"
"##MN-00 00 61 0000 01524 6784 414106 827817 198"
"175.62294"
"$GPRMC,145659,A,2517.9689,N,08004.5820,W,0.4,126.4,240615,6.8,"
"##MN-00 00 59 0000 01523 6786 414538 827816 198"
"175.622986"
"$GPRMC,145703,A,2517.9687,N,08004.5817,W,0.5,129.8,240615,6.8,"
"##MN-00 00 51 0000 01523 6788 416408 827818 198"
"175.623032"
"$GPRMC,145707,A,2517.9682,N,08004.5813,W,0.5,132.9,240615,6.8,"
"##MN-00 00 51 0000 01524 6791 418432 827750 198"
"175.623079"
"$GPRMC,145711,A,2517.9680,N,08004.5811,W,0.4,134.8,240615,6.8,"
"##MN-00 00 51 0000 01524 6793 419843 827819 198"
"175.623125"
"$GPRMC,145715,A,2517.9675,N,08004.5810,W,0.3,137.3,240615,6.8,"
"##MN-00 00 51 0000 01523 6795 420881 827819 198"
"175.623171"
"$GPRMC,145719,A,2517.9673,N,08004.5809,W,0.4,141.8,240615,6.8,"
"##MN-00 00 51 0000 01523 6798 422667 827819 198"
"175.623218"
"$GPRMC,145723,A,2517.9669,N,08004.5806,W,0.5,145.9,240615,6.8,"
"##MN-00 00 51 0000 01524 6800 424218 827820 198"
"175.623264"
"$GPRMC,145727,A,2517.9669,N,08004.5801,W,0.4,146.0,240615,6.8,"
"##MN-00 00 51 0000 01523 6803 426189 827819 198"
"175.62331"
"$GPRMC,145731,A,2517.9669,N,08004.5798,W,0.4,146.9,240615,6.8,"
"##MN-00 00 49 0000 01525 6805 435343 251171 198"
"175.623357"
"$GPRMC,145735,A,2517.9670,N,08004.5797,W,0.5,148.9,240615,6.8,"
"##MN-00 00 04 0001 01523 6808 439727 223281 198"
"175.623403"
"$GPRMC,145739,A,2517.9673,N,08004.5796,W,0.6,154.9,240615,6.8,"
"##MN-00 00 07 0002 01522 6810 439523 203576 198"
"175.623449"
"$GPRMC,145743,A,2517.9677,N,08004.5796,W,0.8,165.2,240615,6.8,"
"##MN-00 00 07 0002 01523 6812 439727 203614 198"
"175.623495"
"$GPRMC,145747,A,2517.9684,N,08004.5791,W,0.9,179.0,240615,6.8,"
"##MN-00 00 05 0003 01522 6815 439852 203710 198"
"175.623542"
"$GPRMC,145751,A,2517.9695,N,08004.5791,W,0.9,196.0,240615,6.8,"
"##MN-00 00 05 0004 01528 6817 439911 203709 198"
"175.623588"
"$GPRMC,145755,A,2517.9705,N,08004.5789,W,0.9,212.4,240615,6.8,"
"##MN-00 00 06 0005 01535 6819 439936 203759 198"
"175.623634"
"$GPRMC,145759,A,2517.9713,N,08004.5787,W,0.5,262.7,240615,6.8,"
"##MN-00 00 05 0006 01537 6821 439969 203714 198"
"175.623681"
"$GPRMC,145803,A,2517.9724,N,08004.5784,W,0.5,314.1,240615,6.8,"
"##MN-00 00 06 0007 01540 6823 440010 203716 198"
"175.623727"
"$GPRMC,145807,A,2517.9731,N,08004.5779,W,0.6,345.5,240615,6.8,"
"##MN-00 00 05 0008 01542 6824 440059 203718 198"
"175.623773"
"$GPRMC,145811,A,2517.9738,N,08004.5774,W,0.7,4.0,240615,6.8,W*"
"##MN-00 00 05 0009 01544 6826 440078 203761 198"
"175.623819"
"$GPRMC,145815,A,2517.9745,N,08004.5770,W,0.8,14.9,240615,6.8,W"
"##MN-00 00 05 0010 01550 6827 440074 203750 198"
"175.623866"
"$GPRMC,145819,A,2517.9752,N,08004.5766,W,0.8,22.2,240615,6.8,W"
"##MN-00 00 06 0011 01550 6828 440091 203755 198"
"175.623912"
"$GPRMC,145823,A,2517.9760,N,08004.5762,W,0.9,26.2,240615,6.8,W"
"##MN-00 00 06 0012 01554 6829 440222 203766 197"
"175.623958"
"$GPRMC,145827,A,2517.9767,N,08004.5756,W,0.9,28.6,240615,6.8,W"
"##MN-00 00 05 0013 01558 6830 440303 203800 198"
"175.624016"
"$GPRMC,145831,A,2517.9774,N,08004.5750,W,0.8,30.0,240615,6.8,W"
"##MN-00 00 05 0013 01561 6831 440376 203815 198"
"175.624062"
"$GPRMC,145835,A,2517.9781,N,08004.5746,W,0.8,30.7,240615,6.8,W"
"##MN-00 00 05 0014 01564 6831 440403 203811 198"
"175.624109"
"$GPRMC,145839,A,2517.9789,N,08004.5742,W,0.8,31.5,240615,6.8,W"
"##MN-00 00 05 0015 01567 6831 440411 203805 198"
"175.624155"
"$GPRMC,145843,A,2517.9796,N,08004.5736,W,0.7,33.3,240615,6.8,W"
"##MN-00 00 05 0016 01571 6832 440460 203821 198"
"175.624201"
"$GPRMC,145847,A,2517.9803,N,08004.5727,W,0.8,35.6,240615,6.8,W"
"##MN-00 00 05 0017 01571 6832 440491 203803 198"
"175.624248"
"$GPRMC,145851,A,2517.9809,N,08004.5720,W,0.8,38.5,240615,6.8,W"
"##MN-00 00 05 0018 01576 6832 440499 203795 198"
"175.624294"
"$GPRMC,145855,A,2517.9814,N,08004.5715,W,0.9,40.5,240615,6.8,W"
"##MN-00 00 05 0019 01579 6832 440505 203798 198"
"175.62434"
"$GPRMC,145859,A,2517.9821,N,08004.5708,W,0.9,40.8,240615,6.8,W"
"##MN-00 00 05 0020 01584 6832 440539 203808 198"
"175.624387"
"$GPRMC,145903,A,2517.9828,N,08004.5701,W,0.9,41.1,240615,6.8,W"
"##MN-00 00 05 0021 01588 6831 440599 203822 198"
"175.624433"
"$GPRMC,145907,A,2517.9835,N,08004.5695,W,1.0,40.4,240615,6.8,W"
"##MN-00 00 05 0022 01592 6831 440614 203824 198"
"175.624479"
"$GPRMC,145911,A,2517.9841,N,08004.5690,W,1.0,38.3,240615,6.8,W"
"##MN-00 00 05 0023 01594 6831 440616 203823 197"
"175.624525"
"$GPRMC,145915,A,2517.9847,N,08004.5683,W,1.0,37.8,240615,6.8,W"
"##MN-00 00 05 0024 01599 6830 440626 203823 198"
"175.624572"
"$GPRMC,145919,A,2517.9854,N,08004.5677,W,1.0,37.3,240615,6.8,W"
"##MN-00 00 05 0025 01601 6830 440638 203826 198"
"175.624618"
"$GPRMC,145923,A,2517.9863,N,08004.5672,W,1.0,37.2,240615,6.8,W"
"##MN-00 00 05 0026 01604 6829 440644 203824 197"
"175.624664"
"$GPRMC,145927,A,2517.9870,N,08004.5665,W,1.0,37.0,240615,6.8,W"
"##MN-00 00 04 0027 01612 6828 440660 203828 198"
"175.624711"
"$GPRMC,145931,A,2517.9878,N,08004.5658,W,1.0,37.6,240615,6.8,W"
"##MN-00 00 05 0028 01613 6827 440671 203831 198"
"175.624757"
"$GPRMC,145935,A,2517.9886,N,08004.5650,W,0.9,38.7,240615,6.8,W"
"##MN-00 00 04 0029 01616 6827 440677 203832 198"
"175.624803"
"$GPRMC,145939,A,2517.9892,N,08004.5643,W,0.9,40.3,240615,6.8,W"
"##MN-00 00 04 0030 01618 6826 440677 203830 198"
"175.62485"
"$GPRMC,145943,A,2517.9899,N,08004.5635,W,0.9,41.0,240615,6.8,W"
"##MN-00 00 05 0031 01622 6825 440685 203831 197"
"175.624896"
"$GPRMC,145947,A,2517.9904,N,08004.5627,W,0.9,42.1,240615,6.8,W"
"##MN-00 00 05 0032 01622 6824 440689 203831 198"
"175.624942"
"$GPRMC,145951,A,2517.9912,N,08004.5619,W,0.9,43.9,240615,6.8,W"
"##MN+00 00 05 0033 01621 6823 440688 203831 197"
"175.624988"
"$GPRMC,145955,A,2517.9919,N,08004.5612,W,1.0,45.2,240615,6.8,W"
"##MN+00 00 05 0034 01621 6822 440686 203831 198"
"175.625035"
"$GPRMC,150000,A,2517.9929,N,08004.5604,W,0.9,45.2,240615,6.8,W"
"##MN+00 00 05 0035 01621 6821 440686 203831 198"
"175.625081"
"$GPRMC,150004,A,2517.9937,N,08004.5600,W,0.9,45.0,240615,6.8,W"
"##MN+00 00 05 0036 01624 6820 440684 203831 198"
"175.625127"
"$GPRMC,150008,A,2517.9944,N,08004.5592,W,1.0,42.4,240615,6.8,W"
"##MN+00 00 05 0037 01620 6819 440690 203832 198"
"175.625174"
"$GPRMC,150012,A,2517.9951,N,08004.5584,W,0.9,39.8,240615,6.8,W"
"##MN+00 00 05 0038 01627 6818 440687 203830 198"
"175.62522"
"$GPRMC,150016,A,2517.9959,N,08004.5577,W,0.9,38.4,240615,6.8,W"
"##MN-00 00 05 0039 01623 6817 440676 203829 198"
"175.625266"
"#increment_net"
"$GPRMC,150020,A,2517.9968,N,08004.5569,W,0.9,37.9,240615,6.8,W"
"##MN-00 00 05 0040 01623 6815 440672 203828 198"
"175.625312"
"$GPRMC,150024,A,2517.9975,N,08004.5562,W,1.0,38.5,240615,6.8,W"
"##MN-00 00 05 0041 01625 6814 440667 203827 198"
"175.625359"
"$GPRMC,150028,A,2517.9982,N,08004.5556,W,0.9,39.1,240615,6.8,W"
"##MN-00 00 05 0042 01622 6812 440667 203827 198"
"175.625405"
"$GPRMC,150032,A,2517.9988,N,08004.5550,W,0.9,39.6,240615,6.8,W"
"##MN-00 00 05 0043 01625 6811 440672 203828 198"
"175.625451"
"$GPRMC,150036,A,2517.9995,N,08004.5541,W,0.9,40.3,240615,6.8,W"
"##MN-00 00 06 0044 01620 6810 440669 203828 197"
"175.625498"
"$GPRMC,150040,A,2518.0002,N,08004.5534,W,0.9,40.3,240615,6.8,W"
"##MN-00 00 05 0045 01624 6808 440667 203826 198"
"175.625544"
"$GPRMC,150044,A,2518.0011,N,08004.5528,W,0.9,40.5,240615,6.8,W"
"##MN-00 00 05 0046 01625 6807 440668 203826 197"
"175.62559"
"$GPRMC,150048,A,2518.0018,N,08004.5521,W,1.0,40.7,240615,6.8,W"
"##MN+00 00 05 0047 01623 6806 440672 203827 198"
"175.625637"
"$GPRMC,150052,A,2518.0024,N,08004.5515,W,0.9,40.8,240615,6.8,W"
"##MN+00 00 05 0048 01625 6804 440669 203826 198"
"175.625683"
"$GPRMC,150056,A,2518.0034,N,08004.5508,W,0.9,40.0,240615,6.8,W"
"##MN+00 00 06 0050 01625 6803 440676 203828 197"
"175.625729"
"$GPRMC,150100,A,2518.0042,N,08004.5500,W,0.9,39.3,240615,6.8,W"
"##MN-00 00 06 0051 01626 6801 440674 203827 198"
"175.625775"
"$GPRMC,150104,A,2518.0051,N,08004.5492,W,1.0,38.5,240615,6.8,W"
"##MN-00 00 06 0052 01625 6800 440672 203827 198"
"175.625822"
"$GPRMC,150108,A,2518.0060,N,08004.5486,W,1.0,37.4,240615,6.8,W"
"##MN+00 00 06 0053 01628 6798 440670 203827 197"
"175.625868"
"$GPRMC,150112,A,2518.0069,N,08004.5480,W,1.0,35.4,240615,6.8,W"
"##MN+00 00 05 0054 01630 6797 440670 203826 198"
"175.625914"
"$GPRMC,150116,A,2518.0078,N,08004.5473,W,1.0,34.6,240615,6.8,W"
"##MN+00 00 05 0055 01629 6795 440668 203826 198"
"175.625961"
"#increment_net"
"$GPRMC,150120,A,2518.0087,N,08004.5468,W,1.0,33.0,240615,6.8,W"
"##MN-00 00 05 0056 01630 6794 440671 203827 197"
"175.626007"
"$GPRMC,150124,A,2518.0096,N,08004.5463,W,1.0,31.6,240615,6.8,W"
"##MN-00 00 05 0057 01628 6793 440672 203827 197"
"175.626053"
"$GPRMC,150128,A,2518.0107,N,08004.5457,W,0.9,32.0,240615,6.8,W"
"##MN-00 00 06 0058 01628 6791 440671 203827 198"
"175.6261"
"$GPRMC,150132,A,2518.0117,N,08004.5451,W,0.9,33.3,240615,6.8,W"
"##MN-00 00 06 0059 01625 6789 440668 203826 197"
"175.626146"
"$GPRMC,150136,A,2518.0125,N,08004.5445,W,0.9,34.3,240615,6.8,W"
"##MN-00 00 06 0060 01625 6788 440665 203826 197"
"175.626192"
"$GPRMC,150140,A,2518.0132,N,08004.5439,W,0.9,34.9,240615,6.8,W"
"##MN-00 00 06 0061 01623 6786 440665 203825 197"
"175.626238"
"$GPRMC,150144,A,2518.0139,N,08004.5431,W,0.8,35.2,240615,6.8,W"
"##MN-00 00 06 0062 01620 6784 440664 203825 197"
"175.626285"
"$GPRMC,150148,A,2518.0148,N,08004.5426,W,0.9,36.0,240615,6.8,W"
"##MN+00 00 06 0063 01621 6783 440664 203826 197"
"175.626331"
"$GPRMC,150152,A,2518.0154,N,08004.5418,W,0.9,37.0,240615,6.8,W"
"##MN+00 00 06 0064 01623 6781 440668 203826 197"
"175.626377"
"$GPRMC,150156,A,2518.0163,N,08004.5411,W,0.9,38.2,240615,6.8,W"
"##MN+00 00 06 0066 01622 6780 440671 203826 197"
"175.626424"
"$GPRMC,150200,A,2518.0171,N,08004.5405,W,1.0,39.4,240615,6.8,W"
"##MN-00 00 06 0067 01624 6778 440673 203827 197"
"175.62647"
"$GPRMC,150204,A,2518.0179,N,08004.5398,W,0.9,39.5,240615,6.8,W"
"##MN-00 00 06 0068 01623 6776 440674 203827 198"
"175.626516"
"$GPRMC,150208,A,2518.0188,N,08004.5392,W,1.0,37.7,240615,6.8,W"
"##MN+00 00 06 0069 01621 6775 440671 203827 197"
"175.626563"
"$GPRMC,150212,A,2518.0196,N,08004.5386,W,0.9,36.6,240615,6.8,W"
"##MN+00 00 06 0070 01622 6773 440673 203827 197"
"175.626609"
"$GPRMC,150216,A,2518.0204,N,08004.5381,W,1.0,34.3,240615,6.8,W"
"##MN+00 00 06 0071 01625 6771 440672 203826 197"
"175.626655"
"#increment_net"
"$GPRMC,150220,A,2518.0212,N,08004.5375,W,1.0,32.8,240615,6.8,W"
"##MN-00 00 06 0072 01626 6770 440670 203825 197"
"175.626701"
"$GPRMC,150224,A,2518.0222,N,08004.5368,W,1.0,32.1,240615,6.8,W"
"##MN-00 00 06 0073 01626 6768 440674 203827 197"
"175.626748"
"$GPRMC,150228,A,2518.0229,N,08004.5363,W,1.0,31.9,240615,6.8,W"
"##MN-00 00 06 0074 01624 6766 440672 203826 197"
"175.626794"
"$GPRMC,150232,A,2518.0237,N,08004.5357,W,0.9,31.5,240615,6.8,W"
"##MN-00 00 06 0075 01625 6764 440670 203826 197"
"175.62684"
"$GPRMC,150236,A,2518.0246,N,08004.5351,W,0.9,30.9,240615,6.8,W"
"##MN-00 00 05 0076 01621 6762 440666 203825 197"
"175.626887"
"$GPRMC,150240,A,2518.0254,N,08004.5347,W,1.0,29.3,240615,6.8,W"
"##MN-00 00 05 0077 01622 6761 440668 203825 197"
"175.626933"
"$GPRMC,150244,A,2518.0262,N,08004.5344,W,0.9,27.7,240615,6.8,W"
"##MN-00 00 05 0078 01621 6759 440665 203825 197"
"175.626979"
"$GPRMC,150248,A,2518.0271,N,08004.5340,W,0.8,25.9,240615,6.8,W"
"##MN+00 00 05 0079 01620 6758 440664 203826 197"
"175.627025"
"$GPRMC,150252,A,2518.0277,N,08004.5337,W,0.8,24.1,240615,6.8,W"
"##MN+00 00 05 0080 01618 6756 440667 203826 197"
"175.627072"
"$GPRMC,150256,A,2518.0286,N,08004.5336,W,0.8,22.2,240615,6.8,W"
"##MN+00 00 05 0082 01618 6754 440673 203827 197"
"175.62713"
"$GPRMC,150300,A,2518.0294,N,08004.5331,W,0.7,20.2,240615,6.8,W"
"##MN-00 00 05 0083 01617 6752 440670 203827 197"
"175.627176"
"$GPRMC,150304,A,2518.0301,N,08004.5325,W,0.8,19.3,240615,6.8,W"
"##MN-00 00 05 0084 01618 6750 440666 203826 197"
"175.627222"
"$GPRMC,150308,A,2518.0308,N,08004.5321,W,0.8,19.5,240615,6.8,W"
"##MN+00 00 05 0085 01617 6749 440653 203824 197"
"175.627269"
"$GPRMC,150312,A,2518.0316,N,08004.5319,W,0.7,19.9,240615,6.8,W"
"##MN+00 00 05 0086 01617 6747 440646 203822 197"
"175.627315"
"$GPRMC,150316,A,2518.0323,N,08004.5316,W,0.8,19.8,240615,6.8,W"
"##MN+00 00 06 0087 01620 6745 440644 203820 197"
"175.627361"
"$GPRMC,150320,A,2518.0330,N,08004.5312,W,0.7,19.4,240615,6.8,W"
"##MN-00 00 06 0088 01618 6743 440635 203820 197"
"175.627407"
"#increment_net"
"$GPRMC,150324,A,2518.0338,N,08004.5308,W,0.8,18.8,240615,6.8,W"
"##MN-00 00 06 0090 01615 6742 440636 203820 197"
"175.627454"
"$GPRMC,150328,A,2518.0344,N,08004.5305,W,0.8,17.3,240615,6.8,W"
"##MN-00 00 06 0091 01618 6740 440644 203839 197"
"175.6275"
"$GPRMC,150332,A,2518.0351,N,08004.5302,W,0.8,17.3,240615,6.8,W"
"##MN-00 00 05 0092 01615 6738 440645 203832 197"
"175.627546"
"$GPRMC,150336,A,2518.0358,N,08004.5300,W,0.8,17.9,240615,6.8,W"
"##MN-00 00 05 0093 01616 6736 440639 203821 197"
"175.627593"
"$GPRMC,150340,A,2518.0365,N,08004.5296,W,0.8,19.5,240615,6.8,W"
"##MN-00 00 05 0094 01616 6734 440641 203821 197"
"175.627639"
"$GPRMC,150344,A,2518.0376,N,08004.5293,W,0.9,19.8,240615,6.8,W"
"##MN-00 00 05 0096 01616 6733 440642 203821 197"
"175.627685"
"$GPRMC,150348,A,2518.0385,N,08004.5289,W,0.9,19.2,240615,6.8,W"
"##MN-00 00 05 0097 01615 6731 440642 203821 197"
"175.627731"
"$GPRMC,150352,A,2518.0394,N,08004.5284,W,0.9,21.0,240615,6.8,W"
"##MN+00 00 05 0098 01618 6729 440642 203821 197"
"175.627778"
"$GPRMC,150356,A,2518.0403,N,08004.5279,W,0.9,22.1,240615,6.8,W"
"##MN+00 00 06 0099 01618 6727 440642 203821 197"
"175.627824"
"$GPRMC,150400,A,2518.0410,N,08004.5273,W,0.9,24.3,240615,6.8,W"
"##MN+00 00 05 0100 01620 6726 440643 203820 197"
"175.62787"
"$GPRMC,150404,A,2518.0421,N,08004.5267,W,1.0,24.1,240615,6.8,W"
"##MN-00 00 05 0101 01620 6724 440641 203820 197"
"175.627917"
"$GPRMC,150408,A,2518.0432,N,08004.5262,W,1.0,26.2,240615,6.8,W"
"##MN-00 00 05 0102 01628 6722 440646 203821 197"
"175.627963"
"$GPRMC,150412,A,2518.0443,N,08004.5255,W,1.1,27.2,240615,6.8,W"
"##MN+00 00 06 0103 01627 6720 440654 203823 197"
"175.628009"
"$GPRMC,150416,A,2518.0453,N,08004.5248,W,1.1,28.7,240615,6.8,W"
"##MN+00 00 06 0104 01628 6718 440656 203823 197"
"175.628056"
"$GPRMC,150420,A,2518.0464,N,08004.5241,W,1.1,30.4,240615,6.8,W"
"##MN+00 00 43 0105 01630 6716 440654 203822 197"
"175.628102"
"$GPRMC,150424,A,2518.0475,N,08004.5233,W,1.1,32.4,240615,6.8,W"
"##MN-00 00 07 0106 01635 6714 440654 203822 197"
"175.628148"
"#increment_net"
"$GPRMC,150428,A,2518.0485,N,08004.5224,W,1.1,35.1,240615,6.8,W"
"##MN-00 00 06 0108 01639 6713 440655 203822 197"
"175.628194"
"$GPRMC,150432,A,2518.0493,N,08004.5215,W,1.1,38.3,240615,6.8,W"
"##MN-00 00 07 0109 01647 6711 440663 203822 197"
"175.628241"
"$GPRMC,150436,A,2518.0501,N,08004.5207,W,1.0,41.2,240615,6.8,W"
"##MN-00 00 06 0111 01651 6709 440665 203822 197"
"175.628287"
"$GPRMC,150440,A,2518.0508,N,08004.5199,W,0.9,43.6,240615,6.8,W"
"##MN-00 00 05 0112 01655 6708 440663 203822 197"
"175.628333"
"$GPRMC,150444,A,2518.0515,N,08004.5191,W,0.9,45.7,240615,6.8,W"
"##MN-00 00 06 0113 01656 6706 440663 203822 197"
"175.62838"
"$GPRMC,150448,A,2518.0521,N,08004.5181,W,0.9,48.3,240615,6.8,W"
"##MN-00 00 05 0115 01656 6704 440694 203828 197"
"175.628426"
"$GPRMC,150453,A,2518.0529,N,08004.5172,W,0.9,48.7,240615,6.8,W"
"##MN-00 00 05 0116 01652 6702 440700 203829 197"
"175.628472"
"$GPRMC,150456,A,2518.0535,N,08004.5167,W,0.9,47.9,240615,6.8,W"
"##MN-00 00 05 0118 01651 6700 440708 203831 197"
"175.628519"
"$GPRMC,150501,A,2518.0542,N,08004.5158,W,0.9,47.0,240615,6.8,W"
"##MN-00 00 05 0119 01647 6698 440694 203829 197"
"175.628565"
"$GPRMC,150505,A,2518.0547,N,08004.5151,W,0.9,46.7,240615,6.8,W"
"##MN-00 00 05 0121 01643 6697 440687 203828 197"
"175.628611"
"$GPRMC,150509,A,2518.0555,N,08004.5141,W,0.9,47.7,240615,6.8,W"
"##MN-00 00 06 0122 01636 6695 440684 203828 197"
"175.628657"
"$GPRMC,150512,A,2518.0558,N,08004.5134,W,0.8,47.3,240615,6.8,W"
"##MN-00 00 05 0124 01636 6693 440678 203827 197"
"175.628704"
"$GPRMC,150517,A,2518.0566,N,08004.5126,W,0.9,49.7,240615,6.8,W"
"##MN-00 00 05 0125 01631 6691 440679 203828 197"
"175.62875"
"$GPRMC,150521,A,2518.0573,N,08004.5116,W,0.9,49.8,240615,6.8,W"
"##MN-00 00 05 0126 01626 6690 440671 203826 197"
"175.628796"
"$GPRMC,150525,A,2518.0580,N,08004.5107,W,0.9,50.6,240615,6.8,W"
"##MN-00 00 04 0128 01625 6687 440670 203826 197"
"175.628843"
"$GPRMC,150529,A,2518.0587,N,08004.5098,W,1.0,51.0,240615,6.8,W"
"##MN-00 00 05 0129 01622 6686 440674 203827 197"
"175.628889"
"$GPRMC,150533,A,2518.0593,N,08004.5089,W,1.0,51.2,240615,6.8,W"
"##MN-00 00 05 0131 01615 6684 440671 203826 197"
"175.628935"
"$GPRMC,150537,A,2518.0600,N,08004.5079,W,1.0,52.4,240615,6.8,W"
"##MN-00 00 05 0132 01609 6682 440671 203827 197"
"175.628981"
"$GPRMC,150541,A,2518.0605,N,08004.5069,W,1.0,53.0,240615,6.8,W"
"##MN-00 00 04 0134 01604 6680 440657 203826 197"
"175.629028"
"$GPRMC,150545,A,2518.0612,N,08004.5059,W,1.0,54.5,240615,6.8,W"
"##MN-00 00 04 0135 01605 6679 440655 203825 197"
"175.629074"
"$GPRMC,150549,A,2518.0620,N,08004.5050,W,1.1,56.2,240615,6.8,W"
"##MN-00 00 04 0136 01601 6677 440654 203825 197"
"175.62912"
"$GPRMC,150553,A,2518.0627,N,08004.5040,W,1.1,57.0,240615,6.9,W"
"##MN-00 00 04 0138 01599 6675 440651 203823 197"
"175.629167"
"$GPRMC,150557,A,2518.0634,N,08004.5031,W,1.2,56.4,240615,6.9,W"
"##MN-00 00 04 0139 01596 6674 440643 203822 197"
"175.629213"
"$GPRMC,150601,A,2518.0643,N,08004.5019,W,1.2,55.4,240615,6.9,W"
"##MN-00 00 04 0141 01590 6671 440635 203821 197"
"175.629259"
"$GPRMC,150605,A,2518.0651,N,08004.5008,W,1.3,54.5,240615,6.9,W"
"##MN-00 00 04 0142 01589 6670 440627 203821 197"
"175.629306"
"$GPRMC,150609,A,2518.0659,N,08004.4996,W,1.3,53.9,240615,6.9,W"
"##MN-00 00 04 0143 01585 6668 440632 203821 197"
"175.629352"
"$GPRMC,150613,A,2518.0667,N,08004.4984,W,1.2,53.9,240615,6.9,W"
"##MN-00 00 04 0145 01584 6666 440632 203821 197"
"175.629398"
"$GPRMC,150617,A,2518.0677,N,08004.4969,W,1.3,53.1,240615,6.9,W"
"##MN-00 00 04 0146 01579 6665 440617 203819 197"
"175.629444"
"$GPRMC,150621,A,2518.0688,N,08004.4956,W,1.3,51.8,240615,6.9,W"
"##MN-00 00 04 0147 01578 6663 440591 203813 197"
"175.629491"
"$GPRMC,150625,A,2518.0698,N,08004.4943,W,1.4,51.3,240615,6.9,W"
"##MN-00 00 04 0149 01573 6661 440573 203811 197"
"175.629537"
"$GPRMC,150629,A,2518.0708,N,08004.4929,W,1.4,50.9,240615,6.9,W"
"##MN-00 00 04 0150 01569 6659 440574 203809 197"
"175.629583"
"$GPRMC,150633,A,2518.0719,N,08004.4914,W,1.4,50.6,240615,6.9,W"
"##MN-00 00 04 0151 01570 6657 440579 203810 197"
"175.62963"
"$GPRMC,150637,A,2518.0731,N,08004.4898,W,1.5,50.9,240615,6.9,W"
"##MN-00 00 04 0152 01568 6656 440526 203801 197"
"175.629676"
"$GPRMC,150641,A,2518.0742,N,08004.4882,W,1.5,51.3,240615,6.9,W"
"##MN-00 00 04 0153 01562 6654 440416 203781 197"
"175.629722"
"$GPRMC,150645,A,2518.0753,N,08004.4867,W,1.6,50.7,240615,6.9,W"
"##MN-00 00 04 0155 01554 6652 440317 203758 197"
"175.629769"
"$GPRMC,150649,A,2518.0764,N,08004.4851,W,1.6,49.9,240615,6.9,W"
"##MN-00 00 04 0156 01553 6650 440269 203749 197"
"175.629815"
"$GPRMC,150653,A,2518.0778,N,08004.4834,W,1.7,49.9,240615,6.9,W"
"##MN-00 00 05 0157 01552 6648 440218 203734 197"
"175.629861"
"$GPRMC,150657,A,2518.0792,N,08004.4818,W,1.8,49.8,240615,6.9,W"
"##MN-00 00 04 0158 01548 6647 440174 203718 197"
"175.629907"
"$GPRMC,150701,A,2518.0804,N,08004.4802,W,1.8,49.2,240615,6.9,W"
"##MN-00 00 04 0159 01547 6645 440083 203701 197"
"175.629954"
"$GPRMC,150705,A,2518.0821,N,08004.4786,W,1.9,47.5,240615,6.9,W"
"##MN-00 00 05 0160 01541 6643 439944 203681 197"
"175.63"
"$GPRMC,150709,A,2518.0836,N,08004.4770,W,1.9,44.8,240615,6.9,W"
"##MN-00 00 05 0161 01540 6641 440003 203692 197"
"175.630046"
"$GPRMC,150713,A,2518.0853,N,08004.4752,W,1.9,42.6,240615,6.9,W"
"##MN-00 00 05 0162 01538 6639 440029 203697 197"
"175.630093"
"$GPRMC,150717,A,2518.0869,N,08004.4737,W,2.0,40.9,240615,6.9,W"
"##MN-00 00 05 0163 01535 6638 440096 203707 197"
"175.630139"
"$GPRMC,150721,A,2518.0887,N,08004.4724,W,2.0,39.4,240615,6.9,W"
"##MN-00 00 05 0164 01530 6636 439977 203684 197"
"175.630185"
"$GPRMC,150725,A,2518.0905,N,08004.4709,W,2.0,37.9,240615,6.9,W"
"##MN-00 00 05 0165 01524 6635 439922 203672 197"
"175.630231"
"$GPRMC,150729,A,2518.0923,N,08004.4692,W,2.0,37.1,240615,6.9,W"
"##MN-00 00 05 0166 01523 6633 439910 203675 197"
"175.630278"
"$GPRMC,150733,A,2518.0940,N,08004.4674,W,2.0,37.6,240615,6.9,W"
"##MN-00 00 07 0167 01523 6631 439971 203785 197"
"175.630324"
"$GPRMC,150737,A,2518.0959,N,08004.4657,W,2.1,39.2,240615,6.9,W"
"##MN-00 00 44 0168 01524 6629 441681 241993 197"
"175.630382"
"$GPRMC,150741,A,2518.0977,N,08004.4640,W,2.1,41.1,240615,6.9,W"
"##MN-00 00 45 0168 01523 6628 446224 653594 197"
"175.630428"
"$GPRMC,150745,A,2518.0995,N,08004.4620,W,2.2,42.8,240615,6.9,W"
"##MN-00 00 46 0170 01522 6626 450634 827811 197"
"175.630475"
"$GPRMC,150749,A,2518.1013,N,08004.4597,W,2.3,45.2,240615,6.9,W"
"##MN-00 00 46 0171 01523 6624 455117 827841 197"
"175.630521"
"$GPRMC,150753,A,2518.1031,N,08004.4577,W,2.3,46.4,240615,6.9,W"
"##MN-00 00 46 0172 01524 6622 457354 827844 197"
"175.630567"
"$GPRMC,150757,A,2518.1049,N,08004.4555,W,2.3,47.6,240615,6.9,W"
"##MN-00 00 45 0174 01522 6621 458306 827845 197"
"175.630613"
"$GPRMC,150801,A,2518.1067,N,08004.4531,W,2.4,48.4,240615,6.9,W"
"##MN-00 00 46 0177 01524 6619 458339 827846 197"
"175.63066"
"$GPRMC,150805,A,2518.1086,N,08004.4505,W,2.5,49.5,240615,6.9,W"
"##MN-00 00 47 0178 01525 6617 458179 827847 197"
"175.630706"
"$GPRMC,150809,A,2518.1103,N,08004.4477,W,2.6,49.6,240615,6.9,W"
"##MN-00 00 48 0181 01522 6616 458268 827848 197"
"175.630752"
"$GPRMC,150813,A,2518.1122,N,08004.4449,W,2.7,49.6,240615,6.9,W"
"##MN-00 00 48 0182 01522 6614 458097 827849 197"
"175.630799"
"$GPRMC,150817,A,2518.1143,N,08004.4423,W,2.8,49.9,240615,6.9,W"
"##MN-00 00 48 0183 01522 6613 457546 827850 197"
"175.630845"
"$GPRMC,150821,A,2518.1161,N,08004.4393,W,2.8,48.7,240615,6.9,W"
"##MN-00 00 47 0185 01523 6611 456602 827851 197"
"175.630891"
"$GPRMC,150825,A,2518.1183,N,08004.4365,W,2.9,48.3,240615,6.9,W"
"##MN-00 00 47 0186 01522 6609 455583 827852 197"
"175.630937"
"$GPRMC,150829,A,2518.1204,N,08004.4337,W,2.9,48.9,240615,6.9,W"
"##MN-00 00 48 0187 01526 6608 455348 827852 197"
"175.630984"
"$GPRMC,150833,A,2518.1226,N,08004.4308,W,3.0,49.6,240615,6.9,W"
"##MN-00 00 47 0188 01522 6606 454897 827853 197"
"175.63103"
"$GPRMC,150837,A,2518.1247,N,08004.4280,W,3.0,50.3,240615,6.9,W"
"##MN-00 00 46 0188 01522 6604 454282 827853 197"
"175.631076"
"$GPRMC,150841,A,2518.1268,N,08004.4250,W,3.0,50.7,240615,6.9,W"
"##MN-00 00 47 0188 01523 6603 453820 827852 197"
"175.631123"
"$GPRMC,150845,A,2518.1288,N,08004.4221,W,3.0,51.7,240615,6.9,W"
"##MN-00 00 47 0188 01525 6601 453166 827853 197"
"175.631169"
"$GPRMC,150849,A,2518.1310,N,08004.4195,W,3.0,52.1,240615,6.9,W"
"##MN-00 00 46 0188 01523 6599 452460 827851 197"
"175.631215"
"$GPRMC,150853,A,2518.1331,N,08004.4164,W,3.0,52.1,240615,6.9,W"
"##MN-00 00 43 0188 01524 6598 452053 827851 197"
"175.631262"
"$GPRMC,150857,A,2518.1352,N,08004.4134,W,3.0,52.1,240615,6.9,W"
"##MN-00 00 37 0188 01522 6596 451564 827838 197"
"175.631308"
"$GPRMC,150901,A,2518.1371,N,08004.4104,W,3.0,52.6,240615,6.9,W"
"##MN-00 00 37 0188 01523 6595 451397 827851 197"
"175.631354"
"$GPRMC,150905,A,2518.1393,N,08004.4075,W,3.0,52.4,240615,6.9,W"
"##MN-00 00 37 0188 01523 6593 451202 827851 197"
"175.6314"
"$GPRMC,150909,A,2518.1413,N,08004.4046,W,3.0,52.8,240615,6.9,W"
"##MN-00 00 37 0188 01522 6591 450838 827852 197"
"175.631447"
"$GPRMC,150914,A,2518.1436,N,08004.4008,W,3.0,54.5,240615,6.9,W"
"##MN-00 00 38 0188 01522 6590 450736 827852 197"
"175.631493"
"$GPRMC,150918,A,2518.1454,N,08004.3981,W,3.0,54.7,240615,6.9,W"
"##MN-00 00 37 0188 01523 6588 450457 827853 197"
"175.631539"
"$GPRMC,150922,A,2518.1474,N,08004.3957,W,2.9,53.5,240615,6.9,W"
"##MN-00 00 38 0188 01524 6587 450301 827854 197"
"175.631586"
"$GPRMC,150926,A,2518.1493,N,08004.3933,W,2.8,52.6,240615,6.9,W"
"##MN-00 00 38 0188 01525 6585 450003 827854 197"
"175.631632"
"$GPRMC,150930,A,2518.1510,N,08004.3907,W,2.8,53.1,240615,6.9,W"
"##MN-00 00 38 0188 01525 6584 449965 827854 197"
"175.631678"
"$GPRMC,150934,A,2518.1529,N,08004.3879,W,2.8,54.2,240615,6.9,W"
"##MN-00 00 38 0188 01523 6582 449997 827855 197"
"175.631725"
"$GPRMC,150938,A,2518.1547,N,08004.3849,W,2.8,54.6,240615,6.9,W"
"##MN-00 00 38 0188 01524 6581 450007 827855 197"
"175.631771"
"$GPRMC,150942,A,2518.1566,N,08004.3818,W,2.8,54.6,240615,6.9,W"
"##MN-00 00 39 0188 01524 6579 449569 827855 197"
"175.631817"
"$GPRMC,150946,A,2518.1584,N,08004.3788,W,2.9,55.0,240615,6.9,W"
"##MN-00 00 39 0188 01524 6578 449423 827856 197"
"175.631863"
"$GPRMC,150950,A,2518.1604,N,08004.3759,W,2.9,55.1,240615,6.9,W"
"##MN-00 00 40 0188 01525 6576 449213 827856 197"
"175.63191"
"$GPRMC,150954,A,2518.1624,N,08004.3729,W,2.9,55.0,240615,6.9,W"
"##MN-00 00 41 0188 01524 6575 447174 827857 197"
"175.631956"
"$GPRMC,150958,A,2518.1642,N,08004.3697,W,3.0,55.1,240615,6.9,W"
"##MN-00 00 41 0188 01523 6573 445143 822935 197"
"175.632002"
"$GPRMC,151002,A,2518.1664,N,08004.3665,W,3.1,55.7,240615,6.9,W"
"##MN-00 00 42 0188 01525 6572 444174 827823 197"
"175.632049"
"$GPRMC,151006,A,2518.1685,N,08004.3634,W,3.1,55.8,240615,6.9,W"
"##MN-00 00 42 0188 01524 6570 443152 827822 197"
"175.632095"
"$GPRMC,151010,A,2518.1707,N,08004.3601,W,3.1,56.4,240615,6.9,W"
"##MN-00 00 42 0188 01524 6569 442348 827823 197"
"175.632141"
"$GPRMC,151014,A,2518.1727,N,08004.3564,W,3.3,56.3,240615,6.9,W"
"##MN-00 00 42 0188 01523 6568 441295 827822 197"
"175.632187"
"$GPRMC,151018,A,2518.1747,N,08004.3527,W,3.3,56.7,240615,6.9,W"
"##MN-00 00 42 0188 01526 6567 441006 827822 197"
"175.632234"
"$GPRMC,151022,A,2518.1769,N,08004.3493,W,3.4,56.1,240615,6.9,W"
"##MN-00 00 42 0188 01523 6565 440352 827823 197"
"175.63228"
"$GPRMC,151026,A,2518.1789,N,08004.3456,W,3.4,56.1,240615,6.9,W"
"##MN-00 00 42 0188 01522 6564 439914 827824 197"
"175.632326"
"$GPRMC,151030,A,2518.1808,N,08004.3419,W,3.4,56.9,240615,6.9,W"
"##MN-00 00 42 0188 01525 6563 438728 827823 197"
"175.632373"
"$GPRMC,151034,A,2518.1826,N,08004.3382,W,3.4,57.8,240615,6.9,W"
"##MN-00 00 42 0188 01524 6561 437546 827824 197"
"175.632419"
"$GPRMC,151038,A,2518.1847,N,08004.3346,W,3.4,58.1,240615,6.9,W"
"##MN-00 00 42 0188 01524 6560 437009 827824 197"
"175.632465"
"$GPRMC,151042,A,2518.1866,N,08004.3311,W,3.3,58.9,240615,6.9,W"
"##MN-00 00 46 0188 01524 6559 436520 827822 197"
"175.632512"
"$GPRMC,151046,A,2518.1887,N,08004.3278,W,3.3,59.0,240615,6.9,W"
"##MN-00 00 46 0188 01522 6557 436128 827820 197"
"175.632558"
"$GPRMC,151050,A,2518.1906,N,08004.3244,W,3.3,59.5,240615,6.9,W"
"##MN-00 00 46 0188 01524 6556 437311 827820 197"
"175.632604"
"$GPRMC,151054,A,2518.1924,N,08004.3210,W,3.2,59.2,240615,6.9,W"
"##MN-00 00 46 0188 01524 6555 437493 827821 197"
"175.63265"
"$GPRMC,151058,A,2518.1942,N,08004.3177,W,3.2,59.0,240615,6.9,W"
"##MN-00 00 46 0188 01525 6554 437919 827822 197"
"175.632697"
"$GPRMC,151102,A,2518.1960,N,08004.3143,W,3.2,59.0,240615,6.9,W"
"##MN-00 00 46 0188 01524 6553 437921 827821 197"
"175.632743"
"$GPRMC,151106,A,2518.1977,N,08004.3111,W,3.1,59.4,240615,6.9,W"
"##MN-00 00 46 0188 01527 6552 438376 827822 197"
"175.632789"
"$GPRMC,151110,A,2518.1992,N,08004.3077,W,3.0,59.6,240615,6.9,W"
"##MN-00 00 46 0188 01524 6551 439245 827822 197"
"175.632836"
"$GPRMC,151114,A,2518.2010,N,08004.3045,W,3.0,59.2,240615,6.9,W"
"##MN-00 00 46 0188 01523 6549 439925 827822 197"
"175.632882"
"$GPRMC,151118,A,2518.2027,N,08004.3013,W,3.0,59.2,240615,6.9,W"
"##MN-00 00 46 0188 01524 6549 440012 827823 197"
"175.632928"
"$GPRMC,151122,A,2518.2043,N,08004.2981,W,3.0,59.7,240615,6.9,W"
"##MN-00 00 46 0188 01525 6548 440373 827823 197"
"175.632975"
"$GPRMC,151126,A,2518.2061,N,08004.2948,W,3.0,59.8,240615,6.9,W"
"##MN-00 00 46 0188 01523 6546 440173 827823 197"
"175.633021"
"$GPRMC,151130,A,2518.2078,N,08004.2914,W,3.0,60.2,240615,6.9,W"
"##MN-00 00 49 0188 01522 6545 439779 827822 197"
"175.633067"
"$GPRMC,151134,A,2518.2097,N,08004.2882,W,3.0,59.8,240615,6.9,W"
"##MN-00 00 49 0188 01522 6544 438639 827822 197"
"175.633113"
"$GPRMC,151138,A,2518.2115,N,08004.2851,W,3.0,59.3,240615,6.9,W"
"##MN-00 00 49 0188 01523 6543 437020 827822 197"
"175.63316"
"$GPRMC,151142,A,2518.2133,N,08004.2820,W,3.0,57.4,240615,6.9,W"
"##MN-00 00 49 0188 01524 6542 435760 827822 197"
"175.633206"
"$GPRMC,151146,A,2518.2151,N,08004.2790,W,3.0,55.7,240615,6.9,W"
"##MN-00 00 49 0188 01525 6541 435452 827823 197"
"175.633252"
"$GPRMC,151150,A,2518.2172,N,08004.2761,W,2.9,54.6,240615,6.9,W"
"##MN-00 00 50 0188 01525 6540 434991 827823 197"
"175.633299"
"$GPRMC,151154,A,2518.2191,N,08004.2732,W,3.0,53.7,240615,6.9,W"
"##MN-00 00 50 0188 01523 6539 434047 827823 197"
"175.633345"
"$GPRMC,151158,A,2518.2213,N,08004.2705,W,3.0,52.0,240615,6.9,W"
"##MN-00 00 50 0188 01525 6538 433204 827823 197"
"175.633391"
"$GPRMC,151202,A,2518.2234,N,08004.2680,W,3.1,51.1,240615,6.9,W"
"##MN-00 00 50 0188 01526 6537 432969 827823 197"
"175.633438"
"$GPRMC,151206,A,2518.2256,N,08004.2656,W,3.1,50.2,240615,6.9,W"
"##MN-00 00 50 0188 01525 6537 433193 827821 197"
"175.633484"
"$GPRMC,151210,A,2518.2280,N,08004.2629,W,3.1,50.2,240615,6.9,W"
"##MN-00 00 50 0188 01525 6536 432845 827821 197"
"175.63353"
"$GPRMC,151214,A,2518.2300,N,08004.2599,W,3.1,51.0,240615,6.9,W"
"##MN-00 00 50 0188 01524 6535 432406 827821 197"
"175.633576"
"$GPRMC,151218,A,2518.2318,N,08004.2567,W,3.1,52.1,240615,6.9,W"
"##MN-00 00 50 0188 01525 6534 431860 827821 197"
"175.633634"
"$GPRMC,151222,A,2518.2339,N,08004.2534,W,3.1,52.7,240615,6.9,W"
"##MN-00 00 50 0188 01523 6533 432132 827821 197"
"175.633681"
"$GPRMC,151226,A,2518.2357,N,08004.2501,W,3.1,53.9,240615,6.9,W"
"##MN-00 00 50 0188 01526 6533 432030 827822 197"
"175.633727"
"$GPRMC,151230,A,2518.2378,N,08004.2468,W,3.1,54.9,240615,6.9,W"
"##MN-00 00 50 0188 01525 6532 432211 827821 197"
"175.633773"
"$GPRMC,151234,A,2518.2397,N,08004.2435,W,3.1,55.0,240615,6.9,W"
"##MN-00 00 50 0188 01525 6531 432979 827821 197"
"175.633819"
"$GPRMC,151238,A,2518.2415,N,08004.2402,W,3.1,56.1,240615,6.9,W"
"##MN-00 00 50 0188 01523 6530 433629 827822 197"
"175.633866"
"$GPRMC,151242,A,2518.2433,N,08004.2369,W,3.1,57.0,240615,6.9,W"
"##MN-00 00 50 0188 01526 6529 433755 827822 197"
"175.633912"
"$GPRMC,151246,A,2518.2453,N,08004.2337,W,3.1,57.7,240615,6.9,W"
"##MN-00 00 50 0188 01525 6528 434402 827822 197"
"175.633958"
"$GPRMC,151250,A,2518.2466,N,08004.2310,W,3.2,58.6,240615,6.9,W"
"##MN-00 00 50 0188 01527 6528 435180 827822 197"
"175.634005"
"$GPRMC,151254,A,2518.2487,N,08004.2266,W,3.1,59.2,240615,6.9,W"
"##MN-00 00 50 0188 01525 6527 435131 827822 197"
"175.634051"
"$GPRMC,151258,A,2518.2502,N,08004.2231,W,3.1,59.8,240615,6.9,W"
"##MN-00 00 50 0188 01525 6526 435150 827823 197"
"175.634097"
"$GPRMC,151302,A,2518.2520,N,08004.2197,W,3.1,60.2,240615,6.9,W"
"##MN-00 00 50 0188 01525 6526 435502 827822 197"
"175.634144"
"$GPRMC,151306,A,2518.2538,N,08004.2163,W,3.1,60.8,240615,6.9,W"
"##MN-00 00 50 0188 01524 6525 435425 827823 197"
"175.63419"
"$GPRMC,151310,A,2518.2556,N,08004.2130,W,3.1,61.0,240615,6.9,W"
"##MN-00 00 50 0188 01526 6524 435408 827822 197"
"175.634236"
"$GPRMC,151314,A,2518.2573,N,08004.2097,W,3.1,61.0,240615,6.9,W"
"##MN-00 00 50 0188 01525 6523 435299 827823 197"
"175.634282"
"$GPRMC,151318,A,2518.2591,N,08004.2063,W,3.0,60.4,240615,6.9,W"
"##MN-00 00 50 0188 01526 6523 435403 827823 197"
"175.634329"
"$GPRMC,151322,A,2518.2610,N,08004.2030,W,3.1,60.4,240615,6.9,W"
"##MN-00 00 50 0188 01525 6522 434738 827823 197"
"175.634375"
"$GPRMC,151326,A,2518.2628,N,08004.1995,W,3.1,60.1,240615,6.9,W"
"##MN-00 00 50 0188 01526 6522 434078 827823 197"
"175.634421"
"$GPRMC,151330,A,2518.2645,N,08004.1959,W,3.2,59.5,240615,6.9,W"
"##MN-00 00 50 0188 01524 6521 432881 827823 197"
"175.634468"
"$GPRMC,151334,A,2518.2661,N,08004.1925,W,3.2,59.2,240615,6.9,W"
"##MN-00 00 50 0188 01524 6520 431980 827823 197"
"175.634514"
"$GPRMC,151338,A,2518.2682,N,08004.1891,W,3.2,59.3,240615,6.9,W"
"##MN-00 00 50 0188 01525 6520 430789 827824 197"
"175.63456"
"$GPRMC,151342,A,2518.2700,N,08004.1857,W,3.2,59.2,240615,6.9,W"
"##MN-00 00 50 0188 01525 6519 430367 827824 197"
"175.634606"
"$GPRMC,151346,A,2518.2719,N,08004.1822,W,3.2,58.6,240615,6.9,W"
"##MN-00 00 50 0188 01527 6519 430323 827823 197"
"175.634653"
"$GPRMC,151350,A,2518.2742,N,08004.1792,W,3.1,56.3,240615,6.9,W"
"##MN-00 00 50 0188 01524 6518 430005 827824 197"
"175.634699"
"$GPRMC,151354,A,2518.2765,N,08004.1762,W,3.2,55.0,240615,6.9,W"
"##MN-00 00 50 0188 01524 6518 429281 827823 197"
"175.634745"
"$GPRMC,151359,A,2518.2794,N,08004.1726,W,3.3,53.8,240615,6.9,W"
"##MN-00 00 50 0188 01524 6517 429187 827823 197"
"175.634792"
"$GPRMC,151403,A,2518.2820,N,08004.1693,W,3.4,52.3,240615,6.9,W"
"##MN-00 00 50 0188 01526 6516 428690 827824 197"
"175.634838"
"$GPRMC,151407,A,2518.2844,N,08004.1663,W,3.3,50.3,240615,6.9,W"
"##MN-00 00 50 0188 01525 6516 428907 827824 197"
"175.634884"
"$GPRMC,151411,A,2518.2870,N,08004.1634,W,3.3,47.2,240615,6.9,W"
"##MN-00 00 50 0188 01525 6516 429132 827823 197"
"175.634931"
"$GPRMC,151415,A,2518.2899,N,08004.1610,W,3.3,44.3,240615,6.9,W"
"##MN-00 00 50 0188 01524 6515 429102 827824 197"
"175.634977"
"$GPRMC,151419,A,2518.2927,N,08004.1581,W,3.2,41.4,240615,6.9,W"
"##MN-00 00 50 0188 01524 6515 429623 827823 197"
"175.635023"
"$GPRMC,151423,A,2518.2953,N,08004.1558,W,3.2,39.6,240615,6.9,W"
"##MN-00 00 50 0188 01524 6514 430824 827824 197"
"175.635069"
"$GPRMC,151427,A,2518.2984,N,08004.1536,W,3.3,38.4,240615,6.9,W"
"##MN-00 00 50 0188 01524 6514 431553 827824 197"
"175.635116"
"$GPRMC,151431,A,2518.3015,N,08004.1510,W,3.3,37.8,240615,6.9,W"
"##MN-00 00 50 0188 01523 6513 431517 827824 197"
"175.635162"
"$GPRMC,151435,A,2518.3047,N,08004.1486,W,3.4,37.9,240615,6.9,W"
"##MN-00 00 50 0188 01524 6513 431918 827824 197"
"175.635208"
"$GPRMC,151439,A,2518.3079,N,08004.1464,W,3.5,37.7,240615,6.9,W"
"##MN-00 00 50 0188 01524 6513 431665 827825 197"
"175.635255"
"$GPRMC,151443,A,2518.3109,N,08004.1435,W,3.5,38.0,240615,6.9,W"
"##MN-00 00 50 0188 01526 6512 431213 827824 197"
"175.635301"
"$GPRMC,151447,A,2518.3141,N,08004.1408,W,3.6,38.0,240615,6.9,W"
"##MN-00 00 50 0188 01525 6512 430898 827825 197"
"175.635347"
"$GPRMC,151451,A,2518.3173,N,08004.1381,W,3.6,37.9,240615,6.9,W"
"##MN-00 00 50 0188 01526 6512 430078 827825 197"
"175.635394"
"$GPRMC,151455,A,2518.3206,N,08004.1354,W,3.7,37.5,240615,6.9,W"
"##MN-00 00 50 0188 01525 6511 430384 827825 197"
"175.63544"
"$GPRMC,151459,A,2518.3242,N,08004.1326,W,3.7,37.2,240615,6.9,W"
"##MN-00 00 50 0188 01526 6511 429478 827825 197"
"175.635486"
"$GPRMC,151503,A,2518.3275,N,08004.1299,W,3.7,36.3,240615,6.9,W"
"##MN-00 00 50 0188 01526 6511 428315 827825 197"
"175.635532"
"$GPRMC,151507,A,2518.3311,N,08004.1273,W,3.8,35.3,240615,6.9,W"
"##MN-00 00 50 0188 01525 6510 427913 827825 197"
"175.635579"
"$GPRMC,151511,A,2518.3347,N,08004.1245,W,3.9,34.2,240615,6.9,W"
"##MN-00 00 50 0188 01525 6510 427006 827826 197"
"175.635625"
"$GPRMC,151515,A,2518.3383,N,08004.1217,W,4.0,33.5,240615,6.9,W"
"##MN-00 00 50 0188 01527 6509 426187 827825 197"
"175.635671"
"$GPRMC,151519,A,2518.3422,N,08004.1189,W,4.0,33.0,240615,6.9,W"
"##MN-00 00 50 0188 01525 6509 424776 827825 197"
"175.635718"
"$GPRMC,151523,A,2518.3463,N,08004.1161,W,4.1,32.6,240615,6.9,W"
"##MN-00 00 50 0188 01524 6509 423671 827826 197"
"175.635764"
"$GPRMC,151527,A,2518.3506,N,08004.1134,W,4.2,32.2,240615,6.9,W"
"##MN-00 00 50 0188 01524 6508 422330 827826 197"
"175.63581"
"$GPRMC,151531,A,2518.3546,N,08004.1108,W,4.2,30.7,240615,6.9,W"
"##MN-00 00 50 0188 01525 6508 421863 827825 197"
"175.635856"
"$GPRMC,151535,A,2518.3589,N,08004.1082,W,4.3,29.8,240615,6.9,W"
"##MN-00 00 50 0188 01525 6508 419121 827825 197"
"175.635903"
"$GPRMC,151539,A,2518.3635,N,08004.1057,W,4.4,28.9,240615,6.9,W"
"##MN-00 00 50 0188 01525 6508 417214 827825 197"
"175.635949"
"$GPRMC,151543,A,2518.3679,N,08004.1032,W,4.4,27.8,240615,6.9,W"
"##MN-00 00 50 0188 01524 6508 414962 827825 197"
"175.635995"
"$GPRMC,151547,A,2518.3726,N,08004.1006,W,4.5,27.2,240615,6.9,W"
"##MN-00 00 50 0188 01525 6507 414160 827825 197"
"175.636042"
"$GPRMC,151551,A,2518.3770,N,08004.0980,W,4.5,26.5,240615,6.9,W"
"##MN-00 00 50 0188 01525 6507 414323 827825 197"
"175.636088"
"$GPRMC,151555,A,2518.3817,N,08004.0955,W,4.5,26.6,240615,6.9,W"
"##MN-00 00 50 0188 01525 6507 414070 827825 197"
"175.636134"
"$GPRMC,151559,A,2518.3864,N,08004.0931,W,4.6,25.8,240615,6.9,W"
"##MN-00 00 37 0188 01524 6507 413481 827825 197"
"175.636181"
"$GPRMC,151603,A,2518.3914,N,08004.0907,W,4.6,24.3,240615,6.9,W"
"##MN-00 00 35 0188 01525 6507 412061 827825 197"
"175.636227"
"$GPRMC,151607,A,2518.3961,N,08004.0884,W,4.7,23.4,240615,6.9,W"
"##MN-00 00 34 0188 01525 6506 411366 827824 197"
"175.636273"
"$GPRMC,151611,A,2518.4007,N,08004.0863,W,4.8,22.8,240615,6.9,W"
"##MN-00 00 33 0188 01526 6506 410774 827825 197"
"175.636319"
"$GPRMC,151615,A,2518.4055,N,08004.0839,W,4.8,22.6,240615,6.9,W"
"##MN-00 00 33 0188 01527 6506 410186 827825 197"
"175.636366"
"$GPRMC,151619,A,2518.4102,N,08004.0816,W,4.8,21.7,240615,6.9,W"
"##MN-00 00 33 0188 01525 6506 409439 827825 197"
"175.636412"
"$GPRMC,151623,A,2518.4155,N,08004.0792,W,4.8,22.1,240615,6.9,W"
"##MN-00 00 33 0188 01525 6506 408773 827824 197"
"175.636458"
"$GPRMC,151627,A,2518.4206,N,08004.0766,W,4.8,21.3,240615,6.9,W"
"##MN-00 00 33 0188 01524 6506 408468 827825 197"
"175.636505"
"$GPRMC,151631,A,2518.4257,N,08004.0743,W,4.9,21.3,240615,6.9,W"
"##MN-00 00 33 0188 01525 6506 408506 827824 197"
"175.636551"
"$GPRMC,151635,A,2518.4311,N,08004.0717,W,5.0,22.0,240615,6.9,W"
"##MN-00 00 33 0188 01525 6505 408307 827824 197"
"175.636597"
"$GPRMC,151639,A,2518.4366,N,08004.0691,W,5.2,22.4,240615,6.9,W"
"##MN-00 00 33 0188 01526 6506 407431 827824 197"
"175.636644"
"$GPRMC,151643,A,2518.4424,N,08004.0661,W,5.5,24.1,240615,6.9,W"
"##MN-00 00 33 0188 01525 6505 406639 827825 197"
"175.63669"
"$GPRMC,151647,A,2518.4487,N,08004.0628,W,5.8,24.7,240615,6.9,W"
"##MN-00 00 33 0188 01527 6505 406214 827824 197"
"175.636736"
"$GPRMC,151651,A,2518.4556,N,08004.0589,W,6.2,25.7,240615,6.9,W"
"##MN-00 00 45 0188 01524 6505 406237 827824 197"
"175.636782"
"$GPRMC,151655,A,2518.4626,N,08004.0545,W,6.6,27.2,240615,6.9,W"
"##MN-00 00 46 0188 01527 6505 405279 827825 197"
"175.636829"
"$GPRMC,151659,A,2518.4698,N,08004.0501,W,6.9,28.8,240615,6.9,W"
"##MN-00 00 46 0188 01526 6505 404293 827824 197"
"175.636887"
"$GPRMC,151703,A,2518.4770,N,08004.0454,W,7.1,29.9,240615,6.9,W"
"##MN-00 00 50 0188 01524 6505 404066 827824 197"
"175.636933"
"$GPRMC,151707,A,2518.4842,N,08004.0404,W,7.3,30.7,240615,6.9,W"
"##MN-00 00 50 0188 01525 6505 404389 827824 197"
"175.636979"
"$GPRMC,151711,A,2518.4915,N,08004.0353,W,7.5,31.3,240615,6.9,W"
"##MN-00 00 50 0188 01525 6505 403837 827824 197"
"175.637025"
"$GPRMC,151715,A,2518.4988,N,08004.0302,W,7.7,31.6,240615,6.9,W"
"##MN-00 00 50 0188 01526 6505 403454 827824 197"
"175.637072"
"$GPRMC,151719,A,2518.5062,N,08004.0250,W,7.8,32.4,240615,6.9,W"
"##MN-00 00 50 0188 01524 6505 403101 827824 197"
"175.637118"
"$GPRMC,151723,A,2518.5136,N,08004.0196,W,7.9,33.0,240615,6.9,W"
"##MN-00 00 50 0188 01527 6505 402637 827824 197"
"175.637164"
"$GPRMC,151727,A,2518.5215,N,08004.0139,W,8.0,33.4,240615,6.9,W"
"##MN-00 00 50 0188 01526 6505 401763 827823 197"
"175.637211"
"$GPRMC,151731,A,2518.5293,N,08004.0082,W,8.0,34.3,240615,6.9,W"
"##MN-00 00 50 0188 01525 6505 400868 827823 197"
"175.637257"
"$GPRMC,151735,A,2518.5370,N,08004.0026,W,8.1,34.1,240615,6.9,W"
"##MN-00 00 50 0188 01526 6505 401059 827823 197"
"175.637303"
"$GPRMC,151739,A,2518.5446,N,08003.9969,W,8.2,33.8,240615,6.9,W"
"##MN-00 00 50 0188 01527 6505 401248 827823 197"
"175.63735"
"$GPRMC,151743,A,2518.5524,N,08003.9910,W,8.3,33.8,240615,6.9,W"
"##MN-00 00 50 0188 01527 6506 402578 827823 197"
"175.637396"
"$GPRMC,151747,A,2518.5601,N,08003.9855,W,8.3,34.3,240615,6.9,W"
"##MN-00 00 50 0188 01526 6506 402704 827823 197"
"175.637442"
"$GPRMC,151751,A,2518.5680,N,08003.9801,W,8.3,33.8,240615,6.9,W"
"##MN-00 00 50 0188 01525 6506 402370 827822 197"
"175.637488"
"$GPRMC,151755,A,2518.5759,N,08003.9748,W,8.3,32.6,240615,6.9,W"
"##MN-00 00 50 0188 01525 6506 401796 827822 197"
"175.637535"
"$GPRMC,151759,A,2518.5839,N,08003.9692,W,8.3,31.4,240615,6.9,W"
"##MN-00 00 50 0188 01524 6506 400777 827822 197"
"175.637581"
"$GPRMC,151803,A,2518.5918,N,08003.9637,W,8.3,30.7,240615,6.9,W"
"##MN-00 00 50 0188 01526 6506 400391 827822 197"
"175.637627"
"$GPRMC,151807,A,2518.5998,N,08003.9586,W,8.4,30.7,240615,6.9,W"
"##MN-00 00 50 0188 01525 6506 400582 827822 197"
"175.637674"
"$GPRMC,151811,A,2518.6079,N,08003.9536,W,8.3,30.6,240615,6.9,W"
"##MN-00 00 50 0188 01526 6506 400556 827822 197"
"175.63772"
"$GPRMC,151815,A,2518.6161,N,08003.9489,W,8.3,29.6,240615,6.9,W"
"##MN-00 00 50 0188 01525 6507 400110 827821 197"
"175.637766"
"$GPRMC,151820,A,2518.6266,N,08003.9429,W,8.4,28.0,240615,6.9,W"
"##MN-00 00 50 0188 01524 6507 399931 827823 197"
"175.637812"
"$GPRMC,151823,A,2518.6328,N,08003.9395,W,8.4,27.7,240615,6.9,W"
"##MN-00 00 50 0188 01528 6507 399761 827822 197"
"175.637859"
"$GPRMC,151828,A,2518.6436,N,08003.9337,W,8.5,26.4,240615,6.9,W"
"##MN-00 00 50 0188 01525 6507 400006 827821 197"
"175.637905"
"$GPRMC,151832,A,2518.6523,N,08003.9291,W,8.6,26.1,240615,6.9,W"
"##MN-00 00 50 0188 01524 6507 402311 827822 197"
"175.637951"
"$GPRMC,151836,A,2518.6612,N,08003.9242,W,8.6,25.8,240615,6.9,W"
"##MN-00 00 51 0188 01525 6508 404709 827819 197"
"175.637998"
"$GPRMC,151839,A,2518.6678,N,08003.9208,W,8.6,24.9,240615,6.9,W"
"##MN-00 00 50 0188 01523 6508 405997 827817 197"
"175.638044"
"$GPRMC,151843,A,2518.6764,N,08003.9165,W,8.6,24.7,240615,6.9,W"
"##MN-00 00 50 0188 01527 6508 405547 827817 197"
"175.63809"
"$GPRMC,151847,A,2518.6852,N,08003.9123,W,8.6,24.8,240615,6.9,W"
"##MN-00 00 50 0188 01525 6508 404965 827750 197"
"175.638137"
"$GPRMC,151852,A,2518.6964,N,08003.9068,W,8.7,23.9,240615,6.9,W"
"##MN-00 00 50 0188 01527 6509 404176 827817 197"
"175.638183"
"$GPRMC,151856,A,2518.7053,N,08003.9024,W,8.7,24.2,240615,6.9,W"
"##MN-00 00 50 0188 01524 6509 403926 827817 197"
"175.638229"
"$GPRMC,151900,A,2518.7137,N,08003.8977,W,8.7,23.5,240615,6.9,W"
"##MN-00 00 50 0188 01526 6509 403687 827817 197"
"175.638275"
"$GPRMC,151904,A,2518.7224,N,08003.8934,W,8.6,24.3,240615,6.9,W"
"##MN-00 00 50 0188 01526 6509 402811 827816 197"
"175.638322"
"$GPRMC,151908,A,2518.7313,N,08003.8890,W,8.6,24.0,240615,6.9,W"
"##MN-00 00 50 0188 01527 6510 403365 827816 197"
"175.638368"
"$GPRMC,151912,A,2518.7401,N,08003.8845,W,8.6,24.0,240615,6.9,W"
"##MN-00 00 50 0188 01525 6510 403247 827816 197"
"175.638414"
"$GPRMC,151916,A,2518.7487,N,08003.8801,W,8.6,23.7,240615,6.9,W"
"##MN-00 00 51 0188 01527 6511 403109 827816 197"
"175.638461"
"$GPRMC,151920,A,2518.7571,N,08003.8761,W,8.5,24.2,240615,6.9,W"
"##MN-00 00 50 0188 01527 6511 402617 827817 197"
"175.638507"
"$GPRMC,151924,A,2518.7657,N,08003.8720,W,8.4,23.9,240615,6.9,W"
"##MN-00 00 51 0188 01527 6511 402004 827816 197"
"175.638553"
"$GPRMC,151928,A,2518.7744,N,08003.8681,W,8.4,24.5,240615,6.9,W"
"##MN-00 00 50 0188 01524 6511 401682 827815 197"
"175.6386"
"$GPRMC,151932,A,2518.7834,N,08003.8640,W,8.4,22.7,240615,6.9,W"
"##MN-00 00 50 0188 01529 6512 401553 827815 197"
"175.638646"
"$GPRMC,151936,A,2518.7920,N,08003.8594,W,8.4,23.6,240615,6.9,W"
"##MN-00 00 50 0188 01525 6512 401630 827816 197"
"175.638692"
"$GPRMC,151940,A,2518.8004,N,08003.8548,W,8.4,24.6,240615,6.9,W"
"##MN-00 00 50 0188 01527 6512 401532 827815 197"
"175.638738"
"$GPRMC,151944,A,2518.8090,N,08003.8506,W,8.4,24.7,240615,6.9,W"
"##MN-00 00 51 0188 01528 6513 400903 827816 197"
"175.638785"
"$GPRMC,151948,A,2518.8174,N,08003.8461,W,8.4,25.1,240615,6.9,W"
"##MN-00 00 51 0188 01524 6513 400938 827815 197"
"175.638831"
"$GPRMC,151952,A,2518.8260,N,08003.8418,W,8.4,25.1,240615,6.9,W"
"##MN-00 00 51 0188 01525 6514 401092 827815 197"
"175.638877"
"$GPRMC,151956,A,2518.8346,N,08003.8375,W,8.4,25.1,240615,6.9,W"
"##MN-00 00 51 0188 01525 6514 400442 827816 197"
"175.638924"
"$GPRMC,152000,A,2518.8432,N,08003.8333,W,8.5,25.1,240615,6.9,W"
"##MN-00 00 51 0188 01525 6514 399783 827816 197"
"175.63897"
"$GPRMC,152004,A,2518.8499,N,08003.8302,W,8.5,24.2,240615,6.9,W"
"##MN-00 00 51 0188 01524 6515 399519 827815 197"
"175.639016"
"$GPRMC,152008,A,2518.8588,N,08003.8263,W,8.5,24.2,240615,6.9,W"
"##MN-00 00 51 0188 01525 6515 399406 827815 197"
"175.639062"
"$GPRMC,152012,A,2518.8679,N,08003.8222,W,8.5,23.6,240615,6.9,W"
"##MN-00 00 51 0188 01524 6516 399278 827815 197"
"175.639109"
"$GPRMC,152016,A,2518.8791,N,08003.8170,W,8.6,23.1,240615,6.9,W"
"##MN-00 00 51 0188 01524 6516 399066 827815 197"
"175.639155"
"$GPRMC,152020,A,2518.8878,N,08003.8132,W,8.5,23.2,240615,6.9,W"
"##MN-00 00 51 0188 01526 6517 398627 827815 197"
"175.639201"
"$GPRMC,152024,A,2518.8968,N,08003.8095,W,8.6,23.1,240615,6.9,W"
"##MN-00 00 51 0188 01525 6517 399107 827815 197"
"175.639248"
"$GPRMC,152028,A,2518.9057,N,08003.8055,W,8.6,22.6,240615,6.9,W"
"##MN-00 00 51 0188 01527 6517 399079 827814 197"
"175.639294"
"$GPRMC,152032,A,2518.9145,N,08003.8013,W,8.5,22.5,240615,6.9,W"
"##MN-00 00 51 0188 01523 6518 399333 827814 197"
"175.63934"
"$GPRMC,152036,A,2518.9234,N,08003.7971,W,8.6,22.9,240615,6.9,W"
"##MN-00 00 51 0188 01526 6518 399427 827814 197"
"175.639387"
"$GPRMC,152040,A,2518.9321,N,08003.7929,W,8.6,22.9,240615,6.9,W"
"##MN-00 00 51 0188 01524 6519 399730 827815 197"
"175.639433"
"$GPRMC,152044,A,2518.9409,N,08003.7886,W,8.6,23.2,240615,6.9,W"
"##MN-00 00 51 0188 01526 6519 399649 827814 197"
"175.639479"
"$GPRMC,152048,A,2518.9498,N,08003.7840,W,8.6,24.0,240615,6.9,W"
"##MN-00 00 51 0188 01523 6519 399192 827814 197"
"175.639525"
"$GPRMC,152052,A,2518.9586,N,08003.7795,W,8.6,24.7,240615,6.9,W"
"##MN-00 00 51 0188 01525 6520 399423 827814 197"
"175.639572"
"$GPRMC,152056,A,2518.9673,N,08003.7749,W,8.6,25.0,240615,6.9,W"
"##MN-00 00 51 0188 01525 6521 399520 827814 197"
"175.639618"
"$GPRMC,152100,A,2518.9760,N,08003.7703,W,8.6,25.3,240615,6.9,W"
"##MN-00 00 51 0188 01526 6521 399894 827814 197"
"175.639664"
"$GPRMC,152104,A,2518.9847,N,08003.7656,W,8.7,25.4,240615,6.9,W"
"##MN-00 00 51 0188 01527 6521 400376 827814 197"
"175.639711"
"$GPRMC,152108,A,2518.9937,N,08003.7610,W,8.7,25.7,240615,6.9,W"
"##MN-00 00 51 0188 01525 6521 400831 827814 197"
"175.639757"
"$GPRMC,152112,A,2519.0024,N,08003.7562,W,8.7,25.5,240615,6.9,W"
"##MN-00 00 51 0188 01524 6522 401101 827813 197"
"175.639803"
"$GPRMC,152116,A,2519.0110,N,08003.7516,W,8.7,25.2,240615,6.9,W"
"##MN-00 00 51 0188 01526 6523 400668 827813 197"
"175.63985"
"$GPRMC,152120,A,2519.0201,N,08003.7469,W,8.7,24.9,240615,6.9,W"
"##MN-00 00 51 0188 01525 6523 401456 827813 197"
"175.639896"
"$GPRMC,152124,A,2519.0284,N,08003.7428,W,8.7,24.8,240615,6.9,W"
"##MN-00 00 51 0188 01523 6523 401809 827813 197"
"175.639942"
"$GPRMC,152128,A,2519.0374,N,08003.7387,W,8.7,24.5,240615,6.9,W"
"##MN-00 00 51 0188 01525 6524 401694 827813 197"
"175.639988"
"$GPRMC,152132,A,2519.0466,N,08003.7344,W,8.7,23.5,240615,6.9,W"
"##MN-00 00 51 0188 01525 6524 401352 827813 197"
"175.640035"
"$GPRMC,152136,A,2519.0555,N,08003.7300,W,8.7,23.1,240615,6.9,W"
"##MN-00 00 51 0188 01525 6525 401269 827813 197"
"175.640081"
"$GPRMC,152140,A,2519.0645,N,08003.7258,W,8.7,23.2,240615,6.9,W"
"##MN-00 00 51 0188 01524 6525 401857 827812 197"
"175.640139"
"$GPRMC,152144,A,2519.0732,N,08003.7217,W,8.6,23.1,240615,6.9,W"
"##MN-00 00 51 0188 01524 6526 402537 827813 197"
"175.640185"
"$GPRMC,152148,A,2519.0820,N,08003.7176,W,8.6,23.3,240615,6.9,W"
"##MN-00 00 51 0188 01525 6526 402216 827813 197"
"175.640231"
"$GPRMC,152152,A,2519.0908,N,08003.7135,W,8.6,23.2,240615,6.9,W"
"##MN-00 00 51 0188 01527 6526 401986 827813 197"
"175.640278"
"$GPRMC,152156,A,2519.0994,N,08003.7093,W,8.6,23.7,240615,6.9,W"
"##MN-00 00 51 0188 01525 6527 401681 827812 197"
"175.640324"
"$GPRMC,152200,A,2519.1085,N,08003.7048,W,8.6,23.6,240615,6.9,W"
"##MN-00 00 51 0188 01525 6527 401948 827811 197"
"175.64037"
"$GPRMC,152204,A,2519.1172,N,08003.7003,W,8.6,23.7,240615,6.9,W"
"##MN-00 00 51 0188 01526 6527 401544 827812 197"
"175.640417"
"$GPRMC,152208,A,2519.1259,N,08003.6960,W,8.6,24.0,240615,6.9,W"
"##MN-00 00 51 0188 01523 6528 401362 827812 197"
"175.640463"
"$GPRMC,152212,A,2519.1348,N,08003.6915,W,8.6,23.8,240615,6.9,W"
"##MN-00 00 51 0188 01525 6528 401701 827812 197"
"175.640509"
"$GPRMC,152216,A,2519.1433,N,08003.6870,W,8.6,24.2,240615,6.9,W"
"##MN-00 00 51 0188 01524 6529 401928 827743 197"
"175.640556"
"$GPRMC,152220,A,2519.1522,N,08003.6824,W,8.6,24.8,240615,6.9,W"
"##MN-00 00 52 0188 01525 6529 401760 827812 197"
"175.640602"
"$GPRMC,152224,A,2519.1609,N,08003.6779,W,8.6,25.1,240615,6.9,W"
"##MN-00 00 52 0188 01526 6530 401301 827811 197"
"175.640648"
"$GPRMC,152228,A,2519.1696,N,08003.6736,W,8.7,25.1,240615,6.9,W"
"##MN-00 00 52 0188 01524 6530 401162 827811 197"
"175.640694"
"$GPRMC,152232,A,2519.1786,N,08003.6693,W,8.6,25.2,240615,6.9,W"
"##MN-00 00 52 0188 01526 6530 401036 827810 197"
"175.640741"
"$GPRMC,152236,A,2519.1873,N,08003.6648,W,8.6,24.8,240615,6.9,W"
"##MN-00 00 52 0188 01524 6531 400381 827810 197"
"175.640787"
"$GPRMC,152240,A,2519.1964,N,08003.6599,W,8.7,24.4,240615,6.9,W"
"##MN-00 00 52 0188 01525 6531 400071 827811 197"
"175.640833"
"$GPRMC,152244,A,2519.2052,N,08003.6555,W,8.7,24.5,240615,6.9,W"
"##MN-00 00 52 0188 01525 6532 400334 827810 197"
"175.64088"
"$GPRMC,152248,A,2519.2139,N,08003.6513,W,8.6,24.3,240615,6.9,W"
"##MN-00 00 52 0188 01526 6532 400358 827810 197"
"175.640926"
"$GPRMC,152252,A,2519.2227,N,08003.6472,W,8.6,24.0,240615,6.9,W"
"##MN-00 00 52 0188 01527 6533 399877 827810 197"
"175.640972"
"$GPRMC,152256,A,2519.2317,N,08003.6428,W,8.7,23.8,240615,6.9,W"
"##MN-00 00 52 0188 01524 6533 400037 827810 197"
"175.641019"
"$GPRMC,152300,A,2519.2407,N,08003.6387,W,8.7,24.1,240615,6.9,W"
"##MN-00 00 52 0188 01525 6533 399850 827810 197"
"175.641065"
"$GPRMC,152304,A,2519.2497,N,08003.6346,W,8.7,23.3,240615,6.9,W"
"##MN-00 00 52 0188 01523 6534 399338 827810 197"
"175.641111"
"$GPRMC,152308,A,2519.2585,N,08003.6301,W,8.7,22.8,240615,6.9,W"
"##MN-00 00 52 0188 01524 6534 399533 827810 197"
"175.641157"
"$GPRMC,152312,A,2519.2675,N,08003.6258,W,8.7,23.2,240615,6.9,W"
"##MN-00 00 52 0188 01526 6535 399189 827809 197"
"175.641204"
"$GPRMC,152316,A,2519.2766,N,08003.6213,W,8.7,23.3,240615,6.9,W"
"##MN-00 00 52 0188 01524 6535 399383 827810 197"
"175.64125"
"$GPRMC,152321,A,2519.2874,N,08003.6156,W,8.6,24.3,240615,6.9,W"
"##MN-00 00 52 0188 01524 6536 398966 827810 197"
"175.641296"
"$GPRMC,152325,A,2519.2963,N,08003.6114,W,8.6,24.2,240615,6.9,W"
"##MN-00 00 52 0188 01525 6536 398907 827809 197"
"175.641343"
"$GPRMC,152329,A,2519.3051,N,08003.6074,W,8.6,23.2,240615,6.9,W"
"##MN-00 00 52 0188 01525 6536 398652 827810 197"
"175.641389"
"$GPRMC,152333,A,2519.3141,N,08003.6031,W,8.6,23.0,240615,6.9,W"
"##MN-00 00 52 0188 01526 6537 398382 827809 197"
"175.641435"
"$GPRMC,152337,A,2519.3228,N,08003.5987,W,8.6,23.9,240615,6.9,W"
"##MN-00 00 52 0188 01523 6537 398559 827809 197"
"175.641481"
"$GPRMC,152341,A,2519.3314,N,08003.5945,W,8.6,24.3,240615,6.9,W"
"##MN-00 00 52 0188 01526 6538 398445 827808 197"
"175.641528"
"$GPRMC,152345,A,2519.3405,N,08003.5902,W,8.6,23.8,240615,6.9,W"
"##MN-00 00 52 0188 01524 6538 398417 827808 197"
"175.641574"
"$GPRMC,152348,A,2519.3472,N,08003.5867,W,8.6,24.4,240615,6.9,W"
"##MN-00 00 52 0188 01526 6538 398184 827807 197"
"175.64162"
"$GPRMC,152353,A,2519.3584,N,08003.5813,W,8.6,24.2,240615,6.9,W"
"##MN-00 00 52 0188 01524 6539 398201 827808 197"
"175.641667"
"$GPRMC,152357,A,2519.3672,N,08003.5770,W,8.6,24.2,240615,6.9,W"
"##MN-00 00 52 0188 01525 6539 398208 827808 197"
"175.641713"
"$GPRMC,152401,A,2519.3759,N,08003.5728,W,8.6,24.0,240615,6.9,W"
"##MN-00 00 52 0188 01525 6540 398913 827808 197"
"175.641759"
"$GPRMC,152405,A,2519.3846,N,08003.5686,W,8.6,23.7,240615,6.9,W"
"##MN-00 00 52 0188 01525 6540 399226 827808 197"
"175.641806"
"$GPRMC,152409,A,2519.3936,N,08003.5643,W,8.7,23.8,240615,6.9,W"
"##MN-00 00 52 0188 01524 6540 400029 827807 197"
"175.641852"
"$GPRMC,152413,A,2519.4026,N,08003.5599,W,8.7,24.0,240615,6.9,W"
"##MN-00 00 52 0188 01525 6541 400463 827807 197"
"175.641898"
"$GPRMC,152417,A,2519.4115,N,08003.5554,W,8.7,23.3,240615,6.9,W"
"##MN-00 00 52 0188 01523 6542 400215 827807 197"
