" Tow: 7WS   RVWS/WS15161"
" Date: 24/06/2015"
" Temperature Probe #  4762    Conductivity Probe #  710"
" Pressure Probe #  188"
" Flow Meter Calibration  4.71 (m/count)  "
"175.827442"
"$GPRMC,195126,A,2532.7245,N,08003.0143,W,0.4,57.1,240615,6.9,W"
"##MN-00 00 79 0453 02729 6557 548684 872317 199"
"175.827488"
"$GPRMC,195131,A,2532.7246,N,08003.0139,W,0.3,57.9,240615,6.9,W"
"##MN-00 00 80 0453 02728 6559 574992 023887 199"
"175.827535"
"$GPRMC,195135,A,2532.7246,N,08003.0134,W,0.3,61.3,240615,6.9,W"
"##MN-00 00 79 0453 02727 6560 974432 023896 199"
"175.827581"
"$GPRMC,195139,A,2532.7249,N,08003.0128,W,0.4,64.1,240615,6.9,W"
"##MN-00 00 80 0453 02726 6561 975256 023884 199"
"175.827627"
"$GPRMC,195143,A,2532.7249,N,08003.0123,W,0.4,66.0,240615,6.9,W"
"##MN-00 00 81 0453 02726 6562 976048 023871 199"
"175.827674"
"$GPRMC,195148,A,2532.7251,N,08003.0112,W,0.5,66.1,240615,6.9,W"
"##MN-00 00 80 0453 02724 6563 586328 023876 199"
"175.82772"
"$GPRMC,195152,A,2532.7256,N,08003.0107,W,0.5,67.1,240615,6.9,W"
"##MN-00 00 80 0453 02727 6565 712656 023860 199"
"175.827766"
"$GPRMC,195156,A,2532.7260,N,08003.0100,W,0.5,68.3,240615,6.9,W"
"##MN-00 00 79 0453 02725 6566 192928 023875 199"
"175.827813"
"$GPRMC,195200,A,2532.7263,N,08003.0094,W,0.6,69.0,240615,6.9,W"
"##MN-00 00 80 0453 02727 6567 875624 023870 199"
"175.827859"
"$GPRMC,195204,A,2532.7263,N,08003.0084,W,0.6,71.2,240615,6.9,W"
"##MN-00 00 79 0453 02725 6568 442144 023864 199"
"175.827905"
"$GPRMC,195208,A,2532.7266,N,08003.0077,W,0.7,73.5,240615,6.9,W"
"##MN-00 00 80 0453 02725 6569 002928 023872 199"
"175.827951"
"$GPRMC,195212,A,2532.7271,N,08003.0070,W,0.8,75.1,240615,6.9,W"
"##MN-00 00 80 0453 02727 6570 005104 023870 199"
"175.827998"
"$GPRMC,195216,A,2532.7276,N,08003.0061,W,0.8,74.6,240615,6.9,W"
"##MN-00 00 76 0453 02727 6572 605568 023857 199"
"175.828044"
"$GPRMC,195220,A,2532.7281,N,08003.0051,W,0.9,73.7,240615,6.9,W"
"##MN-00 00 59 0453 02727 6573 010416 023859 199"
"175.82809"
"$GPRMC,195224,A,2532.7285,N,08003.0040,W,1.0,72.5,240615,6.9,W"
"##MN-00 00 46 0453 02725 6574 015424 023860 199"
"175.828137"
"$GPRMC,195228,A,2532.7289,N,08003.0026,W,1.0,72.0,240615,6.9,W"
"##MN-00 00 34 0453 02726 6575 452640 023859 199"
"175.828183"
"$GPRMC,195232,A,2532.7290,N,08003.0013,W,1.1,71.9,240615,6.9,W"
"##MN-00 00 23 0453 02728 6576 739152 023864 199"
"175.828229"
"$GPRMC,195236,A,2532.7295,N,08003.0000,W,1.1,71.8,240615,6.9,W"
"##MN-00 00 10 0453 02726 6578 022672 023862 199"
"175.828275"
"$GPRMC,195240,A,2532.7296,N,08002.9986,W,1.2,72.0,240615,6.9,W"
"##MN-00 00 00 0453 02725 6579 027088 023859 199"
"175.828322"
"$GPRMC,195244,A,2532.7302,N,08002.9971,W,1.2,72.7,240615,6.9,W"
"##MN-00 00 04 0453 02727 6580 751904 023844 199"
"175.828368"
"$GPRMC,195248,A,2532.7307,N,08002.9954,W,1.3,72.4,240615,6.9,W"
"##MN-00 00 09 0453 02727 6581 228944 023834 199"
"175.828414"
"$GPRMC,195252,A,2532.7313,N,08002.9938,W,1.4,71.7,240615,6.9,W"
"##MN-00 00 02 0453 02725 6583 031896 023890 199"
"175.828461"
"$GPRMC,195256,A,2532.7318,N,08002.9922,W,1.5,71.3,240615,6.9,W"
"##MN-00 00 15 0453 02727 6584 797200 023884 199"
"175.828507"
"$GPRMC,195300,A,2532.7324,N,08002.9906,W,1.5,71.4,240615,6.9,W"
"##MN-00 00 34 0453 02728 6585 626456 023884 199"
"175.828553"
"$GPRMC,195304,A,2532.7328,N,08002.9889,W,1.5,71.3,240615,6.9,W"
"##MN-00 00 42 0453 02728 6586 032080 023886 199"
"175.8286"
"$GPRMC,195308,A,2532.7336,N,08002.9872,W,1.5,71.2,240615,6.9,W"
"##MN-00 00 42 0453 02728 6588 032088 023876 199"
"175.828646"
"$GPRMC,195312,A,2532.7341,N,08002.9854,W,1.5,69.9,240615,6.9,W"
"##MN-00 00 52 0454 02726 6589 476144 023865 199"
"175.828692"
"$GPRMC,195316,A,2532.7346,N,08002.9838,W,1.4,68.7,240615,6.9,W"
"##MN-00 00 54 0454 02726 6590 241280 023869 199"
"175.828738"
"$GPRMC,195320,A,2532.7354,N,08002.9821,W,1.4,66.9,240615,6.9,W"
"##MN-00 00 49 0455 02728 6591 038624 023873 199"
"175.828785"
"$GPRMC,195324,A,2532.7361,N,08002.9807,W,1.4,64.6,240615,6.9,W"
"##MN-00 00 49 0456 02725 6593 032528 023886 199"
"175.828831"
"$GPRMC,195328,A,2532.7370,N,08002.9794,W,1.4,60.8,240615,6.9,W"
"##MN-00 00 49 0457 02726 6594 912480 023882 199"
"175.828877"
"$GPRMC,195332,A,2532.7379,N,08002.9782,W,1.3,58.3,240615,6.9,W"
"##MN-00 00 49 0457 02725 6595 033712 023885 199"
"175.828924"
"$GPRMC,195336,A,2532.7390,N,08002.9769,W,1.3,56.3,240615,6.9,W"
"##MN-00 00 49 0458 02724 6596 598336 023862 199"
"175.82897"
"$GPRMC,195340,A,2532.7399,N,08002.9757,W,1.2,54.6,240615,6.9,W"
"##MN-00 00 48 0459 02726 6597 792688 023848 199"
"175.829016"
"$GPRMC,195344,A,2532.7407,N,08002.9745,W,1.2,54.5,240615,6.9,W"
"##MN-00 00 49 0460 02725 6599 346240 023853 199"
"175.829062"
"$GPRMC,195348,A,2532.7414,N,08002.9733,W,1.2,55.1,240615,6.9,W"
"##MN-00 00 49 0461 02723 6600 222496 023850 199"
"175.829109"
"$GPRMC,195352,A,2532.7419,N,08002.9721,W,1.1,56.2,240615,6.9,W"
"##MN-00 00 53 0462 02726 6601 097344 023848 199"
"175.829155"
"$GPRMC,195356,A,2532.7426,N,08002.9709,W,1.1,56.3,240615,6.9,W"
"##MN-00 00 50 0463 02724 6602 734664 023851 199"
"175.829201"
"$GPRMC,195400,A,2532.7433,N,08002.9698,W,1.1,56.8,240615,6.9,W"
"##MN-00 00 52 0464 02724 6603 206816 023849 199"
"175.829248"
"$GPRMC,195404,A,2532.7440,N,08002.9685,W,1.1,56.1,240615,6.9,W"
"##MN-00 00 50 0465 02725 6604 606224 023853 199"
"175.829294"
"$GPRMC,195408,A,2532.7447,N,08002.9672,W,1.1,56.6,240615,6.9,W"
"##MN-00 00 52 0466 02725 6605 758944 023862 199"
"175.82934"
"$GPRMC,195412,A,2532.7454,N,08002.9660,W,1.2,57.5,240615,6.9,W"
"##MN-00 00 54 0467 02725 6606 715872 023851 199"
"175.829387"
"$GPRMC,195416,A,2532.7462,N,08002.9646,W,1.2,57.1,240615,6.9,W"
"##MN-00 00 50 0467 02726 6607 755040 023879 199"
"175.829433"
"$GPRMC,195420,A,2532.7469,N,08002.9632,W,1.3,56.2,240615,6.9,W"
"##MN-00 00 50 0468 02725 6608 977464 023873 199"
"175.829479"
"$GPRMC,195424,A,2532.7477,N,08002.9619,W,1.3,54.9,240615,6.9,W"
"##MN-00 00 50 0469 02725 6609 419504 023874 199"
"175.829525"
"$GPRMC,195428,A,2532.7487,N,08002.9607,W,1.3,53.7,240615,6.9,W"
"##MN-00 00 49 0470 02725 6610 861752 023869 199"
"175.829572"
"$GPRMC,195432,A,2532.7495,N,08002.9594,W,1.3,52.8,240615,6.9,W"
"##MN-00 00 50 0471 02726 6611 979520 023858 199"
"175.829618"
"$GPRMC,195436,A,2532.7505,N,08002.9580,W,1.4,52.4,240615,6.9,W"
"##MN-00 00 49 0472 02725 6612 974840 023859 199"
"175.829664"
"$GPRMC,195440,A,2532.7515,N,08002.9566,W,1.4,52.8,240615,6.9,W"
"##MN-00 00 49 0472 02724 6613 966264 023851 199"
"175.829711"
"$GPRMC,195444,A,2532.7524,N,08002.9552,W,1.4,53.5,240615,6.9,W"
"##MN-00 00 49 0473 02726 6614 967792 023867 199"
"175.829757"
"$GPRMC,195448,A,2532.7534,N,08002.9537,W,1.4,54.4,240615,6.9,W"
"##MN-00 00 48 0474 02725 6614 677496 023863 199"
"175.829803"
"$GPRMC,195452,A,2532.7542,N,08002.9522,W,1.4,55.7,240615,6.9,W"
"##MN-00 00 48 0475 02724 6615 152976 023861 199"
"175.82985"
"$GPRMC,195456,A,2532.7551,N,08002.9506,W,1.4,56.7,240615,6.9,W"
"##MN-00 00 48 0476 02727 6616 827144 023873 199"
"175.829896"
"$GPRMC,195500,A,2532.7559,N,08002.9489,W,1.5,58.2,240615,6.9,W"
"##MN-00 00 48 0476 02726 6616 384832 023876 199"
"175.829942"
"$GPRMC,195504,A,2532.7566,N,08002.9472,W,1.5,59.3,240615,6.9,W"
"##MN-00 00 48 0477 02724 6617 536584 023888 199"
"175.829988"
"$GPRMC,195508,A,2532.7574,N,08002.9456,W,1.5,60.7,240615,6.9,W"
"##MN-00 00 48 0478 02726 6618 926928 023898 199"
"175.830035"
"$GPRMC,195512,A,2532.7581,N,08002.9440,W,1.5,61.7,240615,6.9,W"
"##MN-00 00 49 0479 02726 6618 807336 023894 199"
"175.830081"
"$GPRMC,195516,A,2532.7588,N,08002.9425,W,1.4,62.0,240615,6.9,W"
"##MN-00 00 49 0480 02725 6619 925472 023896 199"
"175.830127"
"$GPRMC,195520,A,2532.7596,N,08002.9410,W,1.4,61.9,240615,6.9,W"
"##MN-00 00 50 0481 02727 6619 927416 023893 199"
"175.830174"
"$GPRMC,195524,A,2532.7602,N,08002.9395,W,1.3,62.1,240615,6.9,W"
"##MN-00 00 49 0482 02730 6620 925416 023869 199"
"175.83022"
"$GPRMC,195528,A,2532.7610,N,08002.9382,W,1.3,61.8,240615,6.9,W"
"##MN-00 00 48 0482 02729 6620 359264 023865 199"
"175.830266"
"$GPRMC,195532,A,2532.7618,N,08002.9370,W,1.2,61.2,240615,6.9,W"
"##MN-00 00 50 0483 02728 6620 514576 023880 199"
"175.830324"
"$GPRMC,195536,A,2532.7627,N,08002.9357,W,1.2,61.4,240615,6.9,W"
"##MN-00 00 50 0484 02730 6621 108352 023876 199"
"175.83037"
"$GPRMC,195540,A,2532.7634,N,08002.9345,W,1.2,61.5,240615,6.9,W"
"##MN-00 00 48 0485 02728 6621 501800 023888 199"
"175.830417"
"$GPRMC,195544,A,2532.7641,N,08002.9330,W,1.2,62.0,240615,6.9,W"
"##MN-00 00 50 0486 02730 6621 899744 023888 199"
"175.830463"
"$GPRMC,195548,A,2532.7648,N,08002.9316,W,1.2,61.7,240615,6.9,W"
"##MN-00 00 49 0487 02730 6622 336720 023879 199"
"175.830509"
"$GPRMC,195552,A,2532.7654,N,08002.9302,W,1.2,62.0,240615,6.9,W"
"##MN-00 00 52 0488 02731 6622 209552 023902 199"
"175.830556"
"$GPRMC,195556,A,2532.7661,N,08002.9288,W,1.3,61.8,240615,6.9,W"
"##MN-00 00 50 0488 02731 6622 071552 023904 199"
"175.830602"
"$GPRMC,195600,A,2532.7668,N,08002.9275,W,1.3,60.3,240615,6.9,W"
"##MN-00 00 50 0489 02733 6622 196376 023916 199"
"175.830648"
"$GPRMC,195604,A,2532.7675,N,08002.9261,W,1.3,58.7,240615,6.9,W"
"##MN-00 00 49 0490 02733 6622 877232 023897 199"
"175.830694"
"$GPRMC,195608,A,2532.7683,N,08002.9246,W,1.3,57.3,240615,6.9,W"
"##MN-00 00 49 0491 02733 6622 467904 023906 199"
"175.830741"
"$GPRMC,195612,A,2532.7692,N,08002.9233,W,1.3,56.8,240615,6.9,W"
"##MN-00 00 49 0492 02735 6622 073760 023894 199"
"175.830787"
"$GPRMC,195616,A,2532.7701,N,08002.9218,W,1.3,56.2,240615,6.9,W"
"##MN-00 00 49 0493 02736 6622 471288 023896 199"
"175.830833"
"$GPRMC,195620,A,2532.7711,N,08002.9204,W,1.3,55.3,240615,6.9,W"
"##MN-00 00 48 0494 02734 6623 870512 023884 199"
"175.83088"
"$GPRMC,195624,A,2532.7719,N,08002.9190,W,1.4,53.8,240615,6.9,W"
"##MN+00 00 48 0495 02736 6623 576568 023891 199"
"175.830926"
"$GPRMC,195629,A,2532.7732,N,08002.9173,W,1.5,53.9,240615,6.9,W"
"##MN+00 00 48 0496 02738 6622 900016 023891 199"
"175.830972"
"$GPRMC,195632,A,2532.7739,N,08002.9163,W,1.5,54.5,240615,6.9,W"
"##MN+00 00 51 0496 02738 6622 452256 023897 199"
"175.831019"
"$GPRMC,195637,A,2532.7751,N,08002.9145,W,1.5,53.9,240615,6.9,W"
"##MN-00 00 52 0497 02738 6622 848232 023903 199"
"175.831065"
"#increment_net"
"$GPRMC,195640,A,2532.7758,N,08002.9132,W,1.5,53.6,240615,6.9,W"
"##MN-00 00 49 0498 02740 6622 285616 023901 199"
"175.831111"
"$GPRMC,195645,A,2532.7771,N,08002.9110,W,1.5,53.2,240615,6.9,W"
"##MN-00 00 48 0499 02741 6622 810976 023895 199"
"175.831157"
"$GPRMC,195648,A,2532.7777,N,08002.9099,W,1.5,53.2,240615,6.9,W"
"##MN-00 00 47 0500 02743 6621 309968 023920 199"
"175.831204"
"$GPRMC,195653,A,2532.7789,N,08002.9081,W,1.4,53.9,240615,6.9,W"
"##MN-00 00 47 0501 02743 6621 417368 023928 199"
"175.83125"
"$GPRMC,195657,A,2532.7797,N,08002.9068,W,1.4,54.4,240615,6.9,W"
"##MN-00 00 47 0502 02744 6621 816176 023919 199"
"175.831296"
"$GPRMC,195701,A,2532.7805,N,08002.9055,W,1.3,55.0,240615,6.9,W"
"##MN-00 00 47 0503 02743 6621 816272 023923 199"
"175.831343"
"$GPRMC,195705,A,2532.7815,N,08002.9042,W,1.3,55.4,240615,6.9,W"
"##MN-00 00 47 0504 02745 6621 816400 023928 199"
"175.831389"
"$GPRMC,195709,A,2532.7823,N,08002.9029,W,1.3,56.0,240615,6.9,W"
"##MN-00 00 51 0505 02744 6620 015504 023920 199"
"175.831435"
"$GPRMC,195713,A,2532.7830,N,08002.9016,W,1.2,55.8,240615,6.9,W"
"##MN-00 00 49 0506 02747 6620 817024 023902 199"
"175.831481"
"$GPRMC,195717,A,2532.7838,N,08002.9004,W,1.2,55.7,240615,6.9,W"
"##MN-00 00 48 0506 02747 6620 810416 023900 199"
"175.831528"
"$GPRMC,195721,A,2532.7847,N,08002.8992,W,1.2,54.7,240615,6.9,W"
"##MN-00 00 46 0507 02749 6619 684456 023898 199"
"175.831574"
"$GPRMC,195725,A,2532.7856,N,08002.8981,W,1.2,53.8,240615,6.9,W"
"##MN-00 00 47 0508 02751 6619 241984 023896 199"
"175.83162"
"$GPRMC,195729,A,2532.7863,N,08002.8968,W,1.2,53.0,240615,6.9,W"
"##MN-00 00 47 0509 02751 6619 280096 023898 199"
"175.831667"
"$GPRMC,195733,A,2532.7870,N,08002.8954,W,1.2,53.7,240615,6.9,W"
"##MN-00 00 47 0510 02753 6618 776800 023900 199"
"175.831713"
"$GPRMC,195737,A,2532.7880,N,08002.8942,W,1.3,54.3,240615,6.9,W"
"##MN-00 00 48 0511 02752 6618 786240 023910 199"
"175.831759"
"$GPRMC,195741,A,2532.7887,N,08002.8928,W,1.3,55.0,240615,6.9,W"
"##MN-00 00 48 0512 02752 6617 085296 023905 199"
"175.831806"
"$GPRMC,195745,A,2532.7896,N,08002.8914,W,1.3,55.7,240615,6.9,W"
"##MN-00 00 48 0513 02756 6617 737064 023904 199"
"175.831852"
"$GPRMC,195749,A,2532.7905,N,08002.8899,W,1.4,55.8,240615,6.9,W"
"##MN-00 00 47 0514 02756 6616 373104 023909 199"
"175.831898"
"$GPRMC,195753,A,2532.7914,N,08002.8886,W,1.4,56.5,240615,6.9,W"
"##MN-00 00 48 0515 02757 6615 760256 023918 199"
"175.831944"
"$GPRMC,195757,A,2532.7924,N,08002.8872,W,1.5,56.7,240615,6.9,W"
"##MN-00 00 49 0516 02756 6615 481896 023919 199"
"175.831991"
"$GPRMC,195801,A,2532.7934,N,08002.8856,W,1.5,56.2,240615,6.9,W"
"##MN-00 00 48 0516 02758 6614 761328 023923 199"
"175.832037"
"$GPRMC,195805,A,2532.7945,N,08002.8841,W,1.5,55.4,240615,6.9,W"
"##MN-00 00 47 0517 02757 6613 639360 023924 199"
"175.832083"
"$GPRMC,195809,A,2532.7954,N,08002.8825,W,1.6,55.7,240615,6.9,W"
"##MN-00 00 47 0518 02759 6613 760560 023924 199"
"175.83213"
"$GPRMC,195813,A,2532.7964,N,08002.8808,W,1.6,55.6,240615,6.9,W"
"##MN-00 00 49 0519 02761 6612 482584 023918 199"
"175.832176"
"$GPRMC,195817,A,2532.7974,N,08002.8791,W,1.6,56.0,240615,6.9,W"
"##MN-00 00 50 0520 02761 6612 523760 023893 199"
"175.832222"
"$GPRMC,195821,A,2532.7984,N,08002.8774,W,1.6,56.7,240615,6.9,W"
"##MN-00 00 47 0521 02762 6611 476496 023905 199"
"175.832269"
"$GPRMC,195825,A,2532.7993,N,08002.8757,W,1.7,57.2,240615,6.9,W"
"##MN-00 00 47 0522 02761 6610 749696 023902 199"
"175.832315"
"$GPRMC,195829,A,2532.8004,N,08002.8741,W,1.7,57.2,240615,6.9,W"
"##MN-00 00 48 0523 02763 6609 743984 023911 199"
"175.832361"
"$GPRMC,195833,A,2532.8013,N,08002.8722,W,1.7,58.0,240615,6.9,W"
"##MN+00 00 49 0524 02767 6609 619776 023902 199"
"175.832407"
"$GPRMC,195837,A,2532.8022,N,08002.8703,W,1.7,58.9,240615,6.9,W"
"##MN+00 00 48 0525 02765 6608 744112 023908 199"
"175.832454"
"$GPRMC,195841,A,2532.8031,N,08002.8688,W,1.7,59.1,240615,6.9,W"
"##MN+00 00 48 0526 02766 6607 731272 023919 199"
"175.8325"
"$GPRMC,195845,A,2532.8040,N,08002.8670,W,1.7,58.9,240615,6.9,W"
"##MN-00 00 51 0527 02768 6607 172176 023921 199"
"175.832546"
"#increment_net"
"$GPRMC,195849,A,2532.8053,N,08002.8648,W,1.6,59.2,240615,6.9,W"
"##MN-00 00 49 0527 02770 6606 725632 023908 199"
"175.832593"
"$GPRMC,195853,A,2532.8062,N,08002.8630,W,1.6,58.9,240615,6.9,W"
"##MN-00 00 48 0528 02770 6605 485216 023920 199"
"175.832639"
"$GPRMC,195857,A,2532.8073,N,08002.8612,W,1.6,59.1,240615,6.9,W"
"##MN-00 00 48 0529 02770 6604 715968 023932 199"
"175.832685"
"$GPRMC,195901,A,2532.8080,N,08002.8599,W,1.6,58.4,240615,6.9,W"
"##MN-00 00 48 0530 02770 6603 698176 023942 199"
"175.832731"
"$GPRMC,195905,A,2532.8091,N,08002.8581,W,1.6,58.2,240615,6.9,W"
"##MN-00 00 46 0531 02772 6603 704496 023937 199"
"175.832778"
"$GPRMC,195909,A,2532.8100,N,08002.8567,W,1.5,57.4,240615,6.9,W"
"##MN-00 00 48 0532 02773 6602 426968 023928 199"
"175.832824"
"$GPRMC,195913,A,2532.8109,N,08002.8551,W,1.4,56.9,240615,6.9,W"
"##MN-00 00 48 0533 02773 6601 704592 023926 199"
"175.83287"
"$GPRMC,195917,A,2532.8119,N,08002.8536,W,1.5,57.1,240615,6.9,W"
"##MN-00 00 47 0534 02772 6600 583528 023928 199"
"175.832917"
"$GPRMC,195921,A,2532.8127,N,08002.8521,W,1.5,58.0,240615,6.9,W"
"##MN-00 00 47 0535 02776 6599 705600 023932 199"
"175.832963"
"$GPRMC,195925,A,2532.8136,N,08002.8506,W,1.5,58.6,240615,6.9,W"
"##MN-00 00 47 0536 02777 6598 704352 023927 199"
"175.833009"
"$GPRMC,195929,A,2532.8145,N,08002.8490,W,1.5,58.1,240615,6.9,W"
"##MN-00 00 47 0537 02777 6598 704848 023899 199"
"175.833056"
"$GPRMC,195933,A,2532.8155,N,08002.8474,W,1.5,56.6,240615,6.9,W"
"##MN-00 00 47 0538 02778 6597 703088 023902 199"
"175.833102"
"$GPRMC,195937,A,2532.8165,N,08002.8459,W,1.6,55.9,240615,6.9,W"
"##MN-00 00 48 0538 02778 6596 701312 023918 199"
"175.833148"
"$GPRMC,195941,A,2532.8177,N,08002.8443,W,1.6,54.9,240615,6.9,W"
"##MN-00 00 47 0539 02781 6594 687168 023917 199"
"175.833194"
"$GPRMC,195945,A,2532.8188,N,08002.8426,W,1.6,54.9,240615,6.9,W"
"##MN-00 00 47 0540 02780 6594 408720 023919 199"
"175.833241"
"$GPRMC,195949,A,2532.8202,N,08002.8410,W,1.6,55.4,240615,6.9,W"
"##MN-00 00 52 0541 02783 6592 682784 023919 199"
"175.833287"
"$GPRMC,195953,A,2532.8213,N,08002.8393,W,1.7,54.8,240615,6.9,W"
"##MN-00 00 47 0542 02782 6592 678448 023920 199"
"175.833333"
"$GPRMC,195957,A,2532.8225,N,08002.8377,W,1.7,54.4,240615,6.9,W"
"##MN-00 00 47 0543 02782 6591 676672 023920 199"
"175.83338"
"$GPRMC,200001,A,2532.8237,N,08002.8360,W,1.7,53.6,240615,6.9,W"
"##MN-00 00 48 0544 02784 6590 558248 023908 199"
"175.833426"
"$GPRMC,200005,A,2532.8250,N,08002.8342,W,1.7,52.8,240615,6.9,W"
"##MN-00 00 46 0545 02784 6589 666960 023907 199"
"175.833472"
"$GPRMC,200009,A,2532.8261,N,08002.8325,W,1.7,52.8,240615,6.9,W"
"##MN-00 00 46 0546 02785 6588 664784 023925 199"
"175.833519"
"$GPRMC,200013,A,2532.8274,N,08002.8306,W,1.7,53.3,240615,6.9,W"
"##MN-00 00 46 0546 02784 6587 665264 023923 199"
"175.833576"
"$GPRMC,200017,A,2532.8285,N,08002.8288,W,1.7,54.5,240615,6.9,W"
"##MN-00 00 46 0547 02786 6586 650600 023948 199"
"175.833623"
"$GPRMC,200021,A,2532.8297,N,08002.8271,W,1.7,55.4,240615,6.9,W"
"##MN-00 00 46 0548 02789 6585 643984 023950 199"
"175.833669"
"$GPRMC,200025,A,2532.8307,N,08002.8253,W,1.7,56.3,240615,6.9,W"
"##MN-00 00 46 0549 02786 6584 648944 023943 199"
"175.833715"
"$GPRMC,200029,A,2532.8317,N,08002.8237,W,1.7,56.6,240615,6.9,W"
"##MN-00 00 46 0550 02789 6583 647224 023940 199"
"175.833762"
"$GPRMC,200033,A,2532.8326,N,08002.8220,W,1.7,56.7,240615,6.9,W"
"##MN-00 00 47 0551 02790 6582 645968 023952 199"
"175.833808"
"$GPRMC,200037,A,2532.8335,N,08002.8201,W,1.6,57.1,240615,6.9,W"
"##MN-00 00 46 0552 02790 6581 775576 023957 199"
"175.833854"
"$GPRMC,200041,A,2532.8344,N,08002.8183,W,1.6,57.2,240615,6.9,W"
"##MN+00 00 46 0553 02792 6580 648720 023949 199"
"175.8339"
"$GPRMC,200045,A,2532.8354,N,08002.8168,W,1.6,56.8,240615,6.9,W"
"##MN+00 00 46 0554 02792 6579 652296 023937 199"
"175.833947"
"$GPRMC,200049,A,2532.8365,N,08002.8153,W,1.6,54.2,240615,6.9,W"
"##MN+00 00 46 0554 02793 6578 089136 023912 199"
"175.833993"
"$GPRMC,200053,A,2532.8376,N,08002.8139,W,1.6,52.4,240615,6.9,W"
"##MN-00 00 51 0555 02791 6577 774432 023926 199"
"175.834039"
"#increment_net"
"$GPRMC,200058,A,2532.8390,N,08002.8119,W,1.5,51.6,240615,6.9,W"
"##MN-00 00 49 0556 02794 6576 645344 023933 199"
"175.834086"
"$GPRMC,200101,A,2532.8397,N,08002.8108,W,1.5,51.9,240615,6.9,W"
"##MN-00 00 50 0557 02795 6575 637336 023932 199"
"175.834132"
"$GPRMC,200106,A,2532.8409,N,08002.8089,W,1.5,53.3,240615,6.9,W"
"##MN-00 00 49 0558 02798 6574 512712 023941 199"
"175.834178"
"$GPRMC,200110,A,2532.8418,N,08002.8074,W,1.5,54.4,240615,6.9,W"
"##MN-00 00 50 0559 02796 6573 072448 023925 199"
"175.834225"
"$GPRMC,200114,A,2532.8427,N,08002.8057,W,1.5,55.5,240615,6.9,W"
"##MN-00 00 54 0560 02795 6572 626352 023923 199"
"175.834271"
"$GPRMC,200118,A,2532.8436,N,08002.8040,W,1.6,56.2,240615,6.9,W"
"##MN-00 00 49 0561 02798 6571 373040 023934 199"
"175.834317"
"$GPRMC,200122,A,2532.8448,N,08002.8023,W,1.6,56.3,240615,6.9,W"
"##MN-00 00 49 0562 02798 6570 346656 023933 199"
"175.834363"
"$GPRMC,200126,A,2532.8458,N,08002.8006,W,1.6,56.4,240615,6.9,W"
"##MN-00 00 48 0563 02798 6568 620688 023943 199"
"175.83441"
"$GPRMC,200130,A,2532.8469,N,08002.7988,W,1.7,56.3,240615,6.9,W"
"##MN-00 00 48 0563 02798 6567 495584 023928 199"
"175.834456"
"$GPRMC,200134,A,2532.8480,N,08002.7970,W,1.7,55.3,240615,6.9,W"
"##MN-00 00 48 0564 02799 6566 608288 023932 199"
"175.834502"
"$GPRMC,200138,A,2532.8491,N,08002.7952,W,1.7,55.2,240615,6.9,W"
"##MN-00 00 52 0565 02801 6565 615488 023922 199"
"175.834549"
"$GPRMC,200142,A,2532.8502,N,08002.7934,W,1.7,54.9,240615,6.9,W"
"##MN-00 00 49 0566 02802 6564 591440 023937 199"
"175.834595"
"$GPRMC,200146,A,2532.8513,N,08002.7916,W,1.7,54.9,240615,6.9,W"
"##MN-00 00 51 0567 02802 6563 611088 023936 199"
"175.834641"
"$GPRMC,200150,A,2532.8524,N,08002.7899,W,1.7,55.5,240615,6.9,W"
"##MN-00 00 48 0568 02803 6562 314808 023944 199"
"175.834687"
"$GPRMC,200154,A,2532.8535,N,08002.7883,W,1.7,55.2,240615,6.9,W"
"##MN-00 00 50 0569 02802 6561 591568 023928 199"
"175.834734"
"$GPRMC,200158,A,2532.8546,N,08002.7866,W,1.7,55.1,240615,6.9,W"
"##MN-00 00 48 0570 02802 6560 470880 023936 199"
"175.83478"
"$GPRMC,200202,A,2532.8557,N,08002.7849,W,1.7,54.6,240615,6.9,W"
"##MN-00 00 48 0571 02805 6558 599648 023929 199"
"175.834826"
"$GPRMC,200206,A,2532.8568,N,08002.7833,W,1.6,54.4,240615,6.9,W"
"##MN-00 00 47 0571 02804 6557 313176 023946 199"
"175.834873"
"$GPRMC,200210,A,2532.8579,N,08002.7818,W,1.6,52.9,240615,6.9,W"
"##MN-00 00 49 0572 02807 6556 342272 023943 199"
"175.834919"
"$GPRMC,200214,A,2532.8589,N,08002.7805,W,1.5,51.4,240615,6.9,W"
"##MN-00 00 48 0573 02806 6555 200112 023917 199"
"175.834965"
"$GPRMC,200218,A,2532.8600,N,08002.7790,W,1.6,50.6,240615,6.9,W"
"##MN-00 00 50 0574 02807 6554 441080 023894 199"
"175.835012"
"$GPRMC,200222,A,2532.8611,N,08002.7775,W,1.5,50.2,240615,6.9,W"
"##MN-00 00 49 0575 02807 6553 354880 023881 199"
"175.835058"
"$GPRMC,200226,A,2532.8622,N,08002.7761,W,1.5,50.5,240615,6.9,W"
"##MN-00 00 48 0576 02808 6552 717880 023891 199"
"175.835104"
"$GPRMC,200230,A,2532.8633,N,08002.7747,W,1.5,50.6,240615,6.9,W"
"##MN-00 00 48 0577 02807 6551 840352 023888 199"
"175.83515"
"$GPRMC,200234,A,2532.8643,N,08002.7732,W,1.5,50.6,240615,6.9,W"
"##MN-00 00 49 0578 02811 6549 586624 023909 199"
"175.835197"
"$GPRMC,200238,A,2532.8653,N,08002.7718,W,1.5,50.6,240615,6.9,W"
"##MN-00 00 48 0578 02810 6548 582176 023913 199"
"175.835243"
"$GPRMC,200242,A,2532.8664,N,08002.7703,W,1.5,50.9,240615,6.9,W"
"##MN-00 00 48 0579 02810 6547 802072 023906 199"
"175.835289"
"$GPRMC,200246,A,2532.8674,N,08002.7688,W,1.5,51.1,240615,6.9,W"
"##MN-00 00 49 0580 02813 6546 874512 023912 199"
"175.835336"
"$GPRMC,200250,A,2532.8683,N,08002.7673,W,1.5,51.9,240615,6.9,W"
"##MN-00 00 51 0581 02811 6545 573808 023909 199"
"175.835382"
"$GPRMC,200254,A,2532.8691,N,08002.7658,W,1.5,52.5,240615,6.9,W"
"##MN+00 00 48 0582 02814 6544 289088 023904 199"
"175.835428"
"$GPRMC,200258,A,2532.8701,N,08002.7644,W,1.5,52.3,240615,6.9,W"
"##MN+00 00 48 0583 02813 6543 818256 023916 199"
"175.835475"
"$GPRMC,200302,A,2532.8712,N,08002.7630,W,1.5,51.7,240615,6.9,W"
"##MN+00 00 48 0584 02812 6542 571168 023919 199"
"175.835521"
"$GPRMC,200306,A,2532.8723,N,08002.7616,W,1.5,51.7,240615,6.9,W"
"##MN-00 00 49 0585 02814 6541 563712 023925 199"
"175.835567"
"$GPRMC,200310,A,2532.8736,N,08002.7601,W,1.6,51.1,240615,6.9,W"
"##MN-00 00 49 0585 02815 6539 557960 023914 199"
"175.835613"
"#increment_net"
"$GPRMC,200314,A,2532.8747,N,08002.7586,W,1.6,49.9,240615,6.9,W"
"##MN-00 00 48 0586 02816 6538 048224 023916 199"
"175.83566"
"$GPRMC,200318,A,2532.8759,N,08002.7571,W,1.6,50.4,240615,6.9,W"
"##MN-00 00 47 0587 02814 6537 553088 023922 199"
"175.835706"
"$GPRMC,200322,A,2532.8770,N,08002.7556,W,1.7,51.0,240615,6.9,W"
"##MN-00 00 47 0588 02816 6536 307264 023933 199"
"175.835752"
"$GPRMC,200326,A,2532.8781,N,08002.7537,W,1.7,51.5,240615,6.9,W"
"##MN-00 00 47 0589 02815 6534 789112 023926 199"
"175.835799"
"$GPRMC,200330,A,2532.8792,N,08002.7518,W,1.7,52.0,240615,6.9,W"
"##MN-00 00 51 0590 02816 6534 664000 023927 199"
"175.835845"
"$GPRMC,200334,A,2532.8803,N,08002.7500,W,1.7,51.7,240615,6.9,W"
"##MN-00 00 47 0591 02818 6532 788240 023919 199"
"175.835891"
"$GPRMC,200338,A,2532.8815,N,08002.7483,W,1.6,52.1,240615,6.9,W"
"##MN-00 00 46 0592 02817 6531 536328 023916 199"
"175.835938"
"$GPRMC,200342,A,2532.8826,N,08002.7466,W,1.6,51.9,240615,6.9,W"
"##MN-00 00 48 0592 02818 6530 296800 023933 199"
"175.835984"
"$GPRMC,200346,A,2532.8835,N,08002.7451,W,1.6,52.6,240615,6.9,W"
"##MN-00 00 47 0593 02817 6529 534664 023927 199"
"175.83603"
"$GPRMC,200350,A,2532.8845,N,08002.7435,W,1.6,53.4,240615,6.9,W"
"##MN-00 00 47 0594 02819 6528 535552 023930 199"
"175.836076"
"$GPRMC,200354,A,2532.8855,N,08002.7419,W,1.5,54.5,240615,6.9,W"
"##MN-00 00 47 0595 02819 6526 785416 023925 199"
"175.836123"
"$GPRMC,200358,A,2532.8864,N,08002.7403,W,1.5,55.1,240615,6.9,W"
"##MN-00 00 51 0596 02819 6525 663400 023930 199"
"175.836169"
"$GPRMC,200402,A,2532.8873,N,08002.7387,W,1.5,55.6,240615,6.9,W"
"##MN-00 00 48 0597 02821 6524 295168 023901 199"
"175.836215"
"$GPRMC,200406,A,2532.8882,N,08002.7371,W,1.5,56.8,240615,6.9,W"
"##MN-00 00 49 0598 02818 6523 784176 023888 199"
"175.836262"
"$GPRMC,200410,A,2532.8892,N,08002.7354,W,1.5,57.1,240615,6.9,W"
"##MN-00 00 48 0599 02820 6522 297888 023894 199"
"175.836308"
"$GPRMC,200414,A,2532.8902,N,08002.7340,W,1.5,57.8,240615,6.9,W"
"##MN-00 00 48 0600 02820 6521 782904 023894 199"
"175.836354"
"$GPRMC,200418,A,2532.8911,N,08002.7326,W,1.5,56.6,240615,6.9,W"
"##MN-00 00 52 0601 02820 6520 290848 023910 199"
"175.8364"
"$GPRMC,200422,A,2532.8921,N,08002.7312,W,1.5,55.0,240615,6.9,W"
"##MN-00 00 52 0602 02819 6518 778944 023915 199"
"175.836447"
"$GPRMC,200426,A,2532.8932,N,08002.7296,W,1.4,53.8,240615,6.9,W"
"##MN-00 00 48 0602 02821 6517 278448 023913 199"
"175.836493"
"$GPRMC,200430,A,2532.8943,N,08002.7283,W,1.5,51.8,240615,6.9,W"
"##MN-00 00 48 0603 02819 6516 502392 023920 199"
"175.836539"
"$GPRMC,200434,A,2532.8954,N,08002.7269,W,1.5,50.1,240615,6.9,W"
"##MN-00 00 49 0604 02819 6515 145224 023918 199"
"175.836586"
"$GPRMC,200438,A,2532.8965,N,08002.7255,W,1.5,50.0,240615,6.9,W"
"##MN-00 00 48 0605 02821 6514 522544 023922 199"
"175.836632"
"$GPRMC,200442,A,2532.8976,N,08002.7239,W,1.6,50.9,240615,6.9,W"
"##MN-00 00 51 0606 02822 6513 518136 023919 199"
"175.836678"
"$GPRMC,200446,A,2532.8986,N,08002.7223,W,1.6,52.8,240615,6.9,W"
"##MN-00 00 50 0607 02821 6512 003520 023928 199"
"175.836725"
"$GPRMC,200450,A,2532.8996,N,08002.7206,W,1.6,54.3,240615,6.9,W"
"##MN-00 00 48 0608 02821 6510 509240 023932 199"
"175.836771"
"$GPRMC,200454,A,2532.9007,N,08002.7189,W,1.6,55.6,240615,6.9,W"
"##MN-00 00 48 0609 02822 6509 509280 023927 199"
"175.836829"
"$GPRMC,200458,A,2532.9018,N,08002.7173,W,1.6,55.6,240615,6.9,W"
"##MN-00 00 49 0610 02821 6508 388168 023924 199"
"175.836875"
"$GPRMC,200502,A,2532.9027,N,08002.7159,W,1.7,55.3,240615,6.9,W"
"##MN-00 00 48 0611 02822 6507 504896 023920 199"
"175.836921"
"$GPRMC,200506,A,2532.9040,N,08002.7145,W,1.6,55.1,240615,6.9,W"
"##MN+00 00 51 0612 02823 6506 500880 023926 199"
"175.836968"
"$GPRMC,200510,A,2532.9050,N,08002.7128,W,1.7,55.1,240615,6.9,W"
"##MN+00 00 49 0612 02822 6505 504024 023933 199"
"175.837014"
"$GPRMC,200514,A,2532.9061,N,08002.7110,W,1.7,54.8,240615,6.9,W"
"##MN+00 00 48 0613 02821 6504 984928 023936 199"
"175.83706"
"$GPRMC,200518,A,2532.9072,N,08002.7092,W,1.7,54.5,240615,6.9,W"
"##MN-00 00 52 0614 02822 6502 366888 023945 199"
"175.837106"
"#increment_net"
"$GPRMC,200522,A,2532.9084,N,08002.7075,W,1.7,54.0,240615,6.9,W"
"##MN-00 00 49 0615 02823 6502 478304 023950 199"
"175.837153"
"$GPRMC,200526,A,2532.9094,N,08002.7059,W,1.7,54.1,240615,6.9,W"
"##MN-00 00 48 0616 02821 6500 728120 023949 199"
"175.837199"
"$GPRMC,200530,A,2532.9104,N,08002.7042,W,1.6,53.9,240615,6.9,W"
"##MN-00 00 49 0617 02823 6499 479264 023955 199"
"175.837245"
"$GPRMC,200534,A,2532.9115,N,08002.7028,W,1.6,54.2,240615,6.9,W"
"##MN-00 00 49 0618 02823 6498 358096 023936 199"
"175.837292"
"$GPRMC,200538,A,2532.9126,N,08002.7013,W,1.6,53.0,240615,6.9,W"
"##MN-00 00 48 0619 02820 6497 488192 023934 199"
"175.837338"
"$GPRMC,200542,A,2532.9137,N,08002.6997,W,1.6,52.6,240615,6.9,W"
"##MN-00 00 48 0620 02821 6496 853256 023937 199"
"175.837384"
"$GPRMC,200546,A,2532.9148,N,08002.6981,W,1.6,53.4,240615,6.9,W"
"##MN-00 00 48 0621 02820 6495 607544 023946 199"
"175.837431"
"$GPRMC,200550,A,2532.9159,N,08002.6966,W,1.6,53.8,240615,6.9,W"
"##MN-00 00 48 0622 02821 6493 478448 023937 199"
"175.837477"
"$GPRMC,200554,A,2532.9169,N,08002.6950,W,1.6,54.1,240615,6.9,W"
"##MN-00 00 48 0622 02822 6492 358656 023936 199"
"175.837523"
"$GPRMC,200558,A,2532.9178,N,08002.6935,W,1.5,55.0,240615,6.9,W"
"##MN-00 00 48 0623 02823 6491 979856 023934 199"
"175.837569"
"$GPRMC,200602,A,2532.9191,N,08002.6921,W,1.5,55.5,240615,6.9,W"
"##MN-00 00 47 0624 02823 6490 480264 023906 199"
"175.837616"
"$GPRMC,200607,A,2532.9200,N,08002.6906,W,1.5,55.6,240615,6.9,W"
"##MN-00 00 48 0625 02823 6489 235296 023908 199"
"175.837662"
"$GPRMC,200611,A,2532.9214,N,08002.6886,W,1.5,55.9,240615,6.9,W"
"##MN-00 00 51 0626 02823 6488 730080 023905 199"
"175.837708"
"$GPRMC,200615,A,2532.9221,N,08002.6875,W,1.5,55.8,240615,6.9,W"
"##MN-00 00 48 0627 02823 6487 607192 023899 199"
"175.837755"
"$GPRMC,200619,A,2532.9232,N,08002.6854,W,1.5,55.7,240615,6.9,W"
"##MN-00 00 48 0628 02821 6486 481248 023898 199"
"175.837801"
"$GPRMC,200623,A,2532.9240,N,08002.6838,W,1.5,55.6,240615,6.9,W"
"##MN-00 00 48 0629 02824 6485 359168 023903 199"
"175.837847"
"$GPRMC,200627,A,2532.9247,N,08002.6825,W,1.5,55.9,240615,6.9,W"
"##MN-00 00 50 0630 02824 6484 482144 023909 199"
"175.837893"
"$GPRMC,200631,A,2532.9258,N,08002.6805,W,1.6,56.0,240615,6.9,W"
"##MN-00 00 48 0631 02821 6482 322064 023920 199"
"175.83794"
"$GPRMC,200635,A,2532.9269,N,08002.6787,W,1.6,55.8,240615,6.9,W"
"##MN-00 00 49 0632 02824 6481 722576 023929 199"
"175.837986"
"$GPRMC,200639,A,2532.9279,N,08002.6770,W,1.6,55.7,240615,6.9,W"
"##MN-00 00 49 0633 02820 6480 345448 023913 199"
"175.838032"
"$GPRMC,200643,A,2532.9290,N,08002.6754,W,1.7,55.1,240615,6.9,W"
"##MN-00 00 48 0634 02822 6479 958672 023919 199"
"175.838079"
"$GPRMC,200647,A,2532.9301,N,08002.6736,W,1.6,55.6,240615,6.9,W"
"##MN-00 00 48 0635 02824 6478 341976 023931 199"
"175.838125"
"$GPRMC,200651,A,2532.9312,N,08002.6718,W,1.7,55.4,240615,6.9,W"
"##MN-00 00 48 0635 02822 6477 459584 023921 199"
"175.838171"
"$GPRMC,200655,A,2532.9325,N,08002.6701,W,1.7,55.3,240615,6.9,W"
"##MN-00 00 48 0636 02821 6475 955184 023926 199"
"175.838218"
"$GPRMC,200659,A,2532.9336,N,08002.6684,W,1.7,53.9,240615,6.9,W"
"##MN-00 00 50 0637 02824 6475 460368 023926 199"
"175.838264"
"$GPRMC,200703,A,2532.9348,N,08002.6667,W,1.7,52.1,240615,6.9,W"
"##MN-00 00 48 0638 02822 6474 948032 023928 199"
"175.83831"
"$GPRMC,200707,A,2532.9359,N,08002.6651,W,1.7,51.9,240615,6.9,W"
"##MN-00 00 48 0639 02824 6472 335824 023938 199"
"175.838356"
"$GPRMC,200711,A,2532.9372,N,08002.6634,W,1.7,51.2,240615,6.9,W"
"##MN-00 00 51 0640 02822 6471 440496 023938 199"
"175.838403"
"$GPRMC,200715,A,2532.9383,N,08002.6617,W,1.6,51.6,240615,6.9,W"
"##MN-00 00 51 0641 02824 6470 583008 023946 199"
"175.838449"
"$GPRMC,200719,A,2532.9395,N,08002.6601,W,1.6,52.3,240615,6.9,W"
"##MN-00 00 48 0642 02822 6469 441456 023928 199"
"175.838495"
"$GPRMC,200723,A,2532.9406,N,08002.6585,W,1.6,52.7,240615,6.9,W"
"##MN-00 00 48 0643 02822 6468 694432 023930 199"
"175.838542"
"$GPRMC,200727,A,2532.9416,N,08002.6570,W,1.6,53.2,240615,6.9,W"
"##MN-00 00 48 0644 02823 6467 323472 023937 199"
"175.838588"
"$GPRMC,200731,A,2532.9426,N,08002.6555,W,1.6,53.3,240615,6.9,W"
"##MN-00 00 49 0645 02824 6466 140112 023938 199"
"175.838634"
"$GPRMC,200735,A,2532.9435,N,08002.6538,W,1.5,53.9,240615,6.9,W"
"##MN-00 00 49 0646 02824 6465 562616 023943 199"
"175.838681"
"$GPRMC,200739,A,2532.9445,N,08002.6522,W,1.5,54.1,240615,6.9,W"
"##MN-00 00 48 0647 02823 6464 185888 023951 199"
"175.838727"
"$GPRMC,200743,A,2532.9455,N,08002.6507,W,1.5,55.1,240615,6.9,W"
"##MN-00 00 48 0647 02823 6463 159008 023955 199"
"175.838773"
"$GPRMC,200747,A,2532.9464,N,08002.6490,W,1.6,55.9,240615,6.9,W"
"##MN-00 00 52 0648 02823 6461 430048 023963 199"
"175.838819"
"$GPRMC,200751,A,2532.9473,N,08002.6474,W,1.6,56.3,240615,6.9,W"
"##MN-00 00 49 0649 02821 6460 422464 023960 199"
"175.838866"
"$GPRMC,200755,A,2532.9482,N,08002.6457,W,1.6,56.6,240615,6.9,W"
"##MN-00 00 48 0650 02822 6459 803176 023959 199"
"175.838912"
"$GPRMC,200759,A,2532.9492,N,08002.6441,W,1.6,57.0,240615,6.9,W"
"##MN-00 00 51 0651 02821 6458 184240 023952 199"
"175.838958"
"$GPRMC,200803,A,2532.9502,N,08002.6424,W,1.6,56.4,240615,6.9,W"
"##MN-00 00 51 0652 02820 6457 549392 023956 199"
"175.839005"
"$GPRMC,200807,A,2532.9511,N,08002.6408,W,1.6,55.6,240615,6.9,W"
"##MN-00 00 51 0653 02823 6456 426560 023970 199"
"175.839051"
"$GPRMC,200811,A,2532.9524,N,08002.6393,W,1.6,53.9,240615,6.9,W"
"##MN-00 00 50 0654 02821 6455 426136 023968 199"
"175.839097"
"$GPRMC,200815,A,2532.9535,N,08002.6377,W,1.6,52.6,240615,6.9,W"
"##MN-00 00 49 0655 02821 6454 398096 023952 199"
"175.839144"
"$GPRMC,200819,A,2532.9546,N,08002.6361,W,1.7,53.2,240615,6.9,W"
"##MN-00 00 49 0656 02822 6453 683136 023939 199"
"175.83919"
"$GPRMC,200823,A,2532.9556,N,08002.6344,W,1.6,54.7,240615,6.9,W"
"##MN-00 00 48 0657 02821 6452 301504 023933 199"
"175.839236"
"$GPRMC,200827,A,2532.9567,N,08002.6328,W,1.7,55.3,240615,6.9,W"
"##MN-00 00 48 0658 02822 6451 924496 023932 199"
"175.839282"
"$GPRMC,200831,A,2532.9578,N,08002.6312,W,1.7,55.2,240615,6.9,W"
"##MN-00 00 48 0659 02821 6450 551768 023938 199"
"175.839329"
"$GPRMC,200835,A,2532.9589,N,08002.6296,W,1.7,54.5,240615,6.9,W"
"##MN-00 00 48 0659 02822 6449 184400 023916 199"
"175.839375"
"$GPRMC,200839,A,2532.9600,N,08002.6280,W,1.7,54.1,240615,6.9,W"
"##MN-00 00 48 0660 02822 6448 548688 023906 199"
"175.839421"
"$GPRMC,200843,A,2532.9610,N,08002.6263,W,1.7,54.2,240615,6.9,W"
"##MN-00 00 51 0661 02821 6447 925456 023912 199"
"175.839468"
"$GPRMC,200847,A,2532.9619,N,08002.6247,W,1.7,54.7,240615,6.9,W"
"##MN-00 00 48 0662 02823 6446 558472 023924 199"
"175.839514"
"$GPRMC,200851,A,2532.9630,N,08002.6230,W,1.6,55.0,240615,6.9,W"
"##MN-00 00 48 0663 02821 6444 670320 023927 199"
"175.83956"
"$GPRMC,200855,A,2532.9641,N,08002.6213,W,1.6,55.4,240615,6.9,W"
"##MN-00 00 50 0664 02820 6444 417888 023925 199"
"175.839606"
"$GPRMC,200859,A,2532.9655,N,08002.6198,W,1.6,55.6,240615,6.9,W"
"##MN-00 00 51 0665 02822 6443 422776 023930 199"
"175.839653"
"$GPRMC,200903,A,2532.9664,N,08002.6179,W,1.6,55.7,240615,6.9,W"
"##MN-00 00 49 0666 02820 6441 416160 023939 199"
"175.839699"
"$GPRMC,200907,A,2532.9673,N,08002.6163,W,1.6,56.7,240615,6.9,W"
"##MN-00 00 49 0667 02822 6441 911656 023945 199"
"175.839745"
"$GPRMC,200911,A,2532.9684,N,08002.6148,W,1.6,57.2,240615,6.9,W"
"##MN-00 00 48 0668 02822 6439 407232 023932 199"
"175.839792"
"$GPRMC,200915,A,2532.9694,N,08002.6132,W,1.5,57.2,240615,6.9,W"
"##MN-00 00 49 0669 02820 6438 413464 023938 199"
"175.839838"
"$GPRMC,200919,A,2532.9704,N,08002.6116,W,1.6,57.3,240615,6.9,W"
"##MN-00 00 48 0670 02822 6437 397944 023945 199"
"175.839884"
"$GPRMC,200923,A,2532.9715,N,08002.6099,W,1.6,57.1,240615,6.9,W"
"##MN-00 00 48 0671 02822 6436 918320 023943 199"
"175.839931"
"$GPRMC,200927,A,2532.9724,N,08002.6082,W,1.6,57.4,240615,6.9,W"
"##MN+00 00 51 0672 02820 6435 404248 023937 199"
"175.839977"
"$GPRMC,200931,A,2532.9734,N,08002.6064,W,1.7,57.2,240615,6.9,W"
"##MN+00 00 51 0673 02819 6434 398480 023936 199"
"175.840023"
"$GPRMC,200935,A,2532.9745,N,08002.6045,W,1.7,57.4,240615,6.9,W"
"##MN+00 00 49 0673 02821 6433 520912 023950 199"
"175.840081"
"$GPRMC,200939,A,2532.9756,N,08002.6026,W,1.7,57.7,240615,6.9,W"
"##MN-00 00 54 0674 02820 6432 389600 023931 199"
"175.840127"
"$GPRMC,200943,A,2532.9767,N,08002.6008,W,1.8,57.5,240615,6.9,W"
"##MN-00 00 51 0675 02821 6431 529464 023947 199"
"175.840174"
"#increment_net"
"$GPRMC,200947,A,2532.9778,N,08002.5989,W,1.8,57.2,240615,6.9,W"
"##MN-00 00 49 0676 02822 6430 392352 023949 199"
"175.84022"
"$GPRMC,200951,A,2532.9789,N,08002.5968,W,1.9,57.2,240615,6.9,W"
"##MN-00 00 49 0677 02821 6429 521000 023957 199"
"175.840266"
"$GPRMC,200955,A,2532.9800,N,08002.5947,W,1.9,57.3,240615,6.9,W"
"##MN-00 00 49 0678 02820 6428 767232 023953 199"
"175.840312"
"$GPRMC,200959,A,2532.9811,N,08002.5927,W,1.9,56.8,240615,6.9,W"
"##MN-00 00 49 0679 02820 6427 146512 023942 199"
"175.840359"
"$GPRMC,201003,A,2532.9824,N,08002.5907,W,2.0,56.2,240615,6.9,W"
"##MN-00 00 48 0680 02821 6426 512568 023952 199"
"175.840405"
"$GPRMC,201007,A,2532.9835,N,08002.5885,W,2.0,56.4,240615,6.9,W"
"##MN-00 00 50 0681 02823 6425 647920 023955 199"
"175.840451"
"$GPRMC,201012,A,2532.9850,N,08002.5859,W,2.0,56.4,240615,6.9,W"
"##MN-00 00 48 0682 02820 6424 491392 023941 199"
"175.840498"
"$GPRMC,201016,A,2532.9863,N,08002.5838,W,1.9,56.7,240615,6.9,W"
"##MN-00 00 49 0683 02819 6423 142144 023953 199"
"175.840544"
"$GPRMC,201020,A,2532.9875,N,08002.5818,W,1.9,57.2,240615,6.9,W"
"##MN-00 00 49 0684 02821 6422 624448 023959 199"
"175.84059"
"$GPRMC,201023,A,2532.9883,N,08002.5803,W,1.9,57.4,240615,6.9,W"
"##MN-00 00 50 0685 02818 6421 250856 023957 199"
"175.840637"
"$GPRMC,201028,A,2532.9896,N,08002.5780,W,1.8,57.8,240615,6.9,W"
"##MN-00 00 49 0686 02820 6420 869808 023969 199"
"175.840683"
"$GPRMC,201032,A,2532.9906,N,08002.5762,W,1.8,57.5,240615,6.9,W"
"##MN-00 00 49 0687 02820 6419 625776 023974 199"
"175.840729"
"$GPRMC,201035,A,2532.9914,N,08002.5748,W,1.7,57.7,240615,6.9,W"
"##MN-00 00 50 0688 02818 6418 125280 023961 199"
"175.840775"
"$GPRMC,201040,A,2532.9929,N,08002.5727,W,1.7,57.7,240615,6.9,W"
"##MN-00 00 49 0689 02819 6417 745160 023961 199"
"175.840822"
"$GPRMC,201044,A,2532.9937,N,08002.5710,W,1.7,58.4,240615,6.9,W"
"##MN-00 00 49 0689 02818 6416 367632 023973 199"
"175.840868"
"$GPRMC,201048,A,2532.9948,N,08002.5694,W,1.6,59.0,240615,6.9,W"
"##MN-00 00 49 0690 02820 6415 244696 023959 199"
"175.840914"
"$GPRMC,201052,A,2532.9955,N,08002.5675,W,1.6,59.0,240615,6.9,W"
"##MN-00 00 51 0691 02819 6414 618808 023962 199"
"175.840961"
"$GPRMC,201056,A,2532.9966,N,08002.5659,W,1.6,58.9,240615,6.9,W"
"##MN-00 00 53 0692 02820 6413 624128 023954 199"
"175.841007"
"$GPRMC,201100,A,2532.9977,N,08002.5642,W,1.6,58.7,240615,6.9,W"
"##MN-00 00 52 0693 02819 6412 247888 023962 199"
"175.841053"
"$GPRMC,201104,A,2532.9988,N,08002.5626,W,1.6,59.2,240615,6.9,W"
"##MN-00 00 50 0694 02817 6411 715584 023958 199"
"175.8411"
"$GPRMC,201108,A,2532.9998,N,08002.5609,W,1.7,58.0,240615,6.9,W"
"##MN-00 00 49 0695 02821 6410 569944 023960 199"
"175.841146"
"$GPRMC,201112,A,2533.0009,N,08002.5591,W,1.6,57.5,240615,6.9,W"
"##MN-00 00 49 0696 02818 6409 128064 023942 199"
"175.841192"
"$GPRMC,201116,A,2533.0020,N,08002.5574,W,1.7,56.8,240615,6.9,W"
"##MN-00 00 49 0697 02818 6409 347856 023946 199"
"175.841238"
"$GPRMC,201120,A,2533.0031,N,08002.5555,W,1.7,55.2,240615,6.9,W"
"##MN-00 00 53 0698 02818 6407 495504 023942 199"
"175.841285"
"$GPRMC,201124,A,2533.0042,N,08002.5539,W,1.7,54.4,240615,6.9,W"
"##MN-00 00 49 0699 02817 6406 367744 023941 199"
"175.841331"
"$GPRMC,201128,A,2533.0056,N,08002.5521,W,1.7,53.0,240615,6.9,W"
"##MN-00 00 54 0700 02818 6405 368240 023931 199"
"175.841377"
"$GPRMC,201132,A,2533.0067,N,08002.5503,W,1.8,52.0,240615,6.9,W"
"##MN-00 00 49 0701 02818 6405 367808 023929 199"
"175.841424"
"$GPRMC,201136,A,2533.0080,N,08002.5485,W,1.8,51.7,240615,6.9,W"
"##MN-00 00 49 0702 02817 6403 366096 023940 199"
"175.84147"
"$GPRMC,201140,A,2533.0092,N,08002.5467,W,1.8,51.6,240615,6.9,W"
"##MN+00 00 48 0703 02817 6403 622432 023934 199"
"175.841516"
"$GPRMC,201144,A,2533.0105,N,08002.5450,W,1.8,51.8,240615,6.9,W"
"##MN+00 00 48 0703 02818 6402 488944 023948 199"
"175.841563"
"$GPRMC,201148,A,2533.0117,N,08002.5433,W,1.8,51.3,240615,6.9,W"
"##MN+00 00 50 0704 02817 6401 360632 023932 199"
"175.841609"
"$GPRMC,201152,A,2533.0130,N,08002.5416,W,1.8,50.8,240615,6.9,W"
"##MN-00 00 49 0705 02817 6400 360800 023943 199"
"175.841655"
"$GPRMC,201156,A,2533.0143,N,08002.5397,W,1.8,50.4,240615,6.9,W"
"##MN-00 00 48 0706 02818 6399 483624 023938 199"
"175.841701"
"#increment_net"
"$GPRMC,201200,A,2533.0154,N,08002.5379,W,1.8,50.6,240615,6.9,W"
"##MN-00 00 46 0707 02817 6398 350144 023949 199"
"175.841748"
"$GPRMC,201204,A,2533.0167,N,08002.5360,W,1.8,51.4,240615,6.9,W"
"##MN-00 00 44 0708 02819 6397 603480 023938 199"
"175.841794"
"$GPRMC,201208,A,2533.0178,N,08002.5342,W,1.8,52.6,240615,6.9,W"
"##MN-00 00 44 0709 02818 6396 348400 023946 199"
"175.84184"
"$GPRMC,201212,A,2533.0190,N,08002.5324,W,1.8,52.8,240615,6.9,W"
"##MN-00 00 44 0710 02819 6395 606080 023940 199"
"175.841887"
"$GPRMC,201216,A,2533.0201,N,08002.5307,W,1.8,53.3,240615,6.9,W"
"##MN-00 00 44 0711 02817 6394 476616 023945 199"
"175.841933"
"$GPRMC,201220,A,2533.0212,N,08002.5290,W,1.8,53.7,240615,6.9,W"
"##MN-00 00 44 0712 02818 6394 345696 023936 199"
"175.841979"
"$GPRMC,201224,A,2533.0224,N,08002.5273,W,1.7,53.6,240615,6.9,W"
"##MN-00 00 44 0713 02817 6393 342104 023940 199"
"175.842025"
"$GPRMC,201228,A,2533.0236,N,08002.5256,W,1.7,53.3,240615,6.9,W"
"##MN-00 00 44 0713 02816 6392 338672 023939 199"
"175.842072"
"$GPRMC,201232,A,2533.0247,N,08002.5239,W,1.6,53.2,240615,6.9,W"
"##MN-00 00 44 0714 02817 6390 219632 023952 199"
"175.842118"
"$GPRMC,201236,A,2533.0258,N,08002.5223,W,1.6,53.7,240615,6.9,W"
"##MN-00 00 44 0715 02817 6390 338640 023946 199"
"175.842164"
"$GPRMC,201240,A,2533.0272,N,08002.5208,W,1.6,54.9,240615,6.9,W"
"##MN-00 00 44 0716 02817 6389 335072 023944 199"
"175.842211"
"$GPRMC,201244,A,2533.0283,N,08002.5193,W,1.6,54.9,240615,6.9,W"
"##MN-00 00 44 0717 02816 6388 846192 023961 199"
"175.842257"
"$GPRMC,201248,A,2533.0294,N,08002.5178,W,1.6,53.8,240615,6.9,W"
"##MN-00 00 49 0718 02818 6387 339496 023942 199"
"175.842303"
"$GPRMC,201252,A,2533.0307,N,08002.5162,W,1.6,52.7,240615,6.9,W"
"##MN-00 00 48 0719 02817 6386 335920 023952 199"
"175.84235"
"$GPRMC,201256,A,2533.0318,N,08002.5146,W,1.6,52.5,240615,6.9,W"
"##MN-00 00 45 0720 02815 6385 590592 023950 199"
"175.842396"
"$GPRMC,201300,A,2533.0330,N,08002.5129,W,1.6,52.2,240615,6.9,W"
"##MN-00 00 45 0721 02818 6384 213520 023953 199"
"175.842442"
"$GPRMC,201304,A,2533.0341,N,08002.5112,W,1.7,52.2,240615,6.9,W"
"##MN-00 00 45 0722 02817 6383 326240 023949 199"
"175.842488"
"$GPRMC,201308,A,2533.0352,N,08002.5094,W,1.7,53.6,240615,6.9,W"
"##MN-00 00 47 0723 02819 6383 320872 023955 199"
"175.842535"
"$GPRMC,201312,A,2533.0363,N,08002.5075,W,1.7,54.1,240615,6.9,W"
"##MN-00 00 45 0724 02818 6382 611152 023966 199"
"175.842581"
"$GPRMC,201316,A,2533.0374,N,08002.5056,W,1.7,54.4,240615,6.9,W"
"##MN-00 00 45 0725 02818 6381 578288 023957 199"
"175.842627"
"$GPRMC,201320,A,2533.0385,N,08002.5037,W,1.8,54.9,240615,6.9,W"
"##MN-00 00 45 0725 02816 6380 202000 023960 199"
"175.842674"
"$GPRMC,201324,A,2533.0396,N,08002.5018,W,1.8,55.4,240615,6.9,W"
"##MN-00 00 46 0726 02817 6379 332544 023972 199"
"175.84272"
"$GPRMC,201328,A,2533.0407,N,08002.4999,W,1.8,55.6,240615,6.9,W"
"##MN-00 00 48 0727 02816 6378 322280 023963 199"
"175.842766"
"$GPRMC,201332,A,2533.0419,N,08002.4980,W,1.8,54.8,240615,6.9,W"
"##MN-00 00 44 0728 02818 6377 329840 023969 199"
"175.842813"
"$GPRMC,201336,A,2533.0432,N,08002.4962,W,1.8,53.9,240615,6.9,W"
"##MN-00 00 44 0729 02817 6376 315176 023965 199"
"175.842859"
"$GPRMC,201340,A,2533.0445,N,08002.4944,W,1.8,52.5,240615,6.9,W"
"##MN-00 00 45 0730 02818 6375 823280 023977 199"
"175.842905"
"$GPRMC,201344,A,2533.0457,N,08002.4926,W,1.8,52.2,240615,6.9,W"
"##MN-00 00 44 0731 02820 6374 191832 023975 199"
"175.842951"
"$GPRMC,201348,A,2533.0470,N,08002.4908,W,1.8,51.5,240615,6.9,W"
"##MN+00 00 45 0732 02817 6373 302320 023969 199"
"175.842998"
"$GPRMC,201352,A,2533.0482,N,08002.4890,W,1.8,50.9,240615,6.9,W"
"##MN+00 00 45 0733 02817 6373 316576 023968 199"
"175.843044"
"$GPRMC,201356,A,2533.0495,N,08002.4873,W,1.8,50.2,240615,6.9,W"
"##MN+00 00 44 0734 02819 6372 308120 023943 199"
"175.84309"
"$GPRMC,201400,A,2533.0508,N,08002.4855,W,1.8,49.9,240615,6.9,W"
"##MN-00 00 49 0734 02816 6371 306784 023940 199"
"175.843137"
"$GPRMC,201404,A,2533.0519,N,08002.4840,W,1.8,49.9,240615,6.9,W"
"##MN-00 00 46 0735 02819 6370 315688 023927 199"
"175.843183"
"#increment_net"
"$GPRMC,201408,A,2533.0533,N,08002.4824,W,1.7,50.3,240615,6.9,W"
"##MN-00 00 45 0736 02818 6370 304064 023924 199"
"175.843229"
"$GPRMC,201412,A,2533.0544,N,08002.4808,W,1.7,50.3,240615,6.9,W"
"##MN-00 00 46 0737 02818 6369 314352 023918 199"
"175.843275"
"$GPRMC,201416,A,2533.0555,N,08002.4792,W,1.7,50.7,240615,6.9,W"
"##MN-00 00 46 0738 02818 6368 310400 023877 199"
"175.843333"
"$GPRMC,201420,A,2533.0568,N,08002.4776,W,1.7,51.0,240615,6.9,W"
"##MN-00 00 46 0739 02820 6367 561960 023878 199"
"175.84338"
"$GPRMC,201424,A,2533.0580,N,08002.4759,W,1.6,51.8,240615,6.9,W"
"##MN-00 00 46 0740 02817 6366 188368 023874 199"
"175.843426"
"$GPRMC,201428,A,2533.0593,N,08002.4744,W,1.6,52.5,240615,6.9,W"
"##MN-00 00 46 0741 02819 6365 314000 023877 199"
"175.843472"
"$GPRMC,201432,A,2533.0605,N,08002.4729,W,1.7,52.8,240615,6.9,W"
"##MN-00 00 46 0742 02818 6364 308176 023873 199"
"175.843518"
"$GPRMC,201436,A,2533.0618,N,08002.4713,W,1.7,52.7,240615,6.9,W"
"##MN-00 00 46 0743 02818 6363 311328 023878 199"
"175.843565"
"$GPRMC,201440,A,2533.0630,N,08002.4696,W,1.7,52.4,240615,6.9,W"
"##MN-00 00 46 0744 02817 6362 312664 023878 199"
"175.843611"
"$GPRMC,201444,A,2533.0641,N,08002.4679,W,1.7,52.2,240615,6.9,W"
"##MN-00 00 46 0744 02818 6362 815408 023876 199"
"175.843657"
"$GPRMC,201448,A,2533.0654,N,08002.4662,W,1.7,52.1,240615,6.9,W"
"##MN-00 00 46 0745 02820 6361 311408 023878 199"
"175.843704"
"$GPRMC,201452,A,2533.0666,N,08002.4645,W,1.7,51.8,240615,6.9,W"
"##MN-00 00 46 0746 02818 6360 310496 023870 199"
"175.84375"
"$GPRMC,201456,A,2533.0677,N,08002.4628,W,1.7,51.8,240615,6.9,W"
"##MN-00 00 46 0747 02817 6359 311440 023876 199"
"175.843796"
"$GPRMC,201500,A,2533.0690,N,08002.4610,W,1.7,51.4,240615,6.9,W"
"##MN-00 00 50 0748 02816 6358 306592 023877 199"
"175.843843"
"$GPRMC,201504,A,2533.0702,N,08002.4591,W,1.8,51.8,240615,6.9,W"
"##MN-00 00 47 0749 02817 6357 302576 023893 199"
"175.843889"
"$GPRMC,201508,A,2533.0714,N,08002.4573,W,1.8,52.4,240615,6.9,W"
"##MN-00 00 47 0750 02817 6357 302080 023887 199"
"175.843935"
"$GPRMC,201513,A,2533.0728,N,08002.4548,W,1.8,53.6,240615,6.9,W"
"##MN-00 00 47 0751 02819 6356 301648 023884 199"
"175.843982"
"$GPRMC,201517,A,2533.0742,N,08002.4529,W,1.9,53.9,240615,6.9,W"
"##MN-00 00 47 0752 02815 6355 175176 023883 199"
"175.844028"
"$GPRMC,201521,A,2533.0753,N,08002.4510,W,1.9,54.3,240615,6.9,W"
"##MN-00 00 47 0753 02817 6355 806640 023889 199"
"175.844074"
"$GPRMC,201525,A,2533.0766,N,08002.4491,W,1.8,54.2,240615,6.9,W"
"##MN-00 00 47 0754 02817 6354 171616 023885 199"
"175.84412"
"$GPRMC,201529,A,2533.0777,N,08002.4472,W,1.8,53.9,240615,6.9,W"
"##MN-00 00 47 0755 02818 6353 290064 023883 199"
"175.844167"
"$GPRMC,201533,A,2533.0788,N,08002.4453,W,1.8,54.6,240615,6.9,W"
"##MN-00 00 47 0755 02819 6352 297680 023894 199"
"175.844213"
"$GPRMC,201537,A,2533.0799,N,08002.4436,W,1.8,54.9,240615,6.9,W"
"##MN-00 00 47 0756 02818 6351 547952 023889 199"
"175.844259"
"$GPRMC,201541,A,2533.0810,N,08002.4419,W,1.7,55.3,240615,6.9,W"
"##MN-00 00 48 0757 02817 6350 292848 023887 199"
"175.844306"
"$GPRMC,201545,A,2533.0821,N,08002.4401,W,1.7,54.9,240615,6.9,W"
"##MN-00 00 54 0758 02816 6350 169016 023896 199"
"175.844352"
"$GPRMC,201549,A,2533.0833,N,08002.4384,W,1.7,54.3,240615,6.9,W"
"##MN-00 00 52 0759 02817 6348 283936 023892 199"
"175.844398"
"$GPRMC,201553,A,2533.0844,N,08002.4368,W,1.7,54.0,240615,6.9,W"
"##MN-00 00 48 0760 02817 6348 290640 023890 199"
"175.844444"
"$GPRMC,201557,A,2533.0857,N,08002.4352,W,1.7,54.0,240615,6.9,W"
"##MN-00 00 47 0761 02817 6347 297312 023890 199"
"175.844491"
"$GPRMC,201601,A,2533.0868,N,08002.4337,W,1.7,53.6,240615,6.9,W"
"##MN+00 00 48 0762 02818 6347 287992 023899 199"
"175.844537"
"$GPRMC,201605,A,2533.0880,N,08002.4321,W,1.6,53.0,240615,6.9,W"
"##MN+00 00 48 0763 02816 6346 285848 023903 199"
"175.844583"
"$GPRMC,201609,A,2533.0891,N,08002.4305,W,1.7,52.9,240615,6.9,W"
"##MN+00 00 48 0764 02816 6345 286752 023895 199"
"175.84463"
"$GPRMC,201613,A,2533.0901,N,08002.4289,W,1.6,53.1,240615,6.9,W"
"##MN-00 00 55 0765 02816 6344 279144 023899 199"
"175.844676"
"#increment_net"
"$GPRMC,201617,A,2533.0914,N,08002.4273,W,1.6,53.0,240615,6.9,W"
"##MN-00 00 49 0766 02815 6343 285872 023899 199"
"175.844722"
"$GPRMC,201621,A,2533.0925,N,08002.4256,W,1.7,53.5,240615,6.9,W"
"##MN-00 00 47 0767 02817 6342 279616 023905 199"
"175.844769"
"$GPRMC,201625,A,2533.0937,N,08002.4238,W,1.7,53.9,240615,6.9,W"
"##MN-00 00 47 0768 02817 6341 298384 023899 199"
"175.844815"
"$GPRMC,201629,A,2533.0947,N,08002.4220,W,1.7,54.8,240615,6.9,W"
"##MN-00 00 45 0769 02816 6341 277424 023902 199"
"175.844861"
"$GPRMC,201633,A,2533.0956,N,08002.4201,W,1.8,55.0,240615,6.9,W"
"##MN-00 00 44 0770 02817 6340 258304 023893 199"
"175.844907"
"$GPRMC,201637,A,2533.0967,N,08002.4182,W,1.8,55.9,240615,6.9,W"
"##MN-00 00 43 0771 02818 6339 283712 023900 199"
"175.844954"
"$GPRMC,201641,A,2533.0980,N,08002.4163,W,1.8,56.3,240615,6.9,W"
"##MN-00 00 43 0772 02818 6339 280632 023902 199"
"175.845"
"$GPRMC,201645,A,2533.0992,N,08002.4145,W,1.8,54.9,240615,6.9,W"
"##MN-00 00 45 0773 02820 6338 269936 023903 199"
"175.845046"
"$GPRMC,201649,A,2533.1005,N,08002.4129,W,1.8,52.6,240615,6.9,W"
"##MN-00 00 43 0774 02818 6337 273952 023892 199"
"175.845093"
"$GPRMC,201653,A,2533.1019,N,08002.4115,W,1.7,49.8,240615,6.9,W"
"##MN-00 00 42 0775 02818 6336 276160 023902 199"
"175.845139"
"$GPRMC,201657,A,2533.1035,N,08002.4104,W,1.6,46.2,240615,6.9,W"
"##MN-00 00 43 0777 02822 6336 276584 023902 199"
"175.845185"
"$GPRMC,201701,A,2533.1049,N,08002.4095,W,1.5,43.5,240615,6.9,W"
"##MN-00 00 42 0778 02820 6335 276112 023913 199"
"175.845231"
"$GPRMC,201705,A,2533.1063,N,08002.4089,W,1.5,39.7,240615,6.9,W"
"##MN-00 00 39 0779 02820 6334 270792 023895 199"
"175.845278"
"$GPRMC,201709,A,2533.1075,N,08002.4087,W,1.3,34.3,240615,6.9,W"
"##MN-00 00 39 0780 02821 6333 270816 023910 199"
"175.845324"
"$GPRMC,201713,A,2533.1088,N,08002.4084,W,1.2,26.7,240615,6.9,W"
"##MN-00 00 39 0781 02821 6332 273952 023904 199"
"175.84537"
"$GPRMC,201717,A,2533.1100,N,08002.4082,W,1.2,18.0,240615,6.9,W"
"##MN-00 00 39 0782 02821 6332 253032 023911 199"
"175.845417"
"$GPRMC,201721,A,2533.1111,N,08002.4083,W,1.1,10.1,240615,6.9,W"
"##MN-00 00 37 0782 02820 6331 274432 023903 199"
"175.845463"
"$GPRMC,201725,A,2533.1124,N,08002.4087,W,1.1,1.4,240615,6.9,W*"
"##MN-00 00 36 0783 02821 6330 264216 023905 199"
"175.845509"
"$GPRMC,201729,A,2533.1136,N,08002.4093,W,1.2,352.3,240615,6.9,"
"##MN-00 00 36 0784 02822 6330 262848 023912 199"
"175.845556"
"$GPRMC,201733,A,2533.1149,N,08002.4100,W,1.2,341.2,240615,6.9,"
"##MN-00 00 36 0785 02822 6329 261976 023908 199"
"175.845602"
"$GPRMC,201737,A,2533.1161,N,08002.4108,W,1.3,333.5,240615,6.9,"
"##MN-00 00 36 0786 02821 6328 251264 023919 199"
"175.845648"
"$GPRMC,201741,A,2533.1174,N,08002.4116,W,1.4,328.0,240615,6.9,"
"##MN-00 00 36 0787 02822 6327 254896 023929 199"
"175.845694"
"$GPRMC,201745,A,2533.1183,N,08002.4131,W,1.5,322.8,240615,6.9,"
"##MN-00 00 36 0788 02821 6327 255728 023929 199"
"175.845741"
"$GPRMC,201749,A,2533.1203,N,08002.4147,W,1.6,318.3,240615,6.9,"
"##MN-00 00 36 0789 02819 6326 257976 023920 199"
"175.845787"
"$GPRMC,201753,A,2533.1219,N,08002.4163,W,1.6,315.1,240615,6.9,"
"##MN-00 00 36 0790 02821 6325 255304 023915 199"
"175.845833"
"$GPRMC,201757,A,2533.1233,N,08002.4183,W,1.7,312.6,240615,6.9,"
"##MN-00 00 36 0791 02823 6325 239712 023919 199"
"175.84588"
"$GPRMC,201801,A,2533.1247,N,08002.4202,W,1.9,311.1,240615,6.9,"
"##MN-00 00 36 0792 02822 6324 256680 023918 199"
"175.845926"
"$GPRMC,201805,A,2533.1262,N,08002.4221,W,1.9,310.6,240615,6.9,"
"##MN-00 00 36 0794 02823 6323 267408 023896 199"
"175.845972"
"$GPRMC,201809,A,2533.1277,N,08002.4241,W,2.1,310.6,240615,6.9,"
"##MN-00 00 36 0795 02821 6323 251312 023889 199"
"175.846019"
"$GPRMC,201813,A,2533.1295,N,08002.4263,W,2.3,310.4,240615,6.9,"
"##MN-00 00 36 0796 02820 6322 237936 023900 199"
"175.846065"
"$GPRMC,201817,A,2533.1313,N,08002.4288,W,2.4,311.3,240615,6.9,"
"##MN-00 00 36 0797 02818 6321 254848 023894 199"
"175.846111"
"$GPRMC,201821,A,2533.1337,N,08002.4314,W,2.5,311.8,240615,6.9,"
"##MN-00 00 36 0798 02818 6320 262024 023896 199"
"175.846157"
"$GPRMC,201825,A,2533.1359,N,08002.4339,W,2.6,312.6,240615,6.9,"
"##MN-00 00 36 0799 02816 6320 764304 023884 199"
"175.846204"
"$GPRMC,201829,A,2533.1382,N,08002.4364,W,2.8,313.5,240615,6.9,"
"##MN-00 00 36 0800 02813 6319 254872 023876 199"
"175.84625"
"$GPRMC,201833,A,2533.1406,N,08002.4387,W,2.9,314.1,240615,6.9,"
"##MN-00 00 36 0801 02813 6318 254000 023882 199"
"175.846296"
"$GPRMC,201837,A,2533.1431,N,08002.4415,W,3.0,315.2,240615,6.9,"
"##MN-00 00 36 0802 02815 6317 255360 023884 199"
"175.846343"
"$GPRMC,201841,A,2533.1458,N,08002.4441,W,3.2,316.0,240615,6.9,"
"##MN-00 00 36 0803 02813 6317 254880 023885 199"
"175.846389"
"$GPRMC,201845,A,2533.1486,N,08002.4470,W,3.3,317.0,240615,6.9,"
"##MN-00 00 36 0804 02810 6316 254904 023888 199"
"175.846435"
"$GPRMC,201849,A,2533.1516,N,08002.4498,W,3.6,318.0,240615,6.9,"
"##MN-00 00 36 0805 02809 6315 254912 023891 199"
"175.846493"
"$GPRMC,201853,A,2533.1548,N,08002.4528,W,3.6,319.0,240615,6.9,"
"##MN-00 00 36 0806 02807 6315 254920 023897 199"
"175.846539"
"$GPRMC,201857,A,2533.1583,N,08002.4559,W,3.8,320.4,240615,6.9,"
"##MN-00 00 36 0807 02807 6314 254960 023902 199"
"175.846586"
"$GPRMC,201901,A,2533.1620,N,08002.4592,W,3.9,321.7,240615,6.9,"
"##MN-00 00 36 0809 02805 6313 254032 023894 199"
"175.846632"
"$GPRMC,201905,A,2533.1660,N,08002.4624,W,4.0,322.8,240615,6.9,"
"##MN-00 00 36 0810 02801 6313 255320 023901 199"
"175.846678"
"$GPRMC,201909,A,2533.1700,N,08002.4646,W,4.2,324.0,240615,6.9,"
"##MN-00 00 36 0811 02801 6312 251264 023902 199"
"175.846725"
"$GPRMC,201913,A,2533.1743,N,08002.4678,W,4.3,325.3,240615,6.9,"
"##MN-00 00 36 0812 02800 6311 254392 023901 199"
"175.846771"
"$GPRMC,201917,A,2533.1786,N,08002.4707,W,4.5,327.0,240615,6.9,"
"##MN-00 00 36 0813 02799 6310 249440 023904 199"
"175.846817"
"$GPRMC,201921,A,2533.1832,N,08002.4736,W,4.6,328.3,240615,6.9,"
"##MN-00 00 36 0814 02797 6310 251200 023901 199"
"175.846863"
"$GPRMC,201925,A,2533.1879,N,08002.4769,W,4.7,329.5,240615,6.9,"
"##MN-00 00 36 0815 02794 6309 249760 023914 199"
"175.84691"
"$GPRMC,201929,A,2533.1927,N,08002.4796,W,4.9,330.3,240615,6.9,"
"##MN-00 00 36 0816 02793 6309 249216 023907 199"
"175.846956"
"$GPRMC,201933,A,2533.1978,N,08002.4832,W,5.0,330.9,240615,6.9,"
"##MN-00 00 43 0817 02792 6308 248728 023904 199"
"175.847002"
"$GPRMC,201937,A,2533.2031,N,08002.4857,W,5.2,331.3,240615,6.9,"
"##MN-00 00 58 0818 02790 6307 247328 023906 199"
"175.847049"
"$GPRMC,201942,A,2533.2097,N,08002.4902,W,5.3,331.1,240615,6.9,"
"##MN-00 00 44 0818 02789 6307 248136 023899 199"
"175.847095"
"$GPRMC,201946,A,2533.2148,N,08002.4936,W,5.3,330.6,240615,6.9,"
"##MN-00 00 43 0818 02788 6306 247168 023899 199"
"175.847141"
"$GPRMC,201949,A,2533.2188,N,08002.4960,W,5.4,330.2,240615,6.9,"
"##MN-00 00 44 0818 02785 6305 248008 023903 199"
