" Tow: 8-ns-n-in   RVWS/WS15161"
" Date: 13/06/2015"
" Temperature Probe #  4762    Conductivity Probe #  710"
" Pressure Probe #  159"
" Flow Meter Calibration  4.71 (m/count)  "
"165.145567"
"$GPRMC,032931,A,2429.9233,N,08057.4357,W,2.9,234.1,140615,6.2,"
"##MN-00 00 22 0990 01536 5798 000001 827616 191"
"165.145613"
"$GPRMC,032935,A,2429.9212,N,08057.4386,W,3.0,234.0,140615,6.2,"
"##MN-00 00 48 0990 01534 5798 462248 827913 191"
"165.14566"
"$GPRMC,032940,A,2429.9190,N,08057.4420,W,2.9,233.7,140615,6.2,"
"##MN-00 00 45 0990 01536 5798 462001 827912 191"
"165.145706"
"$GPRMC,032943,A,2429.9178,N,08057.4440,W,2.8,232.0,140615,6.2,"
"##MN-00 00 60 0990 01535 5798 461839 827908 191"
"165.145752"
"$GPRMC,032947,A,2429.9160,N,08057.4466,W,2.9,231.2,140615,6.2,"
"##MN-00 00 60 0990 01537 5798 460917 827908 191"
"165.145799"
"$GPRMC,032951,A,2429.9138,N,08057.4491,W,2.8,230.9,140615,6.2,"
"##MN-00 00 50 0990 01535 5798 453102 273907 191"
"165.145845"
"$GPRMC,032955,A,2429.9120,N,08057.4514,W,2.7,231.0,140615,6.2,"
"##MN-00 00 55 0991 01536 5798 447968 206485 191"
"165.145891"
"$GPRMC,032959,A,2429.9101,N,08057.4538,W,2.6,230.0,140615,6.2,"
"##MN-00 00 52 0991 01537 5798 447899 206012 191"
"165.145938"
"$GPRMC,033013,A,2429.9046,N,08057.4622,W,2.3,231.7,140615,6.2,"
"##MN-00 00 53 0995 01539 5798 447814 205839 191"
"165.145984"
"$GPRMC,033018,A,2429.9025,N,08057.4651,W,2.3,233.3,140615,6.2,"
"##MN-00 00 53 0996 01539 5798 447754 205757 191"
"165.14603"
"$GPRMC,033023,A,2429.9007,N,08057.4680,W,2.3,234.9,140615,6.2,"
"##MN-00 00 55 0997 01547 5798 447772 205765 191"
"165.146076"
"$GPRMC,033039,A,2429.8949,N,08057.4767,W,2.2,237.9,140615,6.2,"
"##MN-00 00 55 1000 01555 5798 447771 205736 191"
"165.146123"
"$GPRMC,033044,A,2429.8932,N,08057.4794,W,2.2,238.2,140615,6.2,"
"##MN-00 00 54 1001 01554 5798 447775 205719 191"
"165.146169"
"$GPRMC,033059,A,2429.8882,N,08057.4881,W,2.2,239.0,140615,6.2,"
"##MN-00 00 55 1005 01572 5799 447779 205719 191"
"165.146215"
"$GPRMC,033106,A,2429.8862,N,08057.4917,W,2.2,237.8,140615,6.2,"
"##MN-00 00 55 1006 01583 5800 447801 205709 191"
"165.146262"
"$GPRMC,033116,A,2429.8831,N,08057.4971,W,2.1,236.0,140615,6.2,"
"##MN-00 00 55 1008 01593 5800 447808 205705 191"
"165.146308"
"$GPRMC,033135,A,2429.8767,N,08057.5072,W,2.1,235.0,140615,6.2,"
"##MN-00 00 56 1012 01607 5801 447779 205693 191"
"165.146354"
"$GPRMC,033139,A,2429.8752,N,08057.5094,W,2.1,234.7,140615,6.2,"
"##MN-00 00 53 1013 01608 5801 447782 205688 191"
"165.1464"
"$GPRMC,033154,A,2429.8699,N,08057.5171,W,2.1,234.4,140615,6.2,"
"##MN-00 00 55 1017 01626 5802 447772 205684 191"
"165.146447"
"$GPRMC,033159,A,2429.8681,N,08057.5199,W,2.2,235.3,140615,6.2,"
"##MN-00 00 54 1018 01628 5803 447739 205675 191"
"165.146493"
"$GPRMC,033204,A,2429.8662,N,08057.5228,W,2.2,235.0,140615,6.2,"
"##MN-00 00 55 1019 01631 5803 447734 205672 191"
"165.146539"
"$GPRMC,033206,A,2429.8658,N,08057.5238,W,2.1,235.1,140615,6.2,"
"##MN-00 00 54 1019 01630 5803 447734 205673 191"
"165.146586"
"$GPRMC,033208,A,2429.8651,N,08057.5249,W,2.1,235.4,140615,6.2,"
"##MN-00 00 53 1020 01633 5804 447735 205673 191"
"165.146632"
"$GPRMC,033216,A,2429.8625,N,08057.5294,W,2.2,236.1,140615,6.2,"
"##MN-00 00 55 1022 01638 5804 447732 205668 191"
"165.146678"
"$GPRMC,033221,A,2429.8608,N,08057.5322,W,2.2,236.3,140615,6.2,"
"##MN-00 00 54 1023 01639 5805 447736 205668 191"
"165.146725"
"$GPRMC,033224,A,2429.8595,N,08057.5339,W,2.2,235.2,140615,6.2,"
"##MN-00 00 56 1023 01646 5805 447737 205666 191"
"165.146771"
"$GPRMC,033226,A,2429.8588,N,08057.5348,W,2.1,235.2,140615,6.2,"
"##MN-00 00 56 1024 01643 5805 447737 205667 191"
"165.146817"
"$GPRMC,033228,A,2429.8580,N,08057.5361,W,2.2,235.1,140615,6.2,"
"##MN-00 00 55 1024 01648 5805 447742 205667 191"
"165.146863"
"$GPRMC,033231,A,2429.8570,N,08057.5377,W,2.2,235.0,140615,6.2,"
"##MN-00 00 55 1025 01647 5805 447751 205669 191"
"165.14691"
"$GPRMC,033233,A,2429.8564,N,08057.5388,W,2.2,235.8,140615,6.2,"
"##MN-00 00 54 1026 01651 5806 447768 205671 191"
"165.146956"
"$GPRMC,033236,A,2429.8555,N,08057.5405,W,2.2,235.9,140615,6.2,"
"##MN-00 00 57 1026 01652 5806 447779 205671 191"
"165.147002"
"$GPRMC,033238,A,2429.8546,N,08057.5415,W,2.2,234.9,140615,6.2,"
"##MN-00 00 56 1027 01652 5806 447772 205671 191"
"165.147049"
"$GPRMC,033240,A,2429.8541,N,08057.5426,W,2.2,235.4,140615,6.2,"
"##MN-00 00 55 1027 01658 5806 447753 205667 191"
"165.147095"
"$GPRMC,033243,A,2429.8532,N,08057.5441,W,2.2,235.5,140615,6.2,"
"##MN-00 00 55 1028 01660 5806 447749 205666 191"
"165.147141"
"$GPRMC,033245,A,2429.8523,N,08057.5452,W,2.2,234.8,140615,6.2,"
"##MN-00 00 55 1028 01663 5807 447745 205665 191"
"165.147188"
"$GPRMC,033247,A,2429.8517,N,08057.5463,W,2.2,236.0,140615,6.2,"
"##MN-00 00 55 1029 01666 5807 447739 205664 191"
"165.147234"
"$GPRMC,033250,A,2429.8508,N,08057.5480,W,2.2,237.2,140615,6.2,"
"##MN-00 00 55 1030 01666 5807 447738 205661 191"
"165.14728"
"$GPRMC,033252,A,2429.8499,N,08057.5489,W,2.2,237.1,140615,6.2,"
"##MN-00 00 55 1030 01671 5807 447731 205658 191"
"165.147326"
"$GPRMC,033254,A,2429.8494,N,08057.5500,W,2.1,237.5,140615,6.2,"
"##MN-00 00 54 1031 01669 5807 447727 205655 191"
"165.147373"
"$GPRMC,033257,A,2429.8483,N,08057.5517,W,2.1,237.4,140615,6.2,"
"##MN-00 00 54 1031 01675 5808 447727 205655 191"
"165.147419"
"$GPRMC,033259,A,2429.8474,N,08057.5528,W,2.1,237.3,140615,6.2,"
"##MN-00 00 56 1032 01677 5808 447723 205653 191"
"165.147465"
"$GPRMC,033301,A,2429.8466,N,08057.5538,W,2.1,237.1,140615,6.2,"
"##MN-00 00 54 1032 01677 5808 447723 205652 191"
"165.147512"
"$GPRMC,033304,A,2429.8454,N,08057.5553,W,2.1,236.4,140615,6.2,"
"##MN-00 00 55 1033 01685 5808 447722 205652 191"
"165.147558"
"$GPRMC,033306,A,2429.8449,N,08057.5564,W,2.1,235.6,140615,6.2,"
"##MN-00 00 57 1033 01683 5808 447726 205652 191"
"165.147604"
"$GPRMC,033308,A,2429.8442,N,08057.5574,W,2.1,236.7,140615,6.2,"
"##MN-00 00 54 1034 01688 5808 447726 205650 191"
"165.14765"
"$GPRMC,033311,A,2429.8434,N,08057.5589,W,2.1,235.6,140615,6.2,"
"##MN-00 00 54 1034 01689 5809 447722 205645 191"
"165.147697"
"$GPRMC,033313,A,2429.8424,N,08057.5597,W,2.1,235.1,140615,6.2,"
"##MN-00 00 55 1035 01692 5809 447721 205645 191"
"165.147743"
"$GPRMC,033315,A,2429.8416,N,08057.5607,W,2.1,235.4,140615,6.2,"
"##MN-00 00 55 1035 01695 5809 447721 205645 191"
"165.147789"
"$GPRMC,033318,A,2429.8409,N,08057.5625,W,2.1,234.7,140615,6.2,"
"##MN-00 00 53 1036 01699 5809 447720 205644 191"
"165.147836"
"$GPRMC,033320,A,2429.8401,N,08057.5632,W,2.1,236.5,140615,6.2,"
"##MN-00 00 55 1036 01699 5810 447718 205642 191"
"165.147882"
"$GPRMC,033322,A,2429.8398,N,08057.5643,W,2.1,235.0,140615,6.2,"
"##MN-00 00 55 1037 01703 5810 447722 205645 191"
"165.147928"
"$GPRMC,033325,A,2429.8388,N,08057.5657,W,2.1,235.4,140615,6.2,"
"##MN-00 00 55 1037 01704 5810 447733 205646 191"
"165.147975"
"$GPRMC,033327,A,2429.8385,N,08057.5668,W,2.2,236.6,140615,6.2,"
"##MN-00 00 55 1038 01707 5811 447744 205646 191"
"165.148021"
"$GPRMC,033329,A,2429.8377,N,08057.5676,W,2.1,235.7,140615,6.2,"
"##MN-00 00 55 1038 01709 5811 447753 205652 191"
"165.148067"
"$GPRMC,033331,A,2429.8371,N,08057.5687,W,2.1,236.2,140615,6.2,"
"##MN-00 00 55 1039 01715 5811 447750 205651 191"
"165.148113"
"$GPRMC,033334,A,2429.8362,N,08057.5704,W,2.1,235.2,140615,6.2,"
"##MN-00 00 55 1039 01716 5811 447748 205649 191"
"165.14816"
"$GPRMC,033336,A,2429.8353,N,08057.5710,W,2.0,235.3,140615,6.2,"
"##MN-00 00 53 1040 01719 5811 447747 205644 191"
"165.148206"
"$GPRMC,033339,A,2429.8344,N,08057.5726,W,2.1,235.0,140615,6.2,"
"##MN-00 00 54 1040 01721 5812 447724 205630 191"
"165.148252"
"$GPRMC,033341,A,2429.8338,N,08057.5738,W,2.1,235.6,140615,6.2,"
"##MN-00 00 55 1041 01723 5812 447719 205628 191"
"165.148299"
"$GPRMC,033343,A,2429.8333,N,08057.5746,W,2.1,235.3,140615,6.2,"
"##MN-00 00 54 1042 01727 5812 447728 205635 191"
"165.148345"
"$GPRMC,033345,A,2429.8329,N,08057.5759,W,2.1,236.1,140615,6.2,"
"##MN-00 00 54 1042 01727 5812 447735 205646 191"
"165.148391"
"$GPRMC,033348,A,2429.8322,N,08057.5775,W,2.1,236.3,140615,6.2,"
"##MN-00 00 55 1043 01730 5812 447741 205638 191"
"165.148438"
"$GPRMC,033350,A,2429.8315,N,08057.5784,W,2.1,237.4,140615,6.2,"
"##MN-00 00 54 1043 01731 5812 447696 205609 191"
"165.148484"
"$GPRMC,033404,A,2429.8269,N,08057.5861,W,2.2,237.7,140615,6.2,"
"##MN-00 00 51 1047 01746 5814 447598 205518 191"
"165.14853"
"$GPRMC,033409,A,2429.8250,N,08057.5890,W,2.2,239.4,140615,6.2,"
"##MN-00 00 56 1047 01745 5814 447501 205403 191"
"165.148576"
"$GPRMC,033414,A,2429.8235,N,08057.5925,W,2.4,239.7,140615,6.2,"
"##MN-00 00 53 1049 01744 5815 447511 205421 191"
"165.148623"
"$GPRMC,033421,A,2429.8211,N,08057.5968,W,2.4,240.3,140615,6.2,"
"##MN-00 00 56 1051 01750 5816 447515 205422 191"
"165.148669"
"$GPRMC,033426,A,2429.8200,N,08057.6002,W,2.3,241.8,140615,6.2,"
"##MN-00 00 56 1052 01751 5816 447496 205394 191"
"165.148727"
"$GPRMC,033430,A,2429.8188,N,08057.6029,W,2.3,242.0,140615,6.2,"
"##MN-00 00 53 1052 01754 5816 447492 205388 191"
"165.148773"
"$GPRMC,033436,A,2429.8165,N,08057.6063,W,2.3,240.1,140615,6.2,"
"##MN-00 00 55 1054 01760 5817 447492 205383 191"
"165.148819"
"$GPRMC,033450,A,2429.8114,N,08057.6141,W,2.2,237.9,140615,6.2,"
"##MN-00 00 54 1057 01783 5818 447665 205281 191"
"165.148866"
"$GPRMC,033502,A,2429.8071,N,08057.6207,W,2.2,236.7,140615,6.2,"
"##MN-00 00 55 1060 01790 5819 447904 205242 191"
"165.148912"
"$GPRMC,033506,A,2429.8056,N,08057.6228,W,2.2,235.5,140615,6.2,"
"##MN-00 00 56 1060 01795 5819 447947 205240 191"
"165.148958"
"$GPRMC,033508,A,2429.8048,N,08057.6237,W,2.2,234.5,140615,6.2,"
"##MN-00 00 55 1061 01796 5820 447964 205240 191"
"165.149005"
"$GPRMC,033511,A,2429.8038,N,08057.6254,W,2.2,234.6,140615,6.2,"
"##MN-00 00 55 1061 01799 5820 447998 205239 191"
"165.149051"
"$GPRMC,033513,A,2429.8031,N,08057.6264,W,2.2,234.2,140615,6.2,"
"##MN-00 00 55 1062 01804 5820 448030 205246 191"
"165.149097"
"$GPRMC,033515,A,2429.8024,N,08057.6275,W,2.2,233.9,140615,6.2,"
"##MN-00 00 55 1062 01805 5821 448068 205252 191"
"165.149144"
"$GPRMC,033517,A,2429.8016,N,08057.6283,W,2.1,233.6,140615,6.2,"
"##MN-00 00 55 1063 01807 5821 448120 205266 191"
"165.14919"
"$GPRMC,033520,A,2429.8008,N,08057.6301,W,2.2,235.5,140615,6.2,"
"##MN-00 00 54 1063 01811 5821 448166 205263 191"
"165.149236"
"$GPRMC,033522,A,2429.8000,N,08057.6311,W,2.2,234.3,140615,6.2,"
"##MN-00 00 55 1064 01813 5821 448204 205267 191"
"165.149282"
"$GPRMC,033524,A,2429.7994,N,08057.6322,W,2.2,235.9,140615,6.2,"
"##MN-00 00 55 1064 01815 5822 448227 205277 191"
"165.149329"
"$GPRMC,033527,A,2429.7986,N,08057.6340,W,2.2,235.7,140615,6.2,"
"##MN-00 00 55 1065 01820 5822 448263 205284 191"
"165.149375"
"$GPRMC,033529,A,2429.7976,N,08057.6348,W,2.2,235.7,140615,6.2,"
"##MN-00 00 55 1065 01821 5822 448317 205284 191"
"165.149421"
"$GPRMC,033531,A,2429.7972,N,08057.6360,W,2.2,235.8,140615,6.2,"
"##MN-00 00 54 1066 01823 5822 448376 205301 191"
"165.149468"
"$GPRMC,033533,A,2429.7963,N,08057.6370,W,2.2,235.0,140615,6.2,"
"##MN-00 00 55 1067 01827 5822 448421 205299 191"
"165.149514"
"$GPRMC,033536,A,2429.7952,N,08057.6387,W,2.2,235.5,140615,6.2,"
"##MN-00 00 54 1067 01828 5823 448467 205298 191"
"165.14956"
"$GPRMC,033538,A,2429.7948,N,08057.6399,W,2.2,236.3,140615,6.2,"
"##MN-00 00 52 1068 01826 5823 448520 205331 191"
"165.149606"
"$GPRMC,033541,A,2429.7934,N,08057.6416,W,2.3,235.2,140615,6.2,"
"##MN-00 00 53 1068 01832 5823 448549 205334 191"
"165.149653"
"$GPRMC,033543,A,2429.7928,N,08057.6427,W,2.2,235.7,140615,6.2,"
"##MN-00 00 51 1069 01831 5824 448582 205338 191"
"165.149699"
"$GPRMC,033546,A,2429.7915,N,08057.6442,W,2.2,234.4,140615,6.2,"
"##MN-00 00 53 1069 01836 5824 448591 205341 191"
"165.149745"
"$GPRMC,033548,A,2429.7910,N,08057.6456,W,2.2,234.4,140615,6.2,"
"##MN-00 00 54 1070 01835 5824 448596 205341 191"
"165.149792"
"$GPRMC,033550,A,2429.7899,N,08057.6465,W,2.3,234.5,140615,6.2,"
"##MN-00 00 55 1070 01839 5824 448599 205338 191"
"165.149838"
"$GPRMC,033553,A,2429.7889,N,08057.6481,W,2.2,233.3,140615,6.2,"
"##MN-00 00 55 1071 01839 5824 448616 205348 191"
"165.149884"
"$GPRMC,033555,A,2429.7885,N,08057.6495,W,2.2,235.5,140615,6.2,"
"##MN-00 00 53 1071 01845 5824 448636 205350 191"
"165.149931"
"$GPRMC,033557,A,2429.7876,N,08057.6503,W,2.2,234.4,140615,6.2,"
"##MN-00 00 55 1072 01845 5825 448672 205355 191"
"165.149977"
"$GPRMC,033600,A,2429.7870,N,08057.6521,W,2.2,236.9,140615,6.2,"
"##MN-00 00 54 1072 01847 5825 448700 205358 191"
"165.150023"
"$GPRMC,033602,A,2429.7864,N,08057.6532,W,2.2,236.6,140615,6.2,"
"##MN-00 00 55 1073 01856 5825 448723 205360 191"
"165.150069"
"$GPRMC,033604,A,2429.7856,N,08057.6540,W,2.2,236.7,140615,6.2,"
"##MN-00 00 55 1073 01855 5825 448749 205361 191"
"165.150116"
"$GPRMC,033607,A,2429.7847,N,08057.6557,W,2.1,237.2,140615,6.2,"
"##MN-00 00 54 1074 01857 5825 448793 205375 191"
"165.150162"
"$GPRMC,033609,A,2429.7839,N,08057.6565,W,2.1,235.6,140615,6.2,"
"##MN-00 00 54 1074 01859 5826 448878 205397 191"
"165.150208"
"$GPRMC,033612,A,2429.7833,N,08057.6576,W,2.1,236.9,140615,6.2,"
"##MN-00 00 56 1075 01865 5826 448951 205411 191"
"165.150255"
"$GPRMC,033616,A,2429.7820,N,08057.6595,W,2.1,235.7,140615,6.2,"
"##MN-00 00 54 1076 01869 5827 449047 205434 191"
"165.150301"
"$GPRMC,033620,A,2429.7802,N,08057.6618,W,2.0,233.9,140615,6.2,"
"##MN-00 00 54 1077 01874 5827 449120 205449 191"
"165.150347"
"$GPRMC,033624,A,2429.7793,N,08057.6637,W,1.9,233.9,140615,6.2,"
"##MN-00 00 55 1078 01878 5827 449144 205453 191"
"165.150394"
"$GPRMC,033628,A,2429.7784,N,08057.6658,W,2.0,234.0,140615,6.2,"
"##MN-00 00 54 1079 01883 5828 449188 205465 191"
"165.15044"
"$GPRMC,033632,A,2429.7769,N,08057.6676,W,1.9,234.7,140615,6.2,"
"##MN-00 00 54 1079 01888 5828 449231 205471 191"
"165.150486"
"$GPRMC,033636,A,2429.7757,N,08057.6698,W,2.0,235.4,140615,6.2,"
"##MN-00 00 52 1080 01890 5828 449306 205490 191"
"165.150532"
"$GPRMC,033640,A,2429.7749,N,08057.6719,W,2.0,236.4,140615,6.2,"
"##MN-00 00 53 1081 01891 5828 449301 205498 191"
"165.150579"
"$GPRMC,033644,A,2429.7735,N,08057.6738,W,2.0,238.3,140615,6.2,"
"##MN-00 00 54 1082 01895 5829 449287 205496 191"
"165.150625"
"$GPRMC,033648,A,2429.7726,N,08057.6759,W,2.0,238.3,140615,6.2,"
"##MN-00 00 54 1083 01900 5829 449330 205510 191"
"165.150671"
"$GPRMC,033652,A,2429.7716,N,08057.6781,W,2.1,238.8,140615,6.2,"
"##MN-00 00 52 1084 01902 5830 449372 205524 191"
"165.150718"
"$GPRMC,033656,A,2429.7701,N,08057.6803,W,2.0,239.5,140615,6.2,"
"##MN-00 00 54 1085 01904 5830 449433 205536 191"
"165.150764"
"$GPRMC,033700,A,2429.7688,N,08057.6825,W,2.1,239.5,140615,6.2,"
"##MN-00 00 53 1086 01906 5830 449457 205544 191"
"165.15081"
"$GPRMC,033704,A,2429.7679,N,08057.6846,W,2.1,239.7,140615,6.2,"
"##MN-00 00 54 1087 01907 5831 449499 205550 191"
"165.150856"
"$GPRMC,033708,A,2429.7664,N,08057.6868,W,2.1,240.0,140615,6.2,"
"##MN-00 00 53 1088 01910 5831 449518 205556 191"
"165.150903"
"$GPRMC,033712,A,2429.7655,N,08057.6890,W,2.1,239.9,140615,6.2,"
"##MN-00 00 54 1089 01914 5831 449578 205574 191"
"165.150949"
"$GPRMC,033716,A,2429.7643,N,08057.6912,W,2.1,239.0,140615,6.2,"
"##MN-00 00 54 1090 01915 5832 449658 205587 191"
"165.150995"
"$GPRMC,033720,A,2429.7627,N,08057.6936,W,2.1,238.4,140615,6.2,"
"##MN-00 00 54 1091 01917 5832 449767 205607 191"
"165.151042"
"$GPRMC,033724,A,2429.7612,N,08057.6958,W,2.1,237.6,140615,6.2,"
"##MN-00 00 54 1091 01921 5832 449891 205611 191"
"165.151088"
"$GPRMC,033728,A,2429.7596,N,08057.6980,W,2.1,236.8,140615,6.2,"
"##MN-00 00 55 1092 01922 5832 450138 205673 191"
"165.151134"
"$GPRMC,033732,A,2429.7585,N,08057.7002,W,2.1,236.0,140615,6.2,"
"##MN-00 00 54 1093 01926 5832 450491 205745 191"
"165.151181"
"$GPRMC,033736,A,2429.7572,N,08057.7023,W,2.1,235.5,140615,6.2,"
"##MN-00 00 54 1094 01931 5833 450657 205778 191"
"165.151227"
"$GPRMC,033740,A,2429.7558,N,08057.7041,W,2.1,235.3,140615,6.2,"
"##MN-00 00 54 1095 01932 5833 450853 205797 191"
"165.151273"
"$GPRMC,033744,A,2429.7546,N,08057.7063,W,2.1,235.3,140615,6.1,"
"##MN-00 00 55 1096 01934 5833 451022 205831 191"
"165.151319"
"$GPRMC,033748,A,2429.7532,N,08057.7082,W,2.1,235.1,140615,6.1,"
"##MN-00 00 54 1097 01939 5833 451167 205884 191"
"165.151366"
"$GPRMC,033752,A,2429.7518,N,08057.7103,W,2.1,234.8,140615,6.1,"
"##MN-00 00 54 1098 01944 5834 451352 205899 191"
"165.151412"
"$GPRMC,033756,A,2429.7505,N,08057.7122,W,2.1,233.9,140615,6.1,"
"##MN-00 00 55 1099 01944 5834 451472 205916 191"
"165.151458"
"$GPRMC,033801,A,2429.7486,N,08057.7150,W,2.1,233.1,140615,6.1,"
"##MN-00 00 53 1100 01950 5834 451711 206011 191"
"165.151505"
"$GPRMC,033805,A,2429.7473,N,08057.7169,W,2.2,233.0,140615,6.1,"
"##MN-00 00 54 1101 01953 5835 452188 206103 191"
"165.151551"
"$GPRMC,033809,A,2429.7462,N,08057.7189,W,2.1,232.9,140615,6.1,"
"##MN-00 00 53 1102 01956 5835 452448 206154 191"
"165.151597"
"$GPRMC,033813,A,2429.7448,N,08057.7209,W,2.1,233.1,140615,6.1,"
"##MN-00 00 55 1103 01962 5835 452749 206213 191"
"165.151644"
"$GPRMC,033817,A,2429.7434,N,08057.7229,W,2.1,233.0,140615,6.1,"
"##MN-00 00 55 1103 01967 5836 453230 206320 191"
"165.15169"
"$GPRMC,033821,A,2429.7420,N,08057.7251,W,2.1,233.8,140615,6.1,"
"##MN-00 00 53 1104 01972 5836 453722 206412 191"
"165.151736"
"$GPRMC,033825,A,2429.7406,N,08057.7270,W,2.1,234.9,140615,6.1,"
"##MN-00 00 54 1105 01976 5836 453979 206471 191"
"165.151782"
"$GPRMC,033829,A,2429.7392,N,08057.7290,W,2.1,235.9,140615,6.1,"
"##MN-00 00 54 1106 01982 5836 454211 206517 191"
"165.15184"
"$GPRMC,033833,A,2429.7379,N,08057.7313,W,2.2,236.9,140615,6.1,"
"##MN-00 00 54 1107 01981 5836 454420 206549 191"
"165.151887"
"$GPRMC,033837,A,2429.7365,N,08057.7335,W,2.2,237.0,140615,6.1,"
"##MN-00 00 55 1108 01988 5836 454726 206577 191"
"165.151933"
"$GPRMC,033841,A,2429.7352,N,08057.7357,W,2.1,237.3,140615,6.1,"
"##MN-00 00 54 1109 01993 5837 455280 206699 191"
"165.151979"
"$GPRMC,033845,A,2429.7344,N,08057.7378,W,2.1,237.2,140615,6.1,"
"##MN-00 00 54 1110 02000 5837 456219 206928 191"
"165.152025"
"$GPRMC,033849,A,2429.7334,N,08057.7399,W,2.1,236.6,140615,6.1,"
"##MN-00 00 55 1111 02005 5837 456585 206999 191"
"165.152072"
"$GPRMC,033853,A,2429.7323,N,08057.7422,W,2.1,237.1,140615,6.1,"
"##MN-00 00 54 1111 02010 5837 457004 207102 191"
"165.152118"
"$GPRMC,033857,A,2429.7309,N,08057.7444,W,2.1,237.8,140615,6.1,"
"##MN-00 00 54 1112 02012 5837 458046 207295 191"
"165.152164"
"$GPRMC,033901,A,2429.7296,N,08057.7471,W,2.2,238.3,140615,6.1,"
"##MN-00 00 54 1113 02016 5837 458732 207422 191"
"165.152211"
"$GPRMC,033905,A,2429.7279,N,08057.7493,W,2.2,238.5,140615,6.1,"
"##MN-00 00 53 1114 02019 5838 459417 207593 191"
"165.152257"
"$GPRMC,033909,A,2429.7263,N,08057.7519,W,2.3,238.8,140615,6.1,"
"##MN-00 00 54 1115 02022 5838 460274 207838 191"
"165.152303"
"$GPRMC,033913,A,2429.7249,N,08057.7544,W,2.3,238.5,140615,6.1,"
"##MN-00 00 53 1116 02028 5838 461275 208021 191"
"165.15235"
"$GPRMC,033917,A,2429.7235,N,08057.7569,W,2.3,238.5,140615,6.1,"
"##MN-00 00 53 1117 02032 5838 462080 208165 191"
"165.152396"
"$GPRMC,033921,A,2429.7222,N,08057.7592,W,2.3,237.9,140615,6.1,"
"##MN-00 00 53 1118 02036 5838 463172 208384 191"
"165.152442"
"$GPRMC,033925,A,2429.7211,N,08057.7613,W,2.2,237.7,140615,6.1,"
"##MN-00 00 55 1119 02039 5838 464330 208645 191"
"165.152488"
"$GPRMC,033929,A,2429.7197,N,08057.7637,W,2.3,236.8,140615,6.1,"
"##MN-00 00 53 1119 02044 5838 465267 208939 191"
"165.152535"
"$GPRMC,033933,A,2429.7184,N,08057.7659,W,2.3,236.0,140615,6.1,"
"##MN-00 00 54 1120 02050 5838 465750 209027 191"
"165.152581"
"$GPRMC,033937,A,2429.7167,N,08057.7681,W,2.3,234.8,140615,6.1,"
"##MN-00 00 54 1121 02052 5838 465901 209052 191"
"165.152627"
"$GPRMC,033941,A,2429.7152,N,08057.7702,W,2.3,233.9,140615,6.1,"
"##MN-00 00 53 1122 02059 5838 466154 209114 191"
"165.152674"
"$GPRMC,033945,A,2429.7139,N,08057.7722,W,2.3,233.9,140615,6.1,"
"##MN-00 00 54 1123 02063 5838 466475 209194 191"
"165.15272"
"$GPRMC,033949,A,2429.7123,N,08057.7746,W,2.3,234.5,140615,6.1,"
"##MN-00 00 55 1123 02068 5837 467316 209409 191"
"165.152766"
"$GPRMC,033953,A,2429.7108,N,08057.7768,W,2.2,234.7,140615,6.1,"
"##MN-00 00 52 1124 02072 5837 467977 209417 191"
"165.152813"
"$GPRMC,033957,A,2429.7094,N,08057.7790,W,2.3,235.4,140615,6.1,"
"##MN-00 00 54 1125 02076 5837 468143 209437 191"
"165.152859"
"$GPRMC,034001,A,2429.7080,N,08057.7816,W,2.3,236.6,140615,6.1,"
"##MN-00 00 53 1126 02081 5837 468355 209434 191"
"165.152905"
"$GPRMC,034005,A,2429.7068,N,08057.7839,W,2.3,237.7,140615,6.1,"
"##MN-00 00 52 1127 02088 5837 468692 209475 191"
"165.152951"
"$GPRMC,034009,A,2429.7054,N,08057.7862,W,2.3,238.0,140615,6.1,"
"##MN-00 00 53 1128 02091 5837 468893 209518 191"
"165.152998"
"$GPRMC,034013,A,2429.7037,N,08057.7884,W,2.3,237.2,140615,6.1,"
"##MN-00 00 54 1128 02098 5836 469221 209592 191"
"165.153044"
"$GPRMC,034017,A,2429.7023,N,08057.7908,W,2.2,237.1,140615,6.1,"
"##MN-00 00 51 1129 02103 5836 469453 209633 191"
"165.15309"
"$GPRMC,034021,A,2429.7012,N,08057.7930,W,2.3,236.5,140615,6.1,"
"##MN-00 00 52 1130 02107 5836 469584 209669 191"
"165.153137"
"$GPRMC,034025,A,2429.7000,N,08057.7952,W,2.3,235.9,140615,6.1,"
"##MN-00 00 52 1131 02111 5836 469869 209718 191"
"165.153183"
"$GPRMC,034029,A,2429.6986,N,08057.7974,W,2.2,235.9,140615,6.1,"
"##MN-00 00 53 1131 02116 5835 470802 209899 191"
"165.153229"
"$GPRMC,034033,A,2429.6971,N,08057.7995,W,2.2,236.1,140615,6.1,"
"##MN-00 00 54 1132 02124 5835 471358 210004 191"
"165.153275"
"$GPRMC,034037,A,2429.6955,N,08057.8020,W,2.2,236.7,140615,6.1,"
"##MN-00 00 52 1133 02127 5834 471996 210106 191"
"165.153322"
"$GPRMC,034041,A,2429.6942,N,08057.8045,W,2.2,236.3,140615,6.1,"
"##MN-00 00 54 1134 02134 5834 472811 210377 191"
"165.153368"
"$GPRMC,034045,A,2429.6929,N,08057.8067,W,2.2,235.6,140615,6.1,"
"##MN-00 00 52 1135 02139 5833 473959 210572 191"
"165.153414"
"$GPRMC,034049,A,2429.6917,N,08057.8089,W,2.3,235.3,140615,6.1,"
"##MN-00 00 52 1135 02140 5833 474506 210688 191"
"165.153461"
"$GPRMC,034053,A,2429.6903,N,08057.8111,W,2.2,234.6,140615,6.1,"
"##MN-00 00 53 1136 02148 5832 474899 210660 191"
"165.153507"
"$GPRMC,034057,A,2429.6888,N,08057.8134,W,2.3,234.1,140615,6.1,"
"##MN-00 00 53 1137 02153 5832 475205 210683 191"
"165.153553"
"$GPRMC,034101,A,2429.6875,N,08057.8158,W,2.2,234.7,140615,6.1,"
"##MN-00 00 52 1138 02159 5831 475769 210915 191"
"165.1536"
"$GPRMC,034105,A,2429.6862,N,08057.8179,W,2.2,235.4,140615,6.1,"
"##MN-00 00 52 1139 02163 5831 476228 210950 191"
"165.153646"
"$GPRMC,034109,A,2429.6846,N,08057.8201,W,2.2,236.0,140615,6.1,"
"##MN-00 00 52 1139 02166 5830 476594 211078 191"
"165.153692"
"$GPRMC,034113,A,2429.6830,N,08057.8223,W,2.2,236.0,140615,6.1,"
"##MN-00 00 52 1140 02174 5829 477019 211147 191"
"165.153738"
"$GPRMC,034117,A,2429.6814,N,08057.8244,W,2.2,235.3,140615,6.1,"
"##MN-00 00 52 1141 02179 5829 477525 211246 191"
"165.153785"
"$GPRMC,034121,A,2429.6803,N,08057.8263,W,2.2,234.5,140615,6.1,"
"##MN-00 00 52 1142 02184 5828 477894 211309 191"
"165.153831"
"$GPRMC,034125,A,2429.6791,N,08057.8282,W,2.2,234.0,140615,6.1,"
"##MN-00 00 53 1142 02189 5827 478192 211373 191"
"165.153877"
"$GPRMC,034129,A,2429.6776,N,08057.8306,W,2.2,234.2,140615,6.1,"
"##MN-00 00 52 1143 02197 5826 478541 211446 191"
"165.153924"
"$GPRMC,034133,A,2429.6762,N,08057.8328,W,2.2,235.1,140615,6.1,"
"##MN-00 00 51 1144 02200 5826 478874 211499 191"
"165.15397"
"$GPRMC,034137,A,2429.6749,N,08057.8353,W,2.3,236.1,140615,6.1,"
"##MN-00 00 53 1144 02205 5825 479149 211529 191"
"165.154016"
"$GPRMC,034141,A,2429.6740,N,08057.8376,W,2.3,236.6,140615,6.1,"
"##MN-00 00 52 1145 02211 5824 479615 211648 191"
"165.154062"
"$GPRMC,034145,A,2429.6726,N,08057.8400,W,2.3,236.0,140615,6.1,"
"##MN-00 00 52 1146 02214 5823 479997 211693 191"
"165.154109"
"$GPRMC,034149,A,2429.6707,N,08057.8426,W,2.3,236.3,140615,6.1,"
"##MN-00 00 52 1147 02221 5823 480366 211788 191"
"165.154155"
"$GPRMC,034153,A,2429.6694,N,08057.8450,W,2.3,237.4,140615,6.1,"
"##MN-00 00 52 1148 02221 5821 480813 211897 191"
"165.154201"
"$GPRMC,034157,A,2429.6678,N,08057.8475,W,2.3,238.2,140615,6.1,"
"##MN-00 00 52 1148 02226 5821 481397 211993 191"
"165.154248"
"$GPRMC,034201,A,2429.6667,N,08057.8497,W,2.4,238.2,140615,6.1,"
"##MN-00 00 52 1149 02232 5820 483035 212229 191"
"165.154294"
"$GPRMC,034205,A,2429.6658,N,08057.8520,W,2.3,237.7,140615,6.1,"
"##MN-00 00 53 1150 02235 5819 484950 212605 191"
"165.15434"
"$GPRMC,034209,A,2429.6646,N,08057.8544,W,2.4,238.1,140615,6.1,"
"##MN-00 00 52 1151 02236 5817 487374 213156 191"
"165.154387"
"$GPRMC,034213,A,2429.6624,N,08057.8570,W,2.4,238.5,140615,6.1,"
"##MN-00 00 52 1151 02239 5816 488273 213310 191"
"165.154433"
"$GPRMC,034217,A,2429.6608,N,08057.8594,W,2.3,239.2,140615,6.1,"
"##MN-00 00 50 1152 02242 5816 488668 213418 191"
"165.154479"
"$GPRMC,034221,A,2429.6591,N,08057.8618,W,2.4,239.8,140615,6.1,"
"##MN-00 00 54 1153 02243 5814 489092 213607 191"
"165.154525"
"$GPRMC,034226,A,2429.6577,N,08057.8645,W,2.3,238.3,140615,6.1,"
"##MN-00 00 51 1154 02249 5814 489575 213715 191"
"165.154572"
"$GPRMC,034230,A,2429.6564,N,08057.8667,W,2.3,238.0,140615,6.1,"
"##MN+00 00 52 1154 02251 5812 489954 213770 191"
"165.154618"
"$GPRMC,034234,A,2429.6548,N,08057.8690,W,2.3,235.9,140615,6.1,"
"##MN+00 00 52 1155 02258 5811 490195 213824 191"
"165.154664"
"$GPRMC,034238,A,2429.6534,N,08057.8710,W,2.2,234.5,140615,6.1,"
"##MN+00 00 52 1156 02259 5810 490425 213835 191"
"165.154711"
"$GPRMC,034242,A,2429.6520,N,08057.8732,W,2.2,235.0,140615,6.1,"
"##MN-00 00 53 1157 02263 5808 490980 214029 191"
"165.154757"
"$GPRMC,034246,A,2429.6505,N,08057.8754,W,2.2,236.1,140615,6.1,"
"##MN-00 00 52 1158 02268 5807 492376 214398 191"
"165.154803"
"$GPRMC,034250,A,2429.6494,N,08057.8777,W,2.2,237.2,140615,6.1,"
"##MN-00 00 50 1159 02270 5806 493697 214557 191"
"165.15485"
"$GPRMC,034254,A,2429.6481,N,08057.8801,W,2.2,237.4,140615,6.1,"
"##MN+00 00 53 1159 02274 5805 494187 214803 191"
"165.154896"
"$GPRMC,034258,A,2429.6465,N,08057.8822,W,2.2,237.0,140615,6.1,"
"##MN+00 00 52 1160 02279 5803 495813 215253 191"
"165.154942"
"$GPRMC,034301,A,2429.6456,N,08057.8840,W,2.2,237.6,140615,6.1,"
"##MN+00 00 60 1161 02283 5802 499446 215819 191"
"165.154988"
"$GPRMC,034306,A,2429.6442,N,08057.8867,W,2.2,237.1,140615,6.1,"
"##MN-00 00 54 1162 02284 5800 502792 216441 191"
"165.155046"
"$GPRMC,034310,A,2429.6429,N,08057.8889,W,2.2,238.0,140615,6.1,"
"##MN-00 00 51 1163 02280 5799 502775 216550 191"
"165.155093"
"#increment_net"
"$GPRMC,034314,A,2429.6419,N,08057.8913,W,2.2,237.7,140615,6.1,"
"##MN-00 00 51 1164 02282 5797 502061 216386 191"
"165.155139"
"$GPRMC,034318,A,2429.6406,N,08057.8934,W,2.1,238.0,140615,6.1,"
"##MN-00 00 51 1165 02282 5796 502144 216347 191"
"165.155185"
"$GPRMC,034322,A,2429.6394,N,08057.8956,W,2.1,238.6,140615,6.1,"
"##MN-00 00 51 1166 02281 5795 501539 216401 191"
"165.155231"
"$GPRMC,034326,A,2429.6380,N,08057.8978,W,2.2,238.8,140615,6.1,"
"##MN-00 00 50 1167 02280 5793 501152 216255 191"
"165.155278"
"$GPRMC,034330,A,2429.6368,N,08057.8999,W,2.2,237.5,140615,6.1,"
"##MN-00 00 51 1168 02277 5791 500336 216153 191"
"165.155324"
"$GPRMC,034334,A,2429.6357,N,08057.9019,W,2.1,236.7,140615,6.1,"
"##MN-00 00 52 1169 02273 5789 499697 216058 191"
"165.15537"
"$GPRMC,034338,A,2429.6339,N,08057.9042,W,2.1,236.8,140615,6.1,"
"##MN-00 00 53 1170 02276 5788 498994 215960 191"
"165.155417"
"$GPRMC,034342,A,2429.6328,N,08057.9064,W,2.1,237.9,140615,6.1,"
"##MN-00 00 51 1171 02275 5786 497940 215723 191"
"165.155463"
"$GPRMC,034346,A,2429.6315,N,08057.9086,W,2.0,237.5,140615,6.1,"
"##MN-00 00 51 1172 02274 5784 497456 215655 191"
"165.155509"
"$GPRMC,034350,A,2429.6304,N,08057.9107,W,2.0,236.3,140615,6.1,"
"##MN-00 00 51 1173 02274 5782 497151 215558 191"
"165.155556"
"$GPRMC,034354,A,2429.6293,N,08057.9126,W,1.9,236.0,140615,6.1,"
"##MN-00 00 51 1174 02272 5780 497211 215543 191"
"165.155602"
"$GPRMC,034358,A,2429.6277,N,08057.9147,W,1.9,235.5,140615,6.1,"
"##MN-00 00 51 1175 02272 5778 496777 215470 191"
"165.155648"
"$GPRMC,034402,A,2429.6263,N,08057.9167,W,2.0,235.5,140615,6.1,"
"##MN-00 00 54 1176 02271 5776 496355 215359 191"
"165.155694"
"$GPRMC,034406,A,2429.6252,N,08057.9187,W,1.9,236.0,140615,6.1,"
"##MN-00 00 51 1176 02270 5774 495712 215229 191"
"165.155741"
"$GPRMC,034410,A,2429.6241,N,08057.9209,W,1.9,236.6,140615,6.1,"
"##MN-00 00 51 1177 02268 5772 494966 215094 191"
"165.155787"
"$GPRMC,034414,A,2429.6228,N,08057.9230,W,2.0,237.1,140615,6.1,"
"##MN-00 00 51 1178 02264 5770 494083 214912 191"
"165.155833"
"$GPRMC,034418,A,2429.6216,N,08057.9252,W,2.0,236.4,140615,6.1,"
"##MN-00 00 52 1179 02267 5768 493431 214787 191"
"165.15588"
"$GPRMC,034422,A,2429.6205,N,08057.9271,W,2.0,236.7,140615,6.1,"
"##MN-00 00 51 1180 02262 5766 493030 214720 191"
"165.155926"
"$GPRMC,034426,A,2429.6196,N,08057.9285,W,2.0,236.5,140615,6.1,"
"##MN-00 00 51 1181 02264 5764 492801 214692 191"
"165.155972"
"$GPRMC,034430,A,2429.6183,N,08057.9310,W,2.0,237.0,140615,6.1,"
"##MN-00 00 51 1182 02259 5762 492376 214522 191"
"165.156019"
"$GPRMC,034434,A,2429.6172,N,08057.9329,W,2.0,237.5,140615,6.1,"
"##MN-00 00 50 1183 02257 5760 491973 214450 191"
"165.156065"
"$GPRMC,034438,A,2429.6161,N,08057.9350,W,2.0,237.9,140615,6.1,"
"##MN-00 00 50 1184 02252 5758 491344 214284 191"
"165.156111"
"$GPRMC,034442,A,2429.6149,N,08057.9371,W,2.1,238.7,140615,6.1,"
"##MN-00 00 51 1185 02248 5756 490643 214149 191"
"165.156157"
"$GPRMC,034446,A,2429.6140,N,08057.9393,W,2.1,238.8,140615,6.1,"
"##MN-00 00 51 1186 02249 5754 489754 213931 191"
"165.156204"
"$GPRMC,034450,A,2429.6125,N,08057.9415,W,2.1,237.6,140615,6.1,"
"##MN-00 00 50 1187 02250 5752 489415 213793 191"
"165.15625"
"$GPRMC,034454,A,2429.6113,N,08057.9434,W,2.1,237.0,140615,6.1,"
"##MN-00 00 51 1188 02244 5750 489295 213738 191"
"165.156296"
"$GPRMC,034458,A,2429.6104,N,08057.9454,W,2.1,236.6,140615,6.1,"
"##MN-00 00 53 1189 02243 5748 489215 213707 191"
"165.156343"
"$GPRMC,034502,A,2429.6093,N,08057.9474,W,2.0,237.8,140615,6.1,"
"##MN-00 00 52 1190 02243 5746 489120 213671 191"
"165.156389"
"$GPRMC,034506,A,2429.6080,N,08057.9495,W,2.0,238.3,140615,6.1,"
"##MN-00 00 52 1191 02242 5744 489000 213650 191"
"165.156435"
"$GPRMC,034510,A,2429.6068,N,08057.9516,W,1.9,239.2,140615,6.1,"
"##MN-00 00 49 1191 02242 5742 488942 213621 191"
"165.156481"
"$GPRMC,034514,A,2429.6054,N,08057.9534,W,2.0,239.3,140615,6.1,"
"##MN-00 00 51 1192 02238 5740 488891 213603 191"
"165.156528"
"$GPRMC,034518,A,2429.6040,N,08057.9555,W,2.0,239.3,140615,6.1,"
"##MN-00 00 50 1193 02236 5738 488855 213596 191"
"165.156574"
"$GPRMC,034522,A,2429.6026,N,08057.9574,W,2.0,239.0,140615,6.1,"
"##MN-00 00 52 1194 02235 5736 488854 213589 191"
"165.15662"
"$GPRMC,034526,A,2429.6013,N,08057.9595,W,2.1,237.4,140615,6.1,"
"##MN-00 00 54 1195 02232 5734 488823 213572 191"
"165.156667"
"$GPRMC,034530,A,2429.6000,N,08057.9615,W,2.0,236.0,140615,6.1,"
"##MN-00 00 51 1196 02232 5732 488538 213530 191"
"165.156713"
"$GPRMC,034534,A,2429.5988,N,08057.9635,W,2.0,234.7,140615,6.1,"
"##MN-00 00 52 1197 02230 5730 488364 213526 191"
"165.156759"
"$GPRMC,034538,A,2429.5972,N,08057.9655,W,1.9,233.5,140615,6.1,"
"##MN-00 00 51 1198 02232 5728 487976 213392 191"
"165.156806"
"$GPRMC,034542,A,2429.5960,N,08057.9672,W,1.9,233.9,140615,6.1,"
"##MN-00 00 50 1199 02229 5726 487218 213226 191"
"165.156852"
"$GPRMC,034546,A,2429.5950,N,08057.9693,W,2.1,235.7,140615,6.1,"
"##MN-00 00 52 1200 02225 5725 486908 213176 191"
"165.156898"
"$GPRMC,034550,A,2429.5938,N,08057.9711,W,2.0,236.4,140615,6.1,"
"##MN-00 00 50 1200 02227 5722 485967 213041 191"
"165.156944"
"$GPRMC,034554,A,2429.5925,N,08057.9732,W,2.1,235.5,140615,6.1,"
"##MN-00 00 50 1201 02222 5721 484923 212829 191"
"165.156991"
"$GPRMC,034558,A,2429.5911,N,08057.9754,W,2.0,234.3,140615,6.1,"
"##MN-00 00 50 1202 02222 5719 483786 212635 191"
"165.157037"
"$GPRMC,034602,A,2429.5896,N,08057.9774,W,2.0,235.0,140615,6.1,"
"##MN-00 00 51 1203 02221 5717 483039 212410 191"
"165.157083"
"$GPRMC,034606,A,2429.5885,N,08057.9794,W,2.0,236.0,140615,6.1,"
"##MN-00 00 49 1204 02219 5715 482687 212347 191"
"165.15713"
"$GPRMC,034610,A,2429.5872,N,08057.9816,W,2.0,236.8,140615,6.1,"
"##MN-00 00 51 1205 02216 5713 482421 212304 191"
"165.157176"
"$GPRMC,034614,A,2429.5858,N,08057.9835,W,2.0,237.7,140615,6.1,"
"##MN-00 00 51 1206 02212 5711 482355 212308 191"
"165.157222"
"$GPRMC,034618,A,2429.5844,N,08057.9855,W,2.0,238.2,140615,6.1,"
"##MN-00 00 50 1206 02213 5709 482245 212272 191"
"165.157269"
"$GPRMC,034622,A,2429.5834,N,08057.9877,W,2.0,237.8,140615,6.1,"
"##MN-00 00 52 1207 02209 5708 481934 212245 191"
"165.157315"
"$GPRMC,034626,A,2429.5829,N,08057.9897,W,2.0,238.3,140615,6.1,"
"##MN-00 00 49 1208 02209 5706 481620 212150 191"
"165.157361"
"$GPRMC,034630,A,2429.5819,N,08057.9918,W,2.1,238.8,140615,6.1,"
"##MN-00 00 50 1209 02205 5704 481191 212053 191"
"165.157407"
"$GPRMC,034634,A,2429.5808,N,08057.9942,W,2.1,239.6,140615,6.1,"
"##MN-00 00 51 1210 02202 5702 480956 211992 191"
"165.157454"
"$GPRMC,034638,A,2429.5798,N,08057.9964,W,2.1,240.4,140615,6.1,"
"##MN-00 00 51 1211 02199 5701 480822 211986 191"
"165.1575"
"$GPRMC,034642,A,2429.5784,N,08057.9985,W,2.2,240.3,140615,6.1,"
"##MN-00 00 50 1212 02199 5699 480677 211960 191"
"165.157546"
"$GPRMC,034646,A,2429.5771,N,08058.0004,W,2.1,240.2,140615,6.1,"
"##MN-00 00 50 1212 02194 5697 480597 211931 191"
"165.157593"
"$GPRMC,034651,A,2429.5755,N,08058.0033,W,2.1,238.2,140615,6.1,"
"##MN-00 00 51 1213 02193 5695 480514 211887 191"
"165.157639"
"$GPRMC,034655,A,2429.5742,N,08058.0054,W,2.1,236.5,140615,6.1,"
"##MN-00 00 49 1214 02193 5694 480487 211892 191"
"165.157685"
"$GPRMC,034658,A,2429.5732,N,08058.0069,W,2.1,236.4,140615,6.1,"
"##MN-00 00 50 1215 02188 5692 480448 211873 191"
"165.157731"
"$GPRMC,034702,A,2429.5718,N,08058.0090,W,2.1,235.4,140615,6.1,"
"##MN-00 00 50 1216 02188 5690 480429 211866 191"
"165.157778"
"$GPRMC,034706,A,2429.5703,N,08058.0110,W,2.1,235.2,140615,6.1,"
"##MN-00 00 50 1217 02188 5689 480416 211864 191"
"165.157824"
"$GPRMC,034711,A,2429.5681,N,08058.0134,W,2.1,233.9,140615,6.1,"
"##MN-00 00 49 1218 02187 5688 480367 211843 191"
"165.15787"
"$GPRMC,034715,A,2429.5667,N,08058.0155,W,2.1,233.1,140615,6.1,"
"##MN-00 00 51 1219 02181 5686 480175 211804 191"
"165.157917"
"$GPRMC,034719,A,2429.5656,N,08058.0175,W,2.1,232.7,140615,6.1,"
"##MN-00 00 50 1219 02180 5684 479861 211745 191"
"165.157963"
"$GPRMC,034723,A,2429.5643,N,08058.0195,W,2.1,232.6,140615,6.1,"
"##MN-00 00 48 1220 02182 5682 479676 211743 191"
"165.158009"
"$GPRMC,034727,A,2429.5629,N,08058.0214,W,2.1,232.8,140615,6.1,"
"##MN-00 00 49 1221 02176 5681 479544 211710 191"
"165.158056"
"$GPRMC,034731,A,2429.5617,N,08058.0235,W,2.1,233.2,140615,6.1,"
"##MN-00 00 48 1222 02175 5679 479407 211661 191"
"165.158102"
"$GPRMC,034735,A,2429.5603,N,08058.0257,W,2.1,234.0,140615,6.1,"
"##MN-00 00 48 1223 02172 5677 479077 211631 191"
"165.158148"
"$GPRMC,034739,A,2429.5594,N,08058.0278,W,2.1,236.0,140615,6.1,"
"##MN-00 00 48 1224 02173 5676 478784 211550 191"
"165.158194"
"$GPRMC,034743,A,2429.5582,N,08058.0298,W,2.1,238.2,140615,6.1,"
"##MN-00 00 49 1225 02168 5674 478634 211547 191"
"165.158241"
"$GPRMC,034747,A,2429.5569,N,08058.0321,W,2.1,238.5,140615,6.1,"
"##MN-00 00 48 1226 02165 5673 478402 211480 191"
"165.158299"
"$GPRMC,034751,A,2429.5557,N,08058.0343,W,2.1,238.5,140615,6.1,"
"##MN-00 00 50 1227 02160 5672 477804 211383 191"
"165.158345"
"$GPRMC,034755,A,2429.5545,N,08058.0365,W,2.2,239.2,140615,6.1,"
"##MN-00 00 49 1228 02156 5670 477039 211203 191"
"165.158391"
"$GPRMC,034759,A,2429.5533,N,08058.0387,W,2.1,239.7,140615,6.1,"
"##MN-00 00 48 1229 02149 5668 476493 211143 191"
"165.158438"
"$GPRMC,034803,A,2429.5522,N,08058.0409,W,2.2,240.2,140615,6.1,"
"##MN-00 00 51 1230 02149 5667 476287 211154 191"
"165.158484"
"$GPRMC,034807,A,2429.5511,N,08058.0431,W,2.1,239.8,140615,6.1,"
"##MN-00 00 49 1230 02150 5665 476128 211088 191"
"165.15853"
"$GPRMC,034811,A,2429.5499,N,08058.0455,W,2.1,239.1,140615,6.1,"
"##MN-00 00 50 1231 02147 5664 475999 211030 191"
"165.158576"
"$GPRMC,034815,A,2429.5486,N,08058.0475,W,2.1,238.1,140615,6.1,"
"##MN-00 00 49 1232 02145 5662 475870 211020 191"
"165.158623"
"$GPRMC,034819,A,2429.5473,N,08058.0495,W,2.0,236.6,140615,6.1,"
"##MN-00 00 48 1233 02143 5661 475780 211007 191"
"165.158669"
"$GPRMC,034823,A,2429.5459,N,08058.0516,W,2.1,234.9,140615,6.1,"
"##MN-00 00 50 1234 02141 5660 475675 210978 191"
"165.158715"
"$GPRMC,034827,A,2429.5445,N,08058.0533,W,2.0,233.9,140615,6.1,"
"##MN-00 00 49 1235 02140 5658 475587 210961 191"
"165.158762"
"$GPRMC,034831,A,2429.5432,N,08058.0554,W,2.0,233.6,140615,6.1,"
"##MN-00 00 49 1236 02134 5657 475504 210960 191"
"165.158808"
"$GPRMC,034835,A,2429.5419,N,08058.0574,W,2.0,234.8,140615,6.1,"
"##MN-00 00 49 1237 02133 5656 475590 210994 191"
"165.158854"
"$GPRMC,034839,A,2429.5405,N,08058.0596,W,2.0,237.4,140615,6.1,"
"##MN-00 00 48 1238 02130 5654 475391 211051 191"
"165.1589"
"$GPRMC,034843,A,2429.5394,N,08058.0618,W,2.1,237.8,140615,6.1,"
"##MN-00 00 49 1239 02125 5653 474618 210859 191"
"165.158947"
"$GPRMC,034847,A,2429.5385,N,08058.0639,W,2.0,239.2,140615,6.1,"
"##MN-00 00 48 1239 02126 5652 473771 210757 191"
"165.158993"
"$GPRMC,034851,A,2429.5374,N,08058.0661,W,2.1,239.8,140615,6.1,"
"##MN-00 00 49 1240 02122 5650 473189 210649 191"
"165.159039"
"$GPRMC,034855,A,2429.5364,N,08058.0684,W,2.1,241.2,140615,6.1,"
"##MN+00 00 47 1241 02120 5649 472885 210472 191"
"165.159086"
"$GPRMC,034859,A,2429.5356,N,08058.0705,W,2.1,241.5,140615,6.1,"
"##MN+00 00 47 1242 02113 5648 472708 210449 191"
"165.159132"
"$GPRMC,034903,A,2429.5345,N,08058.0726,W,2.1,241.7,140615,6.1,"
"##MN+00 00 51 1243 02111 5647 472668 210477 191"
"165.159178"
"$GPRMC,034907,A,2429.5331,N,08058.0748,W,2.1,241.1,140615,6.1,"
"##MN-00 00 50 1244 02110 5645 472427 210460 191"
"165.159225"
"$GPRMC,034911,A,2429.5316,N,08058.0771,W,2.1,239.6,140615,6.1,"
"##MN-00 00 49 1245 02108 5644 471823 210372 191"
"165.159271"
"$GPRMC,034915,A,2429.5304,N,08058.0791,W,2.0,237.7,140615,6.1,"
"##MN-00 00 48 1246 02105 5643 471525 210259 191"
"165.159317"
"$GPRMC,034919,A,2429.5291,N,08058.0811,W,2.1,239.0,140615,6.1,"
"##MN-00 00 50 1247 02099 5642 471474 210275 191"
"165.159363"
"$GPRMC,034923,A,2429.5280,N,08058.0834,W,1.9,238.8,140615,6.1,"
"##MN-00 00 48 1248 02102 5641 471441 210296 191"
"165.15941"
"$GPRMC,034927,A,2429.5266,N,08058.0853,W,1.9,238.3,140615,6.1,"
"##MN-00 00 47 1249 02096 5640 471164 210238 191"
"165.159456"
"$GPRMC,034931,A,2429.5256,N,08058.0875,W,2.0,237.2,140615,6.1,"
"##MN-00 00 51 1250 02091 5638 470681 210122 191"
"165.159502"
"$GPRMC,034935,A,2429.5241,N,08058.0896,W,1.9,236.5,140615,6.1,"
"##MN+00 00 48 1250 02092 5637 470083 210058 191"
"165.159549"
"$GPRMC,034939,A,2429.5228,N,08058.0915,W,2.1,235.6,140615,6.1,"
"##MN+00 00 56 1251 02091 5636 468945 209813 191"
"165.159595"
"$GPRMC,034943,A,2429.5216,N,08058.0936,W,2.0,234.1,140615,6.1,"
"##MN+00 00 50 1252 02087 5635 468258 209632 191"
"165.159641"
"$GPRMC,034947,A,2429.5201,N,08058.0955,W,2.0,234.0,140615,6.1,"
"##MN-00 00 48 1253 02081 5634 467501 209496 191"
"165.159687"
"#increment_net"
"$GPRMC,034951,A,2429.5188,N,08058.0975,W,2.1,234.0,140615,6.1,"
"##MN-00 00 47 1254 02079 5633 466860 209374 191"
"165.159734"
"$GPRMC,034955,A,2429.5175,N,08058.0995,W,2.1,235.2,140615,6.1,"
"##MN-00 00 50 1255 02072 5632 466364 209246 191"
"165.15978"
"$GPRMC,034959,A,2429.5162,N,08058.1016,W,2.1,236.8,140615,6.1,"
"##MN-00 00 51 1256 02071 5631 465858 209117 191"
"165.159826"
"$GPRMC,035003,A,2429.5150,N,08058.1037,W,2.1,236.8,140615,6.1,"
"##MN-00 00 47 1257 02065 5630 465584 209061 191"
"165.159873"
"$GPRMC,035007,A,2429.5137,N,08058.1058,W,2.1,236.5,140615,6.1,"
"##MN-00 00 49 1258 02060 5629 465370 209020 191"
"165.159919"
"$GPRMC,035011,A,2429.5132,N,08058.1078,W,2.0,236.5,140615,6.1,"
"##MN-00 00 48 1259 02056 5628 465211 208956 191"
"165.159965"
"$GPRMC,035015,A,2429.5123,N,08058.1099,W,2.0,238.9,140615,6.1,"
"##MN-00 00 48 1260 02050 5627 464897 208887 191"
"165.160012"
"$GPRMC,035019,A,2429.5108,N,08058.1121,W,2.0,239.6,140615,6.1,"
"##MN-00 00 48 1261 02045 5626 464393 208794 191"
"165.160058"
"$GPRMC,035023,A,2429.5094,N,08058.1142,W,1.9,240.2,140615,6.1,"
"##MN-00 00 48 1262 02045 5625 464110 208740 191"
"165.160104"
"$GPRMC,035027,A,2429.5085,N,08058.1157,W,1.9,240.8,140615,6.1,"
"##MN-00 00 48 1263 02037 5625 463544 208613 191"
"165.16015"
"$GPRMC,035031,A,2429.5074,N,08058.1176,W,2.0,241.0,140615,6.1,"
"##MN-00 00 49 1264 02034 5624 462491 208389 191"
"165.160197"
"$GPRMC,035035,A,2429.5064,N,08058.1196,W,1.9,240.1,140615,6.1,"
"##MN-00 00 48 1265 02031 5623 461418 208185 191"
"165.160243"
"$GPRMC,035039,A,2429.5054,N,08058.1217,W,2.0,239.2,140615,6.1,"
"##MN-00 00 46 1266 02026 5623 460167 207878 191"
"165.160289"
"$GPRMC,035043,A,2429.5043,N,08058.1236,W,1.9,238.9,140615,6.1,"
"##MN-00 00 49 1267 02019 5622 459076 207665 191"
"165.160336"
"$GPRMC,035047,A,2429.5034,N,08058.1257,W,1.9,238.7,140615,6.1,"
"##MN-00 00 48 1268 02019 5621 458416 207609 191"
"165.160382"
"$GPRMC,035051,A,2429.5025,N,08058.1275,W,1.9,238.3,140615,6.1,"
"##MN-00 00 48 1269 02015 5620 457799 207459 191"
"165.160428"
"$GPRMC,035055,A,2429.5013,N,08058.1295,W,1.9,238.4,140615,6.1,"
"##MN-00 00 49 1270 02012 5620 457380 207292 191"
"165.160475"
"$GPRMC,035059,A,2429.4997,N,08058.1318,W,1.9,238.2,140615,6.1,"
"##MN-00 00 50 1271 02006 5619 457143 207270 191"
"165.160521"
"$GPRMC,035103,A,2429.4984,N,08058.1338,W,1.9,237.4,140615,6.1,"
"##MN-00 00 49 1272 02005 5619 456947 207211 191"
"165.160567"
"$GPRMC,035107,A,2429.4973,N,08058.1358,W,1.9,237.6,140615,6.1,"
"##MN-00 00 50 1273 02002 5618 456663 207144 191"
"165.160613"
"$GPRMC,035111,A,2429.4962,N,08058.1377,W,1.9,238.1,140615,6.1,"
"##MN-00 00 49 1274 02003 5618 456062 207022 191"
"165.16066"
"$GPRMC,035115,A,2429.4948,N,08058.1396,W,1.9,237.7,140615,6.1,"
"##MN-00 00 46 1275 01998 5617 455693 206907 191"
"165.160706"
"$GPRMC,035119,A,2429.4935,N,08058.1416,W,1.9,237.4,140615,6.1,"
"##MN-00 00 51 1276 01993 5616 455272 206808 191"
"165.160752"
"$GPRMC,035123,A,2429.4922,N,08058.1436,W,2.0,235.1,140615,6.1,"
"##MN-00 00 49 1277 01986 5616 454944 206749 191"
"165.160799"
"$GPRMC,035127,A,2429.4908,N,08058.1457,W,2.1,237.0,140615,6.1,"
"##MN-00 00 51 1278 01982 5616 454701 206706 191"
"165.160845"
"$GPRMC,035132,A,2429.4892,N,08058.1483,W,2.1,236.1,140615,6.1,"
"##MN-00 00 52 1279 01985 5615 454421 206621 191"
"165.160891"
"$GPRMC,035135,A,2429.4881,N,08058.1497,W,2.0,236.1,140615,6.1,"
"##MN-00 00 48 1280 01979 5615 454108 206584 191"
"165.160937"
"$GPRMC,035139,A,2429.4867,N,08058.1518,W,2.0,236.1,140615,6.1,"
"##MN-00 00 50 1281 01972 5615 453693 206458 191"
"165.160984"
"$GPRMC,035144,A,2429.4855,N,08058.1543,W,2.0,237.0,140615,6.1,"
"##MN-00 00 52 1282 01971 5615 453389 206423 191"
"165.16103"
"$GPRMC,035148,A,2429.4844,N,08058.1564,W,2.0,237.4,140615,6.1,"
"##MN-00 00 52 1283 01967 5615 453048 206334 191"
"165.161076"
"$GPRMC,035152,A,2429.4833,N,08058.1584,W,2.1,238.7,140615,6.1,"
"##MN-00 00 51 1284 01963 5614 452692 206256 191"
"165.161123"
"$GPRMC,035156,A,2429.4827,N,08058.1598,W,2.0,238.3,140615,6.1,"
"##MN-00 00 50 1285 01958 5614 452281 206169 191"
"165.161169"
"$GPRMC,035200,A,2429.4812,N,08058.1620,W,1.9,237.7,140615,6.1,"
"##MN-00 00 50 1286 01956 5614 451992 206147 191"
"165.161215"
"$GPRMC,035204,A,2429.4803,N,08058.1640,W,1.9,237.0,140615,6.1,"
"##MN-00 00 51 1287 01955 5614 451807 206088 191"
"165.161262"
"$GPRMC,035208,A,2429.4792,N,08058.1654,W,1.9,237.1,140615,6.1,"
"##MN-00 00 50 1288 01953 5614 451624 206024 191"
"165.161308"
"$GPRMC,035212,A,2429.4779,N,08058.1678,W,1.9,237.8,140615,6.1,"
"##MN-00 00 51 1289 01951 5614 451490 206004 191"
"165.161354"
"$GPRMC,035216,A,2429.4771,N,08058.1692,W,1.9,237.8,140615,6.1,"
"##MN-00 00 53 1290 01947 5613 451407 205973 191"
"165.1614"
"$GPRMC,035220,A,2429.4758,N,08058.1720,W,1.9,238.6,140615,6.1,"
"##MN-00 00 49 1291 01944 5614 451302 205955 191"
"165.161447"
"$GPRMC,035224,A,2429.4750,N,08058.1732,W,1.9,239.0,140615,6.1,"
"##MN-00 00 50 1292 01941 5614 451156 205917 191"
"165.161493"
"$GPRMC,035228,A,2429.4733,N,08058.1759,W,2.0,238.9,140615,6.1,"
"##MN-00 00 50 1293 01935 5614 451005 205887 191"
"165.161551"
"$GPRMC,035232,A,2429.4720,N,08058.1781,W,2.1,238.5,140615,6.1,"
"##MN-00 00 51 1294 01931 5614 450915 205879 191"
"165.161597"
"$GPRMC,035236,A,2429.4708,N,08058.1803,W,2.1,238.3,140615,6.1,"
"##MN-00 00 53 1295 01927 5613 450886 205875 191"
"165.161644"
"$GPRMC,035240,A,2429.4697,N,08058.1824,W,2.1,238.5,140615,6.1,"
"##MN-00 00 55 1296 01923 5614 450848 205863 191"
"165.16169"
"$GPRMC,035244,A,2429.4686,N,08058.1844,W,2.0,238.5,140615,6.1,"
"##MN-00 00 52 1297 01921 5614 450781 205843 191"
"165.161736"
"$GPRMC,035248,A,2429.4674,N,08058.1865,W,2.0,239.7,140615,6.1,"
"##MN-00 00 52 1298 01918 5614 450712 205832 191"
"165.161782"
"$GPRMC,035252,A,2429.4666,N,08058.1889,W,2.1,239.8,140615,6.1,"
"##MN-00 00 51 1299 01915 5614 450636 205810 191"
"165.161829"
"$GPRMC,035256,A,2429.4651,N,08058.1909,W,2.1,240.2,140615,6.1,"
"##MN-00 00 51 1300 01911 5615 450529 205787 191"
"165.161875"
"$GPRMC,035300,A,2429.4643,N,08058.1933,W,2.1,240.7,140615,6.1,"
"##MN-00 00 54 1301 01907 5615 450470 205780 191"
"165.161921"
"$GPRMC,035304,A,2429.4634,N,08058.1954,W,2.0,240.6,140615,6.1,"
"##MN+00 00 53 1302 01904 5615 450357 205759 191"
"165.161968"
"$GPRMC,035308,A,2429.4626,N,08058.1976,W,2.0,240.7,140615,6.1,"
"##MN+00 00 52 1303 01900 5615 450185 205725 191"
"165.162014"
"$GPRMC,035312,A,2429.4613,N,08058.1998,W,2.0,240.8,140615,6.1,"
"##MN+00 00 55 1304 01898 5616 450048 205712 191"
"165.16206"
"$GPRMC,035316,A,2429.4602,N,08058.2017,W,2.0,240.8,140615,6.1,"
"##MN-00 00 53 1306 01899 5616 449935 205693 191"
"165.162106"
"$GPRMC,035320,A,2429.4592,N,08058.2038,W,1.9,240.7,140615,6.1,"
"##MN+00 00 52 1307 01894 5616 449846 205677 191"
"165.162153"
"$GPRMC,035324,A,2429.4583,N,08058.2059,W,1.9,240.3,140615,6.1,"
"##MN+00 00 52 1308 01893 5616 449825 205677 191"
"165.162199"
"$GPRMC,035328,A,2429.4569,N,08058.2078,W,1.9,239.9,140615,6.1,"
"##MN+00 00 61 1309 01895 5617 449817 205676 191"
"165.162245"
"$GPRMC,035332,A,2429.4556,N,08058.2099,W,1.9,239.4,140615,6.1,"
"##MN-00 00 57 1309 01890 5617 449817 205671 191"
"165.162292"
"#increment_net"
"$GPRMC,035336,A,2429.4543,N,08058.2118,W,1.9,238.4,140615,6.1,"
"##MN-00 00 58 1310 01889 5618 449811 205672 191"
"165.162338"
"$GPRMC,035340,A,2429.4529,N,08058.2140,W,1.9,237.4,140615,6.1,"
"##MN-00 00 52 1311 01887 5618 449810 205671 191"
"165.162384"
"$GPRMC,035344,A,2429.4516,N,08058.2160,W,1.9,236.6,140615,6.1,"
"##MN-00 00 53 1312 01885 5619 449797 205672 191"
"165.162431"
"$GPRMC,035348,A,2429.4504,N,08058.2179,W,1.9,235.4,140615,6.1,"
"##MN-00 00 53 1313 01885 5619 449769 205668 191"
"165.162477"
"$GPRMC,035352,A,2429.4492,N,08058.2198,W,1.9,234.9,140615,6.1,"
"##MN-00 00 51 1315 01881 5619 449742 205666 191"
"165.162523"
"$GPRMC,035356,A,2429.4480,N,08058.2218,W,2.0,235.3,140615,6.1,"
"##MN-00 00 53 1316 01878 5620 449699 205659 191"
"165.162569"
"$GPRMC,035400,A,2429.4468,N,08058.2240,W,1.9,236.2,140615,6.1,"
"##MN-00 00 52 1317 01879 5620 449616 205646 191"
"165.162616"
"$GPRMC,035404,A,2429.4456,N,08058.2261,W,2.0,237.5,140615,6.1,"
"##MN-00 00 51 1318 01875 5621 449594 205643 191"
"165.162662"
"$GPRMC,035408,A,2429.4444,N,08058.2283,W,1.9,238.5,140615,6.1,"
"##MN-00 00 51 1319 01874 5621 449545 205631 191"
"165.162708"
"$GPRMC,035412,A,2429.4432,N,08058.2301,W,1.9,239.5,140615,6.1,"
"##MN-00 00 51 1320 01872 5622 449317 205596 191"
"165.162755"
"$GPRMC,035416,A,2429.4420,N,08058.2323,W,2.0,240.2,140615,6.1,"
"##MN-00 00 52 1321 01870 5622 449221 205581 191"
"165.162801"
"$GPRMC,035420,A,2429.4407,N,08058.2344,W,2.0,241.1,140615,6.1,"
"##MN-00 00 54 1322 01868 5623 449221 205583 191"
"165.162847"
"$GPRMC,035424,A,2429.4395,N,08058.2364,W,2.0,241.1,140615,6.1,"
"##MN-00 00 52 1323 01868 5623 449308 205593 191"
"165.162894"
"$GPRMC,035428,A,2429.4384,N,08058.2385,W,2.0,239.8,140615,6.1,"
"##MN-00 00 52 1325 01864 5624 449313 205592 191"
"165.16294"
"$GPRMC,035432,A,2429.4377,N,08058.2406,W,2.0,240.0,140615,6.1,"
"##MN-00 00 54 1326 01862 5624 449302 205591 191"
"165.162986"
"$GPRMC,035436,A,2429.4368,N,08058.2428,W,2.1,240.6,140615,6.1,"
"##MN-00 00 56 1327 01859 5625 449307 205593 191"
"165.163032"
"$GPRMC,035440,A,2429.4359,N,08058.2450,W,2.1,241.4,140615,6.1,"
"##MN-00 00 52 1328 01860 5625 449281 205585 191"
"165.163079"
"$GPRMC,035444,A,2429.4346,N,08058.2471,W,2.1,241.1,140615,6.1,"
"##MN-00 00 52 1329 01858 5626 449240 205578 191"
"165.163125"
"$GPRMC,035448,A,2429.4337,N,08058.2493,W,2.1,240.2,140615,6.1,"
"##MN-00 00 55 1330 01858 5626 449165 205568 191"
"165.163171"
"$GPRMC,035452,A,2429.4325,N,08058.2512,W,2.0,240.6,140615,6.1,"
"##MN-00 00 52 1331 01856 5627 449119 205555 191"
"165.163218"
"$GPRMC,035456,A,2429.4315,N,08058.2533,W,2.1,240.3,140615,6.1,"
"##MN-00 00 53 1332 01855 5627 449077 205549 191"
"165.163264"
"$GPRMC,035500,A,2429.4302,N,08058.2554,W,2.1,239.8,140615,6.1,"
"##MN-00 00 54 1333 01856 5628 449076 205548 191"
"165.16331"
"$GPRMC,035504,A,2429.4290,N,08058.2573,W,2.0,239.8,140615,6.1,"
"##MN-00 00 52 1334 01853 5628 449115 205556 191"
"165.163356"
"$GPRMC,035508,A,2429.4279,N,08058.2597,W,2.1,239.3,140615,6.1,"
"##MN-00 00 61 1335 01849 5629 449101 205549 191"
"165.163403"
"$GPRMC,035512,A,2429.4266,N,08058.2616,W,2.0,239.7,140615,6.1,"
"##MN-00 00 54 1336 01846 5630 448957 205526 191"
"165.163449"
"$GPRMC,035516,A,2429.4258,N,08058.2639,W,2.1,239.3,140615,6.1,"
"##MN-00 00 52 1337 01848 5630 448849 205504 191"
"165.163495"
"$GPRMC,035520,A,2429.4244,N,08058.2663,W,2.1,238.4,140615,6.1,"
"##MN-00 00 54 1339 01845 5631 448781 205492 191"
"165.163542"
"$GPRMC,035524,A,2429.4229,N,08058.2684,W,2.0,237.3,140615,6.1,"
"##MN-00 00 54 1340 01846 5631 448736 205497 191"
"165.163588"
"$GPRMC,035528,A,2429.4218,N,08058.2706,W,2.0,237.2,140615,6.1,"
"##MN-00 00 53 1341 01844 5632 448685 205476 191"
"165.163634"
"$GPRMC,035532,A,2429.4203,N,08058.2725,W,2.0,237.5,140615,6.1,"
"##MN-00 00 55 1342 01843 5633 448649 205468 191"
"165.163681"
"$GPRMC,035536,A,2429.4193,N,08058.2746,W,2.1,238.0,140615,6.1,"
"##MN-00 00 54 1343 01843 5633 448628 205468 191"
"165.163727"
"$GPRMC,035540,A,2429.4182,N,08058.2767,W,2.1,239.8,140615,6.1,"
"##MN-00 00 54 1344 01841 5634 448648 205468 191"
"165.163773"
"$GPRMC,035544,A,2429.4171,N,08058.2789,W,2.1,240.0,140615,6.1,"
"##MN-00 00 53 1345 01843 5635 448671 205472 191"
"165.163819"
"$GPRMC,035548,A,2429.4160,N,08058.2807,W,2.0,239.4,140615,6.1,"
"##MN-00 00 52 1346 01842 5635 448662 205468 191"
"165.163866"
"$GPRMC,035552,A,2429.4149,N,08058.2829,W,1.9,239.8,140615,6.1,"
"##MN-00 00 52 1347 01841 5636 448614 205460 191"
"165.163912"
"$GPRMC,035556,A,2429.4135,N,08058.2847,W,1.9,239.6,140615,6.1,"
"##MN-00 00 53 1348 01842 5637 448571 205459 191"
"165.163958"
"$GPRMC,035600,A,2429.4124,N,08058.2868,W,1.9,238.7,140615,6.1,"
"##MN-00 00 55 1350 01841 5637 448530 205452 191"
"165.164005"
"$GPRMC,035604,A,2429.4111,N,08058.2887,W,1.9,238.5,140615,6.1,"
"##MN-00 00 54 1351 01841 5638 448505 205448 191"
"165.164051"
"$GPRMC,035608,A,2429.4099,N,08058.2906,W,2.0,238.8,140615,6.1,"
"##MN-00 00 54 1352 01840 5639 448508 205448 191"
"165.164097"
"$GPRMC,035612,A,2429.4088,N,08058.2926,W,2.1,238.0,140615,6.1,"
"##MN-00 00 53 1353 01843 5640 448529 205450 191"
"165.164144"
"$GPRMC,035616,A,2429.4075,N,08058.2944,W,2.0,237.7,140615,6.1,"
"##MN-00 00 53 1354 01842 5640 448554 205452 191"
"165.16419"
"$GPRMC,035620,A,2429.4066,N,08058.2964,W,1.9,238.0,140615,6.1,"
"##MN-00 00 52 1355 01839 5641 448566 205454 191"
"165.164236"
"$GPRMC,035624,A,2429.4056,N,08058.2984,W,1.9,238.5,140615,6.1,"
"##MN-00 00 54 1356 01838 5641 448598 205458 191"
"165.164282"
"$GPRMC,035628,A,2429.4048,N,08058.3006,W,1.9,239.6,140615,6.1,"
"##MN-00 00 52 1357 01838 5642 448635 205463 191"
"165.164329"
"$GPRMC,035632,A,2429.4037,N,08058.3027,W,1.9,239.2,140615,6.1,"
"##MN-00 00 52 1358 01840 5643 448633 205464 191"
"165.164375"
"$GPRMC,035637,A,2429.4020,N,08058.3051,W,1.9,240.2,140615,6.1,"
"##MN-00 00 52 1359 01840 5643 448634 205465 191"
"165.164421"
"$GPRMC,035641,A,2429.4010,N,08058.3071,W,1.9,239.8,140615,6.1,"
"##MN-00 00 53 1360 01839 5644 448647 205466 191"
"165.164468"
"$GPRMC,035645,A,2429.3999,N,08058.3090,W,1.9,239.5,140615,6.1,"
"##MN-00 00 53 1361 01837 5645 448629 205463 191"
"165.164514"
"$GPRMC,035649,A,2429.3988,N,08058.3111,W,1.9,239.3,140615,6.1,"
"##MN-00 00 55 1362 01837 5645 448587 205459 191"
"165.16456"
"$GPRMC,035653,A,2429.3983,N,08058.3133,W,1.9,239.9,140615,6.1,"
"##MN-00 00 52 1363 01838 5646 448587 205459 191"
"165.164606"
"$GPRMC,035657,A,2429.3972,N,08058.3150,W,1.9,241.4,140615,6.1,"
"##MN-00 00 55 1364 01836 5647 448627 205466 191"
"165.164653"
"$GPRMC,035701,A,2429.3961,N,08058.3172,W,1.9,242.1,140615,6.1,"
"##MN-00 00 53 1365 01836 5648 448603 205463 191"
"165.164699"
"$GPRMC,035705,A,2429.3951,N,08058.3194,W,1.9,242.3,140615,6.1,"
"##MN-00 00 53 1366 01834 5648 448593 205464 191"
"165.164745"
"$GPRMC,035709,A,2429.3940,N,08058.3213,W,1.9,242.2,140615,6.1,"
"##MN-00 00 52 1368 01834 5649 448557 205456 191"
"165.164803"
"$GPRMC,035713,A,2429.3929,N,08058.3234,W,1.9,240.8,140615,6.1,"
"##MN-00 00 52 1369 01833 5650 448514 205447 191"
"165.16485"
"$GPRMC,035717,A,2429.3918,N,08058.3255,W,1.9,240.5,140615,6.1,"
"##MN-00 00 53 1370 01831 5651 448448 205441 191"
"165.164896"
"$GPRMC,035721,A,2429.3906,N,08058.3274,W,1.9,239.7,140615,6.1,"
"##MN-00 00 52 1371 01833 5652 448456 205443 191"
"165.164942"
"$GPRMC,035725,A,2429.3895,N,08058.3295,W,1.9,239.0,140615,6.1,"
"##MN-00 00 51 1372 01829 5652 448411 205434 191"
"165.164988"
"$GPRMC,035729,A,2429.3883,N,08058.3314,W,1.9,239.4,140615,6.1,"
"##MN-00 00 54 1373 01828 5653 448434 205439 191"
"165.165035"
"$GPRMC,035733,A,2429.3875,N,08058.3335,W,1.9,239.9,140615,6.1,"
"##MN-00 00 52 1374 01831 5654 448468 205445 191"
"165.165081"
"$GPRMC,035737,A,2429.3865,N,08058.3356,W,1.9,239.4,140615,6.1,"
"##MN-00 00 54 1375 01829 5654 448541 205455 191"
"165.165127"
"$GPRMC,035741,A,2429.3854,N,08058.3376,W,1.9,238.5,140615,6.1,"
"##MN-00 00 52 1376 01828 5655 448576 205460 191"
"165.165174"
"$GPRMC,035745,A,2429.3844,N,08058.3396,W,1.9,239.0,140615,6.1,"
"##MN-00 00 52 1377 01825 5656 448571 205460 191"
"165.16522"
"$GPRMC,035749,A,2429.3832,N,08058.3417,W,2.0,240.4,140615,6.1,"
"##MN-00 00 55 1378 01824 5657 448549 205459 191"
"165.165266"
"$GPRMC,035753,A,2429.3822,N,08058.3437,W,2.0,239.9,140615,6.1,"
"##MN-00 00 53 1379 01824 5657 448545 205459 191"
"165.165312"
"$GPRMC,035757,A,2429.3810,N,08058.3457,W,2.0,238.7,140615,6.1,"
"##MN-00 00 52 1380 01821 5658 448496 205451 191"
"165.165359"
"$GPRMC,035801,A,2429.3800,N,08058.3479,W,1.9,237.6,140615,6.1,"
"##MN-00 00 55 1381 01823 5659 448425 205442 191"
"165.165405"
"$GPRMC,035805,A,2429.3788,N,08058.3498,W,1.9,237.2,140615,6.1,"
"##MN-00 00 51 1382 01819 5659 448392 205437 191"
"165.165451"
"$GPRMC,035809,A,2429.3774,N,08058.3519,W,2.0,236.8,140615,6.1,"
"##MN-00 00 52 1383 01820 5660 448328 205426 191"
"165.165498"
"$GPRMC,035813,A,2429.3759,N,08058.3537,W,2.0,236.8,140615,6.1,"
"##MN-00 00 54 1384 01815 5661 448295 205422 191"
"165.165544"
"$GPRMC,035817,A,2429.3743,N,08058.3553,W,1.9,237.3,140615,6.1,"
"##MN-00 00 53 1386 01815 5661 448313 205425 191"
"165.16559"
"$GPRMC,035821,A,2429.3730,N,08058.3573,W,1.9,237.6,140615,6.1,"
"##MN-00 00 54 1387 01811 5662 448316 205425 191"
"165.165637"
"$GPRMC,035825,A,2429.3718,N,08058.3592,W,1.9,238.3,140615,6.1,"
"##MN-00 00 51 1388 01812 5663 448326 205426 191"
"165.165683"
"$GPRMC,035829,A,2429.3707,N,08058.3613,W,1.9,239.4,140615,6.1,"
"##MN-00 00 54 1389 01809 5664 448319 205424 191"
"165.165729"
"$GPRMC,035833,A,2429.3696,N,08058.3634,W,1.9,240.1,140615,6.1,"
"##MN-00 00 52 1390 01812 5665 448309 205424 191"
"165.165775"
"$GPRMC,035837,A,2429.3685,N,08058.3654,W,1.9,241.3,140615,6.1,"
"##MN-00 00 53 1391 01806 5666 448333 205428 191"
"165.165822"
"$GPRMC,035841,A,2429.3677,N,08058.3675,W,1.9,242.0,140615,6.1,"
"##MN-00 00 54 1392 01807 5666 448331 205426 191"
"165.165868"
"$GPRMC,035845,A,2429.3671,N,08058.3696,W,1.9,241.9,140615,6.1,"
"##MN-00 00 52 1393 01808 5667 448297 205423 191"
"165.165914"
"$GPRMC,035849,A,2429.3665,N,08058.3717,W,1.9,241.6,140615,6.1,"
"##MN-00 00 55 1394 01802 5668 448249 205419 191"
"165.165961"
"$GPRMC,035853,A,2429.3654,N,08058.3737,W,1.9,241.3,140615,6.1,"
"##MN-00 00 51 1395 01805 5669 448223 205414 191"
"165.166007"
"$GPRMC,035857,A,2429.3642,N,08058.3759,W,1.9,240.7,140615,6.1,"
"##MN-00 00 52 1396 01802 5669 448189 205412 191"
"165.166053"
"$GPRMC,035901,A,2429.3630,N,08058.3782,W,2.1,240.2,140615,6.1,"
"##MN-00 00 53 1397 01799 5670 448177 205417 191"
"165.1661"
"$GPRMC,035905,A,2429.3618,N,08058.3801,W,1.9,239.2,140615,6.1,"
"##MN-00 00 54 1398 01800 5671 448157 205417 191"
"165.166146"
"$GPRMC,035909,A,2429.3605,N,08058.3822,W,2.0,238.1,140615,6.1,"
"##MN-00 00 52 1399 01798 5671 448145 205414 191"
"165.166192"
"$GPRMC,035913,A,2429.3591,N,08058.3841,W,1.9,237.5,140615,6.1,"
"##MN-00 00 52 1400 01797 5672 448108 205411 191"
"165.166238"
"$GPRMC,035917,A,2429.3578,N,08058.3862,W,1.9,236.7,140615,6.1,"
"##MN-00 00 51 1402 01795 5673 448061 205408 191"
"165.166285"
"$GPRMC,035921,A,2429.3565,N,08058.3883,W,2.0,236.1,140615,6.1,"
"##MN-00 00 52 1403 01793 5674 448062 205432 191"
"165.166331"
"$GPRMC,035925,A,2429.3553,N,08058.3903,W,2.0,235.9,140615,6.1,"
"##MN-00 00 52 1404 01789 5674 448075 205467 191"
"165.166377"
"$GPRMC,035929,A,2429.3541,N,08058.3923,W,2.0,235.9,140615,6.1,"
"##MN-00 00 52 1405 01788 5675 448065 205467 191"
"165.166424"
"$GPRMC,035933,A,2429.3535,N,08058.3941,W,2.0,234.7,140615,6.1,"
"##MN-00 00 52 1406 01785 5676 448055 205467 191"
"165.16647"
"$GPRMC,035937,A,2429.3524,N,08058.3960,W,1.9,234.0,140615,6.1,"
"##MN-00 00 51 1407 01781 5676 448080 205480 191"
"165.166516"
"$GPRMC,035941,A,2429.3512,N,08058.3979,W,2.0,233.8,140615,6.1,"
"##MN-00 00 55 1408 01778 5678 448145 205531 191"
"165.166562"
"$GPRMC,035945,A,2429.3501,N,08058.4001,W,2.1,234.7,140615,6.1,"
"##MN-00 00 52 1410 01777 5678 448156 205526 191"
"165.166609"
"$GPRMC,035949,A,2429.3489,N,08058.4022,W,2.1,235.4,140615,6.1,"
"##MN-00 00 54 1411 01776 5679 448188 205550 191"
"165.166655"
"$GPRMC,035953,A,2429.3478,N,08058.4043,W,2.0,236.5,140615,6.1,"
"##MN-00 00 54 1412 01773 5680 448196 205564 191"
"165.166701"
"$GPRMC,035957,A,2429.3465,N,08058.4062,W,2.0,236.5,140615,6.1,"
"##MN-00 00 51 1413 01771 5680 448203 205551 191"
"165.166748"
"$GPRMC,040001,A,2429.3456,N,08058.4079,W,2.0,237.3,140615,6.1,"
"##MN-00 00 51 1414 01769 5681 448200 205557 191"
"165.166794"
"$GPRMC,040005,A,2429.3445,N,08058.4097,W,2.0,238.7,140615,6.1,"
"##MN-00 00 55 1415 01766 5682 448170 205597 191"
"165.16684"
"$GPRMC,040009,A,2429.3432,N,08058.4118,W,2.0,239.5,140615,6.1,"
"##MN-00 00 52 1416 01765 5683 448104 205614 191"
"165.166887"
"$GPRMC,040013,A,2429.3424,N,08058.4138,W,2.0,240.3,140615,6.1,"
"##MN-00 00 53 1418 01761 5684 448066 205636 191"
"165.166933"
"$GPRMC,040017,A,2429.3414,N,08058.4158,W,2.1,239.9,140615,6.1,"
"##MN-00 00 54 1419 01759 5684 448037 205651 191"
"165.166979"
"$GPRMC,040021,A,2429.3399,N,08058.4184,W,1.9,239.8,140615,6.1,"
"##MN-00 00 52 1420 01758 5685 448037 205652 191"
"165.167025"
"$GPRMC,040025,A,2429.3385,N,08058.4205,W,1.9,239.0,140615,6.1,"
"##MN-00 00 51 1421 01754 5686 448045 205646 191"
"165.167072"
"$GPRMC,040029,A,2429.3372,N,08058.4224,W,1.9,238.2,140615,6.1,"
"##MN-00 00 53 1422 01753 5686 448038 205664 191"
"165.167118"
"$GPRMC,040033,A,2429.3359,N,08058.4245,W,1.9,237.8,140615,6.1,"
"##MN-00 00 52 1423 01749 5688 448016 205679 191"
"165.167164"
"$GPRMC,040037,A,2429.3349,N,08058.4267,W,1.9,238.4,140615,6.1,"
"##MN-00 00 53 1425 01750 5688 448009 205684 191"
"165.167211"
"$GPRMC,040041,A,2429.3337,N,08058.4288,W,1.9,238.4,140615,6.1,"
"##MN-00 00 54 1426 01746 5689 448019 205699 191"
"165.167257"
