" Tow: 8-ns-n-ed   RVWS/WS15161"
" Date: 13/06/2015"
" Temperature Probe #  4762    Conductivity Probe #  710"
" Pressure Probe #  159"
" Flow Meter Calibration  4.71 (m/count)  "
"165.091169"
"$GPRMC,021110,A,2433.1469,N,08053.1929,W,3.0,233.4,140615,6.2,"
"##MN-00 00 35 0472 01536 5781 000012 772663 193"
"165.091215"
"$GPRMC,021115,A,2433.1443,N,08053.1963,W,2.9,233.2,140615,6.2,"
"##MN-00 00 35 0472 01538 5781 452836 827913 193"
"165.091262"
"$GPRMC,021119,A,2433.1425,N,08053.1991,W,2.8,233.4,140615,6.2,"
"##MN-00 00 44 0472 01537 5781 452529 827913 193"
"165.091308"
"$GPRMC,021123,A,2433.1402,N,08053.2016,W,2.8,234.1,140615,6.2,"
"##MN-00 00 49 0472 01536 5781 451772 827913 193"
"165.091354"
"$GPRMC,021127,A,2433.1382,N,08053.2041,W,2.8,233.8,140615,6.2,"
"##MN-00 00 52 0472 01537 5781 451155 827913 193"
"165.0914"
"$GPRMC,021131,A,2433.1366,N,08053.2066,W,2.7,234.0,140615,6.2,"
"##MN-00 00 49 0472 01536 5781 450745 827917 193"
"165.091447"
"$GPRMC,021135,A,2433.1353,N,08053.2093,W,2.6,235.2,140615,6.2,"
"##MN-00 00 55 0472 01536 5781 448896 379863 193"
"165.091493"
"$GPRMC,021139,A,2433.1340,N,08053.2121,W,2.6,235.8,140615,6.2,"
"##MN-00 00 50 0473 01538 5781 446875 210529 193"
"165.091539"
"$GPRMC,021143,A,2433.1326,N,08053.2149,W,2.6,237.0,140615,6.2,"
"##MN-00 00 52 0474 01539 5781 446843 207833 193"
"165.091586"
"$GPRMC,021147,A,2433.1312,N,08053.2175,W,2.5,238.5,140615,6.2,"
"##MN-00 00 55 0474 01538 5781 446797 205479 193"
"165.091632"
"$GPRMC,021151,A,2433.1301,N,08053.2201,W,2.5,239.9,140615,6.2,"
"##MN-00 00 53 0475 01541 5781 446783 205453 193"
"165.091678"
"$GPRMC,021155,A,2433.1289,N,08053.2225,W,2.3,240.7,140615,6.2,"
"##MN-00 00 49 0476 01540 5781 446775 205407 193"
"165.091725"
"$GPRMC,021159,A,2433.1275,N,08053.2247,W,2.3,241.1,140615,6.2,"
"##MN-00 00 46 0476 01539 5781 446725 205355 193"
"165.091771"
"$GPRMC,021203,A,2433.1265,N,08053.2272,W,2.3,241.2,140615,6.2,"
"##MN-00 00 55 0477 01546 5781 446724 205330 193"
"165.091817"
"$GPRMC,021207,A,2433.1252,N,08053.2294,W,2.2,241.7,140615,6.2,"
"##MN-00 00 55 0478 01547 5781 446712 205346 193"
"165.091863"
"$GPRMC,021211,A,2433.1238,N,08053.2319,W,2.3,241.7,140615,6.2,"
"##MN-00 00 54 0479 01551 5781 446716 205341 193"
"165.09191"
"$GPRMC,021215,A,2433.1224,N,08053.2341,W,2.2,241.5,140615,6.2,"
"##MN-00 00 55 0480 01554 5781 446694 205330 193"
"165.091956"
"$GPRMC,021219,A,2433.1212,N,08053.2364,W,2.2,241.8,140615,6.2,"
"##MN-00 00 56 0480 01554 5781 446684 205320 193"
"165.092002"
"$GPRMC,021223,A,2433.1202,N,08053.2388,W,2.1,242.1,140615,6.2,"
"##MN-00 00 56 0481 01561 5782 446684 205314 193"
"165.092049"
"$GPRMC,021227,A,2433.1191,N,08053.2410,W,2.1,242.1,140615,6.2,"
"##MN-00 00 58 0482 01561 5782 446719 205319 193"
"165.092095"
"$GPRMC,021231,A,2433.1180,N,08053.2435,W,2.2,241.4,140615,6.2,"
"##MN-00 00 12 0482 01561 5782 446737 205318 193"
"165.092141"
"$GPRMC,021235,A,2433.1169,N,08053.2457,W,2.1,241.7,140615,6.2,"
"##MN-00 00 57 0483 01567 5782 446706 205308 193"
"165.092188"
"$GPRMC,021239,A,2433.1159,N,08053.2479,W,2.1,240.9,140615,6.2,"
"##MN-00 00 58 0484 01569 5782 446691 205308 193"
"165.092234"
"$GPRMC,021243,A,2433.1144,N,08053.2503,W,2.2,239.7,140615,6.2,"
"##MN-00 00 57 0485 01569 5783 446696 205307 193"
"165.09228"
"$GPRMC,021247,A,2433.1133,N,08053.2523,W,2.1,239.0,140615,6.2,"
"##MN-00 00 58 0486 01572 5783 446694 205308 193"
"165.092326"
"$GPRMC,021251,A,2433.1120,N,08053.2547,W,2.2,237.6,140615,6.2,"
"##MN-00 00 58 0486 01575 5783 446703 205306 193"
"165.092373"
"$GPRMC,021255,A,2433.1109,N,08053.2569,W,2.1,237.7,140615,6.2,"
"##MN-00 00 57 0487 01583 5783 446703 205306 193"
"165.092419"
"$GPRMC,021259,A,2433.1094,N,08053.2587,W,2.1,236.2,140615,6.2,"
"##MN-00 00 51 0488 01585 5784 446698 205305 193"
"165.092465"
"$GPRMC,021303,A,2433.1080,N,08053.2608,W,2.2,235.9,140615,6.2,"
"##MN-00 00 53 0489 01586 5784 446681 205301 193"
"165.092512"
"$GPRMC,021307,A,2433.1068,N,08053.2627,W,2.1,236.0,140615,6.2,"
"##MN-00 00 54 0490 01590 5784 446673 205299 193"
"165.092558"
"$GPRMC,021311,A,2433.1054,N,08053.2648,W,2.1,235.9,140615,6.2,"
"##MN-00 00 53 0491 01594 5785 446676 205299 193"
"165.092604"
"$GPRMC,021315,A,2433.1042,N,08053.2673,W,2.1,234.7,140615,6.2,"
"##MN-00 00 55 0491 01596 5785 446665 205295 193"
"165.09265"
"$GPRMC,021319,A,2433.1030,N,08053.2695,W,2.1,234.0,140615,6.2,"
"##MN-00 00 54 0492 01601 5785 446662 205293 193"
"165.092697"
"$GPRMC,021323,A,2433.1015,N,08053.2714,W,2.1,234.5,140615,6.2,"
"##MN-00 00 55 0493 01600 5785 446658 205289 193"
"165.092743"
"$GPRMC,021327,A,2433.1001,N,08053.2735,W,2.1,235.6,140615,6.2,"
"##MN-00 00 54 0494 01603 5786 446652 205285 193"
"165.092789"
"$GPRMC,021331,A,2433.0988,N,08053.2756,W,2.1,236.1,140615,6.2,"
"##MN-00 00 54 0495 01603 5786 446649 205285 193"
"165.092836"
"$GPRMC,021335,A,2433.0975,N,08053.2775,W,2.1,236.9,140615,6.2,"
"##MN-00 00 55 0496 01610 5786 446666 205288 193"
"165.092882"
"$GPRMC,021339,A,2433.0961,N,08053.2793,W,2.1,237.3,140615,6.2,"
"##MN-00 00 52 0497 01613 5787 446685 205292 193"
"165.092928"
"$GPRMC,021343,A,2433.0947,N,08053.2815,W,2.2,238.4,140615,6.2,"
"##MN-00 00 54 0498 01612 5787 446680 205293 193"
"165.092975"
"$GPRMC,021347,A,2433.0934,N,08053.2836,W,2.1,239.0,140615,6.2,"
"##MN-00 00 54 0498 01618 5788 446670 205289 193"
"165.093021"
"$GPRMC,021351,A,2433.0923,N,08053.2858,W,2.2,240.3,140615,6.2,"
"##MN-00 00 52 0499 01618 5788 446666 205287 193"
"165.093067"
"$GPRMC,021355,A,2433.0910,N,08053.2883,W,2.2,240.6,140615,6.2,"
"##MN-00 00 54 0500 01621 5788 446663 205287 193"
"165.093113"
"$GPRMC,021400,A,2433.0895,N,08053.2910,W,2.1,240.5,140615,6.2,"
"##MN-00 00 55 0501 01622 5789 446654 205286 192"
"165.09316"
"$GPRMC,021403,A,2433.0884,N,08053.2930,W,2.2,241.2,140615,6.2,"
"##MN-00 00 55 0502 01625 5789 446665 205289 192"
"165.093206"
"$GPRMC,021407,A,2433.0869,N,08053.2952,W,2.2,240.2,140615,6.2,"
"##MN-00 00 54 0503 01629 5790 446677 205291 193"
"165.093252"
"$GPRMC,021411,A,2433.0858,N,08053.2977,W,2.2,239.5,140615,6.2,"
"##MN-00 00 54 0504 01633 5790 446679 205292 193"
"165.093299"
"$GPRMC,021415,A,2433.0846,N,08053.2999,W,2.2,239.2,140615,6.2,"
"##MN-00 00 52 0505 01633 5790 446656 205286 193"
"165.093345"
"$GPRMC,021420,A,2433.0830,N,08053.3029,W,2.2,239.3,140615,6.2,"
"##MN-00 00 55 0506 01634 5791 446642 205283 193"
"165.093391"
"$GPRMC,021424,A,2433.0818,N,08053.3053,W,2.2,239.2,140615,6.2,"
"##MN-00 00 53 0507 01636 5791 446642 205282 193"
"165.093438"
"$GPRMC,021428,A,2433.0806,N,08053.3076,W,2.3,239.4,140615,6.2,"
"##MN-00 00 55 0508 01637 5792 446640 205281 193"
"165.093484"
"$GPRMC,021432,A,2433.0793,N,08053.3100,W,2.2,239.0,140615,6.2,"
"##MN-00 00 56 0509 01641 5792 446644 205282 193"
"165.09353"
"$GPRMC,021436,A,2433.0779,N,08053.3122,W,2.2,239.3,140615,6.2,"
"##MN-00 00 55 0510 01645 5793 446654 205286 193"
"165.093576"
"$GPRMC,021440,A,2433.0768,N,08053.3144,W,2.2,238.4,140615,6.2,"
"##MN-00 00 54 0511 01648 5793 446651 205286 193"
"165.093623"
"$GPRMC,021444,A,2433.0753,N,08053.3168,W,2.2,238.0,140615,6.2,"
"##MN-00 00 56 0511 01651 5794 446645 205285 193"
"165.093669"
"$GPRMC,021448,A,2433.0740,N,08053.3190,W,2.2,237.3,140615,6.2,"
"##MN-00 00 54 0512 01653 5794 446659 205289 193"
"165.093715"
"$GPRMC,021452,A,2433.0728,N,08053.3212,W,2.2,237.6,140615,6.2,"
"##MN-00 00 56 0513 01657 5795 446663 205289 193"
"165.093762"
"$GPRMC,021456,A,2433.0717,N,08053.3235,W,2.2,238.4,140615,6.2,"
"##MN-00 00 56 0514 01661 5795 446656 205288 193"
"165.093808"
"$GPRMC,021500,A,2433.0706,N,08053.3262,W,2.2,237.8,140615,6.2,"
"##MN-00 00 55 0515 01665 5795 446646 205287 193"
"165.093854"
"$GPRMC,021504,A,2433.0689,N,08053.3280,W,2.2,236.6,140615,6.2,"
"##MN-00 00 55 0516 01667 5796 446638 205283 193"
"165.0939"
"$GPRMC,021508,A,2433.0671,N,08053.3298,W,2.2,236.3,140615,6.2,"
"##MN-00 00 54 0517 01670 5797 446633 205281 193"
"165.093947"
"$GPRMC,021512,A,2433.0657,N,08053.3320,W,2.2,236.8,140615,6.2,"
"##MN-00 00 55 0518 01669 5797 446624 205279 193"
"165.094005"
"$GPRMC,021516,A,2433.0643,N,08053.3343,W,2.2,237.4,140615,6.2,"
"##MN-00 00 55 0519 01673 5797 446615 205275 193"
"165.094051"
"$GPRMC,021520,A,2433.0632,N,08053.3367,W,2.2,237.8,140615,6.2,"
"##MN-00 00 54 0520 01678 5798 446614 205268 193"
"165.094097"
"$GPRMC,021524,A,2433.0620,N,08053.3392,W,2.2,239.2,140615,6.2,"
"##MN-00 00 54 0521 01680 5798 446617 205269 193"
"165.094144"
"$GPRMC,021528,A,2433.0609,N,08053.3417,W,2.2,240.3,140615,6.2,"
"##MN-00 00 54 0522 01682 5799 446622 205270 193"
"165.09419"
"$GPRMC,021532,A,2433.0598,N,08053.3440,W,2.2,241.0,140615,6.2,"
"##MN-00 00 55 0523 01684 5799 446620 205272 193"
"165.094236"
"$GPRMC,021536,A,2433.0587,N,08053.3465,W,2.2,241.5,140615,6.2,"
"##MN-00 00 54 0524 01688 5800 446628 205266 193"
"165.094282"
"$GPRMC,021540,A,2433.0574,N,08053.3490,W,2.2,241.1,140615,6.2,"
"##MN-00 00 54 0525 01693 5800 446632 205269 193"
"165.094329"
"$GPRMC,021544,A,2433.0562,N,08053.3513,W,2.2,240.7,140615,6.2,"
"##MN-00 00 52 0526 01692 5800 446638 205270 193"
"165.094375"
"$GPRMC,021548,A,2433.0547,N,08053.3537,W,2.3,240.0,140615,6.2,"
"##MN-00 00 56 0526 01694 5801 446637 205269 193"
"165.094421"
"$GPRMC,021552,A,2433.0535,N,08053.3559,W,2.2,240.0,140615,6.2,"
"##MN-00 00 54 0527 01699 5801 446634 205265 193"
"165.094468"
"$GPRMC,021556,A,2433.0523,N,08053.3581,W,2.2,240.1,140615,6.2,"
"##MN-00 00 52 0528 01701 5802 446647 205254 193"
"165.094514"
"$GPRMC,021600,A,2433.0510,N,08053.3602,W,2.2,239.2,140615,6.2,"
"##MN-00 00 57 0529 01704 5802 446666 205246 193"
"165.09456"
"$GPRMC,021604,A,2433.0497,N,08053.3624,W,2.2,240.1,140615,6.2,"
"##MN-00 00 54 0530 01707 5803 446698 205236 193"
"165.094606"
"$GPRMC,021608,A,2433.0486,N,08053.3646,W,2.2,239.9,140615,6.2,"
"##MN-00 00 55 0531 01712 5803 446717 205231 193"
"165.094653"
"$GPRMC,021612,A,2433.0475,N,08053.3668,W,2.1,240.0,140615,6.2,"
"##MN-00 00 54 0532 01716 5804 446758 205223 193"
"165.094699"
"$GPRMC,021616,A,2433.0463,N,08053.3692,W,2.1,240.9,140615,6.2,"
"##MN-00 00 55 0533 01718 5804 446762 205220 193"
"165.094745"
"$GPRMC,021620,A,2433.0450,N,08053.3712,W,2.2,240.0,140615,6.2,"
"##MN-00 00 54 0534 01723 5805 446766 205218 192"
"165.094792"
"$GPRMC,021624,A,2433.0437,N,08053.3737,W,2.2,240.3,140615,6.2,"
"##MN-00 00 53 0535 01726 5805 446766 205218 193"
"165.094838"
"$GPRMC,021628,A,2433.0424,N,08053.3759,W,2.2,239.1,140615,6.2,"
"##MN-00 00 54 0536 01729 5806 446778 205215 192"
"165.094884"
"$GPRMC,021632,A,2433.0410,N,08053.3783,W,2.2,238.8,140615,6.2,"
"##MN-00 00 53 0537 01731 5806 446820 205208 192"
"165.094931"
"$GPRMC,021636,A,2433.0396,N,08053.3806,W,2.2,238.0,140615,6.2,"
"##MN-00 00 55 0537 01734 5807 446860 205199 192"
"165.094977"
"$GPRMC,021640,A,2433.0383,N,08053.3829,W,2.2,237.0,140615,6.2,"
"##MN-00 00 51 0538 01738 5807 446927 205186 193"
"165.095023"
"$GPRMC,021644,A,2433.0367,N,08053.3853,W,2.3,236.3,140615,6.2,"
"##MN-00 00 52 0539 01737 5807 446982 205177 192"
"165.095069"
"$GPRMC,021648,A,2433.0353,N,08053.3874,W,2.3,235.7,140615,6.2,"
"##MN-00 00 54 0540 01744 5808 447015 205170 193"
"165.095116"
"$GPRMC,021652,A,2433.0340,N,08053.3898,W,2.2,236.6,140615,6.2,"
"##MN-00 00 54 0541 01748 5808 447067 205162 193"
"165.095162"
"$GPRMC,021656,A,2433.0324,N,08053.3914,W,2.2,236.3,140615,6.2,"
"##MN-00 00 54 0542 01755 5809 447154 205147 193"
"165.095208"
"$GPRMC,021700,A,2433.0311,N,08053.3934,W,2.2,237.5,140615,6.2,"
"##MN-00 00 53 0543 01759 5810 447265 205135 193"
"165.095255"
"$GPRMC,021704,A,2433.0299,N,08053.3956,W,2.2,238.0,140615,6.2,"
"##MN-00 00 52 0543 01757 5810 447340 205127 193"
"165.095301"
"$GPRMC,021708,A,2433.0287,N,08053.3979,W,2.2,239.0,140615,6.2,"
"##MN-00 00 55 0544 01761 5810 447400 205123 193"
"165.095347"
"$GPRMC,021712,A,2433.0275,N,08053.4006,W,2.2,240.1,140615,6.2,"
"##MN-00 00 52 0545 01766 5811 447446 205125 193"
"165.095394"
"$GPRMC,021716,A,2433.0263,N,08053.4032,W,2.3,240.5,140615,6.2,"
"##MN-00 00 54 0546 01765 5811 447467 205128 193"
"165.09544"
"$GPRMC,021720,A,2433.0252,N,08053.4057,W,2.3,240.8,140615,6.2,"
"##MN-00 00 54 0547 01770 5811 447482 205130 192"
"165.095486"
"$GPRMC,021724,A,2433.0241,N,08053.4082,W,2.3,240.8,140615,6.2,"
"##MN-00 00 54 0548 01772 5812 447505 205129 192"
"165.095532"
"$GPRMC,021728,A,2433.0227,N,08053.4107,W,2.3,240.2,140615,6.2,"
"##MN-00 00 54 0549 01776 5812 447496 205127 192"
"165.095579"
"$GPRMC,021732,A,2433.0212,N,08053.4130,W,2.3,239.7,140615,6.2,"
"##MN-00 00 53 0549 01779 5813 447496 205127 192"
"165.095625"
"$GPRMC,021736,A,2433.0199,N,08053.4152,W,2.3,238.7,140615,6.2,"
"##MN-00 00 51 0550 01780 5814 447585 205142 193"
"165.095671"
"$GPRMC,021740,A,2433.0186,N,08053.4176,W,2.3,238.5,140615,6.2,"
"##MN-00 00 52 0551 01780 5814 447667 205155 192"
"165.095718"
"$GPRMC,021744,A,2433.0175,N,08053.4194,W,2.3,238.5,140615,6.2,"
"##MN-00 00 54 0552 01786 5814 447717 205154 192"
"165.095764"
"$GPRMC,021748,A,2433.0157,N,08053.4224,W,2.3,237.9,140615,6.2,"
"##MN-00 00 55 0553 01787 5815 447757 205158 193"
"165.09581"
"$GPRMC,021752,A,2433.0143,N,08053.4248,W,2.3,237.2,140615,6.2,"
"##MN-00 00 54 0554 01791 5815 447798 205171 192"
"165.095856"
"$GPRMC,021756,A,2433.0133,N,08053.4266,W,2.3,236.6,140615,6.2,"
"##MN-00 00 54 0555 01794 5816 447868 205184 192"
"165.095903"
"$GPRMC,021800,A,2433.0117,N,08053.4295,W,2.2,235.9,140615,6.2,"
"##MN-00 00 54 0555 01797 5816 447898 205187 193"
"165.095949"
"$GPRMC,021804,A,2433.0105,N,08053.4321,W,2.2,235.3,140615,6.2,"
"##MN-00 00 54 0556 01804 5817 447921 205186 192"
"165.095995"
"$GPRMC,021808,A,2433.0092,N,08053.4343,W,2.2,235.6,140615,6.2,"
"##MN-00 00 54 0557 01802 5817 447954 205188 192"
"165.096042"
"$GPRMC,021812,A,2433.0078,N,08053.4366,W,2.2,235.6,140615,6.2,"
"##MN-00 00 54 0558 01802 5817 447999 205208 192"
"165.096088"
"$GPRMC,021816,A,2433.0061,N,08053.4389,W,2.2,235.6,140615,6.2,"
"##MN-00 00 54 0559 01807 5818 448032 205214 192"
"165.096134"
"$GPRMC,021820,A,2433.0045,N,08053.4415,W,2.3,235.8,140615,6.2,"
"##MN-00 00 53 0560 01810 5818 448053 205218 193"
"165.096181"
"$GPRMC,021824,A,2433.0032,N,08053.4436,W,2.3,235.8,140615,6.2,"
"##MN-00 00 55 0561 01812 5819 448081 205222 192"
"165.096227"
"$GPRMC,021828,A,2433.0017,N,08053.4460,W,2.2,235.5,140615,6.2,"
"##MN-00 00 54 0562 01814 5819 448113 205225 193"
"165.096273"
"$GPRMC,021832,A,2433.0002,N,08053.4483,W,2.2,235.6,140615,6.2,"
"##MN-00 00 53 0562 01815 5819 448136 205225 192"
"165.096319"
"$GPRMC,021836,A,2432.9987,N,08053.4501,W,2.2,235.3,140615,6.2,"
"##MN-00 00 55 0563 01818 5820 448146 205228 192"
"165.096366"
"$GPRMC,021840,A,2432.9973,N,08053.4521,W,2.2,234.6,140615,6.2,"
"##MN-00 00 54 0564 01825 5821 448182 205230 193"
"165.096412"
"$GPRMC,021844,A,2432.9959,N,08053.4542,W,2.2,234.0,140615,6.2,"
"##MN-00 00 54 0565 01826 5821 448195 205228 192"
"165.096458"
"$GPRMC,021848,A,2432.9944,N,08053.4563,W,2.2,233.0,140615,6.2,"
"##MN-00 00 55 0566 01829 5821 448215 205228 192"
"165.096505"
"$GPRMC,021852,A,2432.9931,N,08053.4582,W,2.2,233.7,140615,6.2,"
"##MN-00 00 55 0567 01832 5821 448257 205229 192"
"165.096551"
"$GPRMC,021856,A,2432.9919,N,08053.4603,W,2.2,234.0,140615,6.2,"
"##MN-00 00 55 0567 01837 5822 448296 205230 192"
"165.096597"
"$GPRMC,021900,A,2432.9903,N,08053.4622,W,2.1,234.1,140615,6.2,"
"##MN-00 00 54 0568 01841 5823 448331 205228 193"
"165.096644"
"$GPRMC,021905,A,2432.9885,N,08053.4649,W,2.1,234.1,140615,6.2,"
"##MN-00 00 53 0569 01842 5823 448347 205227 192"
"165.09669"
"$GPRMC,021909,A,2432.9870,N,08053.4671,W,2.2,234.0,140615,6.2,"
"##MN-00 00 58 0570 01844 5823 448361 205227 192"
"165.096736"
"$GPRMC,021913,A,2432.9856,N,08053.4693,W,2.1,233.4,140615,6.2,"
"##MN-00 00 54 0571 01848 5823 448383 205227 192"
"165.096782"
"$GPRMC,021917,A,2432.9843,N,08053.4715,W,2.2,234.2,140615,6.2,"
"##MN-00 00 52 0572 01849 5824 448400 205229 192"
"165.096829"
"$GPRMC,021921,A,2432.9827,N,08053.4736,W,2.2,234.3,140615,6.2,"
"##MN-00 00 56 0573 01854 5824 448416 205229 192"
"165.096875"
"$GPRMC,021925,A,2432.9814,N,08053.4756,W,2.1,234.9,140615,6.2,"
"##MN-00 00 54 0574 01859 5825 448462 205231 192"
"165.096921"
"$GPRMC,021929,A,2432.9800,N,08053.4777,W,2.1,235.0,140615,6.2,"
"##MN-00 00 53 0574 01860 5825 448514 205234 192"
"165.096968"
"$GPRMC,021933,A,2432.9787,N,08053.4799,W,2.1,234.3,140615,6.2,"
"##MN-00 00 54 0575 01862 5825 448564 205236 192"
"165.097014"
"$GPRMC,021937,A,2432.9773,N,08053.4819,W,2.1,234.9,140615,6.2,"
"##MN-00 00 54 0576 01865 5826 448619 205249 192"
"165.09706"
"$GPRMC,021941,A,2432.9760,N,08053.4838,W,2.1,235.0,140615,6.2,"
"##MN-00 00 54 0577 01871 5826 448673 205252 192"
"165.097106"
"$GPRMC,021945,A,2432.9746,N,08053.4859,W,2.1,235.3,140615,6.2,"
"##MN-00 00 54 0578 01870 5827 448717 205260 192"
"165.097153"
"$GPRMC,021949,A,2432.9731,N,08053.4877,W,2.1,235.1,140615,6.2,"
"##MN-00 00 54 0579 01874 5827 448773 205274 192"
"165.097199"
"$GPRMC,021953,A,2432.9716,N,08053.4897,W,2.1,235.2,140615,6.2,"
"##MN-00 00 53 0580 01877 5827 448805 205278 192"
"165.097257"
"$GPRMC,021957,A,2432.9700,N,08053.4917,W,2.1,235.0,140615,6.2,"
"##MN-00 00 56 0581 01879 5828 448814 205280 192"
"165.097303"
"$GPRMC,022001,A,2432.9688,N,08053.4939,W,2.1,234.8,140615,6.2,"
"##MN-00 00 54 0581 01885 5828 448850 205293 192"
"165.09735"
"$GPRMC,022005,A,2432.9675,N,08053.4960,W,2.1,234.7,140615,6.2,"
"##MN-00 00 53 0582 01886 5828 448930 205306 192"
"165.097396"
"$GPRMC,022009,A,2432.9661,N,08053.4983,W,2.2,235.0,140615,6.2,"
"##MN-00 00 55 0583 01887 5829 449023 205333 192"
"165.097442"
"$GPRMC,022013,A,2432.9648,N,08053.5005,W,2.1,235.3,140615,6.2,"
"##MN-00 00 53 0584 01892 5829 449170 205360 192"
"165.097488"
"$GPRMC,022017,A,2432.9635,N,08053.5029,W,2.2,235.8,140615,6.2,"
"##MN-00 00 54 0585 01888 5830 449288 205372 192"
"165.097535"
"$GPRMC,022021,A,2432.9620,N,08053.5051,W,2.2,236.0,140615,6.2,"
"##MN-00 00 54 0586 01891 5830 449338 205387 192"
"165.097581"
"$GPRMC,022025,A,2432.9608,N,08053.5072,W,2.2,235.8,140615,6.2,"
"##MN-00 00 54 0587 01893 5830 449450 205403 192"
"165.097627"
"$GPRMC,022029,A,2432.9594,N,08053.5095,W,2.2,235.7,140615,6.2,"
"##MN-00 00 54 0588 01897 5830 449513 205424 192"
"165.097674"
"$GPRMC,022033,A,2432.9580,N,08053.5116,W,2.2,235.7,140615,6.2,"
"##MN-00 00 53 0588 01900 5831 449583 205433 192"
"165.09772"
"$GPRMC,022037,A,2432.9566,N,08053.5138,W,2.2,235.6,140615,6.2,"
"##MN-00 00 54 0589 01900 5831 449647 205450 192"
"165.097766"
"$GPRMC,022041,A,2432.9554,N,08053.5160,W,2.2,235.2,140615,6.2,"
"##MN-00 00 54 0590 01904 5832 449674 205458 192"
"165.097813"
"$GPRMC,022045,A,2432.9539,N,08053.5181,W,2.1,235.1,140615,6.2,"
"##MN-00 00 54 0591 01904 5832 449700 205467 192"
"165.097859"
"$GPRMC,022049,A,2432.9525,N,08053.5203,W,2.2,234.6,140615,6.2,"
"##MN-00 00 55 0592 01905 5832 449727 205476 192"
"165.097905"
"$GPRMC,022053,A,2432.9511,N,08053.5225,W,2.2,234.3,140615,6.2,"
"##MN-00 00 55 0593 01908 5832 449746 205482 192"
"165.097951"
"$GPRMC,022057,A,2432.9498,N,08053.5246,W,2.1,233.3,140615,6.2,"
"##MN-00 00 54 0594 01915 5833 449777 205485 192"
"165.097998"
"$GPRMC,022101,A,2432.9484,N,08053.5267,W,2.1,232.6,140615,6.2,"
"##MN-00 00 53 0595 01915 5833 449815 205495 192"
"165.098044"
"$GPRMC,022105,A,2432.9469,N,08053.5286,W,2.1,232.5,140615,6.2,"
"##MN-00 00 52 0595 01919 5833 449846 205501 192"
"165.09809"
"$GPRMC,022109,A,2432.9456,N,08053.5305,W,2.1,232.2,140615,6.2,"
"##MN-00 00 54 0596 01921 5834 449884 205507 192"
"165.098137"
"$GPRMC,022113,A,2432.9442,N,08053.5325,W,2.1,231.4,140615,6.2,"
"##MN-00 00 52 0597 01924 5834 449922 205517 192"
"165.098183"
"$GPRMC,022117,A,2432.9426,N,08053.5345,W,2.1,231.7,140615,6.2,"
"##MN-00 00 54 0598 01923 5834 449972 205526 192"
"165.098229"
"$GPRMC,022121,A,2432.9410,N,08053.5366,W,2.1,231.7,140615,6.2,"
"##MN-00 00 55 0599 01930 5835 450013 205535 192"
"165.098275"
"$GPRMC,022125,A,2432.9397,N,08053.5387,W,2.1,232.2,140615,6.2,"
"##MN-00 00 52 0600 01929 5835 450014 205538 192"
"165.098322"
"$GPRMC,022129,A,2432.9384,N,08053.5408,W,2.1,232.7,140615,6.2,"
"##MN-00 00 55 0601 01933 5835 450014 205538 192"
"165.098368"
"$GPRMC,022133,A,2432.9367,N,08053.5426,W,2.1,233.0,140615,6.2,"
"##MN-00 00 54 0602 01937 5836 450057 205540 192"
"165.098414"
"$GPRMC,022137,A,2432.9352,N,08053.5444,W,2.2,233.5,140615,6.2,"
"##MN-00 00 53 0603 01940 5836 450103 205550 192"
"165.098461"
"$GPRMC,022141,A,2432.9341,N,08053.5464,W,2.2,234.9,140615,6.2,"
"##MN-00 00 53 0603 01940 5836 450162 205563 192"
"165.098507"
"$GPRMC,022145,A,2432.9328,N,08053.5486,W,2.2,236.5,140615,6.2,"
"##MN-00 00 54 0604 01943 5837 450235 205575 192"
"165.098553"
"$GPRMC,022149,A,2432.9314,N,08053.5510,W,2.2,237.6,140615,6.2,"
"##MN-00 00 52 0605 01944 5837 450316 205599 192"
"165.0986"
"$GPRMC,022153,A,2432.9301,N,08053.5535,W,2.2,238.7,140615,6.2,"
"##MN-00 00 54 0606 01944 5837 450430 205618 192"
"165.098646"
"$GPRMC,022157,A,2432.9288,N,08053.5556,W,2.2,239.0,140615,6.2,"
"##MN-00 00 55 0607 01949 5837 450506 205627 192"
"165.098692"
"$GPRMC,022201,A,2432.9274,N,08053.5578,W,2.2,238.0,140615,6.2,"
"##MN-00 00 53 0608 01951 5838 450572 205642 192"
"165.098738"
"$GPRMC,022205,A,2432.9262,N,08053.5598,W,2.2,237.6,140615,6.2,"
"##MN-00 00 55 0609 01951 5838 450612 205646 192"
"165.098785"
"$GPRMC,022209,A,2432.9249,N,08053.5621,W,2.2,236.9,140615,6.2,"
"##MN-00 00 55 0610 01954 5838 450650 205663 192"
"165.098831"
"$GPRMC,022213,A,2432.9236,N,08053.5641,W,2.1,236.0,140615,6.2,"
"##MN-00 00 53 0611 01958 5838 450692 205678 192"
"165.098877"
"$GPRMC,022217,A,2432.9222,N,08053.5662,W,2.1,234.5,140615,6.2,"
"##MN-00 00 54 0612 01960 5838 450739 205693 192"
"165.098924"
"$GPRMC,022221,A,2432.9208,N,08053.5683,W,2.1,233.5,140615,6.2,"
"##MN-00 00 55 0613 01966 5839 450796 205698 192"
"165.09897"
"$GPRMC,022225,A,2432.9194,N,08053.5704,W,2.1,234.0,140615,6.2,"
"##MN-00 00 54 0614 01967 5839 451043 205721 192"
"165.099016"
"$GPRMC,022229,A,2432.9180,N,08053.5723,W,2.1,233.7,140615,6.2,"
"##MN-00 00 55 0615 01971 5839 451248 205736 192"
"165.099063"
"$GPRMC,022233,A,2432.9167,N,08053.5744,W,2.1,234.1,140615,6.2,"
"##MN-00 00 54 0615 01976 5839 451532 205842 192"
"165.099109"
"$GPRMC,022237,A,2432.9153,N,08053.5766,W,2.1,234.0,140615,6.2,"
"##MN-00 00 54 0616 01979 5840 452211 206037 192"
"165.099155"
"$GPRMC,022241,A,2432.9139,N,08053.5784,W,2.1,234.6,140615,6.2,"
"##MN-00 00 54 0617 01985 5840 453335 206240 192"
"165.099201"
"$GPRMC,022245,A,2432.9126,N,08053.5806,W,2.1,234.3,140615,6.2,"
"##MN-00 00 51 0618 01984 5840 454642 206421 192"
"165.099248"
"$GPRMC,022249,A,2432.9110,N,08053.5827,W,2.2,233.6,140615,6.2,"
"##MN-00 00 55 0619 01988 5840 454953 206608 192"
"165.099294"
"$GPRMC,022253,A,2432.9096,N,08053.5849,W,2.1,233.3,140615,6.2,"
"##MN-00 00 52 0620 01995 5840 455644 206731 192"
"165.09934"
"$GPRMC,022257,A,2432.9082,N,08053.5871,W,2.2,233.0,140615,6.2,"
"##MN-00 00 52 0621 01997 5841 456886 207012 192"
"165.099387"
"$GPRMC,022301,A,2432.9067,N,08053.5892,W,2.2,233.2,140615,6.2,"
"##MN-00 00 52 0622 02000 5841 457825 207140 192"
"165.099433"
"$GPRMC,022305,A,2432.9052,N,08053.5912,W,2.2,233.6,140615,6.2,"
"##MN-00 00 55 0623 02003 5841 458433 207309 192"
"165.099479"
"$GPRMC,022309,A,2432.9038,N,08053.5933,W,2.2,232.9,140615,6.2,"
"##MN-00 00 53 0623 02010 5842 458964 207420 192"
"165.099525"
"$GPRMC,022313,A,2432.9024,N,08053.5954,W,2.2,232.6,140615,6.2,"
"##MN-00 00 52 0624 02013 5841 459362 207510 192"
"165.099572"
"$GPRMC,022317,A,2432.9008,N,08053.5976,W,2.2,231.8,140615,6.2,"
"##MN-00 00 54 0625 02016 5842 459610 207564 192"
"165.099618"
"$GPRMC,022321,A,2432.8995,N,08053.5997,W,2.1,232.5,140615,6.2,"
"##MN-00 00 54 0626 02021 5842 460039 207656 192"
"165.099664"
"$GPRMC,022325,A,2432.8980,N,08053.6019,W,2.2,232.9,140615,6.2,"
"##MN-00 00 54 0627 02025 5842 460452 207786 192"
"165.099711"
"$GPRMC,022329,A,2432.8966,N,08053.6040,W,2.1,233.2,140615,6.2,"
"##MN-00 00 52 0628 02032 5842 461076 207927 192"
"165.099757"
"$GPRMC,022333,A,2432.8954,N,08053.6059,W,2.1,233.9,140615,6.2,"
"##MN-00 00 52 0628 02036 5842 461607 207971 192"
"165.099803"
"$GPRMC,022337,A,2432.8937,N,08053.6081,W,2.1,233.2,140615,6.2,"
"##MN-00 00 53 0629 02043 5842 462033 208091 192"
"165.09985"
"$GPRMC,022342,A,2432.8922,N,08053.6106,W,2.1,232.0,140615,6.2,"
"##MN-00 00 54 0630 02051 5842 462389 208155 192"
"165.099896"
"$GPRMC,022346,A,2432.8911,N,08053.6127,W,2.1,230.8,140615,6.2,"
"##MN-00 00 54 0631 02061 5842 462970 208264 192"
"165.099942"
"$GPRMC,022350,A,2432.8894,N,08053.6146,W,2.1,230.8,140615,6.2,"
"##MN-00 00 52 0631 02066 5842 465305 208836 192"
"165.099988"
"$GPRMC,022354,A,2432.8878,N,08053.6167,W,2.2,229.7,140615,6.2,"
"##MN-00 00 53 0632 02069 5842 466847 209071 192"
"165.100035"
"$GPRMC,022358,A,2432.8860,N,08053.6186,W,2.2,229.1,140615,6.2,"
"##MN-00 00 53 0633 02078 5842 468003 209428 192"
"165.100081"
"$GPRMC,022402,A,2432.8846,N,08053.6206,W,2.2,227.9,140615,6.2,"
"##MN-00 00 52 0633 02087 5842 469063 209436 192"
"165.100127"
"$GPRMC,022406,A,2432.8831,N,08053.6225,W,2.2,227.3,140615,6.2,"
"##MN-00 00 52 0634 02090 5841 470817 210007 192"
"165.100174"
"$GPRMC,022410,A,2432.8815,N,08053.6246,W,2.2,227.4,140615,6.2,"
"##MN-00 00 53 0635 02096 5841 471847 210116 192"
"165.10022"
"$GPRMC,022414,A,2432.8799,N,08053.6265,W,2.2,227.4,140615,6.2,"
"##MN-00 00 52 0636 02100 5841 472447 210140 192"
"165.100266"
"$GPRMC,022418,A,2432.8782,N,08053.6286,W,2.2,227.4,140615,6.2,"
"##MN-00 00 51 0636 02106 5841 472994 210240 192"
"165.100313"
"$GPRMC,022422,A,2432.8766,N,08053.6304,W,2.2,227.1,140615,6.2,"
"##MN-00 00 52 0637 02110 5840 473712 210486 192"
"165.100359"
"$GPRMC,022426,A,2432.8749,N,08053.6324,W,2.2,226.2,140615,6.2,"
"##MN-00 00 51 0638 02114 5840 475589 210921 192"
"165.100405"
"$GPRMC,022430,A,2432.8732,N,08053.6342,W,2.2,227.8,140615,6.2,"
"##MN-00 00 51 0638 02117 5840 476979 211174 192"
"165.100451"
"$GPRMC,022434,A,2432.8714,N,08053.6362,W,2.2,227.5,140615,6.2,"
"##MN-00 00 52 0639 02118 5839 478583 211449 192"
"165.100509"
"$GPRMC,022438,A,2432.8698,N,08053.6381,W,2.2,227.7,140615,6.2,"
"##MN-00 00 52 0640 02125 5839 480150 211759 192"
"165.100556"
"$GPRMC,022442,A,2432.8683,N,08053.6402,W,2.1,228.3,140615,6.2,"
"##MN-00 00 51 0640 02127 5839 481764 211974 192"
"165.100602"
"$GPRMC,022446,A,2432.8666,N,08053.6423,W,2.2,227.9,140615,6.2,"
"##MN-00 00 51 0641 02130 5838 482333 212129 192"
"165.100648"
"$GPRMC,022450,A,2432.8651,N,08053.6443,W,2.2,230.0,140615,6.2,"
"##MN-00 00 51 0642 02133 5838 482803 212233 192"
"165.100694"
"$GPRMC,022454,A,2432.8635,N,08053.6463,W,2.3,230.6,140615,6.2,"
"##MN-00 00 51 0643 02136 5837 482974 212260 192"
"165.100741"
"$GPRMC,022458,A,2432.8619,N,08053.6485,W,2.3,230.6,140615,6.2,"
"##MN-00 00 50 0644 02137 5837 483266 212357 192"
"165.100787"
"$GPRMC,022502,A,2432.8604,N,08053.6507,W,2.2,231.1,140615,6.2,"
"##MN-00 00 51 0644 02140 5836 484011 212525 192"
"165.100833"
"$GPRMC,022506,A,2432.8588,N,08053.6526,W,2.2,231.4,140615,6.2,"
"##MN-00 00 50 0645 02144 5835 485282 212822 192"
"165.10088"
"$GPRMC,022510,A,2432.8572,N,08053.6546,W,2.2,230.6,140615,6.2,"
"##MN-00 00 50 0646 02146 5835 486358 213000 192"
"165.100926"
"$GPRMC,022514,A,2432.8554,N,08053.6565,W,2.2,229.7,140615,6.2,"
"##MN-00 00 52 0646 02147 5834 486829 213104 192"
"165.100972"
"$GPRMC,022518,A,2432.8539,N,08053.6584,W,2.2,229.2,140615,6.2,"
"##MN-00 00 49 0647 02150 5833 487035 213173 192"
"165.101019"
"$GPRMC,022522,A,2432.8522,N,08053.6604,W,2.2,228.6,140615,6.2,"
"##MN-00 00 51 0648 02150 5832 487553 213281 192"
"165.101065"
"$GPRMC,022526,A,2432.8506,N,08053.6624,W,2.2,228.0,140615,6.2,"
"##MN-00 00 50 0649 02160 5831 488102 213434 192"
"165.101111"
"$GPRMC,022530,A,2432.8490,N,08053.6642,W,2.1,227.8,140615,6.2,"
"##MN-00 00 50 0649 02163 5830 489164 213644 192"
"165.101157"
"$GPRMC,022534,A,2432.8472,N,08053.6663,W,2.2,228.7,140615,6.2,"
"##MN-00 00 51 0650 02161 5830 489800 213809 192"
"165.101204"
"$GPRMC,022538,A,2432.8457,N,08053.6681,W,2.2,227.5,140615,6.2,"
"##MN-00 00 50 0651 02167 5828 490137 213869 192"
"165.10125"
"$GPRMC,022542,A,2432.8441,N,08053.6698,W,2.2,227.8,140615,6.2,"
"##MN-00 00 51 0652 02171 5827 490589 213941 192"
"165.101296"
"$GPRMC,022546,A,2432.8427,N,08053.6716,W,2.1,226.4,140615,6.2,"
"##MN-00 00 51 0652 02176 5826 491099 214034 192"
"165.101343"
"$GPRMC,022550,A,2432.8410,N,08053.6732,W,2.1,227.1,140615,6.2,"
"##MN-00 00 51 0653 02178 5825 491431 214086 192"
"165.101389"
"$GPRMC,022554,A,2432.8395,N,08053.6752,W,2.1,228.1,140615,6.2,"
"##MN-00 00 51 0654 02178 5823 492333 214307 192"
"165.101435"
"$GPRMC,022558,A,2432.8381,N,08053.6772,W,2.1,228.9,140615,6.2,"
"##MN-00 00 50 0654 02183 5822 493881 214601 192"
"165.101481"
"$GPRMC,022602,A,2432.8365,N,08053.6789,W,2.1,229.7,140615,6.2,"
"##MN-00 00 51 0655 02187 5821 494750 214845 192"
"165.101528"
"$GPRMC,022606,A,2432.8349,N,08053.6808,W,2.2,230.3,140615,6.2,"
"##MN-00 00 50 0656 02188 5819 495060 214879 192"
"165.101574"
"$GPRMC,022610,A,2432.8333,N,08053.6826,W,2.2,230.8,140615,6.2,"
"##MN-00 00 50 0657 02191 5818 495132 214812 192"
"165.10162"
"$GPRMC,022614,A,2432.8317,N,08053.6846,W,2.1,231.8,140615,6.2,"
"##MN-00 00 51 0657 02192 5817 495315 214836 192"
"165.101667"
"$GPRMC,022618,A,2432.8301,N,08053.6868,W,2.2,232.1,140615,6.2,"
"##MN-00 00 49 0658 02193 5816 495544 214994 192"
"165.101713"
"$GPRMC,022622,A,2432.8286,N,08053.6889,W,2.2,231.8,140615,6.2,"
"##MN-00 00 50 0659 02192 5814 495659 214999 192"
"165.101759"
"$GPRMC,022626,A,2432.8270,N,08053.6911,W,2.2,231.7,140615,6.2,"
"##MN-00 00 50 0660 02194 5812 495793 215051 192"
"165.101806"
"$GPRMC,022630,A,2432.8254,N,08053.6930,W,2.2,231.0,140615,6.2,"
"##MN-00 00 51 0660 02199 5811 496305 215171 192"
"165.101852"
"$GPRMC,022634,A,2432.8239,N,08053.6951,W,2.1,230.8,140615,6.2,"
"##MN-00 00 50 0661 02201 5809 497627 215525 192"
"165.101898"
"$GPRMC,022638,A,2432.8223,N,08053.6970,W,2.2,230.2,140615,6.2,"
"##MN-00 00 51 0662 02204 5808 498764 215691 192"
"165.101944"
"$GPRMC,022642,A,2432.8208,N,08053.6991,W,2.1,230.3,140615,6.2,"
"##MN-00 00 49 0663 02207 5806 499460 215905 192"
"165.101991"
"$GPRMC,022646,A,2432.8193,N,08053.7010,W,2.2,230.4,140615,6.2,"
"##MN-00 00 49 0663 02208 5805 500114 216035 192"
"165.102037"
"$GPRMC,022650,A,2432.8178,N,08053.7031,W,2.2,230.8,140615,6.2,"
"##MN-00 00 50 0664 02209 5802 500210 216008 192"
"165.102083"
"$GPRMC,022654,A,2432.8163,N,08053.7052,W,2.1,231.1,140615,6.2,"
"##MN-00 00 51 0665 02212 5801 500274 216021 192"
"165.10213"
"$GPRMC,022658,A,2432.8147,N,08053.7071,W,2.2,230.4,140615,6.2,"
"##MN-00 00 52 0666 02212 5799 500431 216104 192"
"165.102176"
"$GPRMC,022702,A,2432.8131,N,08053.7092,W,2.1,230.0,140615,6.2,"
"##MN-00 00 51 0666 02216 5798 500595 216150 192"
"165.102222"
"$GPRMC,022706,A,2432.8116,N,08053.7110,W,2.1,229.4,140615,6.2,"
"##MN-00 00 50 0667 02219 5796 500713 216154 192"
"165.102269"
"$GPRMC,022710,A,2432.8098,N,08053.7128,W,2.2,228.2,140615,6.2,"
"##MN-00 00 50 0668 02222 5794 500802 216186 192"
"165.102315"
"$GPRMC,022714,A,2432.8082,N,08053.7147,W,2.2,227.5,140615,6.2,"
"##MN-00 00 49 0669 02224 5792 500866 216197 192"
"165.102361"
"$GPRMC,022718,A,2432.8065,N,08053.7164,W,2.2,226.6,140615,6.2,"
"##MN-00 00 50 0669 02226 5790 500968 216228 192"
"165.102407"
"$GPRMC,022722,A,2432.8049,N,08053.7182,W,2.1,227.0,140615,6.2,"
"##MN-00 00 51 0670 02231 5788 501149 216236 192"
"165.102454"
"$GPRMC,022726,A,2432.8034,N,08053.7197,W,2.1,227.5,140615,6.2,"
"##MN-00 00 51 0671 02232 5786 501582 216349 192"
"165.1025"
"$GPRMC,022730,A,2432.8016,N,08053.7215,W,2.1,227.3,140615,6.2,"
"##MN-00 00 51 0672 02238 5784 502796 216757 192"
"165.102546"
"$GPRMC,022734,A,2432.8001,N,08053.7233,W,2.1,227.2,140615,6.2,"
"##MN-00 00 50 0673 02241 5782 503859 216855 192"
"165.102593"
"$GPRMC,022738,A,2432.7987,N,08053.7252,W,2.1,227.3,140615,6.2,"
"##MN-00 00 51 0673 02247 5780 505034 217095 192"
"165.102639"
"$GPRMC,022742,A,2432.7973,N,08053.7270,W,2.1,227.3,140615,6.2,"
"##MN-00 00 51 0674 02248 5778 505862 217234 192"
"165.102685"
"$GPRMC,022746,A,2432.7957,N,08053.7288,W,2.1,227.1,140615,6.2,"
"##MN-00 00 50 0675 02254 5776 506196 217298 192"
"165.102731"
"$GPRMC,022750,A,2432.7943,N,08053.7308,W,2.1,227.6,140615,6.2,"
"##MN-00 00 52 0675 02257 5773 506316 217323 192"
"165.102778"
"$GPRMC,022754,A,2432.7928,N,08053.7327,W,2.0,229.0,140615,6.2,"
"##MN-00 00 50 0676 02262 5771 506397 217337 192"
"165.102824"
"$GPRMC,022758,A,2432.7912,N,08053.7349,W,2.1,230.9,140615,6.2,"
"##MN+00 00 50 0677 02267 5769 506445 217330 192"
"165.10287"
"$GPRMC,022803,A,2432.7894,N,08053.7377,W,2.2,232.0,140615,6.2,"
"##MN+00 00 49 0677 02269 5767 506490 217328 192"
"165.102917"
"$GPRMC,022807,A,2432.7881,N,08053.7400,W,2.2,233.1,140615,6.2,"
"##MN+00 00 48 0678 02270 5765 506743 217392 192"
"165.102963"
"$GPRMC,022811,A,2432.7867,N,08053.7424,W,2.2,233.2,140615,6.2,"
"##MN-00 00 50 0679 02274 5763 507228 217519 192"
"165.103009"
"$GPRMC,022814,A,2432.7856,N,08053.7439,W,2.2,233.7,140615,6.2,"
"##MN-00 00 48 0679 02273 5760 507887 217606 192"
"165.103056"
"$GPRMC,022819,A,2432.7838,N,08053.7465,W,2.2,233.6,140615,6.2,"
"##MN+00 00 51 0680 02274 5758 508192 217698 192"
"165.103102"
"$GPRMC,022822,A,2432.7828,N,08053.7482,W,2.2,233.4,140615,6.2,"
"##MN+00 00 49 0681 02278 5756 508464 217725 192"
"165.103148"
"$GPRMC,022826,A,2432.7813,N,08053.7504,W,2.1,232.4,140615,6.2,"
"##MN+00 00 56 0682 02283 5753 508669 217769 192"
"165.103194"
"#increment_net"
"$GPRMC,022831,A,2432.7793,N,08053.7529,W,2.2,232.7,140615,6.2,"
"##MN-00 00 54 0682 02286 5751 508854 217798 192"
"165.103241"
"$GPRMC,022835,A,2432.7780,N,08053.7551,W,2.1,231.5,140615,6.2,"
"##MN-00 00 50 0683 02286 5748 509075 217828 192"
"165.103287"
"$GPRMC,022839,A,2432.7764,N,08053.7570,W,2.1,231.9,140615,6.2,"
"##MN-00 00 49 0684 02284 5746 509385 217919 192"
"165.103333"
"$GPRMC,022843,A,2432.7749,N,08053.7592,W,2.2,232.6,140615,6.2,"
"##MN-00 00 49 0685 02281 5743 509521 217940 192"
"165.10338"
"$GPRMC,022847,A,2432.7737,N,08053.7612,W,2.1,231.8,140615,6.2,"
"##MN-00 00 46 0686 02282 5741 509303 217919 192"
"165.103426"
"$GPRMC,022851,A,2432.7721,N,08053.7631,W,2.1,230.8,140615,6.2,"
"##MN-00 00 48 0686 02279 5738 509315 217916 192"
"165.103472"
"$GPRMC,022855,A,2432.7704,N,08053.7650,W,2.2,230.0,140615,6.2,"
"##MN-00 00 49 0687 02277 5736 509273 217907 192"
"165.103519"
"$GPRMC,022859,A,2432.7690,N,08053.7670,W,2.1,230.0,140615,6.2,"
"##MN-00 00 47 0688 02277 5733 509228 217890 192"
"165.103565"
"$GPRMC,022903,A,2432.7675,N,08053.7689,W,2.2,228.4,140615,6.2,"
"##MN-00 00 47 0689 02277 5731 509143 217887 192"
"165.103611"
"$GPRMC,022907,A,2432.7658,N,08053.7704,W,2.1,227.8,140615,6.2,"
"##MN-00 00 46 0690 02276 5728 509080 217878 192"
"165.103657"
"$GPRMC,022911,A,2432.7643,N,08053.7721,W,2.1,226.5,140615,6.2,"
"##MN-00 00 48 0691 02273 5725 508903 217841 192"
"165.103704"
"$GPRMC,022915,A,2432.7627,N,08053.7739,W,2.1,225.9,140615,6.2,"
"##MN-00 00 47 0691 02273 5723 508730 217819 192"
"165.103762"
"$GPRMC,022919,A,2432.7612,N,08053.7757,W,2.1,226.6,140615,6.2,"
"##MN-00 00 47 0692 02272 5720 508556 217781 192"
"165.103808"
"$GPRMC,022923,A,2432.7596,N,08053.7776,W,2.1,226.4,140615,6.2,"
"##MN-00 00 46 0693 02271 5718 508247 217727 192"
"165.103854"
"$GPRMC,022927,A,2432.7581,N,08053.7796,W,2.1,228.1,140615,6.2,"
"##MN-00 00 45 0694 02269 5715 507959 217678 192"
"165.1039"
"$GPRMC,022931,A,2432.7564,N,08053.7822,W,2.1,229.6,140615,6.2,"
"##MN-00 00 48 0695 02262 5712 507406 217555 192"
"165.103947"
"$GPRMC,022935,A,2432.7549,N,08053.7843,W,2.1,231.1,140615,6.2,"
"##MN-00 00 48 0696 02261 5710 507056 217498 192"
"165.103993"
"$GPRMC,022939,A,2432.7535,N,08053.7866,W,2.1,232.6,140615,6.2,"
"##MN-00 00 47 0697 02258 5707 506900 217492 192"
"165.104039"
"$GPRMC,022943,A,2432.7524,N,08053.7887,W,2.1,233.0,140615,6.2,"
"##MN-00 00 46 0698 02259 5704 506852 217470 192"
"165.104086"
"$GPRMC,022947,A,2432.7513,N,08053.7905,W,2.1,233.6,140615,6.2,"
"##MN-00 00 45 0698 02255 5702 506845 217465 192"
"165.104132"
"$GPRMC,022951,A,2432.7497,N,08053.7926,W,2.1,233.0,140615,6.2,"
"##MN-00 00 46 0699 02249 5699 506837 217466 192"
"165.104178"
"$GPRMC,022955,A,2432.7481,N,08053.7946,W,2.1,232.7,140615,6.2,"
"##MN-00 00 48 0700 02244 5696 506791 217462 192"
"165.104225"
"$GPRMC,022959,A,2432.7468,N,08053.7966,W,2.1,232.7,140615,6.2,"
"##MN-00 00 47 0701 02243 5693 506660 217460 192"
"165.104271"
"$GPRMC,023003,A,2432.7451,N,08053.7988,W,2.1,232.4,140615,6.2,"
"##MN-00 00 46 0702 02239 5690 506501 217424 192"
"165.104317"
"$GPRMC,023007,A,2432.7439,N,08053.8007,W,2.1,232.5,140615,6.2,"
"##MN-00 00 46 0703 02236 5687 506352 217389 192"
"165.104363"
"$GPRMC,023011,A,2432.7426,N,08053.8027,W,2.1,231.8,140615,6.2,"
"##MN-00 00 45 0704 02232 5685 506247 217341 192"
"165.10441"
"$GPRMC,023015,A,2432.7409,N,08053.8049,W,2.2,231.7,140615,6.2,"
"##MN-00 00 46 0705 02225 5682 505825 217267 192"
"165.104456"
"$GPRMC,023019,A,2432.7395,N,08053.8068,W,2.1,232.8,140615,6.2,"
"##MN-00 00 46 0706 02224 5680 504553 216956 192"
"165.104502"
"$GPRMC,023023,A,2432.7383,N,08053.8087,W,2.2,232.5,140615,6.2,"
"##MN-00 00 47 0707 02217 5677 502817 216639 192"
"165.104549"
"$GPRMC,023027,A,2432.7369,N,08053.8104,W,2.1,231.7,140615,6.2,"
"##MN-00 00 47 0707 02211 5674 501728 216478 192"
"165.104595"
"$GPRMC,023031,A,2432.7355,N,08053.8123,W,2.1,230.2,140615,6.2,"
"##MN-00 00 51 0708 02206 5671 500837 216367 192"
"165.104641"
"$GPRMC,023035,A,2432.7339,N,08053.8141,W,2.1,228.2,140615,6.2,"
"##MN-00 00 47 0709 02205 5669 499084 215768 192"
"165.104688"
"$GPRMC,023039,A,2432.7325,N,08053.8158,W,2.1,227.1,140615,6.2,"
"##MN-00 00 47 0710 02198 5666 497228 215569 192"
"165.104734"
"$GPRMC,023043,A,2432.7309,N,08053.8176,W,2.1,226.7,140615,6.2,"
"##MN-00 00 49 0711 02193 5663 495154 214978 192"
"165.10478"
"$GPRMC,023047,A,2432.7296,N,08053.8191,W,2.0,227.0,140615,6.2,"
"##MN-00 00 49 0712 02191 5661 493607 214900 192"
"165.104826"
"$GPRMC,023051,A,2432.7278,N,08053.8209,W,2.1,226.0,140615,6.2,"
"##MN-00 00 50 0713 02188 5658 492586 214632 192"
"165.104873"
"$GPRMC,023055,A,2432.7260,N,08053.8230,W,1.9,226.9,140615,6.2,"
"##MN-00 00 48 0713 02182 5656 492018 214374 192"
"165.104919"
"$GPRMC,023059,A,2432.7246,N,08053.8249,W,2.0,228.4,140615,6.2,"
"##MN-00 00 50 0714 02180 5653 491711 214356 192"
"165.104965"
"$GPRMC,023103,A,2432.7233,N,08053.8270,W,2.0,228.6,140615,6.2,"
"##MN-00 00 48 0715 02181 5650 491518 214225 192"
"165.105012"
"$GPRMC,023107,A,2432.7218,N,08053.8291,W,2.0,229.4,140615,6.2,"
"##MN-00 00 47 0716 02175 5647 491273 214178 192"
"165.105058"
"$GPRMC,023111,A,2432.7202,N,08053.8309,W,2.1,229.9,140615,6.2,"
"##MN-00 00 47 0717 02167 5645 490477 214005 192"
"165.105104"
"$GPRMC,023115,A,2432.7188,N,08053.8328,W,2.1,229.9,140615,6.2,"
"##MN-00 00 48 0717 02167 5642 489555 213844 192"
"165.10515"
"$GPRMC,023119,A,2432.7176,N,08053.8345,W,2.0,229.6,140615,6.2,"
"##MN-00 00 49 0718 02163 5640 488756 213663 192"
"165.105197"
"$GPRMC,023123,A,2432.7161,N,08053.8365,W,2.0,230.4,140615,6.2,"
"##MN-00 00 48 0719 02159 5638 488127 213573 192"
"165.105243"
"$GPRMC,023127,A,2432.7148,N,08053.8385,W,2.1,230.7,140615,6.2,"
"##MN-00 00 48 0720 02154 5635 487340 213309 192"
"165.105289"
"$GPRMC,023131,A,2432.7133,N,08053.8405,W,2.1,231.1,140615,6.2,"
"##MN-00 00 48 0721 02152 5633 486359 213142 192"
"165.105336"
"$GPRMC,023135,A,2432.7117,N,08053.8426,W,2.2,231.7,140615,6.2,"
"##MN-00 00 50 0722 02144 5630 485978 213059 192"
"165.105382"
"$GPRMC,023139,A,2432.7103,N,08053.8447,W,2.2,232.0,140615,6.2,"
"##MN-00 00 49 0722 02142 5628 485577 212968 192"
"165.105428"
"$GPRMC,023143,A,2432.7088,N,08053.8468,W,2.2,232.0,140615,6.2,"
"##MN-00 00 48 0723 02139 5626 485180 212928 192"
"165.105475"
"$GPRMC,023147,A,2432.7073,N,08053.8488,W,2.1,231.8,140615,6.2,"
"##MN-00 00 47 0724 02136 5624 484811 212848 192"
"165.105521"
"$GPRMC,023151,A,2432.7058,N,08053.8509,W,2.2,232.0,140615,6.2,"
"##MN-00 00 49 0725 02133 5622 484271 212753 192"
"165.105567"
"$GPRMC,023155,A,2432.7044,N,08053.8531,W,2.1,233.2,140615,6.2,"
"##MN-00 00 47 0726 02130 5619 483719 212590 192"
"165.105613"
"$GPRMC,023159,A,2432.7029,N,08053.8552,W,2.2,233.6,140615,6.2,"
"##MN-00 00 51 0727 02125 5617 482394 212270 192"
"165.10566"
"$GPRMC,023203,A,2432.7012,N,08053.8571,W,2.1,233.3,140615,6.2,"
"##MN-00 00 46 0727 02125 5615 480701 212059 192"
"165.105706"
"$GPRMC,023207,A,2432.6996,N,08053.8592,W,2.2,232.5,140615,6.2,"
"##MN-00 00 48 0728 02117 5613 479668 211834 192"
"165.105752"
"$GPRMC,023211,A,2432.6978,N,08053.8611,W,2.1,231.4,140615,6.2,"
"##MN-00 00 49 0729 02118 5611 478774 211736 192"
"165.105799"
"$GPRMC,023215,A,2432.6962,N,08053.8631,W,2.1,230.8,140615,6.2,"
"##MN-00 00 49 0730 02115 5609 477880 211495 192"
"165.105845"
"$GPRMC,023219,A,2432.6945,N,08053.8649,W,2.2,229.5,140615,6.2,"
"##MN-00 00 49 0731 02115 5607 476597 211184 192"
"165.105891"
"$GPRMC,023223,A,2432.6932,N,08053.8665,W,2.1,228.8,140615,6.2,"
"##MN-00 00 49 0731 02113 5605 475822 211124 192"
"165.105938"
"$GPRMC,023227,A,2432.6917,N,08053.8685,W,2.2,228.3,140615,6.2,"
"##MN-00 00 50 0732 02112 5603 474832 210817 192"
"165.105984"
"$GPRMC,023231,A,2432.6902,N,08053.8701,W,2.1,226.8,140615,6.2,"
"##MN-00 00 49 0733 02113 5601 474297 210757 192"
"165.10603"
"$GPRMC,023235,A,2432.6885,N,08053.8719,W,2.1,226.9,140615,6.2,"
"##MN-00 00 46 0734 02110 5599 474048 210656 192"
"165.106076"
"$GPRMC,023240,A,2432.6866,N,08053.8743,W,2.2,226.5,140615,6.2,"
"##MN-00 00 48 0734 02108 5597 473839 210601 192"
"165.106123"
"$GPRMC,023244,A,2432.6850,N,08053.8761,W,2.2,226.6,140615,6.2,"
"##MN-00 00 49 0735 02107 5596 473710 210580 192"
"165.106169"
"$GPRMC,023248,A,2432.6837,N,08053.8777,W,2.1,226.9,140615,6.2,"
"##MN-00 00 50 0736 02105 5594 473637 210558 192"
"165.106215"
"$GPRMC,023252,A,2432.6823,N,08053.8795,W,2.1,227.7,140615,6.2,"
"##MN-00 00 48 0737 02111 5593 473635 210550 192"
"165.106262"
"$GPRMC,023255,A,2432.6813,N,08053.8808,W,2.0,228.2,140615,6.2,"
"##MN-00 00 48 0737 02109 5591 473605 210554 192"
"165.106308"
"$GPRMC,023300,A,2432.6794,N,08053.8833,W,2.0,229.4,140615,6.2,"
"##MN-00 00 48 0738 02106 5589 473576 210526 192"
"165.106354"
"$GPRMC,023304,A,2432.6779,N,08053.8853,W,2.1,230.2,140615,6.2,"
"##MN-00 00 47 0739 02108 5588 473538 210525 192"
"165.1064"
"$GPRMC,023308,A,2432.6765,N,08053.8873,W,2.1,231.1,140615,6.2,"
"##MN-00 00 46 0740 02102 5586 473448 210496 192"
"165.106447"
"$GPRMC,023312,A,2432.6754,N,08053.8885,W,2.2,230.6,140615,6.2,"
"##MN-00 00 48 0741 02099 5585 473276 210448 192"
"165.106493"
"$GPRMC,023316,A,2432.6740,N,08053.8913,W,2.2,233.2,140615,6.2,"
"##MN-00 00 47 0741 02099 5583 473145 210450 192"
"165.106539"
"$GPRMC,023320,A,2432.6726,N,08053.8938,W,2.2,234.2,140615,6.2,"
"##MN-00 00 46 0742 02096 5582 472829 210382 192"
"165.106586"
"$GPRMC,023324,A,2432.6714,N,08053.8960,W,2.2,234.0,140615,6.2,"
"##MN-00 00 47 0743 02096 5581 472574 210325 192"
"165.106632"
"$GPRMC,023328,A,2432.6702,N,08053.8981,W,2.1,234.3,140615,6.2,"
"##MN+00 00 46 0744 02094 5579 472467 210295 192"
"165.106678"
"$GPRMC,023332,A,2432.6690,N,08053.8997,W,2.2,234.1,140615,6.2,"
"##MN+00 00 46 0745 02090 5578 472327 210280 192"
"165.106725"
"$GPRMC,023336,A,2432.6673,N,08053.9025,W,2.2,233.9,140615,6.2,"
"##MN+00 00 48 0746 02085 5577 471711 210130 192"
"165.106771"
"$GPRMC,023340,A,2432.6660,N,08053.9040,W,2.2,232.7,140615,6.2,"
"##MN-00 00 46 0746 02087 5576 470480 209955 192"
"165.106817"
"$GPRMC,023344,A,2432.6639,N,08053.9068,W,2.2,231.6,140615,6.2,"
"##MN+00 00 45 0747 02085 5574 468747 209627 192"
"165.106875"
"$GPRMC,023348,A,2432.6621,N,08053.9090,W,2.2,231.2,140615,6.2,"
"##MN+00 00 52 0748 02080 5574 467278 209303 192"
"165.106921"
"#increment_net"
"$GPRMC,023352,A,2432.6604,N,08053.9109,W,2.2,230.5,140615,6.2,"
"##MN+00 00 48 0749 02077 5572 466881 209231 192"
"165.106968"
"$GPRMC,023356,A,2432.6591,N,08053.9130,W,2.2,229.2,140615,6.2,"
"##MN-00 00 46 0750 02077 5571 466568 209141 192"
"165.107014"
"$GPRMC,023400,A,2432.6575,N,08053.9149,W,2.2,229.1,140615,6.2,"
"##MN-00 00 46 0750 02071 5570 465867 208990 192"
"165.10706"
"$GPRMC,023404,A,2432.6559,N,08053.9169,W,2.2,228.8,140615,6.2,"
"##MN-00 00 46 0751 02068 5568 465250 208859 192"
"165.107106"
"$GPRMC,023408,A,2432.6543,N,08053.9188,W,2.1,228.8,140615,6.2,"
"##MN-00 00 45 0752 02065 5567 464851 208776 192"
"165.107153"
"$GPRMC,023412,A,2432.6527,N,08053.9207,W,2.1,229.4,140615,6.2,"
"##MN-00 00 45 0753 02063 5567 464551 208724 192"
"165.107199"
"$GPRMC,023416,A,2432.6512,N,08053.9227,W,2.1,229.6,140615,6.2,"
"##MN-00 00 46 0754 02058 5565 464255 208653 192"
"165.107245"
"$GPRMC,023420,A,2432.6496,N,08053.9245,W,2.1,229.8,140615,6.2,"
"##MN-00 00 44 0754 02055 5565 463964 208554 192"
"165.107292"
"$GPRMC,023424,A,2432.6480,N,08053.9260,W,2.2,229.8,140615,6.2,"
"##MN-00 00 46 0755 02051 5564 463698 208510 192"
"165.107338"
"$GPRMC,023428,A,2432.6467,N,08053.9277,W,2.1,229.8,140615,6.2,"
"##MN-00 00 45 0756 02051 5563 463435 208441 192"
"165.107384"
"$GPRMC,023432,A,2432.6452,N,08053.9296,W,2.1,229.3,140615,6.2,"
"##MN-00 00 44 0757 02047 5561 463186 208394 192"
"165.107431"
"$GPRMC,023436,A,2432.6437,N,08053.9314,W,2.1,229.0,140615,6.2,"
"##MN-00 00 44 0758 02042 5561 462925 208331 192"
"165.107477"
"$GPRMC,023440,A,2432.6422,N,08053.9333,W,2.1,229.0,140615,6.2,"
"##MN-00 00 46 0759 02043 5560 462610 208260 192"
"165.107523"
"$GPRMC,023444,A,2432.6407,N,08053.9353,W,2.0,229.4,140615,6.2,"
"##MN-00 00 46 0760 02037 5560 462253 208185 192"
"165.107569"
"$GPRMC,023448,A,2432.6393,N,08053.9372,W,2.1,229.2,140615,6.2,"
"##MN-00 00 45 0761 02033 5559 461884 208118 192"
"165.107616"
"$GPRMC,023452,A,2432.6377,N,08053.9391,W,2.1,229.8,140615,6.2,"
"##MN-00 00 46 0761 02028 5558 461497 208057 192"
"165.107662"
"$GPRMC,023456,A,2432.6364,N,08053.9413,W,2.1,230.9,140615,6.2,"
"##MN-00 00 47 0762 02022 5557 461165 207967 192"
"165.107708"
"$GPRMC,023500,A,2432.6348,N,08053.9433,W,2.1,231.1,140615,6.2,"
"##MN-00 00 45 0763 02018 5556 461001 207935 192"
"165.107755"
"$GPRMC,023504,A,2432.6335,N,08053.9451,W,2.1,232.1,140615,6.2,"
"##MN-00 00 46 0764 02015 5556 460936 207921 192"
"165.107801"
"$GPRMC,023508,A,2432.6317,N,08053.9469,W,2.1,232.3,140615,6.2,"
"##MN-00 00 47 0765 02010 5555 460668 207891 192"
"165.107847"
"$GPRMC,023512,A,2432.6302,N,08053.9487,W,2.1,231.5,140615,6.2,"
"##MN-00 00 45 0766 02007 5555 460095 207779 192"
"165.107894"
"$GPRMC,023516,A,2432.6288,N,08053.9508,W,2.1,231.3,140615,6.2,"
"##MN-00 00 48 0767 02000 5554 459129 207534 192"
"165.10794"
"$GPRMC,023520,A,2432.6272,N,08053.9527,W,2.1,230.7,140615,6.2,"
"##MN-00 00 46 0768 01999 5554 457325 207187 192"
"165.107986"
"$GPRMC,023524,A,2432.6259,N,08053.9549,W,2.0,230.7,140615,6.2,"
"##MN-00 00 45 0769 01992 5553 455478 206866 192"
"165.108032"
"$GPRMC,023528,A,2432.6246,N,08053.9571,W,2.1,231.0,140615,6.2,"
"##MN-00 00 48 0770 01985 5553 454020 206481 192"
"165.108079"
"$GPRMC,023532,A,2432.6234,N,08053.9586,W,2.1,231.0,140615,6.2,"
"##MN-00 00 47 0771 01985 5552 452760 206224 192"
"165.108125"
"$GPRMC,023536,A,2432.6220,N,08053.9607,W,2.1,230.7,140615,6.2,"
"##MN-00 00 48 0772 01978 5552 452092 206094 192"
"165.108171"
"$GPRMC,023540,A,2432.6205,N,08053.9626,W,2.0,230.4,140615,6.2,"
"##MN-00 00 51 0773 01972 5552 451871 205995 192"
"165.108218"
"$GPRMC,023544,A,2432.6192,N,08053.9646,W,1.9,230.4,140615,6.2,"
"##MN-00 00 48 0774 01968 5552 451733 205932 192"
"165.108264"
"$GPRMC,023548,A,2432.6178,N,08053.9667,W,1.9,230.2,140615,6.2,"
"##MN-00 00 47 0775 01964 5551 451656 205940 192"
"165.10831"
"$GPRMC,023552,A,2432.6167,N,08053.9683,W,1.9,229.9,140615,6.2,"
"##MN-00 00 49 0776 01959 5551 451578 205910 192"
"165.108356"
"$GPRMC,023556,A,2432.6152,N,08053.9700,W,1.9,230.0,140615,6.2,"
"##MN-00 00 50 0777 01954 5551 451486 205885 192"
"165.108403"
"$GPRMC,023600,A,2432.6136,N,08053.9718,W,1.9,229.7,140615,6.2,"
"##MN-00 00 47 0778 01953 5551 451364 205856 192"
"165.108449"
"$GPRMC,023604,A,2432.6122,N,08053.9738,W,1.9,229.8,140615,6.2,"
"##MN-00 00 48 0779 01945 5550 451029 205795 192"
"165.108495"
"$GPRMC,023608,A,2432.6106,N,08053.9758,W,2.0,229.9,140615,6.2,"
"##MN-00 00 51 0780 01938 5550 450678 205712 192"
"165.108542"
"$GPRMC,023612,A,2432.6091,N,08053.9777,W,1.9,229.6,140615,6.2,"
"##MN-00 00 50 0781 01937 5550 450342 205618 192"
"165.108588"
"$GPRMC,023616,A,2432.6078,N,08053.9794,W,1.9,229.8,140615,6.2,"
"##MN-00 00 48 0782 01933 5551 450133 205593 192"
"165.108634"
"$GPRMC,023620,A,2432.6064,N,08053.9812,W,2.0,230.6,140615,6.2,"
"##MN-00 00 51 0782 01929 5551 449953 205536 192"
"165.108681"
"$GPRMC,023624,A,2432.6050,N,08053.9830,W,1.9,231.6,140615,6.2,"
"##MN-00 00 49 0783 01929 5551 449632 205495 192"
"165.108727"
"$GPRMC,023628,A,2432.6036,N,08053.9848,W,1.9,231.3,140615,6.2,"
"##MN-00 00 49 0784 01924 5551 449354 205424 192"
"165.108773"
"$GPRMC,023632,A,2432.6021,N,08053.9866,W,1.9,230.0,140615,6.2,"
"##MN-00 00 50 0785 01922 5551 449219 205388 192"
"165.108819"
"$GPRMC,023636,A,2432.6006,N,08053.9882,W,1.9,229.7,140615,6.2,"
"##MN-00 00 50 0786 01920 5551 449145 205374 192"
"165.108866"
"$GPRMC,023640,A,2432.5992,N,08053.9900,W,1.9,229.3,140615,6.2,"
"##MN-00 00 51 0787 01919 5551 449093 205364 192"
"165.108912"
"$GPRMC,023644,A,2432.5981,N,08053.9917,W,1.8,229.7,140615,6.2,"
"##MN-00 00 50 0788 01918 5552 449054 205350 192"
"165.108958"
"$GPRMC,023648,A,2432.5970,N,08053.9935,W,1.9,231.4,140615,6.2,"
"##MN-00 00 50 0789 01913 5552 449034 205349 192"
"165.109005"
"$GPRMC,023652,A,2432.5960,N,08053.9953,W,1.8,232.6,140615,6.2,"
"##MN-00 00 51 0790 01914 5552 449021 205346 192"
"165.109051"
"$GPRMC,023656,A,2432.5952,N,08053.9971,W,1.8,233.5,140615,6.2,"
"##MN+00 00 50 0791 01911 5552 449004 205331 192"
"165.109097"
"$GPRMC,023700,A,2432.5941,N,08053.9990,W,1.8,233.4,140615,6.2,"
"##MN+00 00 50 0792 01909 5553 448988 205326 192"
"165.109144"
"$GPRMC,023704,A,2432.5928,N,08054.0007,W,1.8,233.5,140615,6.2,"
"##MN+00 00 50 0793 01908 5553 448978 205321 192"
"165.10919"
"$GPRMC,023708,A,2432.5916,N,08054.0025,W,1.8,233.6,140615,6.2,"
"##MN-00 00 49 0794 01903 5553 448960 205316 192"
"165.109236"
"$GPRMC,023712,A,2432.5905,N,08054.0044,W,1.9,233.9,140615,6.2,"
"##MN-00 00 51 0795 01901 5554 448937 205311 192"
"165.109282"
"$GPRMC,023716,A,2432.5891,N,08054.0062,W,1.9,233.5,140615,6.2,"
"##MN+00 00 54 0796 01896 5555 448914 205306 192"
"165.109329"
"$GPRMC,023720,A,2432.5876,N,08054.0083,W,1.9,233.1,140615,6.2,"
"##MN+00 00 54 0797 01898 5555 448881 205300 192"
"165.109375"
"$GPRMC,023724,A,2432.5863,N,08054.0099,W,1.9,232.0,140615,6.2,"
"##MN+00 00 60 0798 01900 5555 448872 205298 192"
"165.109421"
"$GPRMC,023728,A,2432.5848,N,08054.0117,W,1.9,231.2,140615,6.2,"
"##MN-00 00 57 0798 01895 5556 448877 205299 192"
"165.109468"
"#increment_net"
"$GPRMC,023732,A,2432.5833,N,08054.0135,W,1.9,230.6,140615,6.2,"
"##MN-00 00 52 0799 01896 5557 448883 205299 192"
"165.109514"
"$GPRMC,023736,A,2432.5818,N,08054.0155,W,1.9,230.5,140615,6.2,"
"##MN-00 00 51 0800 01892 5557 448860 205298 192"
"165.10956"
"$GPRMC,023740,A,2432.5805,N,08054.0171,W,1.9,230.6,140615,6.2,"
"##MN-00 00 50 0801 01892 5558 448839 205291 192"
"165.109606"
"$GPRMC,023745,A,2432.5787,N,08054.0196,W,1.9,231.6,140615,6.2,"
"##MN-00 00 53 0802 01888 5558 448825 205288 192"
"165.109653"
"$GPRMC,023748,A,2432.5775,N,08054.0210,W,2.0,231.0,140615,6.2,"
"##MN-00 00 51 0803 01888 5559 448817 205286 192"
"165.109699"
"$GPRMC,023753,A,2432.5757,N,08054.0232,W,2.0,231.2,140615,6.2,"
"##MN-00 00 52 0804 01884 5560 448816 205287 192"
"165.109745"
"$GPRMC,023757,A,2432.5744,N,08054.0249,W,2.0,231.1,140615,6.2,"
"##MN-00 00 51 0805 01886 5560 448813 205284 192"
"165.109792"
"$GPRMC,023801,A,2432.5733,N,08054.0265,W,1.9,230.9,140615,6.2,"
"##MN-00 00 50 0806 01885 5560 448807 205284 192"
"165.109838"
"$GPRMC,023805,A,2432.5721,N,08054.0282,W,1.8,230.9,140615,6.2,"
"##MN-00 00 49 0807 01884 5561 448802 205282 192"
"165.109884"
"$GPRMC,023809,A,2432.5708,N,08054.0296,W,1.8,229.5,140615,6.2,"
"##MN-00 00 50 0808 01887 5562 448798 205281 192"
"165.109931"
"$GPRMC,023813,A,2432.5695,N,08054.0314,W,1.8,228.9,140615,6.2,"
"##MN-00 00 51 0809 01886 5562 448795 205281 192"
"165.109977"
"$GPRMC,023817,A,2432.5682,N,08054.0332,W,1.8,227.9,140615,6.2,"
"##MN-00 00 50 0810 01887 5563 448795 205280 192"
"165.110035"
"$GPRMC,023821,A,2432.5667,N,08054.0348,W,1.8,228.3,140615,6.2,"
"##MN-00 00 49 0811 01887 5564 448795 205280 192"
"165.110081"
"$GPRMC,023825,A,2432.5654,N,08054.0365,W,1.8,229.5,140615,6.2,"
"##MN-00 00 49 0812 01883 5565 448791 205279 192"
"165.110127"
"$GPRMC,023829,A,2432.5640,N,08054.0383,W,1.9,230.7,140615,6.2,"
"##MN-00 00 49 0812 01884 5565 448787 205278 192"
"165.110174"
"$GPRMC,023833,A,2432.5628,N,08054.0401,W,1.8,232.3,140615,6.2,"
"##MN-00 00 48 0813 01880 5566 448778 205277 192"
"165.11022"
"$GPRMC,023837,A,2432.5614,N,08054.0420,W,1.9,233.6,140615,6.2,"
"##MN-00 00 53 0814 01876 5566 448769 205275 192"
"165.110266"
"$GPRMC,023841,A,2432.5598,N,08054.0438,W,1.9,234.2,140615,6.2,"
"##MN-00 00 50 0815 01879 5567 448761 205273 192"
"165.110313"
"$GPRMC,023845,A,2432.5585,N,08054.0459,W,1.9,235.7,140615,6.2,"
"##MN-00 00 50 0816 01872 5568 448754 205273 192"
"165.110359"
"$GPRMC,023849,A,2432.5574,N,08054.0480,W,1.9,237.0,140615,6.2,"
"##MN-00 00 51 0817 01876 5569 448743 205270 192"
"165.110405"
"$GPRMC,023853,A,2432.5563,N,08054.0502,W,1.9,237.7,140615,6.2,"
"##MN-00 00 50 0818 01871 5570 448736 205269 192"
"165.110451"
"$GPRMC,023857,A,2432.5551,N,08054.0522,W,1.9,237.3,140615,6.2,"
"##MN-00 00 50 0819 01870 5570 448715 205266 192"
"165.110498"
"$GPRMC,023901,A,2432.5544,N,08054.0542,W,1.9,236.9,140615,6.2,"
"##MN-00 00 50 0820 01868 5571 448701 205262 192"
"165.110544"
"$GPRMC,023905,A,2432.5529,N,08054.0564,W,1.9,235.9,140615,6.2,"
"##MN-00 00 50 0821 01867 5572 448697 205261 192"
"165.11059"
"$GPRMC,023909,A,2432.5515,N,08054.0582,W,1.9,234.4,140615,6.2,"
"##MN-00 00 50 0822 01870 5573 448695 205261 192"
"165.110637"
"$GPRMC,023913,A,2432.5504,N,08054.0600,W,1.9,233.8,140615,6.2,"
"##MN-00 00 49 0823 01866 5573 448692 205261 192"
"165.110683"
"$GPRMC,023917,A,2432.5494,N,08054.0618,W,1.9,231.6,140615,6.2,"
"##MN-00 00 51 0824 01863 5574 448687 205259 192"
"165.110729"
"$GPRMC,023921,A,2432.5480,N,08054.0632,W,1.9,230.9,140615,6.2,"
"##MN-00 00 51 0825 01862 5575 448682 205259 192"
"165.110775"
"$GPRMC,023925,A,2432.5464,N,08054.0650,W,1.9,230.6,140615,6.2,"
"##MN-00 00 50 0826 01864 5576 448674 205257 192"
"165.110822"
"$GPRMC,023929,A,2432.5452,N,08054.0668,W,1.9,229.4,140615,6.2,"
"##MN-00 00 50 0827 01862 5576 448670 205256 192"
"165.110868"
"$GPRMC,023933,A,2432.5437,N,08054.0683,W,1.9,229.2,140615,6.2,"
"##MN-00 00 49 0828 01861 5577 448661 205254 192"
"165.110914"
"$GPRMC,023937,A,2432.5421,N,08054.0701,W,1.9,229.5,140615,6.2,"
"##MN-00 00 50 0829 01859 5578 448657 205253 192"
"165.110961"
"$GPRMC,023941,A,2432.5407,N,08054.0716,W,1.9,230.2,140615,6.2,"
"##MN-00 00 51 0830 01859 5579 448659 205253 192"
"165.111007"
"$GPRMC,023945,A,2432.5394,N,08054.0733,W,1.9,230.7,140615,6.2,"
"##MN-00 00 51 0831 01858 5579 448656 205254 192"
"165.111053"
"$GPRMC,023949,A,2432.5382,N,08054.0752,W,1.9,231.8,140615,6.2,"
"##MN-00 00 52 0831 01856 5580 448652 205253 192"
"165.1111"
"$GPRMC,023953,A,2432.5367,N,08054.0771,W,1.9,231.4,140615,6.2,"
"##MN-00 00 50 0832 01856 5581 448632 205248 192"
"165.111146"
"$GPRMC,023957,A,2432.5353,N,08054.0788,W,1.9,231.2,140615,6.2,"
"##MN-00 00 49 0833 01856 5582 448619 205247 192"
"165.111192"
"$GPRMC,024001,A,2432.5338,N,08054.0805,W,1.9,231.5,140615,6.2,"
"##MN-00 00 51 0834 01854 5583 448605 205245 192"
"165.111238"
"$GPRMC,024005,A,2432.5325,N,08054.0820,W,1.8,230.9,140615,6.2,"
"##MN-00 00 51 0835 01857 5584 448599 205243 192"
"165.111285"
"$GPRMC,024009,A,2432.5313,N,08054.0836,W,1.8,229.8,140615,6.2,"
"##MN-00 00 51 0836 01857 5585 448602 205243 192"
"165.111331"
"$GPRMC,024013,A,2432.5298,N,08054.0853,W,1.8,228.8,140615,6.2,"
"##MN-00 00 50 0837 01855 5586 448612 205245 192"
"165.111377"
"$GPRMC,024017,A,2432.5282,N,08054.0868,W,1.9,227.5,140615,6.2,"
"##MN-00 00 51 0838 01857 5586 448623 205245 192"
"165.111424"
"$GPRMC,024021,A,2432.5268,N,08054.0885,W,1.9,227.8,140615,6.2,"
"##MN-00 00 49 0839 01857 5587 448618 205246 192"
"165.11147"
"$GPRMC,024025,A,2432.5253,N,08054.0903,W,1.9,227.6,140615,6.2,"
"##MN-00 00 49 0840 01855 5588 448627 205247 192"
"165.111516"
"$GPRMC,024029,A,2432.5237,N,08054.0923,W,1.9,228.2,140615,6.2,"
"##MN-00 00 49 0841 01854 5589 448618 205244 192"
"165.111563"
"$GPRMC,024033,A,2432.5223,N,08054.0940,W,1.9,228.9,140615,6.2,"
"##MN-00 00 49 0842 01851 5590 448602 205243 192"
"165.111609"
"$GPRMC,024037,A,2432.5209,N,08054.0958,W,1.9,228.4,140615,6.2,"
"##MN-00 00 49 0843 01851 5591 448584 205239 192"
"165.111655"
"$GPRMC,024041,A,2432.5197,N,08054.0975,W,1.9,229.4,140615,6.2,"
"##MN-00 00 51 0844 01848 5591 448572 205236 192"
"165.111701"
"$GPRMC,024045,A,2432.5186,N,08054.0994,W,1.9,230.4,140615,6.2,"
"##MN-00 00 50 0845 01847 5592 448557 205234 192"
"165.111748"
"$GPRMC,024049,A,2432.5172,N,08054.1012,W,2.0,231.4,140615,6.2,"
"##MN-00 00 50 0846 01845 5593 448545 205231 192"
"165.111794"
"$GPRMC,024053,A,2432.5161,N,08054.1033,W,1.9,232.9,140615,6.2,"
"##MN-00 00 50 0847 01842 5594 448520 205229 192"
"165.11184"
"$GPRMC,024057,A,2432.5148,N,08054.1055,W,2.0,234.3,140615,6.2,"
"##MN-00 00 53 0848 01840 5595 448492 205226 192"
"165.111887"
"$GPRMC,024101,A,2432.5135,N,08054.1073,W,2.0,235.0,140615,6.2,"
"##MN-00 00 50 0849 01835 5595 448428 205215 192"
"165.111933"
"$GPRMC,024105,A,2432.5121,N,08054.1094,W,2.0,234.2,140615,6.2,"
"##MN-00 00 51 0850 01834 5597 448362 205208 192"
"165.111979"
"$GPRMC,024109,A,2432.5107,N,08054.1113,W,1.9,233.4,140615,6.2,"
"##MN-00 00 51 0851 01832 5597 448304 205197 192"
"165.112025"
"$GPRMC,024113,A,2432.5094,N,08054.1131,W,1.9,233.3,140615,6.2,"
"##MN-00 00 51 0852 01830 5598 448266 205189 192"
"165.112072"
"$GPRMC,024117,A,2432.5082,N,08054.1152,W,1.9,233.5,140615,6.2,"
"##MN-00 00 49 0853 01829 5599 448205 205178 192"
"165.112118"
"$GPRMC,024121,A,2432.5068,N,08054.1170,W,1.9,233.1,140615,6.2,"
"##MN-00 00 49 0854 01827 5600 448144 205168 192"
"165.112164"
"$GPRMC,024125,A,2432.5058,N,08054.1183,W,1.9,232.3,140615,6.2,"
"##MN-00 00 48 0855 01826 5601 448052 205160 192"
"165.112211"
"$GPRMC,024129,A,2432.5042,N,08054.1206,W,1.9,231.4,140615,6.2,"
"##MN-00 00 50 0856 01822 5602 447987 205156 192"
"165.112257"
"$GPRMC,024133,A,2432.5032,N,08054.1219,W,1.9,232.0,140615,6.2,"
"##MN-00 00 50 0857 01822 5603 447956 205156 192"
"165.112303"
"$GPRMC,024137,A,2432.5020,N,08054.1239,W,1.9,231.3,140615,6.2,"
"##MN-00 00 52 0858 01818 5604 447930 205155 192"
"165.11235"
"$GPRMC,024141,A,2432.5005,N,08054.1261,W,1.9,230.7,140615,6.2,"
"##MN-00 00 52 0859 01816 5605 447885 205152 192"
"165.112396"
"$GPRMC,024145,A,2432.4992,N,08054.1280,W,1.9,229.2,140615,6.2,"
"##MN-00 00 50 0859 01815 5606 447842 205154 192"
"165.112442"
"$GPRMC,024149,A,2432.4981,N,08054.1291,W,1.9,228.2,140615,6.2,"
"##MN-00 00 49 0860 01812 5606 447818 205155 192"
"165.112488"
"$GPRMC,024153,A,2432.4964,N,08054.1315,W,1.9,227.9,140615,6.2,"
"##MN-00 00 52 0861 01809 5608 447798 205156 192"
"165.112535"
"$GPRMC,024157,A,2432.4950,N,08054.1333,W,1.9,227.2,140615,6.2,"
"##MN-00 00 50 0862 01811 5608 447780 205157 192"
"165.112581"
"$GPRMC,024202,A,2432.4932,N,08054.1353,W,1.9,227.0,140615,6.2,"
"##MN-00 00 48 0863 01808 5609 447772 205157 192"
"165.112627"
"$GPRMC,024206,A,2432.4919,N,08054.1370,W,1.9,226.7,140615,6.2,"
"##MN-00 00 50 0864 01806 5610 447758 205159 192"
"165.112674"
"$GPRMC,024210,A,2432.4903,N,08054.1387,W,1.9,227.2,140615,6.2,"
"##MN-00 00 51 0865 01803 5611 447750 205159 192"
"165.11272"
"$GPRMC,024214,A,2432.4888,N,08054.1403,W,2.0,228.8,140615,6.2,"
"##MN-00 00 57 0866 01796 5611 447736 205159 192"
"165.112766"
"$GPRMC,024218,A,2432.4872,N,08054.1421,W,2.0,229.7,140615,6.2,"
"##MN-00 00 53 0867 01796 5612 447706 205161 192"
"165.112812"
"$GPRMC,024222,A,2432.4859,N,08054.1439,W,2.1,229.5,140615,6.2,"
"##MN-00 00 52 0868 01797 5613 447683 205162 192"
"165.112859"
