" Tow: 8-ns-n-out   RVWS/WS15161"
" Date: 13/06/2015"
" Temperature Probe #  4762    Conductivity Probe #  710"
" Pressure Probe #  159"
" Flow Meter Calibration  4.71 (m/count)  "
"165.040532"
"$GPRMC,005816,A,2436.3049,N,08048.9412,W,3.1,232.8,140615,6.3,"
"##MN-00 00 70 0000 01531 5846 451572 827357 195"
"165.040579"
"$GPRMC,005821,A,2436.3024,N,08048.9448,W,3.1,232.0,140615,6.3,"
"##MN-00 00 70 0000 01532 5846 450299 827161 195"
"165.040625"
"$GPRMC,005825,A,2436.3004,N,08048.9476,W,3.1,231.1,140615,6.3,"
"##MN-00 00 70 0000 01533 5847 449894 827229 195"
"165.040671"
"$GPRMC,005829,A,2436.2983,N,08048.9505,W,3.1,230.6,140615,6.3,"
"##MN-00 00 69 0000 01532 5847 449367 827092 195"
"165.040718"
"$GPRMC,005833,A,2436.2963,N,08048.9531,W,3.1,230.2,140615,6.3,"
"##MN-00 00 37 0000 01531 5847 448609 827370 195"
"165.040764"
"$GPRMC,005837,A,2436.2941,N,08048.9561,W,3.1,231.4,140615,6.3,"
"##MN-00 00 31 0000 01531 5848 448354 827500 195"
"165.04081"
"$GPRMC,005841,A,2436.2921,N,08048.9589,W,3.0,230.9,140615,6.3,"
"##MN-00 00 35 0000 01533 5848 448639 827160 195"
"165.040856"
"$GPRMC,005845,A,2436.2897,N,08048.9621,W,3.1,231.0,140615,6.3,"
"##MN-00 00 42 0000 01532 5848 448267 827571 195"
"165.040903"
"$GPRMC,005849,A,2436.2876,N,08048.9650,W,3.1,230.9,140615,6.3,"
"##MN-00 00 45 0000 01533 5849 448044 827500 195"
"165.040949"
"$GPRMC,005853,A,2436.2856,N,08048.9679,W,3.0,230.9,140615,6.3,"
"##MN-00 00 56 0000 01533 5849 447631 827227 195"
"165.040995"
"$GPRMC,005857,A,2436.2838,N,08048.9707,W,3.0,232.8,140615,6.3,"
"##MN-00 00 52 0000 01534 5849 447411 212350 195"
"165.041042"
"$GPRMC,005901,A,2436.2818,N,08048.9733,W,2.9,232.2,140615,6.3,"
"##MN-00 00 54 0001 01537 5849 447388 218670 195"
"165.041088"
"$GPRMC,005905,A,2436.2798,N,08048.9762,W,2.8,232.4,140615,6.3,"
"##MN-00 00 48 0002 01539 5850 447363 205136 195"
"165.041146"
"$GPRMC,005909,A,2436.2778,N,08048.9788,W,2.7,231.6,140615,6.3,"
"##MN-00 00 52 0003 01541 5850 447339 205126 195"
"165.041192"
"$GPRMC,005913,A,2436.2758,N,08048.9813,W,2.7,231.9,140615,6.3,"
"##MN-00 00 56 0003 01549 5850 447350 205127 195"
"165.041238"
"$GPRMC,005917,A,2436.2740,N,08048.9837,W,2.6,232.1,140615,6.3,"
"##MN-00 00 52 0004 01549 5851 447359 205128 195"
"165.041285"
"$GPRMC,005921,A,2436.2724,N,08048.9863,W,2.6,232.2,140615,6.3,"
"##MN-00 00 51 0005 01541 5851 447350 205122 195"
"165.041331"
"$GPRMC,005925,A,2436.2708,N,08048.9888,W,2.6,232.2,140615,6.3,"
"##MN-00 00 58 0006 01551 5851 447351 205114 195"
"165.041377"
"$GPRMC,005929,A,2436.2693,N,08048.9911,W,2.5,232.9,140615,6.3,"
"##MN-00 00 52 0007 01552 5852 447346 205113 195"
"165.041424"
"$GPRMC,005933,A,2436.2675,N,08048.9936,W,2.5,232.8,140615,6.3,"
"##MN-00 00 56 0008 01556 5852 447338 205110 195"
"165.04147"
"$GPRMC,005937,A,2436.2661,N,08048.9957,W,2.4,233.5,140615,6.3,"
"##MN-00 00 54 0009 01563 5852 447336 205109 195"
"165.041516"
"$GPRMC,005941,A,2436.2644,N,08048.9979,W,2.3,233.5,140615,6.3,"
"##MN-00 00 54 0009 01563 5852 447337 205108 195"
"165.041563"
"$GPRMC,005945,A,2436.2627,N,08049.0001,W,2.3,233.1,140615,6.3,"
"##MN-00 00 55 0010 01574 5853 447355 205110 195"
"165.041609"
"$GPRMC,005949,A,2436.2611,N,08049.0025,W,2.3,233.0,140615,6.3,"
"##MN-00 00 49 0011 01573 5853 447353 205110 195"
"165.041655"
"$GPRMC,005953,A,2436.2596,N,08049.0047,W,2.3,233.2,140615,6.3,"
"##MN-00 00 52 0012 01571 5853 447363 205111 195"
"165.041701"
"$GPRMC,005957,A,2436.2578,N,08049.0072,W,2.4,232.9,140615,6.3,"
"##MN-00 00 54 0013 01577 5854 447343 205102 195"
"165.041748"
"$GPRMC,010001,A,2436.2564,N,08049.0087,W,2.4,232.0,140615,6.3,"
"##MN-00 00 52 0014 01580 5854 447319 205100 195"
"165.041794"
"$GPRMC,010005,A,2436.2549,N,08049.0112,W,2.3,232.0,140615,6.3,"
"##MN-00 00 54 0014 01583 5854 447308 205095 195"
"165.04184"
"$GPRMC,010009,A,2436.2527,N,08049.0137,W,2.3,231.3,140615,6.3,"
"##MN-00 00 54 0015 01590 5855 447304 205093 195"
"165.041887"
"$GPRMC,010013,A,2436.2513,N,08049.0157,W,2.2,231.5,140615,6.3,"
"##MN-00 00 51 0016 01592 5855 447306 205092 195"
"165.041933"
"$GPRMC,010017,A,2436.2498,N,08049.0177,W,2.3,230.6,140615,6.3,"
"##MN-00 00 53 0017 01597 5855 447302 205092 195"
"165.041979"
"$GPRMC,010021,A,2436.2484,N,08049.0195,W,2.2,230.6,140615,6.3,"
"##MN-00 00 52 0017 01602 5855 447308 205093 195"
"165.042025"
"$GPRMC,010025,A,2436.2469,N,08049.0217,W,2.2,232.2,140615,6.3,"
"##MN-00 00 51 0018 01601 5856 447316 205094 195"
"165.042072"
"$GPRMC,010029,A,2436.2450,N,08049.0242,W,2.2,232.6,140615,6.3,"
"##MN-00 00 53 0019 01609 5856 447328 205095 195"
"165.042118"
"$GPRMC,010033,A,2436.2435,N,08049.0260,W,2.2,233.3,140615,6.3,"
"##MN-00 00 52 0020 01610 5856 447333 205096 195"
"165.042164"
"$GPRMC,010037,A,2436.2419,N,08049.0282,W,2.3,233.5,140615,6.3,"
"##MN-00 00 55 0020 01615 5857 447343 205098 195"
"165.042211"
"$GPRMC,010041,A,2436.2405,N,08049.0305,W,2.2,233.5,140615,6.3,"
"##MN-00 00 52 0021 01622 5857 447353 205099 195"
"165.042257"
"$GPRMC,010045,A,2436.2388,N,08049.0329,W,2.2,232.8,140615,6.3,"
"##MN-00 00 52 0022 01621 5857 447341 205096 195"
"165.042303"
"$GPRMC,010049,A,2436.2372,N,08049.0352,W,2.2,232.4,140615,6.3,"
"##MN-00 00 52 0023 01626 5857 447344 205097 195"
"165.04235"
"$GPRMC,010053,A,2436.2355,N,08049.0376,W,2.2,232.6,140615,6.3,"
"##MN-00 00 51 0024 01632 5858 447353 205099 195"
"165.042396"
"$GPRMC,010057,A,2436.2345,N,08049.0399,W,2.2,232.5,140615,6.3,"
"##MN-00 00 49 0024 01630 5858 447356 205100 195"
"165.042442"
"$GPRMC,010101,A,2436.2336,N,08049.0423,W,2.2,233.4,140615,6.3,"
"##MN-00 00 53 0025 01635 5858 447359 205099 195"
"165.042488"
"$GPRMC,010105,A,2436.2320,N,08049.0444,W,2.2,234.0,140615,6.3,"
"##MN-00 00 52 0026 01641 5859 447339 205097 195"
"165.042535"
"$GPRMC,010109,A,2436.2305,N,08049.0464,W,2.2,233.8,140615,6.3,"
"##MN-00 00 52 0027 01648 5859 447339 205097 195"
"165.042581"
"$GPRMC,010113,A,2436.2289,N,08049.0482,W,2.2,233.9,140615,6.3,"
"##MN-00 00 53 0028 01651 5859 447347 205097 195"
"165.042627"
"$GPRMC,010117,A,2436.2276,N,08049.0502,W,2.2,233.4,140615,6.3,"
"##MN-00 00 50 0028 01656 5860 447342 205095 195"
"165.042674"
"$GPRMC,010121,A,2436.2260,N,08049.0520,W,2.1,232.6,140615,6.3,"
"##MN-00 00 54 0029 01660 5860 447330 205092 195"
"165.04272"
"$GPRMC,010125,A,2436.2247,N,08049.0539,W,2.1,231.4,140615,6.3,"
"##MN-00 00 51 0030 01664 5860 447324 205090 195"
"165.042766"
"$GPRMC,010129,A,2436.2234,N,08049.0557,W,2.1,231.5,140615,6.3,"
"##MN-00 00 51 0031 01668 5860 447312 205084 195"
"165.042813"
"$GPRMC,010133,A,2436.2220,N,08049.0579,W,2.1,231.6,140615,6.3,"
"##MN-00 00 50 0032 01670 5861 447308 205083 195"
"165.042859"
"$GPRMC,010137,A,2436.2206,N,08049.0598,W,2.1,231.5,140615,6.3,"
"##MN-00 00 52 0032 01677 5861 447305 205083 195"
"165.042905"
"$GPRMC,010141,A,2436.2191,N,08049.0618,W,2.2,231.4,140615,6.3,"
"##MN-00 00 48 0033 01676 5862 447302 205082 195"
"165.042951"
"$GPRMC,010145,A,2436.2174,N,08049.0643,W,2.2,230.9,140615,6.3,"
"##MN-00 00 48 0034 01678 5861 447307 205077 195"
"165.042998"
"$GPRMC,010149,A,2436.2160,N,08049.0665,W,2.2,231.8,140615,6.3,"
"##MN-00 00 52 0034 01682 5862 447316 205075 195"
"165.043044"
"$GPRMC,010153,A,2436.2144,N,08049.0687,W,2.2,231.7,140615,6.3,"
"##MN-00 00 50 0035 01685 5862 447309 205076 195"
"165.04309"
"$GPRMC,010157,A,2436.2128,N,08049.0708,W,2.2,230.9,140615,6.3,"
"##MN-00 00 52 0036 01692 5862 447308 205076 195"
"165.043137"
"$GPRMC,010201,A,2436.2109,N,08049.0730,W,2.2,231.7,140615,6.3,"
"##MN-00 00 51 0037 01691 5863 447305 205078 195"
"165.043183"
"$GPRMC,010206,A,2436.2092,N,08049.0753,W,2.2,231.7,140615,6.3,"
"##MN-00 00 51 0037 01694 5863 447299 205081 195"
"165.043229"
"$GPRMC,010210,A,2436.2077,N,08049.0773,W,2.2,232.6,140615,6.3,"
"##MN-00 00 54 0038 01701 5863 447299 205081 195"
"165.043275"
"$GPRMC,010214,A,2436.2061,N,08049.0791,W,2.2,232.6,140615,6.3,"
"##MN-00 00 52 0039 01703 5863 447296 205074 195"
"165.043322"
"$GPRMC,010218,A,2436.2049,N,08049.0813,W,2.2,232.0,140615,6.3,"
"##MN-00 00 51 0039 01707 5864 447290 205072 195"
"165.043368"
"$GPRMC,010222,A,2436.2036,N,08049.0836,W,2.2,231.7,140615,6.3,"
"##MN-00 00 51 0040 01711 5864 447291 205072 195"
"165.043414"
"$GPRMC,010226,A,2436.2022,N,08049.0853,W,2.1,232.5,140615,6.3,"
"##MN-00 00 50 0041 01712 5864 447293 205071 195"
"165.043461"
"$GPRMC,010230,A,2436.2008,N,08049.0878,W,2.2,232.6,140615,6.3,"
"##MN-00 00 50 0042 01719 5864 447295 205071 195"
"165.043507"
"$GPRMC,010234,A,2436.1994,N,08049.0897,W,2.1,232.6,140615,6.3,"
"##MN-00 00 49 0042 01719 5865 447298 205072 195"
"165.043553"
"$GPRMC,010238,A,2436.1980,N,08049.0919,W,2.2,233.1,140615,6.3,"
"##MN-00 00 48 0043 01717 5865 447299 205071 195"
"165.0436"
"$GPRMC,010242,A,2436.1964,N,08049.0939,W,2.2,232.5,140615,6.3,"
"##MN-00 00 51 0044 01724 5865 447297 205070 195"
"165.043646"
"$GPRMC,010246,A,2436.1946,N,08049.0964,W,2.2,231.6,140615,6.3,"
"##MN-00 00 48 0045 01726 5865 447299 205069 195"
"165.043692"
"$GPRMC,010250,A,2436.1929,N,08049.0986,W,2.2,231.6,140615,6.3,"
"##MN-00 00 49 0046 01729 5866 447294 205069 195"
"165.043738"
"$GPRMC,010254,A,2436.1913,N,08049.1004,W,2.2,231.9,140615,6.3,"
"##MN-00 00 49 0047 01728 5866 447294 205067 195"
"165.043785"
"$GPRMC,010258,A,2436.1895,N,08049.1026,W,2.3,231.5,140615,6.3,"
"##MN-00 00 52 0047 01730 5866 447306 205067 195"
"165.043831"
"$GPRMC,010302,A,2436.1880,N,08049.1048,W,2.2,231.0,140615,6.3,"
"##MN-00 00 50 0048 01736 5867 447308 205067 195"
"165.043877"
"$GPRMC,010306,A,2436.1864,N,08049.1073,W,2.3,231.5,140615,6.3,"
"##MN-00 00 51 0049 01736 5867 447314 205066 195"
"165.043924"
"$GPRMC,010310,A,2436.1849,N,08049.1094,W,2.2,231.7,140615,6.3,"
"##MN-00 00 52 0050 01741 5867 447329 205067 195"
"165.04397"
"$GPRMC,010314,A,2436.1835,N,08049.1113,W,2.2,231.7,140615,6.3,"
"##MN-00 00 51 0051 01745 5867 447363 205070 195"
"165.044016"
"$GPRMC,010318,A,2436.1820,N,08049.1134,W,2.3,232.5,140615,6.3,"
"##MN-00 00 52 0051 01749 5868 447382 205070 195"
"165.044063"
"$GPRMC,010322,A,2436.1805,N,08049.1154,W,2.2,231.9,140615,6.3,"
"##MN-00 00 51 0052 01755 5868 447383 205073 195"
"165.044109"
"$GPRMC,010326,A,2436.1790,N,08049.1175,W,2.2,232.8,140615,6.3,"
"##MN-00 00 50 0053 01754 5868 447400 205077 195"
"165.044155"
"$GPRMC,010330,A,2436.1776,N,08049.1199,W,2.2,233.0,140615,6.3,"
"##MN-00 00 51 0054 01758 5868 447416 205080 195"
"165.044201"
"$GPRMC,010334,A,2436.1760,N,08049.1221,W,2.2,233.1,140615,6.3,"
"##MN-00 00 52 0054 01760 5869 447433 205085 195"
"165.044248"
"$GPRMC,010338,A,2436.1745,N,08049.1246,W,2.3,234.2,140615,6.3,"
"##MN-00 00 49 0055 01759 5869 447417 205082 195"
"165.044294"
"$GPRMC,010342,A,2436.1727,N,08049.1268,W,2.3,233.8,140615,6.3,"
"##MN-00 00 53 0056 01763 5869 447373 205076 195"
"165.04434"
"$GPRMC,010346,A,2436.1714,N,08049.1290,W,2.3,233.9,140615,6.3,"
"##MN-00 00 52 0057 01770 5869 447462 205082 195"
"165.044398"
"$GPRMC,010350,A,2436.1698,N,08049.1311,W,2.2,234.0,140615,6.3,"
"##MN-00 00 52 0058 01771 5870 447536 205087 195"
"165.044444"
"$GPRMC,010354,A,2436.1682,N,08049.1335,W,2.2,233.4,140615,6.3,"
"##MN-00 00 52 0058 01774 5870 447637 205098 195"
"165.044491"
"$GPRMC,010358,A,2436.1668,N,08049.1356,W,2.2,232.7,140615,6.3,"
"##MN-00 00 52 0059 01777 5870 447706 205103 195"
"165.044537"
"$GPRMC,010402,A,2436.1650,N,08049.1380,W,2.2,232.9,140615,6.3,"
"##MN-00 00 52 0060 01782 5871 447717 205111 195"
"165.044583"
"$GPRMC,010406,A,2436.1635,N,08049.1402,W,2.2,232.0,140615,6.3,"
"##MN-00 00 52 0061 01786 5871 447809 205129 195"
"165.04463"
"$GPRMC,010410,A,2436.1621,N,08049.1418,W,2.2,232.2,140615,6.3,"
"##MN-00 00 51 0062 01789 5871 447919 205160 195"
"165.044676"
"$GPRMC,010414,A,2436.1603,N,08049.1438,W,2.2,231.7,140615,6.3,"
"##MN-00 00 51 0062 01791 5871 448096 205184 195"
"165.044722"
"$GPRMC,010418,A,2436.1591,N,08049.1461,W,2.2,232.4,140615,6.3,"
"##MN-00 00 52 0063 01791 5871 448247 205194 195"
"165.044769"
"$GPRMC,010422,A,2436.1577,N,08049.1483,W,2.2,232.6,140615,6.3,"
"##MN-00 00 52 0064 01797 5872 448439 205261 195"
"165.044815"
"$GPRMC,010426,A,2436.1561,N,08049.1504,W,2.2,232.9,140615,6.3,"
"##MN-00 00 51 0065 01799 5872 448571 205280 195"
"165.044861"
"$GPRMC,010430,A,2436.1548,N,08049.1529,W,2.2,232.5,140615,6.3,"
"##MN-00 00 52 0066 01801 5872 448669 205300 195"
"165.044907"
"$GPRMC,010434,A,2436.1532,N,08049.1550,W,2.2,232.7,140615,6.3,"
"##MN-00 00 51 0066 01807 5873 448853 205326 195"
"165.044954"
"$GPRMC,010438,A,2436.1518,N,08049.1571,W,2.2,233.8,140615,6.3,"
"##MN-00 00 51 0067 01806 5873 449009 205361 195"
"165.045"
"$GPRMC,010442,A,2436.1505,N,08049.1587,W,2.2,233.0,140615,6.3,"
"##MN-00 00 52 0068 01811 5873 449064 205378 195"
"165.045046"
"$GPRMC,010446,A,2436.1491,N,08049.1607,W,2.2,232.9,140615,6.3,"
"##MN-00 00 51 0069 01812 5873 449131 205396 195"
"165.045093"
"$GPRMC,010450,A,2436.1474,N,08049.1626,W,2.2,232.3,140615,6.3,"
"##MN-00 00 51 0070 01816 5873 449184 205412 195"
"165.045139"
"$GPRMC,010454,A,2436.1455,N,08049.1648,W,2.1,231.8,140615,6.3,"
"##MN-00 00 52 0071 01821 5874 449248 205422 195"
"165.045185"
"$GPRMC,010458,A,2436.1443,N,08049.1669,W,2.1,232.5,140615,6.3,"
"##MN-00 00 52 0071 01822 5874 449296 205437 195"
"165.045231"
"$GPRMC,010502,A,2436.1429,N,08049.1691,W,2.1,232.9,140615,6.3,"
"##MN-00 00 52 0072 01826 5874 449313 205446 195"
"165.045278"
"$GPRMC,010506,A,2436.1414,N,08049.1712,W,2.1,233.0,140615,6.3,"
"##MN-00 00 50 0073 01828 5874 449408 205463 195"
"165.045324"
"$GPRMC,010510,A,2436.1400,N,08049.1732,W,2.2,233.9,140615,6.3,"
"##MN-00 00 52 0074 01827 5874 449547 205491 195"
"165.04537"
"$GPRMC,010514,A,2436.1387,N,08049.1757,W,2.2,233.5,140615,6.3,"
"##MN-00 00 51 0075 01831 5875 449624 205511 195"
"165.045417"
"$GPRMC,010518,A,2436.1375,N,08049.1782,W,2.2,233.6,140615,6.3,"
"##MN-00 00 50 0076 01834 5875 449668 205520 195"
"165.045463"
"$GPRMC,010522,A,2436.1361,N,08049.1803,W,2.2,233.5,140615,6.3,"
"##MN-00 00 50 0076 01836 5875 449768 205542 195"
"165.045509"
"$GPRMC,010526,A,2436.1346,N,08049.1825,W,2.2,234.2,140615,6.3,"
"##MN-00 00 51 0077 01837 5875 449899 205572 195"
"165.045556"
"$GPRMC,010530,A,2436.1335,N,08049.1844,W,2.2,234.4,140615,6.3,"
"##MN-00 00 51 0078 01841 5875 449969 205577 195"
"165.045602"
"$GPRMC,010534,A,2436.1317,N,08049.1865,W,2.1,234.0,140615,6.3,"
"##MN-00 00 53 0079 01843 5876 450090 205614 195"
"165.045648"
"$GPRMC,010538,A,2436.1302,N,08049.1886,W,2.1,232.8,140615,6.3,"
"##MN-00 00 50 0080 01844 5876 450228 205639 195"
"165.045694"
"$GPRMC,010542,A,2436.1285,N,08049.1905,W,2.1,232.9,140615,6.3,"
"##MN-00 00 53 0081 01845 5876 450360 205670 195"
"165.045741"
"$GPRMC,010546,A,2436.1272,N,08049.1925,W,2.1,232.3,140615,6.3,"
"##MN-00 00 52 0081 01852 5876 450458 205697 195"
"165.045787"
"$GPRMC,010550,A,2436.1259,N,08049.1943,W,2.2,232.9,140615,6.3,"
"##MN-00 00 51 0082 01853 5876 450590 205710 195"
"165.045833"
"$GPRMC,010554,A,2436.1243,N,08049.1962,W,2.1,232.6,140615,6.3,"
"##MN-00 00 52 0083 01856 5876 450773 205768 195"
"165.04588"
"$GPRMC,010558,A,2436.1230,N,08049.1984,W,2.1,233.1,140615,6.3,"
"##MN-00 00 52 0084 01857 5877 451389 205945 195"
"165.045926"
"$GPRMC,010602,A,2436.1213,N,08049.2005,W,2.1,234.4,140615,6.3,"
"##MN-00 00 52 0085 01859 5877 452265 206085 195"
"165.045972"
"$GPRMC,010606,A,2436.1200,N,08049.2027,W,2.1,234.3,140615,6.3,"
"##MN-00 00 51 0086 01862 5877 452851 206179 195"
"165.046019"
"$GPRMC,010610,A,2436.1185,N,08049.2046,W,2.1,234.9,140615,6.3,"
"##MN-00 00 54 0087 01864 5877 453327 206282 195"
"165.046065"
"$GPRMC,010614,A,2436.1171,N,08049.2067,W,2.1,234.2,140615,6.3,"
"##MN-00 00 53 0087 01868 5877 453580 206369 195"
"165.046111"
"$GPRMC,010618,A,2436.1159,N,08049.2089,W,2.1,235.0,140615,6.3,"
"##MN-00 00 53 0088 01870 5877 453785 206391 195"
"165.046157"
"$GPRMC,010622,A,2436.1145,N,08049.2110,W,2.2,234.2,140615,6.3,"
"##MN-00 00 52 0089 01875 5877 453886 206416 195"
"165.046204"
"$GPRMC,010626,A,2436.1131,N,08049.2129,W,2.2,233.3,140615,6.3,"
"##MN-00 00 51 0090 01880 5877 453985 206438 195"
"165.04625"
"$GPRMC,010630,A,2436.1115,N,08049.2150,W,2.2,232.8,140615,6.3,"
"##MN-00 00 52 0091 01880 5877 454110 206465 195"
"165.046296"
"$GPRMC,010634,A,2436.1101,N,08049.2172,W,2.2,232.6,140615,6.3,"
"##MN-00 00 53 0092 01882 5878 454210 206492 195"
"165.046343"
"$GPRMC,010638,A,2436.1086,N,08049.2193,W,2.2,233.0,140615,6.3,"
"##MN-00 00 53 0092 01884 5878 454323 206528 195"
"165.046389"
"$GPRMC,010642,A,2436.1071,N,08049.2211,W,2.2,232.4,140615,6.3,"
"##MN-00 00 52 0093 01890 5878 454424 206532 195"
"165.046435"
"$GPRMC,010646,A,2436.1058,N,08049.2229,W,2.1,232.6,140615,6.3,"
"##MN-00 00 52 0094 01892 5878 454684 206582 195"
"165.046481"
"$GPRMC,010650,A,2436.1046,N,08049.2251,W,2.2,232.7,140615,6.3,"
"##MN-00 00 52 0095 01893 5878 454872 206613 195"
"165.046528"
"$GPRMC,010654,A,2436.1031,N,08049.2273,W,2.1,233.7,140615,6.3,"
"##MN-00 00 52 0096 01899 5878 455076 206687 195"
"165.046574"
"$GPRMC,010659,A,2436.1012,N,08049.2299,W,2.2,233.8,140615,6.3,"
"##MN-00 00 52 0097 01902 5878 455363 206749 195"
"165.04662"
"$GPRMC,010703,A,2436.0999,N,08049.2320,W,2.2,233.4,140615,6.3,"
"##MN-00 00 53 0097 01906 5878 455646 206811 195"
"165.046667"
"$GPRMC,010706,A,2436.0988,N,08049.2335,W,2.1,233.2,140615,6.3,"
"##MN-00 00 53 0098 01908 5878 455856 206842 195"
"165.046713"
"$GPRMC,010710,A,2436.0974,N,08049.2357,W,2.1,233.9,140615,6.3,"
"##MN-00 00 53 0099 01911 5878 456002 206854 195"
"165.046759"
"$GPRMC,010715,A,2436.0958,N,08049.2382,W,2.1,235.2,140615,6.3,"
"##MN-00 00 54 0100 01917 5878 456232 206913 195"
"165.046806"
"$GPRMC,010719,A,2436.0945,N,08049.2403,W,2.1,234.9,140615,6.3,"
"##MN-00 00 50 0101 01920 5878 456686 207034 195"
"165.046852"
"$GPRMC,010723,A,2436.0927,N,08049.2428,W,2.2,234.6,140615,6.3,"
"##MN-00 00 54 0102 01920 5878 456913 207078 195"
"165.046898"
"$GPRMC,010727,A,2436.0909,N,08049.2453,W,2.2,234.0,140615,6.3,"
"##MN-00 00 52 0102 01927 5877 457057 207096 195"
"165.046944"
"$GPRMC,010731,A,2436.0894,N,08049.2475,W,2.1,233.7,140615,6.3,"
"##MN-00 00 52 0103 01931 5877 457251 207121 195"
"165.046991"
"$GPRMC,010735,A,2436.0880,N,08049.2494,W,2.1,232.4,140615,6.3,"
"##MN-00 00 51 0104 01937 5878 457469 207203 195"
"165.047037"
"$GPRMC,010739,A,2436.0864,N,08049.2512,W,2.1,230.7,140615,6.3,"
"##MN-00 00 52 0105 01940 5877 457858 207275 195"
"165.047083"
"$GPRMC,010743,A,2436.0854,N,08049.2529,W,2.1,231.2,140615,6.3,"
"##MN-00 00 51 0105 01943 5877 458100 207309 195"
"165.04713"
"$GPRMC,010747,A,2436.0841,N,08049.2547,W,2.1,231.4,140615,6.3,"
"##MN-00 00 54 0106 01951 5877 458338 207381 195"
"165.047176"
"$GPRMC,010751,A,2436.0823,N,08049.2572,W,2.1,232.3,140615,6.3,"
"##MN-00 00 51 0107 01953 5877 458589 207412 195"
"165.047222"
"$GPRMC,010755,A,2436.0811,N,08049.2594,W,2.1,232.4,140615,6.3,"
"##MN-00 00 54 0108 01959 5877 458712 207446 195"
"165.047269"
"$GPRMC,010759,A,2436.0797,N,08049.2613,W,2.1,232.5,140615,6.3,"
"##MN-00 00 52 0109 01963 5877 459031 207524 195"
"165.047315"
"$GPRMC,010803,A,2436.0782,N,08049.2634,W,2.1,232.9,140615,6.3,"
"##MN-00 00 52 0109 01968 5877 459252 207558 195"
"165.047361"
"$GPRMC,010807,A,2436.0768,N,08049.2655,W,2.2,233.7,140615,6.3,"
"##MN-00 00 52 0110 01968 5876 459422 207598 195"
"165.047407"
"$GPRMC,010811,A,2436.0753,N,08049.2678,W,2.1,234.0,140615,6.3,"
"##MN-00 00 52 0111 01975 5876 459634 207639 195"
"165.047454"
"$GPRMC,010815,A,2436.0736,N,08049.2700,W,2.1,234.3,140615,6.3,"
"##MN-00 00 52 0112 01978 5876 459898 207680 195"
"165.0475"
"$GPRMC,010819,A,2436.0721,N,08049.2720,W,2.1,234.4,140615,6.3,"
"##MN-00 00 53 0113 01980 5876 460310 207734 195"
"165.047546"
"$GPRMC,010823,A,2436.0710,N,08049.2742,W,2.2,233.9,140615,6.3,"
"##MN-00 00 52 0113 01989 5876 460801 207879 195"
"165.047593"
"$GPRMC,010827,A,2436.0697,N,08049.2764,W,2.2,233.7,140615,6.3,"
"##MN-00 00 52 0114 01990 5875 461009 207913 195"
"165.04765"
"$GPRMC,010831,A,2436.0683,N,08049.2785,W,2.1,233.3,140615,6.3,"
"##MN-00 00 52 0115 01997 5875 461706 208030 195"
"165.047697"
"$GPRMC,010835,A,2436.0668,N,08049.2805,W,2.1,233.3,140615,6.3,"
"##MN-00 00 53 0116 02000 5875 463125 208385 195"
"165.047743"
"$GPRMC,010839,A,2436.0654,N,08049.2825,W,2.1,233.4,140615,6.3,"
"##MN-00 00 52 0116 02004 5874 464397 208495 195"
"165.047789"
"$GPRMC,010843,A,2436.0638,N,08049.2844,W,2.1,232.7,140615,6.3,"
"##MN-00 00 52 0117 02013 5874 465736 208883 195"
"165.047836"
"$GPRMC,010847,A,2436.0621,N,08049.2865,W,2.2,232.6,140615,6.3,"
"##MN-00 00 52 0118 02015 5874 466961 209086 195"
"165.047882"
"$GPRMC,010851,A,2436.0605,N,08049.2887,W,2.1,231.8,140615,6.3,"
"##MN-00 00 50 0119 02021 5874 467673 209146 195"
"165.047928"
"$GPRMC,010855,A,2436.0591,N,08049.2906,W,2.2,231.5,140615,6.3,"
"##MN-00 00 51 0119 02023 5873 469026 209588 195"
"165.047975"
"$GPRMC,010859,A,2436.0575,N,08049.2926,W,2.2,231.2,140615,6.3,"
"##MN-00 00 51 0120 02028 5873 469534 209659 195"
"165.048021"
"$GPRMC,010903,A,2436.0562,N,08049.2944,W,2.2,232.3,140615,6.3,"
"##MN-00 00 51 0121 02031 5872 470725 209911 195"
"165.048067"
"$GPRMC,010907,A,2436.0546,N,08049.2963,W,2.2,232.0,140615,6.3,"
"##MN-00 00 51 0121 02038 5872 471387 209995 195"
"165.048113"
"$GPRMC,010911,A,2436.0533,N,08049.2981,W,2.2,231.8,140615,6.3,"
"##MN-00 00 48 0122 02038 5872 472963 210380 195"
"165.04816"
"$GPRMC,010915,A,2436.0516,N,08049.3003,W,2.2,231.9,140615,6.3,"
"##MN-00 00 48 0123 02039 5871 475105 210781 195"
"165.048206"
"$GPRMC,010919,A,2436.0497,N,08049.3028,W,2.2,231.6,140615,6.3,"
"##MN-00 00 50 0124 02044 5871 476084 210996 195"
"165.048252"
"$GPRMC,010923,A,2436.0483,N,08049.3051,W,2.3,231.8,140615,6.3,"
"##MN-00 00 50 0124 02048 5870 476467 210969 195"
"165.048299"
"$GPRMC,010927,A,2436.0469,N,08049.3074,W,2.3,232.0,140615,6.3,"
"##MN-00 00 51 0125 02052 5869 476762 210890 195"
"165.048345"
"$GPRMC,010931,A,2436.0453,N,08049.3092,W,2.3,231.9,140615,6.3,"
"##MN-00 00 49 0126 02054 5869 477515 211159 195"
"165.048391"
"$GPRMC,010935,A,2436.0436,N,08049.3114,W,2.3,231.6,140615,6.3,"
"##MN-00 00 51 0127 02058 5868 478447 211432 195"
"165.048438"
"$GPRMC,010939,A,2436.0417,N,08049.3137,W,2.3,231.5,140615,6.3,"
"##MN-00 00 50 0127 02061 5867 478954 211507 195"
"165.048484"
"$GPRMC,010943,A,2436.0403,N,08049.3158,W,2.3,231.3,140615,6.3,"
"##MN-00 00 51 0128 02067 5867 479560 211708 195"
"165.04853"
"$GPRMC,010947,A,2436.0385,N,08049.3176,W,2.2,231.4,140615,6.3,"
"##MN-00 00 52 0129 02070 5866 479924 211757 195"
"165.048576"
"$GPRMC,010951,A,2436.0369,N,08049.3198,W,2.2,231.8,140615,6.3,"
"##MN-00 00 51 0130 02072 5865 480406 211876 195"
"165.048623"
"$GPRMC,010955,A,2436.0356,N,08049.3217,W,2.2,232.0,140615,6.3,"
"##MN-00 00 52 0130 02077 5865 480905 211994 195"
"165.048669"
"$GPRMC,010959,A,2436.0343,N,08049.3238,W,2.2,231.8,140615,6.3,"
"##MN-00 00 51 0131 02084 5864 481236 212040 195"
"165.048715"
"$GPRMC,011003,A,2436.0328,N,08049.3259,W,2.2,231.6,140615,6.3,"
"##MN-00 00 52 0132 02088 5863 481549 212025 195"
"165.048762"
"$GPRMC,011007,A,2436.0313,N,08049.3278,W,2.2,231.0,140615,6.3,"
"##MN-00 00 50 0132 02093 5862 482189 212257 195"
"165.048808"
"$GPRMC,011011,A,2436.0299,N,08049.3298,W,2.2,231.6,140615,6.3,"
"##MN-00 00 50 0133 02096 5861 482821 212363 195"
"165.048854"
"$GPRMC,011015,A,2436.0284,N,08049.3320,W,2.2,232.4,140615,6.3,"
"##MN-00 00 50 0134 02099 5860 483136 212432 195"
"165.0489"
"$GPRMC,011019,A,2436.0269,N,08049.3342,W,2.2,232.4,140615,6.3,"
"##MN-00 00 50 0134 02106 5859 483341 212440 195"
"165.048947"
"$GPRMC,011023,A,2436.0252,N,08049.3363,W,2.2,232.4,140615,6.3,"
"##MN-00 00 48 0135 02108 5858 483459 212486 195"
"165.048993"
"$GPRMC,011027,A,2436.0239,N,08049.3385,W,2.2,233.3,140615,6.3,"
"##MN-00 00 50 0136 02111 5857 483618 212525 195"
"165.049039"
"$GPRMC,011031,A,2436.0224,N,08049.3407,W,2.2,234.8,140615,6.3,"
"##MN-00 00 50 0137 02115 5855 483887 212556 195"
"165.049086"
"$GPRMC,011035,A,2436.0212,N,08049.3432,W,2.3,234.9,140615,6.3,"
"##MN-00 00 50 0137 02119 5855 484417 212653 195"
"165.049132"
"$GPRMC,011039,A,2436.0198,N,08049.3454,W,2.2,234.9,140615,6.3,"
"##MN-00 00 50 0138 02122 5853 485183 212836 195"
"165.049178"
"$GPRMC,011043,A,2436.0184,N,08049.3475,W,2.3,234.8,140615,6.3,"
"##MN-00 00 49 0139 02123 5852 485844 213000 195"
"165.049225"
"$GPRMC,011047,A,2436.0168,N,08049.3497,W,2.3,234.3,140615,6.3,"
"##MN-00 00 49 0140 02128 5851 486551 213155 195"
"165.049271"
"$GPRMC,011051,A,2436.0148,N,08049.3519,W,2.3,234.1,140615,6.3,"
"##MN-00 00 49 0140 02131 5850 486993 213188 195"
"165.049317"
"$GPRMC,011055,A,2436.0126,N,08049.3544,W,2.3,231.8,140615,6.3,"
"##MN-00 00 49 0141 02133 5848 487188 213237 195"
"165.049363"
"$GPRMC,011059,A,2436.0110,N,08049.3563,W,2.2,231.1,140615,6.3,"
"##MN-00 00 50 0142 02142 5847 487498 213315 195"
"165.04941"
"$GPRMC,011103,A,2436.0096,N,08049.3585,W,2.2,231.1,140615,6.3,"
"##MN-00 00 47 0143 02141 5846 488180 213471 195"
"165.049456"
"$GPRMC,011107,A,2436.0082,N,08049.3606,W,2.2,231.8,140615,6.3,"
"##MN-00 00 50 0143 02143 5845 488640 213555 195"
"165.049502"
"$GPRMC,011111,A,2436.0064,N,08049.3628,W,2.2,232.2,140615,6.3,"
"##MN-00 00 51 0144 02149 5843 489111 213637 195"
"165.049549"
"$GPRMC,011115,A,2436.0049,N,08049.3649,W,2.3,232.5,140615,6.3,"
"##MN-00 00 51 0145 02153 5842 489378 213673 195"
"165.049595"
"$GPRMC,011119,A,2436.0034,N,08049.3667,W,2.2,231.5,140615,6.3,"
"##MN-00 00 50 0146 02157 5840 489791 213811 195"
"165.049641"
"$GPRMC,011123,A,2436.0017,N,08049.3688,W,2.2,231.2,140615,6.3,"
"##MN-00 00 50 0146 02159 5839 490388 213881 195"
"165.049687"
"$GPRMC,011127,A,2436.0005,N,08049.3707,W,2.2,231.7,140615,6.3,"
"##MN-00 00 52 0147 02161 5837 491048 214043 195"
"165.049734"
"$GPRMC,011132,A,2435.9982,N,08049.3736,W,2.3,230.9,140615,6.3,"
"##MN-00 00 50 0148 02167 5835 492279 214349 195"
"165.04978"
"$GPRMC,011136,A,2435.9966,N,08049.3762,W,2.3,232.0,140615,6.3,"
"##MN-00 00 50 0149 02167 5834 493039 214446 195"
"165.049826"
"$GPRMC,011139,A,2435.9955,N,08049.3780,W,2.3,231.3,140615,6.3,"
"##MN-00 00 50 0149 02175 5832 493667 214543 195"
"165.049873"
"$GPRMC,011143,A,2435.9942,N,08049.3802,W,2.3,232.1,140615,6.3,"
"##MN-00 00 49 0150 02177 5831 494571 214778 195"
"165.049919"
"$GPRMC,011148,A,2435.9926,N,08049.3831,W,2.3,232.3,140615,6.3,"
"##MN-00 00 51 0151 02179 5829 495665 215189 195"
"165.049965"
"$GPRMC,011152,A,2435.9912,N,08049.3848,W,2.3,233.0,140615,6.3,"
"##MN-00 00 51 0151 02186 5828 497395 215469 195"
"165.050012"
"$GPRMC,011156,A,2435.9894,N,08049.3866,W,2.3,232.9,140615,6.3,"
"##MN-00 00 50 0152 02188 5826 498529 215594 195"
"165.050058"
"$GPRMC,011200,A,2435.9877,N,08049.3887,W,2.2,232.5,140615,6.3,"
"##MN-00 00 51 0153 02193 5824 498967 215591 195"
"165.050104"
"$GPRMC,011204,A,2435.9865,N,08049.3903,W,2.2,232.2,140615,6.3,"
"##MN-00 00 50 0153 02199 5822 499806 215909 195"
"165.05015"
"$GPRMC,011208,A,2435.9848,N,08049.3925,W,2.2,232.9,140615,6.3,"
"##MN-00 00 50 0154 02203 5820 500328 216001 195"
"165.050197"
"$GPRMC,011212,A,2435.9832,N,08049.3945,W,2.3,234.3,140615,6.3,"
"##MN-00 00 51 0155 02208 5819 500568 215968 195"
"165.050243"
"$GPRMC,011216,A,2435.9816,N,08049.3968,W,2.2,234.6,140615,6.3,"
"##MN-00 00 48 0156 02211 5817 501188 216167 195"
"165.050289"
"$GPRMC,011220,A,2435.9799,N,08049.3989,W,2.2,233.8,140615,6.3,"
"##MN-00 00 50 0156 02216 5815 502214 216446 195"
"165.050336"
"$GPRMC,011224,A,2435.9785,N,08049.4010,W,2.2,233.8,140615,6.3,"
"##MN-00 00 50 0157 02223 5813 503018 216620 195"
"165.050382"
"$GPRMC,011228,A,2435.9771,N,08049.4032,W,2.2,233.2,140615,6.3,"
"##MN-00 00 50 0158 02230 5811 503716 216706 195"
"165.050428"
"$GPRMC,011232,A,2435.9756,N,08049.4053,W,2.2,233.0,140615,6.3,"
"##MN-00 00 50 0158 02231 5809 504012 216747 195"
"165.050475"
"$GPRMC,011236,A,2435.9738,N,08049.4075,W,2.2,232.7,140615,6.3,"
"##MN-00 00 50 0159 02240 5807 504100 216777 195"
"165.050521"
"$GPRMC,011240,A,2435.9724,N,08049.4100,W,2.2,232.5,140615,6.3,"
"##MN-00 00 48 0160 02240 5805 504231 216798 195"
"165.050567"
"$GPRMC,011244,A,2435.9706,N,08049.4123,W,2.3,233.2,140615,6.3,"
"##MN+00 00 51 0160 02243 5803 504492 216865 195"
"165.050613"
"$GPRMC,011248,A,2435.9692,N,08049.4147,W,2.3,231.9,140615,6.3,"
"##MN+00 00 49 0161 02250 5801 504583 216879 195"
"165.05066"
"$GPRMC,011252,A,2435.9677,N,08049.4169,W,2.3,232.6,140615,6.3,"
"##MN+00 00 50 0162 02254 5799 504673 216902 195"
"165.050706"
"$GPRMC,011256,A,2435.9662,N,08049.4191,W,2.2,232.6,140615,6.3,"
"##MN-00 00 50 0162 02260 5797 505059 216993 195"
"165.050752"
"$GPRMC,011300,A,2435.9646,N,08049.4209,W,2.2,232.4,140615,6.3,"
"##MN-00 00 50 0163 02263 5794 505290 217009 195"
"165.050799"
"$GPRMC,011304,A,2435.9633,N,08049.4232,W,2.3,232.3,140615,6.3,"
"##MN-00 00 51 0163 02269 5792 505721 217131 195"
"165.050845"
"$GPRMC,011308,A,2435.9619,N,08049.4252,W,2.3,231.5,140615,6.3,"
"##MN-00 00 50 0164 02276 5790 506370 217257 195"
"165.050903"
"$GPRMC,011312,A,2435.9604,N,08049.4271,W,2.3,230.2,140615,6.3,"
"##MN+00 00 50 0165 02280 5788 507510 217527 195"
"165.050949"
"$GPRMC,011316,A,2435.9590,N,08049.4292,W,2.2,229.5,140615,6.3,"
"##MN+00 00 49 0165 02283 5785 508732 217732 195"
"165.050995"
"$GPRMC,011320,A,2435.9576,N,08049.4308,W,2.1,230.5,140615,6.3,"
"##MN+00 00 56 0166 02290 5783 509184 217764 195"
"165.051042"
"#increment_net"
"$GPRMC,011324,A,2435.9558,N,08049.4332,W,2.2,231.9,140615,6.3,"
"##MN-00 00 53 0167 02289 5781 509796 217871 195"
"165.051088"
"$GPRMC,011328,A,2435.9541,N,08049.4355,W,2.2,233.5,140615,6.3,"
"##MN-00 00 49 0167 02292 5778 510484 218012 195"
"165.051134"
"$GPRMC,011332,A,2435.9525,N,08049.4378,W,2.2,234.3,140615,6.3,"
"##MN-00 00 45 0168 02294 5776 511195 218147 195"
"165.051181"
"$GPRMC,011336,A,2435.9509,N,08049.4397,W,2.2,234.4,140615,6.3,"
"##MN-00 00 47 0169 02292 5773 511719 218321 195"
"165.051227"
"$GPRMC,011340,A,2435.9497,N,08049.4418,W,2.2,235.9,140615,6.3,"
"##MN-00 00 46 0170 02289 5771 511796 218281 195"
"165.051273"
"$GPRMC,011344,A,2435.9478,N,08049.4441,W,2.2,236.2,140615,6.3,"
"##MN-00 00 47 0171 02288 5768 511732 218275 194"
"165.051319"
"$GPRMC,011348,A,2435.9467,N,08049.4463,W,2.2,235.4,140615,6.3,"
"##MN-00 00 47 0171 02289 5766 511521 218334 195"
"165.051366"
"$GPRMC,011352,A,2435.9453,N,08049.4484,W,2.1,235.1,140615,6.3,"
"##MN-00 00 45 0172 02289 5763 511550 218320 195"
"165.051412"
"$GPRMC,011356,A,2435.9439,N,08049.4506,W,2.2,234.5,140615,6.3,"
"##MN-00 00 47 0173 02287 5761 511575 218335 195"
"165.051458"
"$GPRMC,011400,A,2435.9427,N,08049.4524,W,2.1,233.9,140615,6.3,"
"##MN-00 00 44 0174 02289 5758 511555 218346 195"
"165.051505"
"$GPRMC,011404,A,2435.9415,N,08049.4541,W,2.1,233.3,140615,6.3,"
"##MN-00 00 47 0174 02287 5755 511630 218365 195"
"165.051551"
"$GPRMC,011408,A,2435.9400,N,08049.4563,W,2.2,232.6,140615,6.3,"
"##MN-00 00 45 0175 02288 5753 511451 218325 195"
"165.051597"
"$GPRMC,011412,A,2435.9384,N,08049.4581,W,2.1,232.7,140615,6.3,"
"##MN-00 00 46 0176 02287 5751 511542 218340 195"
"165.051644"
"$GPRMC,011416,A,2435.9368,N,08049.4602,W,2.1,230.8,140615,6.3,"
"##MN-00 00 45 0177 02286 5748 511534 218343 195"
"165.05169"
"$GPRMC,011420,A,2435.9352,N,08049.4621,W,2.1,230.8,140615,6.3,"
"##MN-00 00 45 0178 02289 5745 511617 218352 194"
"165.051736"
"$GPRMC,011424,A,2435.9337,N,08049.4643,W,2.1,231.3,140615,6.3,"
"##MN-00 00 46 0178 02287 5742 511660 218361 195"
"165.051782"
"$GPRMC,011428,A,2435.9323,N,08049.4662,W,2.1,231.0,140615,6.3,"
"##MN-00 00 45 0179 02285 5739 511716 218376 194"
"165.051829"
"$GPRMC,011432,A,2435.9310,N,08049.4683,W,2.1,230.7,140615,6.3,"
"##MN-00 00 45 0180 02285 5737 511739 218381 194"
"165.051875"
"$GPRMC,011436,A,2435.9296,N,08049.4704,W,2.2,232.3,140615,6.3,"
"##MN-00 00 45 0181 02283 5734 511704 218374 194"
"165.051921"
"$GPRMC,011440,A,2435.9283,N,08049.4726,W,2.2,231.6,140615,6.3,"
"##MN-00 00 44 0182 02281 5731 511539 218324 194"
"165.051968"
"$GPRMC,011444,A,2435.9266,N,08049.4751,W,2.2,232.5,140615,6.3,"
"##MN-00 00 45 0182 02277 5728 511134 218238 194"
"165.052014"
"$GPRMC,011448,A,2435.9258,N,08049.4765,W,2.2,233.3,140615,6.3,"
"##MN-00 00 45 0183 02277 5725 510836 218181 195"
"165.05206"
"$GPRMC,011452,A,2435.9244,N,08049.4781,W,2.2,233.1,140615,6.3,"
"##MN-00 00 46 0184 02275 5722 510421 218118 194"
"165.052106"
"$GPRMC,011456,A,2435.9226,N,08049.4808,W,2.2,233.8,140615,6.3,"
"##MN-00 00 45 0185 02272 5719 510018 217998 194"
"165.052153"
"$GPRMC,011500,A,2435.9213,N,08049.4827,W,2.1,233.9,140615,6.3,"
"##MN-00 00 45 0185 02270 5717 508885 217825 194"
"165.052199"
"$GPRMC,011504,A,2435.9200,N,08049.4849,W,2.1,235.0,140615,6.3,"
"##MN-00 00 44 0186 02271 5714 508166 217668 194"
"165.052245"
"$GPRMC,011508,A,2435.9184,N,08049.4870,W,2.2,235.0,140615,6.3,"
"##MN-00 00 45 0187 02266 5711 507740 217569 195"
"165.052292"
"$GPRMC,011512,A,2435.9171,N,08049.4888,W,2.2,234.1,140615,6.3,"
"##MN-00 00 45 0188 02270 5708 507295 217483 194"
"165.052338"
"$GPRMC,011516,A,2435.9155,N,08049.4910,W,2.2,233.4,140615,6.3,"
"##MN-00 00 43 0188 02264 5705 506830 217370 194"
"165.052384"
"$GPRMC,011520,A,2435.9148,N,08049.4926,W,2.2,234.1,140615,6.3,"
"##MN-00 00 47 0189 02260 5702 506131 217218 194"
"165.052431"
"$GPRMC,011524,A,2435.9124,N,08049.4954,W,2.2,232.9,140615,6.3,"
"##MN-00 00 46 0190 02261 5699 505945 217175 194"
"165.052477"
"$GPRMC,011528,A,2435.9108,N,08049.4976,W,2.2,232.6,140615,6.3,"
"##MN-00 00 46 0190 02256 5696 505796 217146 194"
"165.052523"
"$GPRMC,011532,A,2435.9099,N,08049.4990,W,2.1,232.8,140615,6.3,"
"##MN-00 00 45 0191 02254 5693 505715 217125 194"
"165.052569"
"$GPRMC,011536,A,2435.9082,N,08049.5012,W,2.2,233.0,140615,6.3,"
"##MN-00 00 44 0192 02253 5690 505684 217119 194"
"165.052616"
"$GPRMC,011540,A,2435.9063,N,08049.5040,W,2.2,233.5,140615,6.3,"
"##MN-00 00 44 0193 02251 5687 505642 217118 194"
"165.052662"
"$GPRMC,011544,A,2435.9048,N,08049.5058,W,2.2,233.1,140615,6.3,"
"##MN-00 00 44 0194 02247 5684 505527 217091 194"
"165.052708"
"$GPRMC,011548,A,2435.9034,N,08049.5079,W,2.1,233.6,140615,6.3,"
"##MN-00 00 44 0194 02246 5682 505360 217052 194"
"165.052755"
"$GPRMC,011552,A,2435.9024,N,08049.5094,W,2.1,233.0,140615,6.3,"
"##MN-00 00 43 0195 02243 5679 505224 217031 194"
"165.052801"
"$GPRMC,011556,A,2435.9005,N,08049.5120,W,2.2,233.0,140615,6.3,"
"##MN-00 00 45 0196 02241 5676 505040 217002 194"
"165.052847"
"$GPRMC,011600,A,2435.8992,N,08049.5141,W,2.1,233.5,140615,6.3,"
"##MN-00 00 44 0197 02237 5673 504821 216955 194"
"165.052894"
"$GPRMC,011604,A,2435.8977,N,08049.5162,W,2.2,233.3,140615,6.3,"
"##MN-00 00 44 0198 02232 5670 504549 216900 194"
"165.05294"
"$GPRMC,011608,A,2435.8963,N,08049.5181,W,2.1,233.2,140615,6.3,"
"##MN-00 00 44 0199 02231 5667 504392 216885 194"
"165.052986"
"$GPRMC,011612,A,2435.8954,N,08049.5203,W,2.2,232.9,140615,6.3,"
"##MN-00 00 44 0199 02227 5664 504207 216845 194"
"165.053032"
"$GPRMC,011616,A,2435.8940,N,08049.5227,W,2.2,232.7,140615,6.3,"
"##MN-00 00 46 0200 02217 5661 504102 216823 194"
"165.053079"
"$GPRMC,011621,A,2435.8918,N,08049.5257,W,2.2,233.6,140615,6.3,"
"##MN-00 00 43 0201 02219 5659 504010 216797 194"
"165.053125"
"$GPRMC,011625,A,2435.8904,N,08049.5279,W,2.2,234.3,140615,6.3,"
"##MN-00 00 43 0202 02212 5656 503842 216779 194"
"165.053171"
"$GPRMC,011629,A,2435.8887,N,08049.5301,W,2.3,234.5,140615,6.3,"
"##MN-00 00 48 0203 02201 5653 503523 216713 194"
"165.053218"
"$GPRMC,011633,A,2435.8871,N,08049.5322,W,2.3,235.0,140615,6.3,"
"##MN-00 00 45 0203 02201 5650 502581 216523 194"
"165.053264"
"$GPRMC,011637,A,2435.8857,N,08049.5345,W,2.3,235.3,140615,6.3,"
"##MN-00 00 46 0204 02195 5647 501788 216415 194"
"165.05331"
"$GPRMC,011641,A,2435.8842,N,08049.5368,W,2.3,234.9,140615,6.3,"
"##MN-00 00 46 0205 02191 5645 501279 216319 194"
"165.053356"
"$GPRMC,011645,A,2435.8829,N,08049.5392,W,2.2,235.1,140615,6.3,"
"##MN-00 00 44 0206 02185 5642 500757 216160 194"
"165.053403"
"$GPRMC,011649,A,2435.8814,N,08049.5415,W,2.3,234.8,140615,6.3,"
"##MN-00 00 48 0207 02178 5639 500070 216017 194"
"165.053449"
"$GPRMC,011653,A,2435.8800,N,08049.5435,W,2.2,234.3,140615,6.3,"
"##MN-00 00 45 0208 02178 5636 499408 215929 194"
"165.053495"
"$GPRMC,011657,A,2435.8785,N,08049.5455,W,2.2,234.3,140615,6.3,"
"##MN-00 00 45 0208 02170 5634 498825 215784 194"
"165.053542"
"$GPRMC,011701,A,2435.8770,N,08049.5475,W,2.2,233.8,140615,6.3,"
"##MN-00 00 50 0209 02167 5631 497623 215522 194"
"165.053588"
"$GPRMC,011705,A,2435.8753,N,08049.5500,W,2.2,233.1,140615,6.3,"
"##MN-00 00 45 0210 02164 5628 496425 215262 194"
"165.053634"
"$GPRMC,011709,A,2435.8741,N,08049.5524,W,2.2,233.3,140615,6.3,"
"##MN-00 00 45 0211 02157 5626 495411 215024 194"
"165.053681"
"$GPRMC,011713,A,2435.8724,N,08049.5546,W,2.3,233.7,140615,6.3,"
"##MN-00 00 46 0212 02151 5623 494106 214871 194"
"165.053727"
"$GPRMC,011717,A,2435.8712,N,08049.5567,W,2.2,234.3,140615,6.3,"
"##MN-00 00 46 0213 02150 5620 492934 214611 194"
"165.053773"
"$GPRMC,011721,A,2435.8698,N,08049.5585,W,2.2,234.3,140615,6.3,"
"##MN-00 00 45 0213 02143 5618 491271 214167 194"
"165.053819"
"$GPRMC,011725,A,2435.8684,N,08049.5607,W,2.2,234.3,140615,6.3,"
"##MN-00 00 46 0214 02141 5615 489736 213994 194"
"165.053866"
"$GPRMC,011729,A,2435.8673,N,08049.5622,W,2.1,234.3,140615,6.3,"
"##MN-00 00 46 0215 02137 5612 488714 213745 194"
"165.053912"
"$GPRMC,011733,A,2435.8661,N,08049.5644,W,2.1,233.6,140615,6.3,"
"##MN-00 00 46 0216 02134 5610 487652 213566 194"
"165.053958"
"$GPRMC,011737,A,2435.8647,N,08049.5663,W,2.1,234.0,140615,6.3,"
"##MN-00 00 46 0217 02131 5607 486386 213232 194"
"165.054016"
"$GPRMC,011741,A,2435.8629,N,08049.5691,W,2.2,234.6,140615,6.3,"
"##MN-00 00 46 0218 02125 5605 484407 212812 194"
"165.054063"
"$GPRMC,011745,A,2435.8617,N,08049.5712,W,2.2,235.0,140615,6.3,"
"##MN-00 00 48 0219 02120 5603 483768 212672 194"
"165.054109"
"$GPRMC,011749,A,2435.8604,N,08049.5730,W,2.2,235.2,140615,6.3,"
"##MN-00 00 47 0220 02120 5600 483460 212622 194"
"165.054155"
"$GPRMC,011753,A,2435.8589,N,08049.5749,W,2.1,234.2,140615,6.3,"
"##MN-00 00 46 0220 02120 5598 483151 212497 194"
"165.054201"
"$GPRMC,011757,A,2435.8576,N,08049.5770,W,2.1,234.0,140615,6.3,"
"##MN+00 00 46 0221 02116 5596 482978 212431 194"
"165.054248"
"$GPRMC,011801,A,2435.8562,N,08049.5787,W,2.1,234.8,140615,6.3,"
"##MN+00 00 49 0222 02111 5593 482721 212389 194"
"165.054294"
"$GPRMC,011805,A,2435.8549,N,08049.5805,W,2.0,235.3,140615,6.3,"
"##MN+00 00 46 0223 02110 5591 482585 212387 194"
"165.05434"
"$GPRMC,011809,A,2435.8536,N,08049.5828,W,2.1,235.0,140615,6.3,"
"##MN-00 00 45 0224 02105 5589 482449 212364 194"
"165.054387"
"$GPRMC,011813,A,2435.8522,N,08049.5850,W,2.1,233.7,140615,6.3,"
"##MN-00 00 49 0225 02099 5587 482133 212253 194"
"165.054433"
"$GPRMC,011817,A,2435.8507,N,08049.5874,W,2.0,234.4,140615,6.3,"
"##MN-00 00 46 0225 02100 5585 481904 212193 194"
"165.054479"
"$GPRMC,011821,A,2435.8494,N,08049.5896,W,2.1,235.4,140615,6.3,"
"##MN-00 00 47 0226 02094 5583 481641 212170 194"
"165.054525"
"$GPRMC,011825,A,2435.8479,N,08049.5915,W,2.1,235.6,140615,6.3,"
"##MN-00 00 48 0227 02090 5581 481177 212096 194"
"165.054572"
"$GPRMC,011829,A,2435.8465,N,08049.5933,W,2.1,235.9,140615,6.3,"
"##MN+00 00 48 0228 02088 5578 480871 212012 194"
"165.054618"
"$GPRMC,011833,A,2435.8452,N,08049.5952,W,2.1,235.7,140615,6.3,"
"##MN+00 00 53 0229 02090 5577 480324 211904 194"
"165.054664"
"$GPRMC,011837,A,2435.8438,N,08049.5972,W,2.1,234.9,140615,6.3,"
"##MN+00 00 47 0230 02085 5575 480013 211838 194"
"165.054711"
"$GPRMC,011841,A,2435.8423,N,08049.5991,W,2.1,235.2,140615,6.3,"
"##MN-00 00 46 0231 02080 5573 479595 211767 194"
"165.054757"
"$GPRMC,011845,A,2435.8411,N,08049.6012,W,2.1,234.4,140615,6.3,"
"##MN-00 00 46 0231 02075 5571 478899 211607 194"
"165.054803"
"#increment_net"
"$GPRMC,011849,A,2435.8398,N,08049.6031,W,2.1,233.7,140615,6.3,"
"##MN-00 00 46 0232 02075 5569 478180 211520 194"
"165.05485"
"$GPRMC,011853,A,2435.8384,N,08049.6051,W,1.9,232.7,140615,6.3,"
"##MN-00 00 45 0233 02069 5567 477434 211325 194"
"165.054896"
"$GPRMC,011857,A,2435.8369,N,08049.6069,W,2.0,231.6,140615,6.3,"
"##MN-00 00 45 0234 02068 5566 476479 211123 194"
"165.054942"
"$GPRMC,011901,A,2435.8356,N,08049.6087,W,2.0,231.8,140615,6.3,"
"##MN-00 00 46 0235 02063 5564 475558 210999 194"
"165.054988"
"$GPRMC,011905,A,2435.8344,N,08049.6111,W,2.0,232.7,140615,6.3,"
"##MN-00 00 45 0236 02058 5563 473619 210645 194"
"165.055035"
"$GPRMC,011909,A,2435.8330,N,08049.6128,W,2.0,233.0,140615,6.3,"
"##MN-00 00 46 0236 02057 5561 471404 210170 194"
"165.055081"
"$GPRMC,011913,A,2435.8316,N,08049.6147,W,2.0,233.2,140615,6.3,"
"##MN-00 00 46 0237 02051 5559 470564 210008 194"
"165.055127"
"$GPRMC,011917,A,2435.8301,N,08049.6171,W,2.1,233.9,140615,6.3,"
"##MN-00 00 46 0238 02048 5558 469815 209875 194"
"165.055174"
"$GPRMC,011921,A,2435.8288,N,08049.6192,W,2.1,234.5,140615,6.3,"
"##MN-00 00 45 0239 02044 5556 468896 209668 194"
"165.05522"
"$GPRMC,011925,A,2435.8273,N,08049.6219,W,2.1,235.0,140615,6.3,"
"##MN-00 00 46 0240 02038 5554 468389 209539 194"
"165.055266"
"$GPRMC,011929,A,2435.8259,N,08049.6239,W,2.1,234.6,140615,6.3,"
"##MN-00 00 46 0241 02033 5553 467639 209433 194"
"165.055312"
"$GPRMC,011933,A,2435.8246,N,08049.6257,W,2.1,235.1,140615,6.3,"
"##MN-00 00 46 0242 02030 5552 467154 209283 194"
"165.055359"
"$GPRMC,011937,A,2435.8232,N,08049.6283,W,2.1,235.5,140615,6.3,"
"##MN-00 00 46 0242 02025 5550 466957 209239 194"
"165.055405"
"$GPRMC,011941,A,2435.8219,N,08049.6304,W,2.1,236.0,140615,6.3,"
"##MN-00 00 48 0243 02025 5549 466720 209175 194"
"165.055451"
"$GPRMC,011945,A,2435.8205,N,08049.6324,W,2.1,237.0,140615,6.3,"
"##MN-00 00 47 0244 02020 5547 466223 209105 194"
"165.055498"
"$GPRMC,011949,A,2435.8192,N,08049.6344,W,2.1,236.3,140615,6.3,"
"##MN-00 00 47 0245 02016 5546 465247 208845 194"
"165.055544"
"$GPRMC,011953,A,2435.8181,N,08049.6359,W,2.2,235.6,140615,6.3,"
"##MN-00 00 48 0246 02012 5545 464638 208751 194"
"165.05559"
"$GPRMC,011957,A,2435.8168,N,08049.6378,W,2.1,234.0,140615,6.3,"
"##MN-00 00 45 0247 02010 5544 463715 208559 194"
"165.055637"
"$GPRMC,012001,A,2435.8156,N,08049.6395,W,2.1,232.5,140615,6.3,"
"##MN-00 00 48 0248 02006 5543 462952 208393 194"
"165.055683"
"$GPRMC,012005,A,2435.8141,N,08049.6413,W,2.0,232.4,140615,6.3,"
"##MN-00 00 46 0249 02005 5542 462117 208218 194"
"165.055729"
"$GPRMC,012009,A,2435.8130,N,08049.6432,W,2.1,231.7,140615,6.3,"
"##MN-00 00 49 0250 01999 5541 461550 208175 194"
"165.055775"
"$GPRMC,012013,A,2435.8120,N,08049.6449,W,2.0,232.1,140615,6.3,"
"##MN-00 00 45 0251 01996 5540 461217 208029 194"
"165.055822"
"$GPRMC,012017,A,2435.8107,N,08049.6467,W,2.1,232.6,140615,6.3,"
"##MN-00 00 48 0251 01992 5539 460757 207951 194"
"165.055868"
"$GPRMC,012021,A,2435.8092,N,08049.6488,W,2.0,232.4,140615,6.3,"
"##MN-00 00 46 0252 01989 5538 459726 207732 194"
"165.055914"
"$GPRMC,012025,A,2435.8080,N,08049.6507,W,2.1,232.7,140615,6.3,"
"##MN-00 00 46 0253 01984 5537 459360 207659 194"
"165.055961"
"$GPRMC,012029,A,2435.8065,N,08049.6529,W,2.1,232.5,140615,6.3,"
"##MN-00 00 46 0254 01982 5536 459054 207596 194"
"165.056007"
"$GPRMC,012033,A,2435.8051,N,08049.6550,W,2.1,234.6,140615,6.3,"
"##MN-00 00 46 0255 01977 5536 458758 207517 194"
"165.056053"
"$GPRMC,012037,A,2435.8036,N,08049.6575,W,2.1,235.6,140615,6.3,"
"##MN-00 00 49 0256 01971 5535 458549 207476 194"
"165.0561"
"$GPRMC,012041,A,2435.8023,N,08049.6595,W,2.1,236.4,140615,6.3,"
"##MN-00 00 48 0257 01970 5534 458377 207449 194"
"165.056146"
"$GPRMC,012045,A,2435.8010,N,08049.6616,W,2.1,236.3,140615,6.3,"
"##MN-00 00 47 0258 01964 5533 458210 207412 194"
"165.056192"
"$GPRMC,012049,A,2435.7997,N,08049.6638,W,2.1,236.0,140615,6.3,"
"##MN-00 00 48 0259 01961 5533 457965 207356 194"
"165.056238"
"$GPRMC,012053,A,2435.7984,N,08049.6659,W,2.1,236.1,140615,6.3,"
"##MN-00 00 46 0260 01960 5532 457852 207347 194"
"165.056285"
"$GPRMC,012058,A,2435.7969,N,08049.6685,W,2.1,236.5,140615,6.3,"
"##MN-00 00 47 0261 01951 5532 457646 207282 194"
"165.056331"
"$GPRMC,012101,A,2435.7958,N,08049.6702,W,2.0,236.2,140615,6.3,"
"##MN-00 00 51 0262 01950 5531 457391 207222 194"
"165.056377"
"$GPRMC,012106,A,2435.7943,N,08049.6730,W,2.0,235.8,140615,6.3,"
"##MN-00 00 47 0263 01949 5531 457212 207155 194"
"165.056424"
"$GPRMC,012110,A,2435.7929,N,08049.6749,W,2.1,236.5,140615,6.3,"
"##MN-00 00 47 0264 01943 5530 456983 207120 194"
"165.05647"
"$GPRMC,012113,A,2435.7919,N,08049.6761,W,2.0,235.5,140615,6.3,"
"##MN-00 00 50 0265 01940 5530 456839 207090 194"
"165.056516"
"$GPRMC,012118,A,2435.7903,N,08049.6783,W,2.0,234.6,140615,6.3,"
"##MN-00 00 48 0265 01936 5529 456730 207068 194"
"165.056562"
"$GPRMC,012122,A,2435.7892,N,08049.6803,W,1.9,233.5,140615,6.3,"
"##MN-00 00 48 0266 01935 5529 456608 207080 194"
"165.056609"
"$GPRMC,012126,A,2435.7879,N,08049.6818,W,1.9,232.7,140615,6.3,"
"##MN-00 00 47 0267 01929 5529 456416 207006 194"
"165.056655"
"$GPRMC,012130,A,2435.7865,N,08049.6836,W,2.1,232.5,140615,6.3,"
"##MN-00 00 49 0268 01922 5529 456103 206939 194"
"165.056701"
"$GPRMC,012134,A,2435.7851,N,08049.6857,W,2.0,232.6,140615,6.3,"
"##MN-00 00 49 0269 01923 5529 455837 206892 194"
"165.056748"
"$GPRMC,012138,A,2435.7838,N,08049.6875,W,1.9,233.2,140615,6.3,"
"##MN-00 00 48 0270 01916 5528 455575 206810 194"
"165.056794"
"$GPRMC,012142,A,2435.7824,N,08049.6898,W,2.1,233.6,140615,6.3,"
"##MN+00 00 50 0271 01912 5528 455136 206739 194"
"165.05684"
"$GPRMC,012146,A,2435.7810,N,08049.6919,W,2.0,233.5,140615,6.3,"
"##MN+00 00 49 0272 01912 5528 454887 206711 194"
"165.056887"
"$GPRMC,012150,A,2435.7796,N,08049.6940,W,2.1,234.1,140615,6.3,"
"##MN+00 00 49 0273 01906 5528 454717 206654 194"
"165.056933"
"$GPRMC,012154,A,2435.7784,N,08049.6960,W,2.0,234.8,140615,6.3,"
"##MN-00 00 49 0274 01903 5528 454561 206623 194"
"165.056979"
"$GPRMC,012158,A,2435.7769,N,08049.6980,W,2.0,234.4,140615,6.3,"
"##MN+00 00 49 0275 01898 5528 454423 206571 194"
"165.057025"
"$GPRMC,012202,A,2435.7753,N,08049.7002,W,2.1,235.2,140615,6.3,"
"##MN+00 00 50 0276 01895 5528 454191 206527 194"
"165.057072"
"$GPRMC,012206,A,2435.7738,N,08049.7020,W,2.1,236.2,140615,6.3,"
"##MN+00 00 60 0277 01896 5528 453849 206474 194"
"165.057118"
"$GPRMC,012210,A,2435.7726,N,08049.7039,W,2.1,236.8,140615,6.3,"
"##MN-00 00 53 0278 01888 5528 453698 206430 194"
"165.057176"
"#increment_net"
"$GPRMC,012214,A,2435.7715,N,08049.7059,W,2.1,237.3,140615,6.3,"
"##MN-00 00 52 0279 01883 5528 453532 206393 194"
"165.057222"
"$GPRMC,012218,A,2435.7704,N,08049.7081,W,2.1,237.2,140615,6.3,"
"##MN-00 00 51 0280 01883 5528 453371 206351 194"
"165.057269"
"$GPRMC,012222,A,2435.7693,N,08049.7099,W,2.1,236.2,140615,6.3,"
"##MN-00 00 49 0281 01879 5528 453172 206307 194"
"165.057315"
"$GPRMC,012226,A,2435.7682,N,08049.7117,W,2.0,235.5,140615,6.3,"
"##MN-00 00 48 0282 01874 5528 452856 206271 194"
"165.057361"
"$GPRMC,012230,A,2435.7669,N,08049.7136,W,1.9,235.2,140615,6.3,"
"##MN-00 00 49 0283 01870 5528 452038 206168 194"
"165.057407"
"$GPRMC,012234,A,2435.7657,N,08049.7157,W,1.9,235.6,140615,6.3,"
"##MN-00 00 48 0284 01867 5529 451177 205908 194"
"165.057454"
"$GPRMC,012238,A,2435.7646,N,08049.7176,W,2.0,236.4,140615,6.3,"
"##MN-00 00 50 0285 01863 5529 450466 205775 194"
"165.0575"
"$GPRMC,012242,A,2435.7635,N,08049.7196,W,2.1,235.9,140615,6.3,"
"##MN-00 00 49 0286 01861 5529 450075 205677 194"
"165.057546"
"$GPRMC,012246,A,2435.7622,N,08049.7215,W,2.0,236.1,140615,6.3,"
"##MN-00 00 51 0287 01857 5529 449884 205635 194"
"165.057593"
"$GPRMC,012250,A,2435.7608,N,08049.7240,W,2.1,237.0,140615,6.3,"
"##MN-00 00 50 0288 01850 5529 449711 205571 194"
"165.057639"
"$GPRMC,012254,A,2435.7596,N,08049.7261,W,2.1,238.5,140615,6.3,"
"##MN-00 00 50 0289 01849 5530 449557 205540 194"
"165.057685"
"$GPRMC,012258,A,2435.7583,N,08049.7281,W,2.1,238.1,140615,6.3,"
"##MN-00 00 50 0290 01848 5530 449460 205548 194"
"165.057731"
"$GPRMC,012302,A,2435.7569,N,08049.7299,W,2.1,237.4,140615,6.3,"
"##MN-00 00 50 0291 01846 5530 449384 205531 194"
"165.057778"
"$GPRMC,012306,A,2435.7556,N,08049.7319,W,2.0,236.6,140615,6.3,"
"##MN-00 00 48 0292 01843 5531 449261 205473 194"
"165.057824"
"$GPRMC,012310,A,2435.7543,N,08049.7341,W,2.0,236.2,140615,6.3,"
"##MN-00 00 49 0293 01838 5531 449054 205408 194"
"165.05787"
"$GPRMC,012314,A,2435.7531,N,08049.7366,W,2.0,236.7,140615,6.3,"
"##MN-00 00 51 0294 01835 5531 448881 205385 194"
"165.057917"
"$GPRMC,012318,A,2435.7517,N,08049.7386,W,2.0,236.9,140615,6.3,"
"##MN-00 00 51 0295 01835 5532 448813 205366 194"
"165.057963"
"$GPRMC,012322,A,2435.7505,N,08049.7404,W,2.0,236.4,140615,6.3,"
"##MN-00 00 51 0296 01832 5532 448687 205343 194"
"165.058009"
"$GPRMC,012326,A,2435.7492,N,08049.7428,W,1.9,235.1,140615,6.3,"
"##MN-00 00 50 0297 01832 5533 448616 205330 194"
"165.058056"
"$GPRMC,012330,A,2435.7480,N,08049.7444,W,2.0,234.7,140615,6.3,"
"##MN-00 00 52 0298 01831 5534 448601 205319 194"
"165.058102"
"$GPRMC,012334,A,2435.7466,N,08049.7465,W,2.0,234.0,140615,6.3,"
"##MN-00 00 50 0299 01831 5534 448425 205279 194"
"165.058148"
"$GPRMC,012338,A,2435.7453,N,08049.7485,W,1.9,234.2,140615,6.3,"
"##MN-00 00 49 0300 01829 5535 448226 205233 194"
"165.058194"
"$GPRMC,012342,A,2435.7440,N,08049.7507,W,2.1,234.0,140615,6.3,"
"##MN-00 00 54 0301 01824 5535 448131 205227 194"
"165.058241"
"$GPRMC,012346,A,2435.7427,N,08049.7529,W,2.1,234.5,140615,6.3,"
"##MN-00 00 53 0302 01825 5535 448165 205228 194"
"165.058287"
"$GPRMC,012350,A,2435.7415,N,08049.7551,W,2.1,235.7,140615,6.3,"
"##MN-00 00 49 0302 01822 5536 448073 205210 194"
"165.058333"
"$GPRMC,012354,A,2435.7399,N,08049.7573,W,2.1,235.6,140615,6.3,"
"##MN-00 00 52 0303 01818 5537 447953 205186 194"
"165.05838"
"$GPRMC,012358,A,2435.7387,N,08049.7590,W,2.0,235.7,140615,6.3,"
"##MN-00 00 50 0304 01822 5537 448018 205204 194"
"165.058426"
"$GPRMC,012402,A,2435.7372,N,08049.7613,W,2.1,235.8,140615,6.3,"
"##MN-00 00 50 0305 01816 5538 448130 205212 194"
"165.058472"
"$GPRMC,012406,A,2435.7357,N,08049.7637,W,2.1,235.7,140615,6.3,"
"##MN-00 00 52 0306 01816 5539 448225 205222 194"
"165.058519"
"$GPRMC,012410,A,2435.7345,N,08049.7659,W,2.1,235.4,140615,6.3,"
"##MN-00 00 51 0307 01814 5540 448069 205193 194"
"165.058565"
"$GPRMC,012414,A,2435.7333,N,08049.7680,W,2.1,235.3,140615,6.3,"
"##MN-00 00 52 0308 01814 5540 447833 205176 194"
"165.058611"
"$GPRMC,012418,A,2435.7321,N,08049.7699,W,2.0,237.3,140615,6.3,"
"##MN-00 00 50 0309 01813 5541 447716 205149 194"
"165.058657"
"$GPRMC,012422,A,2435.7307,N,08049.7721,W,2.1,236.9,140615,6.3,"
"##MN-00 00 52 0310 01810 5542 447653 205132 194"
"165.058704"
"$GPRMC,012426,A,2435.7296,N,08049.7742,W,2.0,238.0,140615,6.3,"
"##MN-00 00 50 0311 01812 5542 447665 205128 194"
"165.05875"
"$GPRMC,012430,A,2435.7283,N,08049.7761,W,2.0,238.0,140615,6.3,"
"##MN-00 00 51 0312 01809 5543 447656 205123 194"
"165.058796"
"$GPRMC,012434,A,2435.7271,N,08049.7780,W,2.0,237.6,140615,6.3,"
"##MN-00 00 50 0313 01809 5544 447647 205122 194"
"165.058843"
"$GPRMC,012438,A,2435.7260,N,08049.7800,W,2.0,237.9,140615,6.3,"
"##MN-00 00 48 0314 01807 5545 447612 205118 194"
"165.058889"
"$GPRMC,012442,A,2435.7246,N,08049.7825,W,2.1,237.0,140615,6.3,"
"##MN-00 00 51 0315 01802 5545 447641 205123 194"
"165.058935"
"$GPRMC,012446,A,2435.7232,N,08049.7843,W,2.1,237.2,140615,6.3,"
"##MN-00 00 52 0316 01803 5546 447702 205131 194"
"165.058981"
"$GPRMC,012450,A,2435.7220,N,08049.7862,W,2.2,236.6,140615,6.3,"
"##MN-00 00 51 0317 01801 5547 447706 205133 194"
"165.059028"
"$GPRMC,012454,A,2435.7206,N,08049.7886,W,2.1,235.6,140615,6.3,"
"##MN-00 00 51 0317 01802 5548 447635 205125 194"
"165.059074"
"$GPRMC,012458,A,2435.7195,N,08049.7905,W,2.1,235.3,140615,6.3,"
"##MN-00 00 49 0318 01800 5548 447472 205107 194"
"165.05912"
"$GPRMC,012502,A,2435.7181,N,08049.7928,W,2.1,235.3,140615,6.3,"
"##MN-00 00 50 0319 01800 5549 447457 205103 194"
"165.059167"
"$GPRMC,012506,A,2435.7168,N,08049.7949,W,2.1,235.5,140615,6.3,"
"##MN-00 00 49 0320 01799 5550 447499 205105 194"
"165.059213"
"$GPRMC,012510,A,2435.7155,N,08049.7970,W,2.1,236.9,140615,6.3,"
"##MN-00 00 49 0321 01794 5551 447523 205106 194"
"165.059259"
"$GPRMC,012514,A,2435.7142,N,08049.7991,W,2.1,237.0,140615,6.3,"
"##MN-00 00 51 0322 01792 5552 447514 205105 194"
"165.059306"
"$GPRMC,012518,A,2435.7131,N,08049.8013,W,2.1,238.1,140615,6.3,"
"##MN-00 00 48 0323 01790 5553 447479 205101 194"
"165.059352"
"$GPRMC,012523,A,2435.7117,N,08049.8042,W,2.2,238.2,140615,6.3,"
"##MN-00 00 49 0324 01787 5554 447466 205098 194"
"165.059398"
"$GPRMC,012526,A,2435.7108,N,08049.8056,W,2.1,238.2,140615,6.3,"
"##MN-00 00 49 0325 01786 5555 447451 205096 194"
"165.059444"
"$GPRMC,012530,A,2435.7096,N,08049.8078,W,2.2,238.3,140615,6.3,"
"##MN-00 00 51 0326 01783 5555 447424 205095 194"
"165.059491"
"$GPRMC,012534,A,2435.7084,N,08049.8100,W,2.1,238.3,140615,6.3,"
"##MN-00 00 50 0327 01783 5557 447408 205095 194"
"165.059537"
"$GPRMC,012539,A,2435.7072,N,08049.8123,W,2.1,238.1,140615,6.3,"
"##MN-00 00 49 0328 01779 5558 447413 205094 194"
"165.059583"
"$GPRMC,012542,A,2435.7061,N,08049.8140,W,2.1,236.9,140615,6.3,"
"##MN-00 00 49 0329 01779 5558 447404 205093 194"
"165.05963"
"$GPRMC,012547,A,2435.7043,N,08049.8166,W,2.1,236.3,140615,6.3,"
"##MN-00 00 50 0330 01778 5560 447395 205091 194"
"165.059676"
"$GPRMC,012550,A,2435.7033,N,08049.8183,W,2.1,235.8,140615,6.3,"
"##MN-00 00 52 0331 01773 5560 447398 205091 194"
"165.059722"
"$GPRMC,012555,A,2435.7016,N,08049.8209,W,2.1,235.5,140615,6.3,"
"##MN-00 00 50 0332 01776 5561 447409 205092 194"
"165.059769"
"$GPRMC,012559,A,2435.7003,N,08049.8233,W,2.1,234.9,140615,6.3,"
"##MN-00 00 49 0333 01772 5562 447403 205091 194"
"165.059815"
"$GPRMC,012603,A,2435.6989,N,08049.8255,W,2.1,234.3,140615,6.3,"
"##MN-00 00 51 0334 01770 5563 447415 205090 194"
"165.059861"
"$GPRMC,012607,A,2435.6976,N,08049.8273,W,2.1,234.9,140615,6.3,"
"##MN-00 00 51 0335 01770 5564 447409 205090 194"
"165.059907"
"$GPRMC,012611,A,2435.6964,N,08049.8295,W,2.1,234.9,140615,6.3,"
"##MN-00 00 50 0336 01768 5565 447400 205089 194"
"165.059954"
"$GPRMC,012615,A,2435.6950,N,08049.8314,W,2.1,234.6,140615,6.3,"
"##MN-00 00 49 0337 01771 5566 447402 205089 194"
"165.06"
"$GPRMC,012619,A,2435.6938,N,08049.8334,W,2.1,235.2,140615,6.3,"
"##MN-00 00 49 0337 01765 5567 447403 205090 194"
"165.060046"
"$GPRMC,012623,A,2435.6924,N,08049.8354,W,2.1,235.5,140615,6.3,"
"##MN-00 00 50 0338 01767 5568 447398 205091 194"
"165.060093"
"$GPRMC,012627,A,2435.6911,N,08049.8374,W,2.1,237.0,140615,6.3,"
"##MN-00 00 50 0339 01764 5569 447394 205091 194"
"165.060139"
"$GPRMC,012631,A,2435.6897,N,08049.8393,W,2.1,236.9,140615,6.3,"
"##MN-00 00 49 0340 01762 5570 447406 205092 194"
"165.060185"
"$GPRMC,012635,A,2435.6882,N,08049.8412,W,2.1,235.9,140615,6.3,"
"##MN-00 00 49 0341 01760 5571 447416 205094 194"
"165.060231"
"$GPRMC,012639,A,2435.6867,N,08049.8436,W,2.1,235.7,140615,6.3,"
"##MN-00 00 50 0342 01758 5572 447406 205095 194"
"165.060278"
"$GPRMC,012643,A,2435.6855,N,08049.8454,W,2.1,236.8,140615,6.3,"
"##MN-00 00 50 0343 01756 5573 447413 205096 194"
"165.060324"
"$GPRMC,012647,A,2435.6842,N,08049.8475,W,2.2,236.6,140615,6.3,"
"##MN-00 00 52 0344 01755 5574 447411 205094 194"
"165.06037"
"$GPRMC,012651,A,2435.6830,N,08049.8495,W,2.1,236.2,140615,6.3,"
"##MN-00 00 49 0345 01755 5574 447410 205092 194"
"165.060428"
"$GPRMC,012655,A,2435.6817,N,08049.8519,W,2.1,236.2,140615,6.3,"
"##MN-00 00 49 0346 01750 5576 447395 205092 194"
"165.060475"
"$GPRMC,012659,A,2435.6805,N,08049.8540,W,2.1,235.7,140615,6.3,"
"##MN-00 00 51 0347 01749 5577 447391 205091 194"
"165.060521"
"$GPRMC,012703,A,2435.6791,N,08049.8562,W,2.1,235.9,140615,6.3,"
"##MN-00 00 49 0348 01749 5577 447389 205092 194"
"165.060567"
"$GPRMC,012707,A,2435.6776,N,08049.8582,W,2.1,235.8,140615,6.3,"
"##MN-00 00 48 0349 01748 5579 447384 205093 194"
"165.060613"
"$GPRMC,012711,A,2435.6759,N,08049.8603,W,2.1,235.6,140615,6.3,"
"##MN-00 00 49 0350 01742 5579 447384 205092 194"
"165.06066"
"$GPRMC,012715,A,2435.6744,N,08049.8624,W,2.1,235.5,140615,6.3,"
"##MN-00 00 50 0351 01743 5581 447388 205092 194"
"165.060706"
"$GPRMC,012719,A,2435.6731,N,08049.8642,W,2.1,235.1,140615,6.3,"
"##MN-00 00 50 0352 01743 5582 447382 205092 194"
"165.060752"
"$GPRMC,012723,A,2435.6718,N,08049.8660,W,2.1,235.0,140615,6.3,"
"##MN-00 00 49 0353 01740 5583 447374 205094 194"
"165.060799"
"$GPRMC,012727,A,2435.6704,N,08049.8683,W,2.1,234.8,140615,6.3,"
"##MN-00 00 52 0354 01735 5584 447369 205094 194"
"165.060845"
"$GPRMC,012731,A,2435.6690,N,08049.8704,W,2.2,234.7,140615,6.3,"
"##MN-00 00 49 0355 01737 5585 447374 205093 194"
"165.060891"
"$GPRMC,012735,A,2435.6678,N,08049.8726,W,2.1,235.1,140615,6.3,"
"##MN+00 00 48 0356 01733 5586 447374 205094 194"
"165.060937"
"$GPRMC,012739,A,2435.6664,N,08049.8746,W,2.1,235.5,140615,6.3,"
"##MN+00 00 52 0357 01729 5587 447374 205095 194"
"165.060984"
"$GPRMC,012743,A,2435.6656,N,08049.8769,W,2.1,235.7,140615,6.3,"
"##MN+00 00 50 0358 01729 5588 447373 205094 194"
"165.06103"
"$GPRMC,012747,A,2435.6649,N,08049.8793,W,2.1,236.1,140615,6.3,"
"##MN-00 00 50 0358 01728 5589 447370 205093 194"
"165.061076"
"$GPRMC,012751,A,2435.6639,N,08049.8811,W,2.0,235.7,140615,6.3,"
"##MN-00 00 48 0359 01727 5590 447379 205094 194"
"165.061123"
"$GPRMC,012755,A,2435.6626,N,08049.8830,W,2.1,236.2,140615,6.3,"
"##MN-00 00 50 0360 01719 5591 447375 205094 194"
"165.061169"
"$GPRMC,012759,A,2435.6613,N,08049.8849,W,2.1,235.9,140615,6.3,"
"##MN-00 00 50 0361 01723 5592 447381 205094 194"
"165.061215"
"$GPRMC,012803,A,2435.6597,N,08049.8873,W,2.1,235.8,140615,6.3,"
"##MN-00 00 50 0362 01718 5593 447388 205094 194"
"165.061262"
"$GPRMC,012807,A,2435.6583,N,08049.8895,W,2.1,235.2,140615,6.3,"
"##MN-00 00 50 0363 01719 5593 447387 205094 194"
"165.061308"
"$GPRMC,012811,A,2435.6571,N,08049.8916,W,2.0,235.9,140615,6.3,"
"##MN-00 00 49 0364 01719 5595 447383 205094 194"
"165.061354"
"$GPRMC,012815,A,2435.6559,N,08049.8935,W,2.1,236.3,140615,6.3,"
"##MN-00 00 49 0365 01717 5596 447380 205094 194"
"165.0614"
"$GPRMC,012819,A,2435.6546,N,08049.8954,W,2.0,236.2,140615,6.3,"
"##MN-00 00 49 0366 01715 5597 447376 205095 194"
"165.061447"
"$GPRMC,012823,A,2435.6534,N,08049.8972,W,2.0,236.3,140615,6.3,"
"##MN+00 00 50 0367 01712 5598 447377 205095 194"
"165.061493"
"$GPRMC,012827,A,2435.6521,N,08049.8992,W,2.0,235.8,140615,6.3,"
"##MN+00 00 50 0368 01710 5599 447371 205095 194"
"165.061539"
"$GPRMC,012831,A,2435.6508,N,08049.9015,W,2.1,236.2,140615,6.3,"
"##MN+00 00 60 0369 01714 5600 447366 205096 194"
"165.061586"
"#increment_net"
"$GPRMC,012835,A,2435.6494,N,08049.9043,W,2.1,236.0,140615,6.3,"
"##MN-00 00 52 0370 01711 5601 447370 205096 194"
"165.061632"
"$GPRMC,012839,A,2435.6479,N,08049.9064,W,2.2,236.6,140615,6.3,"
"##MN-00 00 51 0371 01705 5602 447380 205094 194"
"165.061678"
"$GPRMC,012843,A,2435.6465,N,08049.9083,W,2.1,236.1,140615,6.3,"
"##MN-00 00 50 0372 01703 5603 447389 205094 194"
"165.061725"
"$GPRMC,012847,A,2435.6454,N,08049.9102,W,2.1,235.2,140615,6.3,"
"##MN-00 00 49 0373 01702 5604 447385 205096 194"
"165.061771"
"$GPRMC,012851,A,2435.6440,N,08049.9122,W,2.1,235.0,140615,6.3,"
"##MN-00 00 50 0374 01697 5605 447382 205099 194"
"165.061817"
"$GPRMC,012855,A,2435.6426,N,08049.9140,W,2.1,234.9,140615,6.3,"
"##MN-00 00 51 0375 01696 5606 447387 205102 194"
"165.061863"
"$GPRMC,012859,A,2435.6411,N,08049.9158,W,2.1,234.9,140615,6.3,"
"##MN-00 00 48 0376 01697 5607 447388 205103 194"
"165.06191"
"$GPRMC,012903,A,2435.6394,N,08049.9177,W,2.1,234.8,140615,6.3,"
"##MN-00 00 47 0377 01692 5608 447389 205100 194"
"165.061956"
"$GPRMC,012907,A,2435.6382,N,08049.9198,W,2.1,234.3,140615,6.3,"
"##MN-00 00 49 0378 01689 5609 447391 205099 194"
"165.062002"
"$GPRMC,012911,A,2435.6367,N,08049.9217,W,2.1,234.6,140615,6.3,"
"##MN-00 00 50 0379 01688 5610 447385 205098 194"
"165.062049"
"$GPRMC,012915,A,2435.6354,N,08049.9239,W,2.1,234.4,140615,6.3,"
"##MN-00 00 49 0380 01687 5611 447376 205099 194"
"165.062095"
"$GPRMC,012919,A,2435.6342,N,08049.9260,W,2.1,235.0,140615,6.3,"
"##MN-00 00 51 0381 01685 5612 447373 205101 194"
"165.062141"
"$GPRMC,012923,A,2435.6330,N,08049.9281,W,2.0,235.0,140615,6.3,"
"##MN-00 00 49 0382 01684 5613 447379 205103 194"
"165.062187"
"$GPRMC,012927,A,2435.6318,N,08049.9303,W,2.1,235.4,140615,6.3,"
"##MN-00 00 49 0383 01681 5614 447380 205101 194"
"165.062234"
