" Tow: 8WGELZO   RVWS/WS15161"
" Date: 20/06/2015"
" Temperature Probe #  4762    Conductivity Probe #  710"
" Pressure Probe #  159"
" Flow Meter Calibration  4.71 (m/count)  "
"171.953171"
"$GPRMC,225231,A,2457.1072,N,08020.1127,W,1.8,230.0,200615,6.6,"
"##MN-00 00 87 0000 01529 5820 435498 827593 198"
"171.953218"
"$GPRMC,225235,A,2457.1059,N,08020.1142,W,1.8,228.8,200615,6.6,"
"##MN-00 00 87 0000 01532 5820 434656 827636 198"
"171.953264"
"$GPRMC,225239,A,2457.1046,N,08020.1158,W,1.8,228.0,200615,6.6,"
"##MN-00 00 87 0000 01532 5820 434586 827637 198"
"171.95331"
"$GPRMC,225243,A,2457.1033,N,08020.1174,W,1.8,227.5,200615,6.6,"
"##MN-00 00 87 0000 01533 5819 434422 827570 198"
"171.953357"
"$GPRMC,225247,A,2457.1021,N,08020.1190,W,1.7,226.8,200615,6.6,"
"##MN-00 00 87 0000 01532 5819 434200 827497 198"
"171.953403"
"$GPRMC,225251,A,2457.1006,N,08020.1206,W,1.8,225.9,200615,6.6,"
"##MN-00 00 87 0000 01532 5818 434211 827568 198"
"171.953449"
"$GPRMC,225255,A,2457.0992,N,08020.1219,W,1.8,224.8,200615,6.6,"
"##MN-00 00 87 0000 01531 5818 434953 827509 198"
"171.953495"
"$GPRMC,225259,A,2457.0976,N,08020.1233,W,1.7,223.6,200615,6.6,"
"##MN-00 00 87 0000 01535 5818 435618 827433 198"
"171.953542"
"$GPRMC,225303,A,2457.0963,N,08020.1248,W,1.7,222.5,200615,6.6,"
"##MN-00 00 87 0000 01531 5818 435726 827701 198"
"171.953588"
"$GPRMC,225307,A,2457.0948,N,08020.1261,W,1.7,221.9,200615,6.6,"
"##MN-00 00 87 0000 01532 5818 435678 827433 198"
"171.953657"
"$GPRMC,225312,A,2457.0931,N,08020.1280,W,1.7,222.4,200615,6.6,"
"##MN-00 00 87 0000 01533 5818 435676 827750 198"
"171.953704"
"$GPRMC,225317,A,2457.0917,N,08020.1301,W,1.7,223.6,200615,6.6,"
"##MN-00 00 87 0000 01531 5817 435932 827709 198"
"171.95375"
"$GPRMC,225321,A,2457.0906,N,08020.1316,W,1.7,224.6,200615,6.6,"
"##MN-00 00 87 0000 01532 5817 436453 827438 198"
"171.953796"
"$GPRMC,225325,A,2457.0893,N,08020.1333,W,1.7,225.4,200615,6.6,"
"##MN-00 00 87 0000 01530 5817 436614 827642 198"
"171.953843"
"$GPRMC,225329,A,2457.0880,N,08020.1348,W,1.7,226.8,200615,6.6,"
"##MN-00 00 87 0000 01533 5817 436586 827501 198"
"171.953889"
"$GPRMC,225333,A,2457.0867,N,08020.1365,W,1.7,227.7,200615,6.6,"
"##MN-00 00 87 0000 01529 5817 436766 827708 198"
"171.953935"
"$GPRMC,225337,A,2457.0855,N,08020.1381,W,1.7,229.1,200615,6.6,"
"##MN-00 00 87 0000 01533 5817 436726 827705 198"
"171.953981"
"$GPRMC,225341,A,2457.0844,N,08020.1399,W,1.7,231.1,200615,6.6,"
"##MN-00 00 87 0000 01535 5816 436458 827770 198"
"171.954028"
"$GPRMC,225345,A,2457.0835,N,08020.1418,W,1.8,232.3,200615,6.6,"
"##MN-00 00 87 0000 01530 5816 436051 827633 198"
"171.954074"
"$GPRMC,225349,A,2457.0823,N,08020.1434,W,1.8,233.7,200615,6.6,"
"##MN-00 00 87 0000 01532 5816 435655 827427 198"
"171.95412"
"$GPRMC,225353,A,2457.0808,N,08020.1449,W,1.8,233.9,200615,6.6,"
"##MN-00 00 87 0000 01532 5816 435651 827578 198"
"171.954167"
"$GPRMC,225357,A,2457.0794,N,08020.1464,W,1.8,233.5,200615,6.6,"
"##MN-00 00 87 0000 01533 5816 435840 827707 198"
"171.954213"
"$GPRMC,225401,A,2457.0780,N,08020.1481,W,1.8,233.0,200615,6.6,"
"##MN-00 00 87 0000 01532 5816 436036 827705 198"
"171.954259"
"$GPRMC,225405,A,2457.0768,N,08020.1496,W,1.8,232.5,200615,6.6,"
"##MN-00 00 87 0000 01532 5815 436033 827567 198"
"171.954306"
"$GPRMC,225409,A,2457.0755,N,08020.1512,W,1.8,232.3,200615,6.6,"
"##MN-00 00 87 0000 01532 5816 436094 827565 198"
"171.954352"
"$GPRMC,225413,A,2457.0741,N,08020.1528,W,1.8,230.4,200615,6.6,"
"##MN-00 00 87 0000 01531 5815 436175 827432 198"
"171.954398"
"$GPRMC,225417,A,2457.0724,N,08020.1543,W,1.7,227.1,200615,6.6,"
"##MN-00 00 86 0000 01534 5815 436281 827634 198"
"171.954444"
"$GPRMC,225421,A,2457.0706,N,08020.1559,W,1.7,224.6,200615,6.6,"
"##MN-00 00 86 0000 01533 5816 436269 827359 198"
"171.954491"
"$GPRMC,225425,A,2457.0689,N,08020.1576,W,1.7,223.1,200615,6.6,"
"##MN-00 00 86 0000 01533 5815 436268 827298 198"
"171.954537"
"$GPRMC,225429,A,2457.0674,N,08020.1591,W,1.6,222.0,200615,6.6,"
"##MN-00 00 79 0000 01533 5815 436321 827501 198"
"171.954583"
"$GPRMC,225433,A,2457.0661,N,08020.1605,W,1.6,221.3,200615,6.6,"
"##MN-00 00 79 0000 01534 5815 436362 827637 198"
"171.954641"
"$GPRMC,225437,A,2457.0649,N,08020.1619,W,1.6,220.8,200615,6.6,"
"##MN-00 00 80 0000 01533 5815 436936 827177 198"
"171.954688"
"$GPRMC,225441,A,2457.0634,N,08020.1634,W,1.7,221.2,200615,6.6,"
"##MN-00 00 80 0000 01531 5815 437481 827499 198"
"171.954734"
"$GPRMC,225445,A,2457.0622,N,08020.1651,W,1.7,221.8,200615,6.6,"
"##MN-00 00 79 0000 01533 5815 437624 827293 198"
"171.95478"
"$GPRMC,225449,A,2457.0610,N,08020.1663,W,1.6,222.8,200615,6.6,"
"##MN-00 00 79 0000 01532 5815 437498 827235 198"
"171.954826"
"$GPRMC,225453,A,2457.0598,N,08020.1676,W,1.6,224.1,200615,6.6,"
"##MN-00 00 78 0000 01533 5815 437335 827025 198"
"171.954873"
"$GPRMC,225457,A,2457.0587,N,08020.1689,W,1.6,225.3,200615,6.6,"
"##MN-00 00 78 0000 01534 5815 437439 827504 198"
"171.954919"
"$GPRMC,225501,A,2457.0575,N,08020.1705,W,1.6,226.3,200615,6.6,"
"##MN-00 00 78 0000 01533 5815 437507 827308 198"
"171.954965"
"$GPRMC,225505,A,2457.0563,N,08020.1720,W,1.6,227.3,200615,6.6,"
"##MN-00 00 78 0000 01533 5815 438081 827100 198"
"171.955012"
"$GPRMC,225509,A,2457.0552,N,08020.1734,W,1.6,228.3,200615,6.6,"
"##MN-00 00 78 0000 01535 5815 438161 827303 198"
"171.955058"
"$GPRMC,225513,A,2457.0542,N,08020.1749,W,1.6,230.0,200615,6.6,"
"##MN-00 00 78 0000 01534 5815 438557 252058 198"
"171.955104"
"$GPRMC,225517,A,2457.0533,N,08020.1763,W,1.6,231.4,200615,6.6,"
"##MN-00 00 13 0001 01533 5815 438425 204751 197"
"171.95515"
"$GPRMC,225521,A,2457.0523,N,08020.1778,W,1.5,233.0,200615,6.6,"
"##MN-00 00 16 0002 01537 5815 438340 204149 197"
"171.955197"
"$GPRMC,225525,A,2457.0513,N,08020.1790,W,1.5,234.5,200615,6.6,"
"##MN-00 00 17 0003 01538 5815 438369 204160 197"
"171.955243"
"$GPRMC,225530,A,2457.0502,N,08020.1806,W,1.4,236.5,200615,6.6,"
"##MN-00 00 16 0004 01535 5815 438385 204268 197"
"171.955289"
"$GPRMC,225534,A,2457.0495,N,08020.1821,W,1.3,238.1,200615,6.6,"
"##MN-00 00 10 0005 01540 5816 438385 204428 197"
"171.955336"
"$GPRMC,225538,A,2457.0493,N,08020.1836,W,1.3,239.1,200615,6.6,"
"##MN-00 00 11 0006 01543 5816 438401 203859 197"
"171.955382"
"$GPRMC,225542,A,2457.0486,N,08020.1848,W,1.2,239.6,200615,6.6,"
"##MN-00 00 11 0007 01546 5816 438393 203887 197"
"171.955428"
"$GPRMC,225546,A,2457.0479,N,08020.1861,W,1.2,240.0,200615,6.6,"
"##MN-00 00 11 0008 01547 5816 438399 203866 197"
"171.955475"
"$GPRMC,225550,A,2457.0473,N,08020.1872,W,1.2,239.9,200615,6.6,"
"##MN-00 00 11 0009 01552 5816 438489 203861 197"
"171.955521"
"$GPRMC,225554,A,2457.0468,N,08020.1883,W,1.1,240.2,200615,6.6,"
"##MN-00 00 11 0011 01556 5817 438770 203915 197"
"171.955567"
"$GPRMC,225558,A,2457.0461,N,08020.1893,W,1.1,238.8,200615,6.6,"
"##MN-00 00 11 0012 01559 5817 439000 203960 197"
"171.955613"
"$GPRMC,225602,A,2457.0455,N,08020.1902,W,1.0,237.3,200615,6.6,"
"##MN-00 00 11 0013 01564 5817 439830 204141 197"
"171.95566"
"$GPRMC,225606,A,2457.0450,N,08020.1909,W,0.9,235.8,200615,6.6,"
"##MN-00 00 11 0014 01571 5818 440789 204193 197"
"171.955706"
"$GPRMC,225610,A,2457.0444,N,08020.1918,W,0.9,234.4,200615,6.6,"
"##MN-00 00 11 0015 01574 5818 441567 204353 197"
"171.955752"
"$GPRMC,225614,A,2457.0439,N,08020.1927,W,0.9,233.5,200615,6.6,"
"##MN-00 00 11 0016 01578 5818 442013 204457 197"
"171.955799"
"$GPRMC,225618,A,2457.0433,N,08020.1936,W,0.9,233.3,200615,6.6,"
"##MN-00 00 11 0017 01584 5819 442211 204463 197"
"171.955845"
"$GPRMC,225622,A,2457.0428,N,08020.1944,W,0.9,233.0,200615,6.6,"
"##MN-00 00 11 0018 01586 5820 442341 204510 197"
"171.955891"
"$GPRMC,225626,A,2457.0421,N,08020.1954,W,1.0,232.5,200615,6.6,"
"##MN-00 00 12 0019 01592 5820 442459 204517 197"
"171.955937"
"$GPRMC,225630,A,2457.0414,N,08020.1962,W,1.0,233.0,200615,6.6,"
"##MN-00 00 12 0020 01597 5821 442524 204549 197"
"171.955984"
"$GPRMC,225634,A,2457.0408,N,08020.1973,W,1.0,233.5,200615,6.6,"
"##MN-00 00 11 0021 01598 5821 442584 204538 197"
"171.95603"
"$GPRMC,225638,A,2457.0401,N,08020.1980,W,1.0,234.1,200615,6.6,"
"##MN-00 00 11 0022 01602 5822 442612 204531 197"
"171.956076"
"$GPRMC,225642,A,2457.0394,N,08020.1990,W,1.0,234.2,200615,6.6,"
"##MN-00 00 11 0023 01607 5822 442671 204562 197"
"171.956123"
"$GPRMC,225646,A,2457.0387,N,08020.1999,W,1.0,234.8,200615,6.6,"
"##MN-00 00 11 0024 01609 5823 442745 204602 197"
"171.956169"
"$GPRMC,225650,A,2457.0380,N,08020.2009,W,1.0,235.1,200615,6.6,"
"##MN-00 00 11 0025 01611 5823 442781 204598 197"
"171.956215"
"$GPRMC,225654,A,2457.0372,N,08020.2017,W,1.0,235.1,200615,6.6,"
"##MN-00 00 11 0026 01615 5824 442823 204602 197"
"171.956262"
"$GPRMC,225658,A,2457.0365,N,08020.2027,W,1.0,235.7,200615,6.6,"
"##MN-00 00 11 0027 01620 5825 442849 204608 197"
"171.956308"
"$GPRMC,225702,A,2457.0357,N,08020.2037,W,1.0,236.4,200615,6.6,"
"##MN-00 00 11 0028 01621 5825 442869 204602 197"
"171.956354"
"$GPRMC,225706,A,2457.0350,N,08020.2046,W,1.0,236.1,200615,6.6,"
"##MN-00 00 11 0029 01626 5826 442889 204617 197"
"171.9564"
"$GPRMC,225710,A,2457.0345,N,08020.2057,W,1.0,235.7,200615,6.6,"
"##MN-00 00 11 0030 01629 5827 442913 204631 197"
"171.956447"
"$GPRMC,225714,A,2457.0338,N,08020.2068,W,1.1,236.0,200615,6.6,"
"##MN-00 00 11 0031 01630 5827 442933 204628 197"
"171.956493"
"$GPRMC,225718,A,2457.0328,N,08020.2077,W,1.1,236.9,200615,6.6,"
"##MN-00 00 11 0032 01633 5828 442947 204628 197"
"171.956539"
"$GPRMC,225722,A,2457.0322,N,08020.2085,W,1.0,237.2,200615,6.6,"
"##MN-00 00 11 0033 01636 5829 442966 204638 197"
"171.956586"
"$GPRMC,225726,A,2457.0316,N,08020.2096,W,1.0,238.1,200615,6.6,"
"##MN-00 00 11 0034 01640 5829 442980 204641 197"
"171.956632"
"$GPRMC,225730,A,2457.0313,N,08020.2110,W,1.0,239.9,200615,6.6,"
"##MN-00 00 11 0035 01645 5830 442997 204642 197"
"171.956678"
"$GPRMC,225734,A,2457.0307,N,08020.2118,W,1.0,239.9,200615,6.6,"
"##MN-00 00 11 0035 01650 5830 443005 204641 197"
"171.956725"
"$GPRMC,225738,A,2457.0302,N,08020.2129,W,1.0,239.0,200615,6.6,"
"##MN-00 00 11 0037 01652 5831 443014 204640 197"
"171.956771"
"$GPRMC,225742,A,2457.0298,N,08020.2139,W,1.0,238.5,200615,6.6,"
"##MN-00 00 11 0037 01655 5832 443024 204641 197"
"171.956817"
"$GPRMC,225746,A,2457.0293,N,08020.2150,W,1.0,238.2,200615,6.6,"
"##MN-00 00 11 0038 01661 5832 443049 204644 197"
"171.956863"
"$GPRMC,225750,A,2457.0286,N,08020.2160,W,1.0,237.0,200615,6.6,"
"##MN-00 00 11 0039 01666 5833 443066 204644 197"
"171.95691"
"$GPRMC,225754,A,2457.0280,N,08020.2169,W,1.0,235.8,200615,6.6,"
"##MN-00 00 11 0040 01672 5834 443083 204648 197"
"171.956956"
"$GPRMC,225758,A,2457.0274,N,08020.2178,W,1.0,235.1,200615,6.6,"
"##MN-00 00 11 0041 01672 5834 443125 204651 197"
"171.957002"
"$GPRMC,225802,A,2457.0269,N,08020.2189,W,1.0,235.7,200615,6.6,"
"##MN-00 00 11 0042 01678 5835 443196 204661 197"
"171.957049"
"$GPRMC,225806,A,2457.0263,N,08020.2198,W,1.0,235.5,200615,6.6,"
"##MN-00 00 11 0043 01683 5835 443234 204668 197"
"171.957095"
"$GPRMC,225810,A,2457.0256,N,08020.2207,W,1.0,234.8,200615,6.6,"
"##MN-00 00 11 0044 01685 5836 443274 204671 197"
"171.957141"
"$GPRMC,225814,A,2457.0251,N,08020.2216,W,1.0,233.9,200615,6.6,"
"##MN-00 00 11 0045 01689 5837 443339 204673 197"
"171.957187"
"$GPRMC,225818,A,2457.0245,N,08020.2226,W,1.0,234.2,200615,6.6,"
"##MN-00 00 11 0046 01696 5837 443392 204682 197"
"171.957234"
"$GPRMC,225822,A,2457.0240,N,08020.2237,W,1.0,235.0,200615,6.6,"
"##MN+00 00 12 0047 01700 5838 443503 204695 197"
"171.95728"
"$GPRMC,225826,A,2457.0234,N,08020.2247,W,1.0,236.2,200615,6.6,"
"##MN+00 00 12 0048 01699 5839 443638 204737 197"
"171.957326"
"$GPRMC,225830,A,2457.0228,N,08020.2258,W,1.0,237.5,200615,6.6,"
"##MN+00 00 12 0049 01698 5840 443679 204744 197"
"171.957373"
"$GPRMC,225834,A,2457.0222,N,08020.2266,W,1.0,238.3,200615,6.6,"
"##MN+00 00 12 0050 01697 5840 443672 204742 197"
"171.957419"
"$GPRMC,225838,A,2457.0217,N,08020.2276,W,0.9,240.0,200615,6.6,"
"##MN+00 00 12 0051 01697 5841 443680 204741 197"
"171.957465"
"$GPRMC,225842,A,2457.0212,N,08020.2285,W,0.9,240.2,200615,6.6,"
"##MN+00 00 12 0052 01700 5842 443679 204752 197"
"171.957512"
"$GPRMC,225846,A,2457.0208,N,08020.2295,W,1.0,240.9,200615,6.6,"
"##MN-00 00 12 0053 01702 5842 443702 204757 197"
"171.957558"
"$GPRMC,225850,A,2457.0204,N,08020.2305,W,0.9,241.8,200615,6.6,"
"##MN-00 00 12 0055 01701 5843 443696 204757 197"
"171.957604"
"$GPRMC,225854,A,2457.0199,N,08020.2314,W,0.9,242.2,200615,6.6,"
"##MN-00 00 12 0056 01702 5844 443705 204759 197"
"171.957651"
"$GPRMC,225858,A,2457.0193,N,08020.2323,W,0.9,242.5,200615,6.6,"
"##MN-00 00 12 0057 01701 5844 443715 204760 197"
"171.957697"
"$GPRMC,225902,A,2457.0188,N,08020.2332,W,0.9,241.9,200615,6.6,"
"##MN-00 00 12 0058 01703 5845 443734 204759 197"
"171.957743"
"$GPRMC,225906,A,2457.0182,N,08020.2342,W,0.9,241.0,200615,6.6,"
"##MN-00 00 12 0059 01702 5845 443773 204770 197"
"171.957789"
"$GPRMC,225910,A,2457.0177,N,08020.2352,W,0.9,240.7,200615,6.6,"
"##MN-00 00 12 0060 01700 5846 443821 204780 197"
"171.957847"
"$GPRMC,225914,A,2457.0172,N,08020.2363,W,0.9,241.2,200615,6.6,"
"##MN-00 00 12 0061 01696 5847 443836 204780 197"
"171.957894"
"$GPRMC,225918,A,2457.0166,N,08020.2371,W,0.9,242.1,200615,6.6,"
"##MN-00 00 12 0062 01694 5847 443808 204777 197"
"171.95794"
"$GPRMC,225922,A,2457.0161,N,08020.2381,W,0.9,242.7,200615,6.6,"
"##MN-00 00 12 0063 01693 5848 443764 204772 197"
"171.957986"
"#increment_net"
"$GPRMC,225926,A,2457.0156,N,08020.2391,W,0.9,242.6,200615,6.6,"
"##MN-00 00 12 0065 01690 5848 443718 204768 197"
"171.958032"
"$GPRMC,225930,A,2457.0151,N,08020.2399,W,0.9,241.0,200615,6.6,"
"##MN-00 00 12 0066 01688 5849 443678 204763 197"
"171.958079"
"$GPRMC,225934,A,2457.0146,N,08020.2408,W,0.9,240.6,200615,6.6,"
"##MN-00 00 12 0067 01686 5849 443635 204759 197"
"171.958125"
"$GPRMC,225938,A,2457.0140,N,08020.2417,W,0.9,239.7,200615,6.6,"
"##MN-00 00 12 0068 01681 5850 443582 204755 197"
"171.958171"
"$GPRMC,225942,A,2457.0135,N,08020.2424,W,0.9,238.6,200615,6.6,"
"##MN-00 00 12 0069 01680 5851 443538 204738 197"
"171.958218"
"$GPRMC,225946,A,2457.0130,N,08020.2432,W,0.9,237.9,200615,6.6,"
"##MN-00 00 12 0070 01678 5851 443505 204733 197"
"171.958264"
"$GPRMC,225950,A,2457.0125,N,08020.2442,W,0.9,237.8,200615,6.6,"
"##MN-00 00 12 0071 01674 5852 443479 204726 197"
"171.95831"
"$GPRMC,225954,A,2457.0119,N,08020.2450,W,0.9,237.7,200615,6.6,"
"##MN-00 00 12 0073 01672 5852 443454 204723 197"
"171.958356"
"$GPRMC,225958,A,2457.0114,N,08020.2460,W,0.9,237.6,200615,6.6,"
"##MN-00 00 12 0074 01667 5853 443395 204710 197"
"171.958403"
"$GPRMC,230003,A,2457.0107,N,08020.2471,W,0.9,237.0,200615,6.6,"
"##MN-00 00 12 0075 01665 5854 443329 204703 197"
"171.958449"
"$GPRMC,230006,A,2457.0104,N,08020.2479,W,1.0,238.7,200615,6.6,"
"##MN-00 00 12 0076 01664 5854 443290 204694 197"
"171.958495"
"$GPRMC,230011,A,2457.0096,N,08020.2485,W,1.0,237.7,200615,6.6,"
"##MN-00 00 12 0077 01660 5855 443228 204689 197"
"171.958542"
"$GPRMC,230015,A,2457.0089,N,08020.2491,W,1.0,237.5,200615,6.6,"
"##MN-00 00 12 0078 01656 5856 443208 204681 197"
"171.958588"
"$GPRMC,230019,A,2457.0085,N,08020.2498,W,1.0,236.6,200615,6.6,"
"##MN-00 00 12 0080 01659 5856 443189 204676 197"
"171.958634"
"$GPRMC,230022,A,2457.0080,N,08020.2504,W,0.9,235.5,200615,6.6,"
"##MN-00 00 12 0081 01653 5857 443157 204670 197"
"171.958681"
"$GPRMC,230026,A,2457.0074,N,08020.2512,W,0.9,234.5,200615,6.6,"
"##MN-00 00 12 0082 01656 5857 443154 204669 197"
"171.958727"
"$GPRMC,230031,A,2457.0074,N,08020.2529,W,0.9,233.8,200615,6.6,"
"##MN+00 00 12 0083 01651 5858 443128 204665 197"
"171.958773"
"$GPRMC,230034,A,2457.0072,N,08020.2538,W,0.9,235.1,200615,6.6,"
"##MN+00 00 12 0084 01648 5859 443096 204661 197"
"171.958819"
"$GPRMC,230039,A,2457.0067,N,08020.2551,W,0.9,234.5,200615,6.6,"
"##MN+00 00 12 0085 01648 5859 443099 204660 197"
"171.958866"
"$GPRMC,230043,A,2457.0063,N,08020.2561,W,0.9,235.7,200615,6.6,"
"##MN-00 00 12 0086 01646 5860 443073 204658 197"
"171.958912"
"$GPRMC,230047,A,2457.0057,N,08020.2565,W,0.9,236.8,200615,6.6,"
"##MN-00 00 12 0087 01646 5861 443083 204658 197"
"171.958958"
"$GPRMC,230051,A,2457.0051,N,08020.2572,W,0.9,237.9,200615,6.6,"
"##MN-00 00 12 0089 01645 5861 443079 204658 197"
"171.959005"
"$GPRMC,230055,A,2457.0048,N,08020.2580,W,0.8,237.9,200615,6.6,"
"##MN-00 00 12 0090 01642 5862 443061 204657 197"
"171.959051"
"$GPRMC,230059,A,2457.0044,N,08020.2590,W,0.9,238.4,200615,6.6,"
"##MN-00 00 12 0091 01640 5862 443050 204654 197"
"171.959097"
"$GPRMC,230103,A,2457.0039,N,08020.2601,W,0.9,239.2,200615,6.6,"
"##MN-00 00 12 0092 01635 5863 443048 204654 197"
"171.959143"
"$GPRMC,230107,A,2457.0041,N,08020.2613,W,0.9,239.0,200615,6.6,"
"##MN-00 00 12 0093 01635 5863 443041 204654 197"
"171.95919"
"$GPRMC,230111,A,2457.0035,N,08020.2623,W,1.0,239.4,200615,6.6,"
"##MN-00 00 12 0094 01633 5864 443034 204655 197"
"171.959236"
"$GPRMC,230115,A,2457.0031,N,08020.2634,W,1.0,240.0,200615,6.6,"
"##MN-00 00 12 0095 01631 5864 443018 204654 197"
"171.959282"
"$GPRMC,230119,A,2457.0027,N,08020.2641,W,0.9,240.2,200615,6.6,"
"##MN-00 00 12 0097 01631 5865 443009 204651 197"
"171.959329"
"$GPRMC,230123,A,2457.0020,N,08020.2648,W,0.9,239.3,200615,6.6,"
"##MN-00 00 12 0098 01631 5866 443005 204651 197"
"171.959375"
"$GPRMC,230127,A,2457.0016,N,08020.2653,W,0.9,238.2,200615,6.6,"
"##MN-00 00 12 0099 01627 5866 443002 204648 197"
"171.959421"
"$GPRMC,230131,A,2457.0013,N,08020.2663,W,0.8,238.1,200615,6.6,"
"##MN-00 00 12 0100 01625 5867 442974 204643 197"
"171.959468"
"$GPRMC,230135,A,2457.0009,N,08020.2671,W,0.8,238.1,200615,6.6,"
"##MN-00 00 11 0101 01624 5868 442956 204641 197"
"171.959514"
"$GPRMC,230139,A,2457.0002,N,08020.2678,W,0.8,237.5,200615,6.6,"
"##MN-00 00 12 0102 01622 5868 442950 204640 197"
"171.95956"
"$GPRMC,230143,A,2456.9996,N,08020.2685,W,0.8,237.0,200615,6.6,"
"##MN-00 00 12 0103 01620 5868 442946 204640 197"
"171.959606"
"$GPRMC,230147,A,2456.9991,N,08020.2693,W,0.8,237.3,200615,6.6,"
"##MN-00 00 12 0104 01618 5869 442940 204641 197"
"171.959653"
"$GPRMC,230151,A,2456.9984,N,08020.2702,W,0.8,237.6,200615,6.6,"
"##MN-00 00 12 0106 01616 5869 442930 204639 197"
"171.959699"
"$GPRMC,230155,A,2456.9977,N,08020.2710,W,0.8,237.4,200615,6.6,"
"##MN+00 00 12 0107 01615 5870 442916 204638 197"
"171.959745"
"$GPRMC,230159,A,2456.9973,N,08020.2718,W,0.8,236.7,200615,6.6,"
"##MN+00 00 12 0108 01611 5871 442904 204636 197"
"171.959792"
"$GPRMC,230203,A,2456.9966,N,08020.2727,W,0.9,236.7,200615,6.6,"
"##MN+00 00 12 0109 01615 5872 442884 204631 197"
"171.959838"
"$GPRMC,230207,A,2456.9960,N,08020.2735,W,0.9,237.2,200615,6.6,"
"##MN-00 00 12 0110 01613 5872 442875 204630 197"
"171.959884"
"#increment_net"
"$GPRMC,230211,A,2456.9955,N,08020.2743,W,0.9,237.2,200615,6.6,"
"##MN-00 00 12 0111 01608 5873 442857 204628 197"
"171.959931"
"$GPRMC,230215,A,2456.9948,N,08020.2750,W,0.9,236.6,200615,6.6,"
"##MN-00 00 12 0112 01606 5873 442829 204623 197"
"171.959977"
"$GPRMC,230219,A,2456.9941,N,08020.2760,W,0.9,235.8,200615,6.6,"
"##MN-00 00 12 0113 01603 5874 442810 204622 197"
"171.960023"
"$GPRMC,230223,A,2456.9934,N,08020.2768,W,0.9,235.8,200615,6.6,"
"##MN-00 00 12 0115 01601 5875 442800 204621 197"
"171.960069"
"$GPRMC,230227,A,2456.9930,N,08020.2778,W,0.9,236.0,200615,6.6,"
"##MN+00 00 12 0116 01598 5875 442779 204619 197"
"171.960116"
"$GPRMC,230231,A,2456.9927,N,08020.2789,W,0.9,236.0,200615,6.6,"
"##MN+00 00 12 0117 01597 5876 442757 204615 197"
"171.960162"
"$GPRMC,230235,A,2456.9923,N,08020.2798,W,0.9,236.2,200615,6.6,"
"##MN+00 00 12 0118 01594 5877 442738 204614 197"
"171.960208"
"$GPRMC,230239,A,2456.9922,N,08020.2809,W,0.9,237.6,200615,6.6,"
"##MN-00 00 12 0119 01593 5877 442715 204608 197"
"171.960255"
"$GPRMC,230243,A,2456.9919,N,08020.2821,W,0.9,239.4,200615,6.6,"
"##MN-00 00 12 0120 01590 5878 442679 204602 197"
"171.960301"
"$GPRMC,230247,A,2456.9916,N,08020.2830,W,0.9,241.0,200615,6.6,"
"##MN-00 00 12 0122 01588 5878 442650 204598 197"
"171.960347"
"$GPRMC,230251,A,2456.9911,N,08020.2840,W,0.9,241.7,200615,6.6,"
"##MN-00 00 12 0123 01587 5879 442617 204592 197"
"171.960394"
"$GPRMC,230255,A,2456.9906,N,08020.2848,W,0.9,241.3,200615,6.6,"
"##MN-00 00 12 0124 01586 5879 442594 204591 197"
"171.96044"
"$GPRMC,230259,A,2456.9904,N,08020.2857,W,0.8,240.7,200615,6.6,"
"##MN-00 00 12 0125 01584 5880 442567 204588 197"
"171.960486"
"$GPRMC,230303,A,2456.9895,N,08020.2863,W,0.8,239.8,200615,6.6,"
"##MN-00 00 12 0126 01583 5881 442556 204583 197"
"171.960532"
"$GPRMC,230307,A,2456.9890,N,08020.2872,W,0.8,239.5,200615,6.6,"
"##MN-00 00 12 0127 01582 5881 442535 204580 197"
"171.960579"
"$GPRMC,230311,A,2456.9884,N,08020.2879,W,0.9,237.7,200615,6.6,"
"##MN-00 00 12 0128 01580 5881 442511 204577 197"
"171.960625"
"$GPRMC,230315,A,2456.9879,N,08020.2886,W,0.9,237.4,200615,6.6,"
"##MN-00 00 12 0130 01577 5882 442493 204573 197"
"171.960671"
"$GPRMC,230319,A,2456.9872,N,08020.2894,W,0.9,236.3,200615,6.6,"
"##MN-00 00 12 0131 01577 5883 442443 204565 197"
"171.960718"
"$GPRMC,230323,A,2456.9866,N,08020.2902,W,0.8,235.9,200615,6.6,"
"##MN-00 00 12 0132 01574 5884 442384 204556 197"
"171.960764"
"$GPRMC,230327,A,2456.9861,N,08020.2910,W,0.8,236.9,200615,6.6,"
"##MN-00 00 12 0133 01572 5884 442338 204544 197"
"171.96081"
"$GPRMC,230331,A,2456.9856,N,08020.2919,W,0.8,237.2,200615,6.6,"
"##MN-00 00 12 0134 01572 5885 442295 204533 197"
"171.960857"
"$GPRMC,230335,A,2456.9850,N,08020.2926,W,0.8,236.8,200615,6.6,"
"##MN-00 00 12 0135 01569 5885 442227 204519 197"
"171.960903"
"$GPRMC,230339,A,2456.9844,N,08020.2931,W,0.8,236.9,200615,6.6,"
"##MN-00 00 12 0136 01568 5886 442096 204497 197"
"171.960949"
"$GPRMC,230343,A,2456.9838,N,08020.2938,W,0.8,237.4,200615,6.6,"
"##MN-00 00 12 0137 01567 5887 441647 204432 197"
"171.960995"
"$GPRMC,230347,A,2456.9834,N,08020.2948,W,0.7,238.2,200615,6.6,"
"##MN-00 00 12 0139 01563 5887 441802 204450 197"
"171.961042"
"$GPRMC,230351,A,2456.9830,N,08020.2956,W,0.8,239.0,200615,6.6,"
"##MN-00 00 12 0140 01564 5888 441690 204419 197"
"171.9611"
"$GPRMC,230355,A,2456.9827,N,08020.2966,W,0.8,239.4,200615,6.6,"
"##MN-00 00 12 0141 01562 5888 441154 204304 197"
"171.961146"
"$GPRMC,230359,A,2456.9827,N,08020.2975,W,0.8,239.1,200615,6.6,"
"##MN-00 00 12 0142 01557 5889 440427 204281 197"
"171.961192"
"$GPRMC,230403,A,2456.9827,N,08020.2986,W,0.8,239.4,200615,6.6,"
"##MN-00 00 12 0143 01555 5889 439923 204161 197"
"171.961238"
"$GPRMC,230407,A,2456.9821,N,08020.2995,W,0.8,240.2,200615,6.6,"
"##MN-00 00 12 0144 01553 5890 439485 204058 197"
"171.961285"
"$GPRMC,230411,A,2456.9815,N,08020.3004,W,0.9,241.1,200615,6.6,"
"##MN-00 00 12 0146 01550 5891 439120 204000 197"
"171.961331"
"$GPRMC,230415,A,2456.9808,N,08020.3013,W,0.9,241.7,200615,6.6,"
"##MN-00 00 12 0147 01549 5891 438846 203951 197"
"171.961377"
"$GPRMC,230419,A,2456.9807,N,08020.3024,W,0.9,242.2,200615,6.6,"
"##MN-00 00 12 0148 01548 5892 438636 203902 197"
"171.961424"
"$GPRMC,230423,A,2456.9803,N,08020.3032,W,0.9,242.1,200615,6.6,"
"##MN-00 00 12 0149 01546 5892 438573 203877 197"
"171.96147"
"$GPRMC,230427,A,2456.9798,N,08020.3040,W,0.8,242.5,200615,6.6,"
"##MN-00 00 12 0150 01545 5893 438469 203860 197"
"171.961516"
"$GPRMC,230431,A,2456.9792,N,08020.3047,W,0.8,242.3,200615,6.6,"
"##MN-00 00 12 0152 01540 5894 438405 203850 197"
"171.961562"
"$GPRMC,230436,A,2456.9787,N,08020.3056,W,0.8,241.5,200615,6.6,"
"##MN-00 00 12 0153 01540 5894 438371 203835 197"
"171.961609"
"$GPRMC,230440,A,2456.9783,N,08020.3063,W,0.8,240.0,200615,6.6,"
"##MN-00 00 12 0154 01541 5895 438355 203826 197"
"171.961655"
"$GPRMC,230444,A,2456.9779,N,08020.3069,W,0.8,238.4,200615,6.6,"
"##MN-00 00 13 0155 01542 5895 438365 203829 197"
"171.961701"
"$GPRMC,230448,A,2456.9773,N,08020.3075,W,0.8,237.9,200615,6.6,"
"##MN-00 00 13 0156 01542 5897 438351 203822 197"
"171.961748"
"$GPRMC,230452,A,2456.9767,N,08020.3081,W,0.8,237.0,200615,6.6,"
"##MN+00 00 13 0157 01540 5897 438410 203827 197"
"171.961794"
"$GPRMC,230455,A,2456.9764,N,08020.3089,W,0.8,235.7,200615,6.6,"
"##MN+00 00 14 0158 01540 5897 438447 203836 197"
"171.96184"
"$GPRMC,230459,A,2456.9758,N,08020.3092,W,0.8,235.7,200615,6.6,"
"##MN+00 00 13 0159 01541 5898 438440 203836 197"
"171.961887"
"$GPRMC,230503,A,2456.9753,N,08020.3098,W,0.8,235.6,200615,6.6,"
"##MN-00 00 13 0160 01541 5899 438456 203836 197"
"171.961933"
"$GPRMC,230508,A,2456.9745,N,08020.3108,W,0.8,234.3,200615,6.6,"
"##MN-00 00 13 0161 01539 5900 438466 203842 197"
"171.961979"
"#increment_net"
"$GPRMC,230512,A,2456.9739,N,08020.3116,W,0.8,233.2,200615,6.6,"
"##MN-00 00 13 0162 01539 5900 438467 203843 197"
"171.962025"
"$GPRMC,230516,A,2456.9734,N,08020.3125,W,0.8,232.2,200615,6.6,"
"##MN+00 00 13 0164 01538 5901 438450 203841 197"
"171.962072"
"$GPRMC,230520,A,2456.9729,N,08020.3133,W,0.8,232.4,200615,6.6,"
"##MN+00 00 13 0165 01538 5902 438433 203839 197"
"171.962118"
"$GPRMC,230524,A,2456.9728,N,08020.3144,W,0.8,232.6,200615,6.6,"
"##MN+00 00 13 0166 01538 5902 438448 203840 197"
"171.962164"
"$GPRMC,230528,A,2456.9721,N,08020.3154,W,0.8,232.8,200615,6.6,"
"##MN+00 00 13 0167 01537 5903 438459 203842 197"
"171.962211"
"$GPRMC,230532,A,2456.9717,N,08020.3163,W,0.8,234.3,200615,6.6,"
"##MN+00 00 13 0168 01536 5904 438439 203839 197"
"171.962257"
"$GPRMC,230536,A,2456.9713,N,08020.3172,W,0.8,235.8,200615,6.6,"
"##MN+00 00 17 0169 01541 5905 438453 203840 197"
"171.962303"
"$GPRMC,230540,A,2456.9709,N,08020.3179,W,0.8,237.8,200615,6.6,"
"##MN-00 00 13 0170 01537 5906 438459 203841 197"
"171.96235"
"#increment_net"
"$GPRMC,230544,A,2456.9703,N,08020.3186,W,0.8,239.4,200615,6.6,"
"##MN+00 00 13 0171 01538 5906 438447 203843 197"
"171.962396"
"$GPRMC,230548,A,2456.9702,N,08020.3194,W,0.9,241.1,200615,6.6,"
"##MN+00 00 13 0172 01538 5907 438455 203844 197"
"171.962442"
"$GPRMC,230552,A,2456.9698,N,08020.3206,W,0.9,242.3,200615,6.6,"
"##MN+00 00 13 0173 01537 5908 438466 203844 197"
"171.962488"
"$GPRMC,230556,A,2456.9695,N,08020.3215,W,0.9,243.1,200615,6.6,"
"##MN+00 00 13 0174 01536 5909 438444 203844 197"
"171.962535"
"$GPRMC,230600,A,2456.9691,N,08020.3223,W,0.8,243.2,200615,6.6,"
"##MN+00 00 13 0176 01536 5909 438435 203843 197"
"171.962581"
"$GPRMC,230604,A,2456.9686,N,08020.3231,W,0.8,243.8,200615,6.6,"
"##MN+00 00 13 0177 01538 5910 438439 203841 197"
"171.962627"
"$GPRMC,230608,A,2456.9680,N,08020.3241,W,0.9,243.9,200615,6.6,"
"##MN-00 00 13 0178 01541 5911 438473 203845 197"
"171.962674"
"#increment_net"
"$GPRMC,230612,A,2456.9675,N,08020.3248,W,0.9,244.0,200615,6.6,"
"##MN-00 00 13 0179 01547 5912 438500 203846 197"
"171.96272"
"$GPRMC,230616,A,2456.9673,N,08020.3255,W,1.0,242.3,200615,6.6,"
"##MN-00 00 13 0181 01549 5912 438498 203840 197"
