" Tow: 8WM-A   RVWS/WS15161"
" Date: 20/06/2015"
" Temperature Probe #  4762    Conductivity Probe #  710"
" Pressure Probe #  159"
" Flow Meter Calibration  4.71 (m/count)  "
"171.588831"
"$GPRMC,140750,A,2450.4206,N,08029.8036,W,3.7,84.4,200615,6.5,W"
"##MN-00 00 68 0000 01541 5131 422664 827141 199"
" Tow: 8WM-A   RVWS/WS15161"
" Date: 20/06/2015"
" Temperature Probe #  4762    Conductivity Probe #  710"
" Pressure Probe #  159"
" Flow Meter Calibration  4.71 (m/count)  "
"171.590139"
"$GPRMC,140944,A,2450.4307,N,08029.6968,W,3.0,80.9,200615,6.5,W"
"##MN-00 00 12 0025 01545 5165 442414 208034 198"
"171.590185"
"$GPRMC,140948,A,2450.4310,N,08029.6926,W,3.1,80.7,200615,6.5,W"
"##MN-00 00 12 0026 01544 5167 442777 204559 198"
"171.590231"
"$GPRMC,140952,A,2450.4315,N,08029.6885,W,3.1,80.5,200615,6.5,W"
"##MN-00 00 12 0027 01544 5169 442812 204557 198"
"171.590278"
"$GPRMC,140956,A,2450.4319,N,08029.6846,W,3.1,80.7,200615,6.5,W"
"##MN-00 00 12 0028 01542 5171 442748 204535 198"
"171.590324"
"$GPRMC,141000,A,2450.4323,N,08029.6806,W,3.1,81.1,200615,6.5,W"
"##MN-00 00 12 0029 01542 5174 442761 204544 198"
"171.59037"
"$GPRMC,141004,A,2450.4330,N,08029.6764,W,3.1,80.9,200615,6.5,W"
"##MN-00 00 11 0030 01542 5175 442784 204552 198"
"171.590417"
"$GPRMC,141009,A,2450.4337,N,08029.6713,W,3.2,81.8,200615,6.5,W"
"##MN-00 00 10 0030 01548 5177 442745 204547 198"
"171.590463"
"$GPRMC,141012,A,2450.4340,N,08029.6683,W,3.2,82.2,200615,6.5,W"
"##MN-00 00 12 0031 01548 5180 442915 204574 198"
"171.590509"
"$GPRMC,141016,A,2450.4346,N,08029.6643,W,3.2,82.7,200615,6.5,W"
"##MN-00 00 12 0033 01548 5182 443058 204590 198"
"171.590556"
"$GPRMC,141020,A,2450.4351,N,08029.6604,W,3.2,82.8,200615,6.5,W"
"##MN-00 00 12 0034 01547 5184 443012 204595 198"
"171.590602"
"$GPRMC,141024,A,2450.4355,N,08029.6563,W,3.2,83.1,200615,6.5,W"
"##MN-00 00 12 0035 01546 5187 443006 204586 198"
"171.590648"
"$GPRMC,141029,A,2450.4359,N,08029.6513,W,3.2,83.6,200615,6.5,W"
"##MN-00 00 12 0036 01546 5189 442918 204573 198"
"171.590694"
"$GPRMC,141032,A,2450.4362,N,08029.6484,W,3.2,83.7,200615,6.5,W"
"##MN-00 00 12 0037 01548 5191 442777 204540 198"
"171.590741"
"$GPRMC,141036,A,2450.4365,N,08029.6444,W,3.2,84.0,200615,6.5,W"
"##MN-00 00 12 0038 01547 5193 442713 204531 198"
"171.590787"
"$GPRMC,141040,A,2450.4369,N,08029.6405,W,3.2,84.2,200615,6.5,W"
"##MN-00 00 10 0039 01549 5195 442806 204555 198"
"171.590833"
"$GPRMC,141045,A,2450.4373,N,08029.6357,W,3.2,84.2,200615,6.5,W"
"##MN-00 00 10 0040 01552 5198 443007 204593 198"
"171.59088"
"$GPRMC,141049,A,2450.4377,N,08029.6318,W,3.2,83.9,200615,6.5,W"
"##MN-00 00 10 0041 01553 5200 443191 204634 198"
"171.590926"
"$GPRMC,141053,A,2450.4380,N,08029.6278,W,3.2,84.2,200615,6.5,W"
"##MN-00 00 10 0042 01558 5203 443265 204644 198"
"171.590972"
"$GPRMC,141057,A,2450.4384,N,08029.6239,W,3.2,84.0,200615,6.5,W"
"##MN-00 00 10 0043 01562 5205 443321 204642 198"
"171.591019"
"$GPRMC,141101,A,2450.4388,N,08029.6200,W,3.2,83.8,200615,6.5,W"
"##MN-00 00 10 0044 01562 5207 443387 204661 198"
"171.591065"
"$GPRMC,141105,A,2450.4394,N,08029.6161,W,3.2,83.5,200615,6.5,W"
"##MN-00 00 10 0045 01565 5210 443405 204667 198"
"171.591111"
"$GPRMC,141109,A,2450.4396,N,08029.6122,W,3.2,83.4,200615,6.5,W"
"##MN-00 00 10 0046 01571 5212 443409 204666 198"
"171.591157"
"$GPRMC,141113,A,2450.4402,N,08029.6082,W,3.2,83.1,200615,6.5,W"
"##MN-00 00 10 0047 01574 5215 443433 204665 198"
"171.591204"
"$GPRMC,141117,A,2450.4406,N,08029.6042,W,3.2,82.7,200615,6.5,W"
"##MN-00 00 10 0048 01577 5217 443445 204667 198"
"171.59125"
"$GPRMC,141121,A,2450.4413,N,08029.6006,W,3.2,82.5,200615,6.5,W"
"##MN-00 00 10 0049 01579 5220 443439 204666 198"
"171.591296"
"$GPRMC,141125,A,2450.4420,N,08029.5968,W,3.2,82.4,200615,6.5,W"
"##MN-00 00 10 0050 01581 5222 443452 204671 198"
"171.591343"
"$GPRMC,141129,A,2450.4427,N,08029.5929,W,3.2,82.1,200615,6.5,W"
"##MN-00 00 10 0051 01587 5224 443455 204671 198"
"171.591389"
"$GPRMC,141133,A,2450.4427,N,08029.5886,W,3.2,81.7,200615,6.5,W"
"##MN-00 00 10 0052 01590 5226 443454 204668 198"
"171.591435"
"$GPRMC,141137,A,2450.4431,N,08029.5855,W,3.2,81.6,200615,6.5,W"
"##MN-00 00 10 0053 01592 5229 443453 204668 198"
"171.591481"
"$GPRMC,141141,A,2450.4437,N,08029.5805,W,3.3,81.2,200615,6.5,W"
"##MN-00 00 10 0054 01595 5232 443456 204668 198"
"171.591528"
"$GPRMC,141145,A,2450.4441,N,08029.5774,W,3.3,81.0,200615,6.5,W"
"##MN-00 00 10 0055 01600 5234 443471 204670 198"
"171.591574"
"$GPRMC,141149,A,2450.4449,N,08029.5725,W,3.2,80.2,200615,6.5,W"
"##MN-00 00 10 0056 01601 5237 443479 204669 198"
"171.59162"
"$GPRMC,141153,A,2450.4458,N,08029.5686,W,3.2,80.1,200615,6.5,W"
"##MN-00 00 10 0057 01602 5239 443482 204670 198"
"171.591667"
"$GPRMC,141157,A,2450.4463,N,08029.5656,W,3.2,79.4,200615,6.5,W"
"##MN-00 00 10 0058 01605 5241 443489 204671 198"
"171.591713"
"$GPRMC,141201,A,2450.4471,N,08029.5615,W,3.3,78.8,200615,6.5,W"
"##MN-00 00 10 0059 01611 5243 443492 204672 198"
"171.591759"
"$GPRMC,141205,A,2450.4482,N,08029.5566,W,3.3,78.3,200615,6.5,W"
"##MN-00 00 10 0060 01612 5246 443485 204670 198"
"171.591806"
"$GPRMC,141209,A,2450.4489,N,08029.5526,W,3.2,77.9,200615,6.5,W"
"##MN-00 00 10 0061 01616 5248 443490 204670 198"
"171.591852"
"$GPRMC,141213,A,2450.4498,N,08029.5485,W,3.3,77.9,200615,6.5,W"
"##MN-00 00 10 0062 01619 5251 443505 204671 198"
"171.591898"
"$GPRMC,141217,A,2450.4506,N,08029.5444,W,3.3,78.0,200615,6.5,W"
"##MN-00 00 10 0063 01622 5253 443508 204671 198"
"171.591944"
"$GPRMC,141221,A,2450.4516,N,08029.5407,W,3.3,78.4,200615,6.5,W"
"##MN-00 00 10 0064 01628 5256 443503 204671 198"
"171.591991"
"$GPRMC,141225,A,2450.4518,N,08029.5363,W,3.3,78.4,200615,6.5,W"
"##MN-00 00 10 0065 01627 5258 443498 204670 198"
"171.592037"
"$GPRMC,141229,A,2450.4525,N,08029.5323,W,3.3,78.2,200615,6.5,W"
"##MN-00 00 10 0066 01633 5260 443502 204670 198"
"171.592083"
"$GPRMC,141233,A,2450.4532,N,08029.5286,W,3.3,78.5,200615,6.5,W"
"##MN-00 00 10 0067 01635 5263 443508 204670 198"
"171.59213"
"$GPRMC,141237,A,2450.4538,N,08029.5245,W,3.3,78.5,200615,6.5,W"
"##MN-00 00 10 0068 01634 5265 443511 204671 198"
"171.592176"
"$GPRMC,141241,A,2450.4545,N,08029.5205,W,3.3,78.7,200615,6.5,W"
"##MN-00 00 10 0069 01637 5268 443523 204672 198"
"171.592222"
"$GPRMC,141245,A,2450.4552,N,08029.5166,W,3.3,78.9,200615,6.5,W"
"##MN-00 00 10 0070 01643 5270 443529 204673 198"
"171.592269"
"$GPRMC,141249,A,2450.4558,N,08029.5127,W,3.3,79.0,200615,6.5,W"
"##MN-00 00 10 0071 01646 5273 443533 204672 198"
"171.592315"
"$GPRMC,141253,A,2450.4565,N,08029.5087,W,3.3,79.0,200615,6.5,W"
"##MN-00 00 10 0072 01650 5275 443532 204671 198"
"171.592361"
"$GPRMC,141257,A,2450.4571,N,08029.5047,W,3.3,79.5,200615,6.5,W"
"##MN-00 00 10 0073 01651 5277 443527 204671 198"
"171.592407"
"$GPRMC,141301,A,2450.4576,N,08029.5007,W,3.3,80.2,200615,6.5,W"
"##MN-00 00 10 0074 01656 5280 443528 204671 198"
"171.592454"
"$GPRMC,141305,A,2450.4583,N,08029.4967,W,3.3,80.6,200615,6.5,W"
"##MN-00 00 10 0075 01659 5282 443526 204670 198"
"171.5925"
"$GPRMC,141309,A,2450.4588,N,08029.4928,W,3.3,80.2,200615,6.5,W"
"##MN-00 00 10 0076 01662 5285 443527 204669 198"
"171.592546"
"$GPRMC,141313,A,2450.4596,N,08029.4888,W,3.3,79.8,200615,6.5,W"
"##MN-00 00 10 0077 01666 5287 443530 204670 198"
"171.592593"
"$GPRMC,141317,A,2450.4603,N,08029.4849,W,3.2,79.9,200615,6.5,W"
"##MN-00 00 10 0078 01670 5289 443536 204670 198"
"171.592639"
"$GPRMC,141321,A,2450.4610,N,08029.4812,W,3.2,79.8,200615,6.5,W"
"##MN-00 00 10 0079 01672 5292 443538 204670 198"
"171.592685"
"$GPRMC,141325,A,2450.4617,N,08029.4772,W,3.2,79.7,200615,6.5,W"
"##MN-00 00 10 0080 01677 5294 443566 204676 198"
"171.592731"
"$GPRMC,141329,A,2450.4622,N,08029.4734,W,3.3,79.7,200615,6.5,W"
"##MN-00 00 10 0081 01680 5297 443611 204684 198"
"171.592778"
"$GPRMC,141333,A,2450.4630,N,08029.4695,W,3.2,79.5,200615,6.5,W"
"##MN-00 00 10 0082 01682 5299 443657 204696 198"
"171.592824"
"$GPRMC,141337,A,2450.4637,N,08029.4654,W,3.3,79.1,200615,6.5,W"
"##MN-00 00 10 0083 01687 5302 443721 204711 198"
"171.59287"
"$GPRMC,141341,A,2450.4644,N,08029.4615,W,3.3,79.2,200615,6.5,W"
"##MN-00 00 10 0084 01688 5304 443849 204733 198"
"171.592917"
"$GPRMC,141345,A,2450.4651,N,08029.4575,W,3.3,79.4,200615,6.5,W"
"##MN-00 00 10 0085 01691 5306 444030 204765 198"
"171.592963"
"$GPRMC,141349,A,2450.4657,N,08029.4535,W,3.3,79.5,200615,6.5,W"
"##MN-00 00 10 0086 01695 5308 444329 204831 198"
"171.593009"
"$GPRMC,141353,A,2450.4664,N,08029.4496,W,3.3,79.5,200615,6.5,W"
"##MN-00 00 10 0087 01698 5311 444468 204863 198"
"171.593056"
"$GPRMC,141357,A,2450.4672,N,08029.4457,W,3.2,79.3,200615,6.5,W"
"##MN-00 00 10 0088 01700 5313 444514 204873 198"
"171.593102"
"$GPRMC,141401,A,2450.4679,N,08029.4416,W,3.3,79.1,200615,6.5,W"
"##MN-00 00 10 0089 01703 5316 444534 204875 198"
"171.593148"
"$GPRMC,141405,A,2450.4687,N,08029.4377,W,3.3,78.9,200615,6.5,W"
"##MN-00 00 10 0090 01705 5318 444552 204874 198"
"171.593194"
"$GPRMC,141409,A,2450.4694,N,08029.4337,W,3.3,78.4,200615,6.5,W"
"##MN-00 00 10 0091 01709 5320 444565 204873 198"
"171.593241"
"$GPRMC,141413,A,2450.4702,N,08029.4298,W,3.3,78.6,200615,6.5,W"
"##MN-00 00 10 0092 01710 5322 444574 204877 198"
"171.593299"
"$GPRMC,141417,A,2450.4709,N,08029.4257,W,3.3,78.8,200615,6.5,W"
"##MN-00 00 10 0093 01713 5325 444582 204882 198"
"171.593345"
"$GPRMC,141421,A,2450.4716,N,08029.4216,W,3.3,79.2,200615,6.5,W"
"##MN-00 00 10 0094 01717 5327 444576 204878 198"
"171.593391"
"$GPRMC,141425,A,2450.4724,N,08029.4176,W,3.3,79.3,200615,6.5,W"
"##MN-00 00 10 0095 01720 5329 444569 204878 198"
"171.593438"
"$GPRMC,141429,A,2450.4731,N,08029.4135,W,3.3,79.4,200615,6.5,W"
"##MN-00 00 10 0096 01724 5332 444561 204875 198"
"171.593484"
"$GPRMC,141433,A,2450.4737,N,08029.4096,W,3.3,79.3,200615,6.5,W"
"##MN-00 00 10 0097 01725 5334 444554 204873 198"
"171.59353"
"$GPRMC,141437,A,2450.4745,N,08029.4055,W,3.3,79.6,200615,6.5,W"
"##MN-00 00 10 0098 01727 5336 444555 204870 198"
"171.593576"
"$GPRMC,141441,A,2450.4751,N,08029.4015,W,3.3,79.8,200615,6.5,W"
"##MN-00 00 10 0099 01729 5339 444568 204871 198"
"171.593623"
"$GPRMC,141445,A,2450.4758,N,08029.3975,W,3.3,79.8,200615,6.5,W"
"##MN-00 00 10 0100 01731 5341 444577 204872 198"
"171.593669"
"$GPRMC,141449,A,2450.4764,N,08029.3934,W,3.3,79.5,200615,6.5,W"
"##MN-00 00 10 0101 01732 5343 444583 204873 198"
"171.593715"
"$GPRMC,141453,A,2450.4771,N,08029.3895,W,3.3,79.6,200615,6.5,W"
"##MN-00 00 10 0102 01736 5345 444613 204881 198"
"171.593762"
"$GPRMC,141457,A,2450.4778,N,08029.3856,W,3.2,79.4,200615,6.5,W"
"##MN-00 00 10 0103 01741 5348 444655 204885 198"
"171.593808"
"$GPRMC,141501,A,2450.4785,N,08029.3817,W,3.2,79.4,200615,6.5,W"
"##MN-00 00 10 0104 01744 5350 444703 204899 198"
"171.593854"
"$GPRMC,141506,A,2450.4794,N,08029.3767,W,3.3,79.1,200615,6.5,W"
"##MN-00 00 10 0105 01744 5352 444742 204913 198"
"171.5939"
"$GPRMC,141510,A,2450.4800,N,08029.3726,W,3.3,79.0,200615,6.5,W"
"##MN-00 00 10 0106 01747 5354 444855 204920 198"
"171.593947"
"$GPRMC,141514,A,2450.4807,N,08029.3688,W,3.2,79.1,200615,6.5,W"
"##MN-00 00 10 0107 01752 5356 444900 204923 198"
"171.593993"
"$GPRMC,141518,A,2450.4816,N,08029.3650,W,3.3,79.1,200615,6.5,W"
"##MN-00 00 10 0108 01754 5359 444982 204936 198"
"171.594039"
"$GPRMC,141522,A,2450.4821,N,08029.3612,W,3.2,79.4,200615,6.5,W"
"##MN-00 00 10 0109 01756 5361 445028 204942 198"
"171.594086"
"$GPRMC,141526,A,2450.4829,N,08029.3573,W,3.2,79.2,200615,6.5,W"
"##MN-00 00 10 0110 01758 5363 445074 204950 198"
"171.594132"
"$GPRMC,141530,A,2450.4836,N,08029.3534,W,3.2,79.1,200615,6.5,W"
"##MN-00 00 10 0111 01762 5365 445099 204954 198"
"171.594178"
"$GPRMC,141534,A,2450.4843,N,08029.3496,W,3.2,78.9,200615,6.5,W"
"##MN-00 00 10 0112 01762 5368 445118 204958 198"
"171.594225"
"$GPRMC,141538,A,2450.4850,N,08029.3455,W,3.3,78.6,200615,6.5,W"
"##MN-00 00 10 0113 01764 5369 445144 204960 198"
"171.594271"
"$GPRMC,141542,A,2450.4857,N,08029.3415,W,3.3,78.3,200615,6.5,W"
"##MN-00 00 10 0114 01766 5372 445162 204958 198"
"171.594317"
"$GPRMC,141546,A,2450.4865,N,08029.3375,W,3.2,78.4,200615,6.5,W"
"##MN-00 00 10 0115 01768 5374 445170 204954 198"
"171.594363"
"$GPRMC,141550,A,2450.4872,N,08029.3335,W,3.2,78.5,200615,6.5,W"
"##MN-00 00 10 0116 01773 5376 445182 204952 198"
"171.59441"
"$GPRMC,141554,A,2450.4879,N,08029.3295,W,3.2,78.2,200615,6.5,W"
"##MN-00 00 10 0117 01775 5379 445222 204961 198"
"171.594456"
"$GPRMC,141558,A,2450.4889,N,08029.3255,W,3.2,78.1,200615,6.5,W"
"##MN-00 00 10 0118 01778 5380 445268 204967 198"
"171.594502"
"$GPRMC,141602,A,2450.4897,N,08029.3216,W,3.2,77.6,200615,6.5,W"
"##MN-00 00 10 0119 01781 5383 445302 204971 198"
"171.594549"
"$GPRMC,141606,A,2450.4904,N,08029.3177,W,3.2,77.6,200615,6.5,W"
"##MN-00 00 10 0120 01784 5385 445318 204969 198"
"171.594595"
"$GPRMC,141610,A,2450.4912,N,08029.3137,W,3.2,77.8,200615,6.5,W"
"##MN-00 00 10 0121 01787 5387 445346 204971 198"
"171.594641"
"$GPRMC,141614,A,2450.4921,N,08029.3097,W,3.2,78.1,200615,6.5,W"
"##MN-00 00 10 0122 01792 5389 445367 204974 198"
"171.594688"
"$GPRMC,141618,A,2450.4929,N,08029.3057,W,3.2,78.1,200615,6.5,W"
"##MN-00 00 10 0123 01795 5391 445417 204978 198"
"171.594734"
"$GPRMC,141622,A,2450.4937,N,08029.3017,W,3.2,78.0,200615,6.5,W"
"##MN-00 00 10 0124 01795 5393 445479 204987 198"
"171.59478"
"$GPRMC,141626,A,2450.4944,N,08029.2975,W,3.2,78.5,200615,6.5,W"
"##MN-00 00 10 0125 01795 5395 445521 204988 198"
"171.594826"
"$GPRMC,141630,A,2450.4951,N,08029.2936,W,3.2,78.5,200615,6.5,W"
"##MN-00 00 10 0127 01795 5397 445536 204990 198"
"171.594873"
"$GPRMC,141634,A,2450.4959,N,08029.2898,W,3.2,78.6,200615,6.5,W"
"##MN-00 00 10 0128 01794 5400 445542 204988 198"
"171.594919"
"$GPRMC,141638,A,2450.4966,N,08029.2860,W,3.2,78.8,200615,6.5,W"
"##MN-00 00 10 0129 01795 5401 445538 204992 198"
"171.594965"
"$GPRMC,141642,A,2450.4973,N,08029.2821,W,3.2,78.6,200615,6.5,W"
"##MN-00 00 10 0130 01795 5403 445526 204993 198"
"171.595012"
"$GPRMC,141646,A,2450.4980,N,08029.2782,W,3.2,78.8,200615,6.5,W"
"##MN-00 00 10 0131 01796 5406 445517 204998 198"
"171.595058"
"$GPRMC,141650,A,2450.4984,N,08029.2743,W,3.2,79.5,200615,6.5,W"
"##MN-00 00 10 0132 01795 5407 445508 204996 198"
"171.595104"
"$GPRMC,141654,A,2450.4991,N,08029.2705,W,3.2,79.7,200615,6.5,W"
"##MN-00 00 10 0133 01796 5410 445491 204998 198"
"171.59515"
"$GPRMC,141658,A,2450.4997,N,08029.2667,W,3.2,79.6,200615,6.5,W"
"##MN-00 00 10 0134 01797 5412 445478 204999 198"
"171.595197"
"$GPRMC,141702,A,2450.5004,N,08029.2627,W,3.2,79.4,200615,6.5,W"
"##MN-00 00 10 0135 01800 5414 445475 205000 198"
"171.595243"
"$GPRMC,141706,A,2450.5011,N,08029.2589,W,3.2,79.1,200615,6.5,W"
"##MN-00 00 10 0137 01800 5416 445471 205000 198"
"171.595289"
"$GPRMC,141710,A,2450.5018,N,08029.2550,W,3.2,78.8,200615,6.5,W"
"##MN-00 00 10 0138 01801 5418 445467 205000 198"
"171.595336"
"$GPRMC,141714,A,2450.5026,N,08029.2512,W,3.2,78.6,200615,6.5,W"
"##MN-00 00 10 0139 01803 5419 445475 205001 198"
"171.595382"
"$GPRMC,141718,A,2450.5033,N,08029.2474,W,3.1,78.3,200615,6.5,W"
"##MN-00 00 10 0140 01804 5421 445488 205002 198"
"171.595428"
"$GPRMC,141722,A,2450.5042,N,08029.2436,W,3.1,77.8,200615,6.5,W"
"##MN-00 00 10 0141 01804 5423 445501 205003 198"
"171.595475"
"$GPRMC,141726,A,2450.5049,N,08029.2397,W,3.2,77.1,200615,6.5,W"
"##MN-00 00 10 0142 01804 5425 445506 205003 198"
"171.595521"
"$GPRMC,141730,A,2450.5058,N,08029.2358,W,3.2,76.3,200615,6.5,W"
"##MN+00 00 10 0143 01803 5427 445506 205003 198"
"171.595567"
"$GPRMC,141734,A,2450.5066,N,08029.2319,W,3.2,76.0,200615,6.5,W"
"##MN+00 00 10 0144 01805 5430 445506 205004 198"
"171.595613"
"$GPRMC,141738,A,2450.5074,N,08029.2281,W,3.2,76.3,200615,6.5,W"
"##MN+00 00 10 0145 01803 5431 445503 205005 198"
"171.59566"
"$GPRMC,141742,A,2450.5083,N,08029.2243,W,3.2,76.5,200615,6.5,W"
"##MN-00 00 10 0146 01805 5433 445487 205006 198"
"171.595706"
"$GPRMC,141746,A,2450.5091,N,08029.2205,W,3.2,76.3,200615,6.5,W"
"##MN-00 00 10 0148 01804 5435 445476 205007 198"
"171.595752"
"$GPRMC,141750,A,2450.5099,N,08029.2166,W,3.2,76.6,200615,6.5,W"
"##MN+00 00 10 0149 01805 5437 445470 205006 198"
"171.595799"
"$GPRMC,141754,A,2450.5106,N,08029.2127,W,3.2,77.0,200615,6.5,W"
"##MN+00 00 10 0150 01804 5439 445443 205004 198"
"171.595845"
"$GPRMC,141758,A,2450.5113,N,08029.2089,W,3.1,77.6,200615,6.5,W"
"##MN+00 00 10 0151 01807 5441 445429 205004 198"
"171.595891"
"$GPRMC,141802,A,2450.5121,N,08029.2050,W,3.2,77.7,200615,6.5,W"
"##MN-00 00 10 0152 01808 5443 445465 205005 198"
"171.595937"
"$GPRMC,141806,A,2450.5128,N,08029.2014,W,3.1,77.6,200615,6.5,W"
"##MN-00 00 10 0153 01808 5445 445504 205004 198"
"171.595984"
"#increment_net"
"$GPRMC,141810,A,2450.5135,N,08029.1976,W,3.1,78.2,200615,6.5,W"
"##MN-00 00 09 0154 01806 5447 445532 205003 198"
"171.59603"
"$GPRMC,141814,A,2450.5142,N,08029.1937,W,3.1,78.5,200615,6.5,W"
"##MN-00 00 09 0155 01808 5448 445533 205003 198"
"171.596076"
"$GPRMC,141818,A,2450.5150,N,08029.1900,W,3.1,78.1,200615,6.5,W"
"##MN-00 00 09 0156 01807 5450 445529 205003 198"
"171.596123"
"$GPRMC,141822,A,2450.5157,N,08029.1863,W,3.1,77.9,200615,6.5,W"
"##MN-00 00 09 0157 01809 5452 445540 205001 198"
"171.596169"
"$GPRMC,141826,A,2450.5164,N,08029.1825,W,3.1,78.1,200615,6.5,W"
"##MN-00 00 09 0158 01807 5454 445554 204998 198"
"171.596215"
"$GPRMC,141830,A,2450.5172,N,08029.1788,W,3.2,77.8,200615,6.5,W"
"##MN-00 00 09 0159 01809 5456 445559 204997 198"
"171.596262"
"$GPRMC,141834,A,2450.5179,N,08029.1750,W,3.2,77.6,200615,6.5,W"
"##MN-00 00 09 0160 01808 5458 445559 204997 198"
"171.596308"
"$GPRMC,141838,A,2450.5188,N,08029.1712,W,3.1,77.7,200615,6.5,W"
"##MN-00 00 09 0161 01808 5460 445558 204999 198"
"171.596354"
"$GPRMC,141842,A,2450.5192,N,08029.1671,W,3.1,77.6,200615,6.5,W"
"##MN-00 00 09 0163 01809 5462 445555 204999 198"
"171.596412"
"$GPRMC,141846,A,2450.5200,N,08029.1634,W,3.1,77.7,200615,6.5,W"
"##MN+00 00 09 0164 01808 5464 445554 205000 198"
"171.596458"
"$GPRMC,141850,A,2450.5207,N,08029.1595,W,3.2,77.9,200615,6.5,W"
"##MN+00 00 09 0165 01806 5465 445553 205001 198"
"171.596505"
"$GPRMC,141854,A,2450.5214,N,08029.1555,W,3.2,77.4,200615,6.5,W"
"##MN+00 00 09 0166 01805 5467 445553 205002 198"
"171.596551"
"$GPRMC,141858,A,2450.5221,N,08029.1516,W,3.2,77.0,200615,6.5,W"
"##MN-00 00 09 0167 01806 5469 445553 205002 198"
"171.596597"
"$GPRMC,141902,A,2450.5228,N,08029.1478,W,3.1,76.9,200615,6.5,W"
"##MN+00 00 09 0168 01805 5470 445552 205003 198"
"171.596644"
"$GPRMC,141906,A,2450.5236,N,08029.1441,W,3.1,76.7,200615,6.5,W"
"##MN+00 00 08 0169 01810 5472 445555 205002 198"
"171.59669"
"$GPRMC,141910,A,2450.5243,N,08029.1403,W,3.1,76.8,200615,6.5,W"
"##MN+00 00 08 0170 01810 5474 445565 204999 198"
"171.596736"
"#increment_net"
"$GPRMC,141914,A,2450.5251,N,08029.1365,W,3.2,77.2,200615,6.5,W"
"##MN-00 00 08 0171 01807 5476 445574 204997 198"
"171.596782"
"$GPRMC,141918,A,2450.5258,N,08029.1325,W,3.2,77.3,200615,6.5,W"
"##MN-00 00 08 0173 01807 5478 445593 204994 198"
"171.596829"
"$GPRMC,141922,A,2450.5266,N,08029.1287,W,3.2,77.5,200615,6.5,W"
"##MN-00 00 08 0174 01805 5480 445598 204992 198"
"171.596875"
"$GPRMC,141926,A,2450.5273,N,08029.1249,W,3.2,77.4,200615,6.5,W"
"##MN-00 00 08 0175 01806 5481 445603 204991 198"
"171.596921"
"$GPRMC,141930,A,2450.5282,N,08029.1211,W,3.2,77.3,200615,6.5,W"
"##MN-00 00 07 0176 01805 5483 445594 204994 198"
"171.596968"
"$GPRMC,141934,A,2450.5290,N,08029.1173,W,3.2,77.3,200615,6.5,W"
"##MN-00 00 07 0177 01804 5485 445583 204998 198"
"171.597014"
"$GPRMC,141938,A,2450.5295,N,08029.1145,W,3.2,77.4,200615,6.5,W"
"##MN-00 00 07 0178 01805 5486 445579 204999 198"
"171.59706"
"$GPRMC,141942,A,2450.5305,N,08029.1095,W,3.2,77.6,200615,6.5,W"
"##MN-00 00 08 0179 01804 5488 445590 204996 198"
"171.597106"
"$GPRMC,141946,A,2450.5313,N,08029.1058,W,3.1,77.8,200615,6.5,W"
"##MN+00 00 07 0180 01801 5490 445590 204997 198"
"171.597153"
"$GPRMC,141950,A,2450.5320,N,08029.1021,W,3.1,78.3,200615,6.5,W"
"##MN+00 00 07 0181 01802 5492 445574 205003 198"
"171.597199"
"$GPRMC,141955,A,2450.5329,N,08029.0974,W,3.1,78.6,200615,6.5,W"
"##MN+00 00 07 0182 01801 5493 445567 205005 198"
"171.597245"
"$GPRMC,141958,A,2450.5331,N,08029.0955,W,3.1,79.2,200615,6.5,W"
"##MN-00 00 07 0183 01804 5495 445564 205006 198"
"171.597292"
"$GPRMC,142003,A,2450.5340,N,08029.0900,W,3.1,79.3,200615,6.5,W"
"##MN-00 00 07 0185 01801 5496 445555 205010 198"
"171.597338"
"$GPRMC,142007,A,2450.5348,N,08029.0863,W,3.1,79.9,200615,6.5,W"
"##MN+00 00 08 0186 01801 5498 445554 205010 198"
"171.597384"
"$GPRMC,142011,A,2450.5354,N,08029.0825,W,3.1,79.9,200615,6.5,W"
"##MN+00 00 08 0187 01803 5500 445553 205009 198"
"171.597431"
"$GPRMC,142015,A,2450.5360,N,08029.0787,W,3.1,79.9,200615,6.5,W"
"##MN+00 00 54 0188 01806 5502 445551 205010 198"
"171.597477"
"#increment_net"
"$GPRMC,142019,A,2450.5367,N,08029.0751,W,3.1,79.9,200615,6.5,W"
"##MN-00 00 08 0189 01804 5504 445556 205008 198"
"171.597523"
"$GPRMC,142023,A,2450.5373,N,08029.0712,W,3.1,80.0,200615,6.5,W"
"##MN-00 00 08 0190 01803 5505 445549 205011 198"
"171.597569"
"$GPRMC,142027,A,2450.5378,N,08029.0674,W,3.1,79.8,200615,6.5,W"
"##MN-00 00 08 0191 01801 5507 445542 205013 198"
"171.597616"
"$GPRMC,142031,A,2450.5385,N,08029.0635,W,3.1,79.9,200615,6.5,W"
"##MN-00 00 08 0192 01801 5509 445536 205015 198"
"171.597662"
"$GPRMC,142035,A,2450.5391,N,08029.0596,W,3.1,79.5,200615,6.5,W"
"##MN-00 00 08 0193 01801 5510 445530 205016 198"
"171.597708"
"$GPRMC,142039,A,2450.5398,N,08029.0560,W,3.1,79.4,200615,6.5,W"
"##MN-00 00 08 0195 01800 5512 445527 205016 198"
"171.597755"
"$GPRMC,142043,A,2450.5403,N,08029.0523,W,3.1,79.4,200615,6.5,W"
"##MN-00 00 07 0196 01798 5513 445524 205017 198"
"171.597801"
"$GPRMC,142047,A,2450.5410,N,08029.0485,W,3.1,79.2,200615,6.5,W"
"##MN-00 00 07 0197 01796 5515 445520 205019 198"
"171.597847"
"$GPRMC,142051,A,2450.5417,N,08029.0449,W,3.1,78.9,200615,6.5,W"
"##MN+00 00 07 0198 01797 5517 445512 205021 198"
"171.597894"
"$GPRMC,142055,A,2450.5424,N,08029.0411,W,3.1,78.8,200615,6.5,W"
"##MN+00 00 07 0199 01796 5518 445504 205022 198"
"171.59794"
"$GPRMC,142059,A,2450.5431,N,08029.0373,W,3.1,78.8,200615,6.5,W"
"##MN+00 00 07 0200 01797 5520 445487 205025 198"
"171.597986"
"$GPRMC,142103,A,2450.5436,N,08029.0337,W,3.1,78.9,200615,6.5,W"
"##MN-00 00 07 0202 01795 5522 445465 205028 198"
"171.598032"
"$GPRMC,142107,A,2450.5443,N,08029.0301,W,3.1,78.8,200615,6.5,W"
"##MN+00 00 07 0203 01796 5524 445440 205027 198"
"171.598079"
"$GPRMC,142111,A,2450.5450,N,08029.0265,W,3.1,78.9,200615,6.5,W"
"##MN+00 00 09 0204 01795 5525 445425 205027 198"
"171.598125"
"$GPRMC,142115,A,2450.5457,N,08029.0226,W,3.1,78.9,200615,6.5,W"
"##MN+00 00 07 0205 01797 5527 445412 205027 198"
"171.598171"
"#increment_net"
"$GPRMC,142119,A,2450.5464,N,08029.0192,W,3.1,78.6,200615,6.5,W"
"##MN-00 00 07 0206 01794 5528 445415 205027 198"
"171.598218"
"$GPRMC,142123,A,2450.5471,N,08029.0157,W,3.1,78.9,200615,6.5,W"
"##MN-00 00 07 0207 01797 5530 445415 205027 198"
"171.598264"
"$GPRMC,142127,A,2450.5478,N,08029.0119,W,3.1,79.5,200615,6.5,W"
"##MN-00 00 07 0208 01795 5531 445420 205027 198"
"171.59831"
"$GPRMC,142131,A,2450.5484,N,08029.0081,W,3.1,79.6,200615,6.5,W"
"##MN-00 00 07 0210 01794 5533 445425 205028 198"
"171.598356"
"$GPRMC,142135,A,2450.5489,N,08029.0043,W,3.1,79.9,200615,6.5,W"
"##MN-00 00 07 0211 01794 5535 445422 205028 198"
"171.598403"
"$GPRMC,142139,A,2450.5493,N,08029.0005,W,3.1,80.5,200615,6.5,W"
"##MN-00 00 08 0212 01792 5536 445420 205029 198"
"171.598449"
"$GPRMC,142143,A,2450.5497,N,08028.9967,W,3.0,81.1,200615,6.5,W"
"##MN-00 00 07 0213 01793 5538 445418 205031 198"
"171.598495"
"$GPRMC,142147,A,2450.5503,N,08028.9930,W,3.0,81.3,200615,6.5,W"
"##MN-00 00 07 0214 01794 5539 445419 205032 198"
"171.598542"
"$GPRMC,142151,A,2450.5508,N,08028.9893,W,3.0,81.7,200615,6.5,W"
"##MN-00 00 07 0216 01792 5541 445425 205033 198"
"171.598588"
"$GPRMC,142155,A,2450.5513,N,08028.9857,W,3.0,82.0,200615,6.5,W"
"##MN+00 00 08 0217 01793 5542 445430 205032 198"
"171.598634"
"$GPRMC,142159,A,2450.5518,N,08028.9820,W,3.0,82.1,200615,6.5,W"
"##MN+00 00 07 0218 01791 5544 445443 205033 198"
"171.598681"
"$GPRMC,142203,A,2450.5522,N,08028.9783,W,3.0,82.2,200615,6.5,W"
"##MN+00 00 08 0219 01792 5545 445448 205032 198"
"171.598727"
"$GPRMC,142207,A,2450.5528,N,08028.9745,W,3.0,82.2,200615,6.5,W"
"##MN+00 00 13 0220 01793 5547 445450 205032 198"
"171.598773"
"$GPRMC,142211,A,2450.5533,N,08028.9708,W,3.0,82.1,200615,6.5,W"
"##MN+00 00 10 0222 01792 5549 445458 205033 198"
"171.598819"
"$GPRMC,142215,A,2450.5537,N,08028.9669,W,3.0,81.9,200615,6.5,W"
"##MN+00 00 57 0223 01796 5550 445463 205032 198"
"171.598866"
"#increment_net"
"$GPRMC,142219,A,2450.5542,N,08028.9631,W,3.0,82.0,200615,6.5,W"
"##MN-00 00 08 0224 01796 5551 445473 205030 198"
"171.598912"
"$GPRMC,142223,A,2450.5547,N,08028.9593,W,3.1,81.9,200615,6.5,W"
"##MN-00 00 07 0226 01803 5553 445482 205027 198"
"171.598958"
"$GPRMC,142227,A,2450.5551,N,08028.9554,W,3.1,81.8,200615,6.5,W"
"##MN-00 00 07 0227 01810 5555 445494 205025 198"
"171.599005"
"$GPRMC,142231,A,2450.5558,N,08028.9514,W,3.1,81.4,200615,6.5,W"
"##MN-00 00 07 0228 01815 5556 445516 205021 198"
"171.599051"
"$GPRMC,142235,A,2450.5564,N,08028.9475,W,3.2,81.2,200615,6.5,W"
"##MN-00 00 07 0230 01823 5558 445575 205012 198"
"171.599097"
"$GPRMC,142239,A,2450.5569,N,08028.9436,W,3.2,80.8,200615,6.5,W"
"##MN-00 00 07 0232 01823 5560 445673 205011 198"
"171.599144"
"$GPRMC,142243,A,2450.5575,N,08028.9395,W,3.2,80.8,200615,6.5,W"
"##MN-00 00 07 0233 01821 5561 445754 205015 198"
"171.59919"
"$GPRMC,142247,A,2450.5580,N,08028.9356,W,3.2,80.5,200615,6.5,W"
"##MN-00 00 07 0235 01820 5562 445751 205016 198"
"171.599236"
"$GPRMC,142251,A,2450.5587,N,08028.9316,W,3.2,80.4,200615,6.5,W"
"##MN-00 00 07 0236 01821 5563 445686 205014 198"
"171.599282"
"$GPRMC,142255,A,2450.5594,N,08028.9278,W,3.3,80.5,200615,6.5,W"
"##MN-00 00 07 0238 01820 5565 445645 205014 198"
"171.599329"
"$GPRMC,142259,A,2450.5600,N,08028.9240,W,3.2,80.4,200615,6.5,W"
"##MN-00 00 07 0239 01818 5567 445618 205016 198"
"171.599375"
"$GPRMC,142303,A,2450.5605,N,08028.9201,W,3.3,80.3,200615,6.5,W"
"##MN-00 00 07 0241 01816 5568 445601 205019 198"
"171.599421"
"$GPRMC,142307,A,2450.5612,N,08028.9161,W,3.3,80.4,200615,6.5,W"
"##MN-00 00 07 0242 01814 5570 445593 205021 198"
"171.599468"
"$GPRMC,142311,A,2450.5618,N,08028.9121,W,3.3,80.8,200615,6.5,W"
"##MN-00 00 07 0244 01810 5571 445590 205027 198"
"171.599514"
"$GPRMC,142315,A,2450.5623,N,08028.9079,W,3.3,81.4,200615,6.5,W"
"##MN-00 00 07 0245 01808 5572 445578 205027 198"
"171.59956"
"$GPRMC,142319,A,2450.5627,N,08028.9038,W,3.3,81.5,200615,6.5,W"
"##MN-00 00 07 0247 01807 5574 445554 205028 198"
"171.599606"
"$GPRMC,142323,A,2450.5633,N,08028.8996,W,3.3,81.8,200615,6.5,W"
"##MN-00 00 07 0249 01806 5576 445539 205030 198"
"171.599664"
"$GPRMC,142327,A,2450.5638,N,08028.8954,W,3.3,82.4,200615,6.5,W"
"##MN-00 00 07 0250 01802 5577 445528 205032 198"
"171.599711"
"$GPRMC,142331,A,2450.5643,N,08028.8913,W,3.3,82.6,200615,6.5,W"
"##MN-00 00 07 0252 01799 5578 445518 205033 198"
"171.599757"
"$GPRMC,142335,A,2450.5648,N,08028.8872,W,3.3,82.4,200615,6.5,W"
"##MN-00 00 07 0253 01798 5579 445505 205034 198"
"171.599803"
"$GPRMC,142339,A,2450.5652,N,08028.8831,W,3.3,82.7,200615,6.5,W"
"##MN-00 00 07 0255 01794 5581 445492 205035 198"
"171.59985"
"$GPRMC,142343,A,2450.5656,N,08028.8789,W,3.3,82.9,200615,6.5,W"
"##MN-00 00 07 0256 01790 5582 445492 205035 198"
"171.599896"
"$GPRMC,142347,A,2450.5662,N,08028.8747,W,3.3,82.9,200615,6.5,W"
"##MN-00 00 07 0258 01787 5584 445497 205036 198"
"171.599942"
"$GPRMC,142351,A,2450.5666,N,08028.8707,W,3.3,83.2,200615,6.5,W"
"##MN-00 00 07 0259 01786 5585 445495 205037 198"
"171.599988"
"$GPRMC,142355,A,2450.5670,N,08028.8666,W,3.3,82.9,200615,6.5,W"
"##MN-00 00 06 0261 01784 5587 445497 205038 198"
"171.600035"
"$GPRMC,142359,A,2450.5674,N,08028.8624,W,3.3,82.9,200615,6.5,W"
"##MN-00 00 07 0262 01780 5588 445494 205040 198"
"171.600081"
"$GPRMC,142403,A,2450.5678,N,08028.8583,W,3.3,82.4,200615,6.5,W"
"##MN-00 00 07 0264 01776 5590 445490 205041 198"
"171.600127"
"$GPRMC,142408,A,2450.5685,N,08028.8531,W,3.3,82.3,200615,6.5,W"
"##MN-00 00 07 0265 01774 5591 445483 205044 198"
"171.600174"
"$GPRMC,142412,A,2450.5691,N,08028.8490,W,3.3,81.7,200615,6.5,W"
"##MN-00 00 07 0267 01772 5592 445477 205046 198"
"171.60022"
"$GPRMC,142416,A,2450.5698,N,08028.8450,W,3.4,81.3,200615,6.5,W"
"##MN-00 00 07 0268 01770 5593 445473 205049 198"
"171.600266"
"$GPRMC,142420,A,2450.5703,N,08028.8409,W,3.4,80.7,200615,6.5,W"
"##MN-00 00 07 0270 01766 5595 445460 205050 198"
"171.600313"
"$GPRMC,142423,A,2450.5709,N,08028.8379,W,3.4,80.8,200615,6.5,W"
"##MN-00 00 07 0271 01764 5596 445439 205052 198"
"171.600359"
"$GPRMC,142427,A,2450.5714,N,08028.8338,W,3.4,80.5,200615,6.5,W"
"##MN-00 00 07 0273 01762 5597 445419 205057 198"
"171.600405"
"$GPRMC,142431,A,2450.5721,N,08028.8297,W,3.4,80.3,200615,6.5,W"
"##MN-00 00 07 0274 01759 5599 445400 205060 198"
"171.600451"
"$GPRMC,142435,A,2450.5727,N,08028.8255,W,3.4,80.5,200615,6.5,W"
"##MN-00 00 07 0276 01753 5600 445394 205062 198"
"171.600498"
"$GPRMC,142439,A,2450.5732,N,08028.8215,W,3.4,80.9,200615,6.5,W"
"##MN-00 00 07 0277 01751 5602 445384 205066 198"
"171.600544"
"$GPRMC,142444,A,2450.5739,N,08028.8163,W,3.3,81.1,200615,6.5,W"
"##MN-00 00 07 0279 01748 5603 445356 205067 198"
"171.60059"
"$GPRMC,142448,A,2450.5746,N,08028.8122,W,3.4,81.6,200615,6.5,W"
"##MN-00 00 07 0280 01746 5604 445329 205065 198"
"171.600637"
"$GPRMC,142452,A,2450.5750,N,08028.8080,W,3.3,81.2,200615,6.5,W"
"##MN-00 00 07 0282 01740 5606 445311 205062 198"
"171.600683"
"$GPRMC,142456,A,2450.5756,N,08028.8038,W,3.4,81.6,200615,6.5,W"
"##MN-00 00 07 0283 01738 5607 445269 205053 198"
"171.600729"
"$GPRMC,142500,A,2450.5761,N,08028.7997,W,3.3,81.6,200615,6.5,W"
"##MN-00 00 07 0285 01735 5608 445179 205032 198"
"171.600775"
"$GPRMC,142504,A,2450.5768,N,08028.7954,W,3.4,81.5,200615,6.5,W"
"##MN-00 00 07 0287 01730 5609 445096 205022 198"
"171.600822"
"$GPRMC,142508,A,2450.5773,N,08028.7913,W,3.4,81.6,200615,6.5,W"
"##MN-00 00 07 0288 01725 5611 445089 205024 198"
"171.600868"
"$GPRMC,142512,A,2450.5779,N,08028.7871,W,3.4,81.8,200615,6.5,W"
"##MN-00 00 07 0290 01725 5612 445098 205031 198"
"171.600914"
"$GPRMC,142516,A,2450.5784,N,08028.7829,W,3.4,81.8,200615,6.5,W"
"##MN-00 00 07 0291 01722 5614 444982 204997 198"
"171.600961"
"$GPRMC,142520,A,2450.5789,N,08028.7787,W,3.4,82.1,200615,6.5,W"
"##MN-00 00 07 0293 01719 5615 444816 204955 198"
"171.601007"
"$GPRMC,142524,A,2450.5795,N,08028.7745,W,3.4,82.2,200615,6.5,W"
"##MN-00 00 07 0294 01716 5616 444729 204927 198"
"171.601053"
"$GPRMC,142528,A,2450.5800,N,08028.7703,W,3.4,81.6,200615,6.5,W"
"##MN-00 00 07 0296 01711 5617 444662 204911 198"
"171.6011"
"$GPRMC,142532,A,2450.5807,N,08028.7661,W,3.4,81.3,200615,6.5,W"
"##MN-00 00 07 0297 01706 5619 444604 204900 198"
"171.601146"
"$GPRMC,142536,A,2450.5811,N,08028.7619,W,3.4,81.4,200615,6.5,W"
"##MN-00 00 07 0299 01703 5620 444557 204893 198"
"171.601192"
"$GPRMC,142540,A,2450.5818,N,08028.7578,W,3.4,81.5,200615,6.5,W"
"##MN-00 00 07 0300 01701 5621 444560 204892 198"
"171.601238"
"$GPRMC,142544,A,2450.5824,N,08028.7537,W,3.4,81.5,200615,6.5,W"
"##MN-00 00 07 0302 01697 5623 444526 204874 198"
"171.601285"
"$GPRMC,142548,A,2450.5829,N,08028.7495,W,3.4,81.4,200615,6.5,W"
"##MN-00 00 07 0304 01695 5624 444357 204847 198"
"171.601331"
"$GPRMC,142552,A,2450.5835,N,08028.7453,W,3.5,81.4,200615,6.5,W"
"##MN-00 00 06 0305 01692 5625 444280 204830 198"
"171.601377"
"$GPRMC,142556,A,2450.5840,N,08028.7412,W,3.4,81.3,200615,6.5,W"
"##MN-00 00 07 0307 01687 5626 444139 204814 198"
"171.601424"
"$GPRMC,142600,A,2450.5846,N,08028.7370,W,3.4,81.1,200615,6.5,W"
"##MN-00 00 07 0308 01683 5628 443887 204767 198"
"171.60147"
"$GPRMC,142604,A,2450.5851,N,08028.7328,W,3.4,81.3,200615,6.5,W"
"##MN-00 00 07 0310 01681 5629 443740 204730 198"
"171.601516"
"$GPRMC,142608,A,2450.5855,N,08028.7287,W,3.4,81.3,200615,6.5,W"
"##MN-00 00 07 0311 01676 5630 443711 204728 198"
"171.601563"
"$GPRMC,142612,A,2450.5862,N,08028.7246,W,3.4,81.3,200615,6.5,W"
"##MN-00 00 07 0313 01677 5631 443689 204722 198"
"171.601609"
"$GPRMC,142616,A,2450.5868,N,08028.7206,W,3.3,81.2,200615,6.5,W"
"##MN-00 00 07 0314 01675 5633 443632 204704 198"
"171.601655"
"$GPRMC,142620,A,2450.5872,N,08028.7167,W,3.3,80.6,200615,6.5,W"
"##MN-00 00 07 0316 01670 5634 443543 204679 198"
"171.601701"
"$GPRMC,142624,A,2450.5879,N,08028.7125,W,3.3,80.5,200615,6.5,W"
"##MN-00 00 07 0317 01666 5635 443484 204668 198"
"171.601748"
"$GPRMC,142628,A,2450.5886,N,08028.7085,W,3.2,79.9,200615,6.5,W"
"##MN-00 00 07 0319 01663 5636 443475 204665 198"
"171.601794"
"$GPRMC,142632,A,2450.5893,N,08028.7045,W,3.2,79.5,200615,6.5,W"
"##MN-00 00 07 0320 01662 5638 443468 204663 198"
"171.60184"
"$GPRMC,142636,A,2450.5900,N,08028.7006,W,3.2,79.1,200615,6.5,W"
"##MN-00 00 07 0321 01659 5639 443461 204665 198"
"171.601887"
"$GPRMC,142640,A,2450.5907,N,08028.6966,W,3.2,78.8,200615,6.5,W"
"##MN-00 00 07 0323 01655 5641 443479 204665 198"
"171.601933"
"$GPRMC,142644,A,2450.5914,N,08028.6926,W,3.2,79.0,200615,6.5,W"
"##MN-00 00 07 0324 01651 5642 443466 204664 198"
"171.601979"
"$GPRMC,142648,A,2450.5920,N,08028.6886,W,3.2,79.0,200615,6.5,W"
"##MN-00 00 07 0326 01649 5643 443457 204662 198"
"171.602025"
"$GPRMC,142652,A,2450.5927,N,08028.6846,W,3.2,79.1,200615,6.5,W"
"##MN-00 00 07 0327 01646 5644 443430 204655 198"
"171.602072"
"$GPRMC,142656,A,2450.5934,N,08028.6806,W,3.2,79.2,200615,6.5,W"
"##MN-00 00 07 0329 01642 5646 443403 204648 198"
"171.602118"
"$GPRMC,142700,A,2450.5940,N,08028.6766,W,3.2,79.7,200615,6.5,W"
"##MN-00 00 07 0330 01641 5647 443394 204647 198"
"171.602164"
"$GPRMC,142704,A,2450.5945,N,08028.6727,W,3.2,79.9,200615,6.5,W"
"##MN-00 00 07 0332 01637 5648 443379 204645 198"
"171.602211"
"$GPRMC,142708,A,2450.5952,N,08028.6687,W,3.2,80.4,200615,6.5,W"
"##MN-00 00 07 0333 01632 5650 443387 204647 198"
"171.602257"
"$GPRMC,142712,A,2450.5958,N,08028.6648,W,3.2,80.4,200615,6.5,W"
"##MN-00 00 07 0334 01630 5651 443400 204648 198"
"171.602303"
"$GPRMC,142716,A,2450.5963,N,08028.6608,W,3.2,80.6,200615,6.5,W"
"##MN-00 00 07 0336 01625 5652 443402 204649 198"
"171.60235"
"$GPRMC,142720,A,2450.5970,N,08028.6569,W,3.2,80.2,200615,6.5,W"
"##MN-00 00 07 0337 01622 5653 443394 204647 198"
"171.602396"
"$GPRMC,142724,A,2450.5976,N,08028.6539,W,3.2,80.0,200615,6.5,W"
"##MN-00 00 07 0339 01617 5655 443383 204646 198"
"171.602442"
"$GPRMC,142728,A,2450.5984,N,08028.6490,W,3.2,79.6,200615,6.5,W"
"##MN-00 00 07 0340 01614 5656 443377 204645 198"
"171.602488"
"$GPRMC,142732,A,2450.5990,N,08028.6450,W,3.2,79.6,200615,6.5,W"
"##MN-00 00 07 0342 01613 5657 443372 204644 198"
"171.602535"
"$GPRMC,142736,A,2450.5997,N,08028.6412,W,3.2,79.3,200615,6.5,W"
"##MN-00 00 07 0343 01605 5658 443371 204644 198"
"171.602581"
"$GPRMC,142740,A,2450.6003,N,08028.6372,W,3.2,79.0,200615,6.5,W"
"##MN-00 00 07 0344 01603 5660 443365 204643 198"
"171.602627"
"$GPRMC,142744,A,2450.6013,N,08028.6336,W,3.2,78.8,200615,6.5,W"
"##MN-00 00 07 0346 01600 5661 443355 204641 198"
"171.602674"
"$GPRMC,142748,A,2450.6021,N,08028.6301,W,3.2,78.4,200615,6.5,W"
"##MN-00 00 07 0347 01595 5662 443345 204641 198"
"171.60272"
"$GPRMC,142752,A,2450.6028,N,08028.6264,W,3.2,78.5,200615,6.5,W"
"##MN-00 00 07 0349 01591 5664 443342 204639 198"
"171.602766"
"$GPRMC,142756,A,2450.6035,N,08028.6226,W,3.2,78.5,200615,6.5,W"
"##MN-00 00 07 0350 01586 5665 443336 204639 198"
"171.602812"
"$GPRMC,142800,A,2450.6042,N,08028.6187,W,3.2,78.6,200615,6.5,W"
"##MN-00 00 07 0352 01584 5666 443331 204638 198"
"171.602859"
"$GPRMC,142804,A,2450.6050,N,08028.6147,W,3.2,78.3,200615,6.5,W"
"##MN-00 00 07 0353 01577 5667 443322 204637 198"
"171.602917"
"$GPRMC,142808,A,2450.6059,N,08028.6108,W,3.2,78.3,200615,6.5,W"
"##MN-00 00 07 0354 01572 5668 443307 204634 198"
"171.602963"
"$GPRMC,142812,A,2450.6067,N,08028.6068,W,3.2,78.4,200615,6.5,W"
"##MN-00 00 07 0356 01568 5670 443294 204632 198"
"171.603009"
"$GPRMC,142816,A,2450.6075,N,08028.6028,W,3.2,78.2,200615,6.5,W"
"##MN-00 00 07 0357 01565 5671 443284 204630 198"
"171.603056"
"$GPRMC,142820,A,2450.6082,N,08028.5988,W,3.2,77.9,200615,6.5,W"
"##MN-00 00 07 0358 01559 5672 443273 204627 198"
"171.603102"
"$GPRMC,142824,A,2450.6089,N,08028.5949,W,3.2,77.9,200615,6.5,W"
"##MN-00 00 07 0360 01556 5673 443235 204621 198"
"171.603148"
"$GPRMC,142828,A,2450.6097,N,08028.5910,W,3.2,77.8,200615,6.5,W"
"##MN-00 00 07 0361 01552 5674 443201 204613 198"
"171.603194"
"$GPRMC,142832,A,2450.6107,N,08028.5872,W,3.2,77.6,200615,6.5,W"
"##MN-00 00 07 0363 01548 5676 443144 204600 198"
"171.603241"
"$GPRMC,142836,A,2450.6114,N,08028.5832,W,3.2,77.4,200615,6.5,W"
"##MN-00 00 08 0364 01547 5677 443072 204587 198"
"171.603287"
"$GPRMC,142840,A,2450.6122,N,08028.5792,W,3.2,77.6,200615,6.5,W"
"##MN-00 00 08 0365 01548 5678 443089 204595 198"
"171.603333"
"$GPRMC,142844,A,2450.6129,N,08028.5752,W,3.2,77.9,200615,6.5,W"
"##MN-00 00 08 0367 01550 5679 442889 204564 198"
