" Tow: 8WM-B   RVWS/WS15161"
" Date: 20/06/2015"
" Temperature Probe #  4762    Conductivity Probe #  710"
" Pressure Probe #  159"
" Flow Meter Calibration  4.71 (m/count)  "
"171.639606"
"$GPRMC,152058,A,2452.2281,N,08021.0683,W,4.6,73.1,200615,6.6,W"
"##MN-00 00 72 0000 01545 4975 414969 827403 198"
"171.639653"
"$GPRMC,152103,A,2452.2298,N,08021.0616,W,4.6,73.4,200615,6.6,W"
"##MN-00 00 64 0000 01545 4979 409895 827701 198"
"171.639699"
"$GPRMC,152107,A,2452.2310,N,08021.0563,W,4.5,74.1,200615,6.6,W"
"##MN-00 00 64 0000 01545 4982 410501 827769 198"
"171.639745"
"$GPRMC,152111,A,2452.2325,N,08021.0510,W,4.5,74.6,200615,6.6,W"
"##MN-00 00 64 0000 01544 4985 411034 827704 198"
"171.639792"
"$GPRMC,152115,A,2452.2336,N,08021.0459,W,4.5,74.5,200615,6.6,W"
"##MN-00 00 64 0000 01545 4988 411650 827837 198"
"171.639838"
"$GPRMC,152119,A,2452.2350,N,08021.0406,W,4.5,74.1,200615,6.6,W"
"##MN-00 00 63 0000 01543 4992 412837 827703 198"
"171.639884"
"$GPRMC,152123,A,2452.2365,N,08021.0354,W,4.5,74.1,200615,6.6,W"
"##MN-00 00 62 0000 01544 4995 414271 827769 198"
"171.639931"
"$GPRMC,152127,A,2452.2375,N,08021.0307,W,4.5,74.2,200615,6.6,W"
"##MN-00 00 62 0000 01545 4998 415855 827769 198"
"171.639977"
"$GPRMC,152131,A,2452.2388,N,08021.0257,W,4.4,74.7,200615,6.6,W"
"##MN-00 00 62 0000 01544 5001 418176 827769 198"
"171.640023"
"$GPRMC,152135,A,2452.2400,N,08021.0207,W,4.4,74.8,200615,6.6,W"
"##MN-00 00 62 0000 01545 5004 420898 827768 198"
"171.640069"
"$GPRMC,152139,A,2452.2411,N,08021.0157,W,4.4,74.7,200615,6.6,W"
"##MN-00 00 62 0001 01544 5007 421900 827769 198"
"171.640116"
"$GPRMC,152143,A,2452.2425,N,08021.0106,W,4.4,74.5,200615,6.6,W"
"##MN-00 00 62 0001 01544 5010 423086 827768 198"
"171.640162"
"$GPRMC,152147,A,2452.2436,N,08021.0068,W,4.4,74.2,200615,6.6,W"
"##MN-00 00 61 0001 01544 5013 428723 397792 198"
"171.640208"
"$GPRMC,152151,A,2452.2453,N,08021.0005,W,4.3,73.7,200615,6.6,W"
"##MN-00 00 07 0002 01544 5016 441474 213762 198"
"171.640255"
"$GPRMC,152155,A,2452.2466,N,08020.9954,W,4.3,72.8,200615,6.6,W"
"##MN-00 00 07 0003 01544 5019 441485 204287 198"
"171.640301"
"$GPRMC,152159,A,2452.2482,N,08020.9907,W,4.2,72.8,200615,6.6,W"
"##MN-00 00 09 0004 01546 5022 441638 204699 198"
"171.640417"
"$GPRMC,152208,A,2452.2515,N,08020.9800,W,4.0,71.6,200615,6.6,W"
"##MN-00 00 08 0006 01546 5029 441871 204638 198"
"171.640463"
"$GPRMC,152213,A,2452.2533,N,08020.9743,W,4.0,71.0,200615,6.6,W"
"##MN-00 00 09 0007 01545 5032 441997 204684 198"
"171.640509"
"$GPRMC,152217,A,2452.2547,N,08020.9698,W,4.0,70.3,200615,6.6,W"
"##MN-00 00 09 0008 01544 5035 441984 204713 198"
"171.640556"
"$GPRMC,152221,A,2452.2562,N,08020.9653,W,3.9,69.9,200615,6.6,W"
"##MN-00 00 09 0009 01545 5038 442056 204720 198"
"171.640602"
"$GPRMC,152225,A,2452.2576,N,08020.9609,W,3.9,69.8,200615,6.6,W"
"##MN-00 00 07 0010 01548 5041 442185 204733 198"
"171.640648"
"$GPRMC,152229,A,2452.2591,N,08020.9563,W,3.8,69.8,200615,6.6,W"
"##MN-00 00 07 0010 01551 5044 442694 204792 198"
"171.640694"
"$GPRMC,152233,A,2452.2607,N,08020.9520,W,3.8,69.9,200615,6.6,W"
"##MN-00 00 07 0011 01557 5047 442990 204751 198"
"171.640741"
"$GPRMC,152237,A,2452.2623,N,08020.9474,W,3.8,69.7,200615,6.6,W"
"##MN-00 00 07 0012 01559 5050 443159 204788 198"
"171.640787"
"$GPRMC,152241,A,2452.2639,N,08020.9430,W,3.8,69.5,200615,6.6,W"
"##MN-00 00 07 0013 01562 5053 443269 204789 198"
"171.640833"
"$GPRMC,152245,A,2452.2653,N,08020.9383,W,3.8,69.3,200615,6.6,W"
"##MN-00 00 07 0014 01567 5056 443366 204827 198"
"171.64088"
"$GPRMC,152249,A,2452.2668,N,08020.9338,W,3.8,69.4,200615,6.6,W"
"##MN-00 00 07 0015 01570 5059 443496 204867 198"
"171.640926"
"$GPRMC,152253,A,2452.2683,N,08020.9294,W,3.8,69.3,200615,6.6,W"
"##MN-00 00 07 0016 01572 5062 443549 204865 198"
"171.640972"
"$GPRMC,152257,A,2452.2699,N,08020.9248,W,3.8,69.1,200615,6.6,W"
"##MN-00 00 07 0017 01575 5065 443594 204870 198"
"171.641019"
"$GPRMC,152301,A,2452.2715,N,08020.9204,W,3.9,69.6,200615,6.6,W"
"##MN-00 00 07 0017 01579 5068 443620 204883 198"
"171.641065"
"$GPRMC,152305,A,2452.2729,N,08020.9160,W,3.8,69.7,200615,6.6,W"
"##MN-00 00 07 0018 01583 5071 443649 204893 198"
"171.641111"
"$GPRMC,152309,A,2452.2744,N,08020.9116,W,3.9,69.7,200615,6.6,W"
"##MN-00 00 06 0019 01586 5074 443656 204888 198"
"171.641157"
"$GPRMC,152313,A,2452.2760,N,08020.9072,W,3.9,69.6,200615,6.6,W"
"##MN-00 00 07 0020 01588 5077 443667 204896 198"
"171.641204"
"$GPRMC,152317,A,2452.2773,N,08020.9027,W,3.9,69.5,200615,6.6,W"
"##MN-00 00 07 0021 01592 5080 443675 204894 198"
"171.64125"
"$GPRMC,152321,A,2452.2786,N,08020.8982,W,3.8,69.9,200615,6.6,W"
"##MN-00 00 07 0022 01596 5083 443673 204895 198"
"171.641296"
"$GPRMC,152325,A,2452.2800,N,08020.8937,W,3.8,69.9,200615,6.6,W"
"##MN-00 00 06 0023 01600 5086 443651 204883 198"
"171.641343"
"$GPRMC,152329,A,2452.2813,N,08020.8891,W,3.8,70.0,200615,6.6,W"
"##MN-00 00 06 0024 01600 5090 443632 204879 198"
"171.641389"
"$GPRMC,152333,A,2452.2829,N,08020.8846,W,3.8,70.0,200615,6.6,W"
"##MN-00 00 06 0025 01605 5093 443631 204877 198"
"171.641435"
"$GPRMC,152337,A,2452.2844,N,08020.8801,W,3.8,70.4,200615,6.6,W"
"##MN-00 00 06 0026 01610 5096 443627 204877 198"
"171.641481"
"$GPRMC,152341,A,2452.2859,N,08020.8756,W,3.8,70.0,200615,6.6,W"
"##MN-00 00 06 0027 01613 5099 443617 204875 198"
"171.641528"
"$GPRMC,152345,A,2452.2874,N,08020.8711,W,3.8,70.2,200615,6.6,W"
"##MN-00 00 06 0028 01616 5102 443618 204874 198"
"171.641574"
"$GPRMC,152349,A,2452.2889,N,08020.8667,W,3.9,70.6,200615,6.6,W"
"##MN-00 00 06 0029 01620 5105 443624 204874 198"
"171.64162"
"$GPRMC,152353,A,2452.2906,N,08020.8622,W,3.9,70.4,200615,6.6,W"
"##MN-00 00 06 0030 01624 5108 443628 204873 198"
"171.641667"
"$GPRMC,152357,A,2452.2921,N,08020.8577,W,3.9,69.8,200615,6.6,W"
"##MN-00 00 06 0030 01624 5111 443645 204880 198"
"171.641713"
"$GPRMC,152401,A,2452.2935,N,08020.8531,W,3.9,69.7,200615,6.6,W"
"##MN-00 00 06 0031 01629 5114 443661 204884 198"
"171.641759"
"$GPRMC,152405,A,2452.2949,N,08020.8486,W,3.9,70.1,200615,6.6,W"
"##MN-00 00 06 0032 01632 5117 443667 204885 198"
"171.641817"
"$GPRMC,152409,A,2452.2964,N,08020.8443,W,3.8,70.7,200615,6.6,W"
"##MN-00 00 06 0033 01636 5120 443707 204898 198"
"171.641863"
"$GPRMC,152413,A,2452.2979,N,08020.8397,W,3.8,70.6,200615,6.6,W"
"##MN-00 00 06 0034 01637 5123 443740 204905 198"
"171.64191"
"$GPRMC,152417,A,2452.2993,N,08020.8359,W,3.8,70.9,200615,6.6,W"
"##MN-00 00 06 0035 01641 5126 443746 204907 198"
"171.641956"
"$GPRMC,152421,A,2452.3006,N,08020.8319,W,3.7,72.0,200615,6.6,W"
"##MN-00 00 06 0036 01644 5129 443743 204905 198"
"171.642002"
"$GPRMC,152425,A,2452.3018,N,08020.8277,W,3.7,72.6,200615,6.6,W"
"##MN-00 00 06 0037 01647 5132 443740 204904 198"
"171.642049"
"$GPRMC,152429,A,2452.3031,N,08020.8235,W,3.7,72.8,200615,6.6,W"
"##MN-00 00 06 0038 01653 5135 443735 204901 198"
"171.642095"
"$GPRMC,152433,A,2452.3043,N,08020.8191,W,3.8,73.0,200615,6.6,W"
"##MN-00 00 06 0039 01657 5138 443732 204899 198"
"171.642141"
"$GPRMC,152437,A,2452.3055,N,08020.8146,W,3.7,73.4,200615,6.6,W"
"##MN-00 00 06 0039 01660 5141 443751 204905 198"
"171.642188"
"$GPRMC,152441,A,2452.3066,N,08020.8100,W,3.7,73.6,200615,6.6,W"
"##MN-00 00 06 0040 01662 5144 443760 204908 198"
"171.642234"
"$GPRMC,152445,A,2452.3080,N,08020.8055,W,3.7,73.7,200615,6.6,W"
"##MN-00 00 06 0041 01666 5147 443782 204914 198"
"171.64228"
"$GPRMC,152449,A,2452.3091,N,08020.8010,W,3.7,73.4,200615,6.6,W"
"##MN-00 00 06 0042 01671 5150 443796 204919 198"
"171.642326"
"$GPRMC,152453,A,2452.3104,N,08020.7965,W,3.7,73.4,200615,6.6,W"
"##MN-00 00 06 0043 01675 5153 443796 204918 198"
"171.642373"
"$GPRMC,152457,A,2452.3116,N,08020.7922,W,3.7,73.6,200615,6.6,W"
"##MN-00 00 06 0044 01678 5156 443782 204913 198"
"171.642419"
"$GPRMC,152501,A,2452.3127,N,08020.7880,W,3.7,73.3,200615,6.6,W"
"##MN-00 00 06 0045 01683 5159 443785 204913 198"
"171.642465"
"$GPRMC,152505,A,2452.3140,N,08020.7836,W,3.7,73.3,200615,6.6,W"
"##MN-00 00 06 0046 01685 5162 443770 204906 198"
"171.642512"
"$GPRMC,152509,A,2452.3152,N,08020.7790,W,3.7,73.2,200615,6.6,W"
"##MN-00 00 06 0046 01689 5165 443762 204903 198"
"171.642558"
"$GPRMC,152513,A,2452.3165,N,08020.7745,W,3.7,72.9,200615,6.6,W"
"##MN-00 00 06 0047 01694 5168 443760 204903 198"
"171.642604"
"$GPRMC,152517,A,2452.3177,N,08020.7700,W,3.7,72.2,200615,6.6,W"
"##MN-00 00 06 0048 01696 5170 443761 204903 198"
"171.64265"
"$GPRMC,152521,A,2452.3192,N,08020.7658,W,3.7,71.9,200615,6.6,W"
"##MN-00 00 06 0049 01700 5173 443777 204906 198"
"171.642697"
"$GPRMC,152525,A,2452.3205,N,08020.7616,W,3.7,71.9,200615,6.6,W"
"##MN-00 00 06 0050 01703 5176 443773 204905 198"
"171.642743"
"$GPRMC,152530,A,2452.3221,N,08020.7564,W,3.7,71.9,200615,6.6,W"
"##MN-00 00 06 0051 01707 5179 443766 204903 198"
"171.642789"
"$GPRMC,152534,A,2452.3235,N,08020.7521,W,3.7,71.5,200615,6.6,W"
"##MN-00 00 06 0052 01711 5182 443765 204901 198"
"171.642836"
"$GPRMC,152538,A,2452.3248,N,08020.7481,W,3.7,71.5,200615,6.6,W"
"##MN-00 00 06 0053 01713 5185 443762 204900 198"
"171.642882"
"$GPRMC,152542,A,2452.3261,N,08020.7437,W,3.7,71.1,200615,6.6,W"
"##MN-00 00 06 0053 01718 5187 443759 204899 198"
"171.642928"
"$GPRMC,152546,A,2452.3275,N,08020.7392,W,3.7,71.0,200615,6.6,W"
"##MN-00 00 06 0054 01721 5191 443757 204898 198"
"171.642975"
"$GPRMC,152550,A,2452.3289,N,08020.7349,W,3.7,71.1,200615,6.6,W"
"##MN-00 00 06 0055 01724 5193 443759 204895 198"
"171.643021"
"$GPRMC,152554,A,2452.3304,N,08020.7302,W,3.7,70.9,200615,6.6,W"
"##MN-00 00 06 0056 01727 5196 443763 204896 198"
"171.643067"
"$GPRMC,152558,A,2452.3318,N,08020.7255,W,3.7,71.0,200615,6.6,W"
"##MN-00 00 06 0057 01728 5199 443767 204897 198"
"171.643113"
"$GPRMC,152602,A,2452.3332,N,08020.7211,W,3.7,71.0,200615,6.6,W"
"##MN-00 00 06 0058 01730 5202 443767 204895 198"
"171.64316"
"$GPRMC,152606,A,2452.3344,N,08020.7167,W,3.7,71.4,200615,6.6,W"
"##MN-00 00 06 0059 01735 5205 443754 204888 198"
"171.643206"
"$GPRMC,152610,A,2452.3358,N,08020.7122,W,3.7,71.7,200615,6.6,W"
"##MN-00 00 06 0060 01738 5207 443744 204886 198"
"171.643252"
"$GPRMC,152614,A,2452.3367,N,08020.7092,W,3.7,71.7,200615,6.6,W"
"##MN-00 00 06 0061 01742 5210 443740 204884 198"
"171.643299"
"$GPRMC,152618,A,2452.3382,N,08020.7038,W,3.7,72.0,200615,6.6,W"
"##MN-00 00 06 0061 01743 5213 443704 204864 198"
"171.643345"
"$GPRMC,152622,A,2452.3394,N,08020.6996,W,3.7,72.5,200615,6.6,W"
"##MN-00 00 06 0062 01747 5216 443693 204863 198"
"171.643391"
"$GPRMC,152626,A,2452.3404,N,08020.6951,W,3.7,72.6,200615,6.6,W"
"##MN-00 00 06 0063 01750 5219 443702 204865 198"
"171.643438"
"$GPRMC,152630,A,2452.3414,N,08020.6903,W,3.7,73.2,200615,6.6,W"
"##MN-00 00 06 0064 01754 5221 443702 204862 198"
"171.643484"
"$GPRMC,152634,A,2452.3426,N,08020.6856,W,3.7,73.4,200615,6.6,W"
"##MN-00 00 06 0065 01758 5224 443740 204868 198"
"171.64353"
"$GPRMC,152638,A,2452.3438,N,08020.6808,W,3.7,73.0,200615,6.6,W"
"##MN-00 00 06 0066 01761 5226 443749 204866 198"
"171.643576"
"$GPRMC,152642,A,2452.3452,N,08020.6761,W,3.7,72.9,200615,6.6,W"
"##MN-00 00 06 0067 01762 5229 443837 204871 198"
"171.643623"
"$GPRMC,152646,A,2452.3465,N,08020.6721,W,3.7,72.5,200615,6.6,W"
"##MN-00 00 06 0067 01767 5232 443944 204880 198"
"171.643669"
"$GPRMC,152650,A,2452.3477,N,08020.6679,W,3.7,72.1,200615,6.6,W"
"##MN-00 00 06 0068 01771 5234 444054 204895 198"
"171.643715"
"$GPRMC,152654,A,2452.3491,N,08020.6636,W,3.8,71.9,200615,6.6,W"
"##MN-00 00 06 0069 01773 5237 444098 204908 198"
"171.643762"
"$GPRMC,152658,A,2452.3505,N,08020.6591,W,3.8,72.1,200615,6.6,W"
"##MN-00 00 06 0070 01776 5240 444126 204917 198"
"171.643808"
"$GPRMC,152702,A,2452.3517,N,08020.6546,W,3.8,72.1,200615,6.6,W"
"##MN-00 00 06 0071 01781 5243 444134 204913 198"
"171.643854"
"$GPRMC,152706,A,2452.3531,N,08020.6501,W,3.8,72.3,200615,6.6,W"
"##MN-00 00 06 0072 01783 5245 444142 204910 198"
"171.6439"
"$GPRMC,152710,A,2452.3545,N,08020.6458,W,3.8,72.3,200615,6.6,W"
"##MN-00 00 06 0073 01783 5248 444136 204903 198"
"171.643947"
"$GPRMC,152714,A,2452.3559,N,08020.6417,W,3.8,71.7,200615,6.6,W"
"##MN-00 00 06 0074 01787 5251 444130 204898 198"
"171.643993"
"$GPRMC,152718,A,2452.3571,N,08020.6375,W,3.8,71.6,200615,6.6,W"
"##MN-00 00 06 0075 01789 5253 444121 204893 198"
"171.644039"
"$GPRMC,152722,A,2452.3584,N,08020.6326,W,3.8,71.9,200615,6.6,W"
"##MN-00 00 06 0076 01793 5256 444111 204889 198"
"171.644086"
"$GPRMC,152726,A,2452.3599,N,08020.6282,W,3.8,72.4,200615,6.6,W"
"##MN-00 00 06 0076 01796 5258 444096 204880 198"
"171.644132"
"$GPRMC,152730,A,2452.3613,N,08020.6242,W,3.7,72.3,200615,6.6,W"
"##MN-00 00 06 0077 01796 5261 444076 204874 198"
"171.644178"
"$GPRMC,152734,A,2452.3626,N,08020.6197,W,3.7,71.9,200615,6.6,W"
"##MN-00 00 06 0078 01796 5264 444066 204871 198"
"171.644225"
"$GPRMC,152738,A,2452.3640,N,08020.6154,W,3.7,71.6,200615,6.6,W"
"##MN-00 00 06 0079 01798 5266 444069 204873 198"
"171.644271"
"$GPRMC,152742,A,2452.3654,N,08020.6110,W,3.7,71.4,200615,6.6,W"
"##MN-00 00 06 0080 01796 5269 444074 204875 198"
"171.644317"
"$GPRMC,152746,A,2452.3668,N,08020.6068,W,3.7,71.0,200615,6.6,W"
"##MN-00 00 06 0081 01800 5272 444083 204877 198"
"171.644363"
"$GPRMC,152750,A,2452.3683,N,08020.6024,W,3.7,70.8,200615,6.6,W"
"##MN-00 00 07 0082 01801 5274 444090 204879 198"
"171.64441"
"$GPRMC,152754,A,2452.3696,N,08020.5980,W,3.7,70.7,200615,6.6,W"
"##MN-00 00 06 0083 01801 5277 444096 204880 198"
"171.644456"
"$GPRMC,152758,A,2452.3709,N,08020.5937,W,3.7,71.1,200615,6.6,W"
"##MN-00 00 06 0084 01800 5279 444104 204886 198"
"171.644502"
"$GPRMC,152802,A,2452.3723,N,08020.5894,W,3.7,71.1,200615,6.6,W"
"##MN-00 00 06 0085 01802 5282 444115 204890 198"
"171.644549"
"$GPRMC,152806,A,2452.3737,N,08020.5850,W,3.7,71.4,200615,6.6,W"
"##MN-00 00 07 0086 01801 5284 444124 204894 198"
"171.644595"
"$GPRMC,152810,A,2452.3750,N,08020.5806,W,3.7,71.4,200615,6.6,W"
"##MN-00 00 56 0087 01800 5287 444138 204901 198"
"171.644641"
"$GPRMC,152814,A,2452.3762,N,08020.5762,W,3.7,71.6,200615,6.6,W"
"##MN-00 00 05 0088 01800 5289 444154 204909 198"
"171.644687"
"$GPRMC,152818,A,2452.3773,N,08020.5719,W,3.7,72.1,200615,6.6,W"
"##MN-00 00 57 0089 01800 5291 444161 204912 198"
"171.644734"
"$GPRMC,152822,A,2452.3786,N,08020.5674,W,3.7,72.7,200615,6.6,W"
"##MN-00 00 58 0090 01803 5294 444160 204914 198"
"171.64478"
"$GPRMC,152826,A,2452.3798,N,08020.5630,W,3.7,72.5,200615,6.6,W"
"##MN-00 00 58 0091 01800 5297 444163 204914 198"
"171.644826"
"$GPRMC,152830,A,2452.3809,N,08020.5586,W,3.7,72.4,200615,6.6,W"
"##MN-00 00 58 0092 01799 5299 444161 204914 198"
"171.644873"
"$GPRMC,152834,A,2452.3821,N,08020.5542,W,3.7,72.6,200615,6.6,W"
"##MN-00 00 58 0093 01799 5302 444161 204914 198"
"171.644919"
"$GPRMC,152838,A,2452.3835,N,08020.5499,W,3.7,72.5,200615,6.6,W"
"##MN-00 00 57 0094 01800 5304 444158 204912 198"
"171.644965"
"$GPRMC,152842,A,2452.3848,N,08020.5456,W,3.7,71.9,200615,6.6,W"
"##MN-00 00 08 0095 01800 5306 444151 204908 198"
"171.645012"
"$GPRMC,152846,A,2452.3860,N,08020.5415,W,3.7,72.1,200615,6.6,W"
"##MN-00 00 58 0096 01801 5308 444145 204905 198"
"171.645069"
"$GPRMC,152850,A,2452.3875,N,08020.5372,W,3.7,71.9,200615,6.6,W"
"##MN-00 00 58 0097 01799 5311 444139 204902 198"
"171.645116"
"$GPRMC,152854,A,2452.3886,N,08020.5333,W,3.7,71.5,200615,6.6,W"
"##MN-00 00 07 0098 01799 5314 444133 204900 198"
"171.645162"
"$GPRMC,152858,A,2452.3900,N,08020.5295,W,3.7,71.4,200615,6.6,W"
"##MN-00 00 58 0099 01799 5316 444127 204896 198"
"171.645208"
"$GPRMC,152902,A,2452.3911,N,08020.5258,W,3.7,71.3,200615,6.6,W"
"##MN-00 00 07 0100 01801 5318 444120 204893 198"
"171.645255"
"$GPRMC,152906,A,2452.3925,N,08020.5218,W,3.7,71.3,200615,6.6,W"
"##MN-00 00 07 0101 01801 5321 444113 204890 198"
"171.645301"
"$GPRMC,152910,A,2452.3935,N,08020.5181,W,3.7,71.2,200615,6.6,W"
"##MN-00 00 07 0102 01801 5323 444102 204885 198"
"171.645347"
"$GPRMC,152914,A,2452.3947,N,08020.5139,W,3.7,70.7,200615,6.6,W"
"##MN-00 00 07 0103 01801 5325 444091 204879 198"
"171.645394"
"$GPRMC,152918,A,2452.3961,N,08020.5095,W,3.7,70.7,200615,6.6,W"
"##MN+00 00 07 0104 01803 5328 444081 204877 198"
"171.64544"
"$GPRMC,152922,A,2452.3974,N,08020.5054,W,3.7,71.2,200615,6.6,W"
"##MN+00 00 07 0105 01802 5330 444071 204872 198"
"171.645486"
"$GPRMC,152926,A,2452.3987,N,08020.5010,W,3.7,71.4,200615,6.6,W"
"##MN+00 00 07 0106 01804 5333 444069 204869 198"
"171.645532"
"$GPRMC,152930,A,2452.4000,N,08020.4969,W,3.7,71.4,200615,6.6,W"
"##MN+00 00 56 0107 01804 5335 444071 204869 198"
"171.645579"
"$GPRMC,152934,A,2452.4012,N,08020.4926,W,3.7,71.8,200615,6.6,W"
"##MN+00 00 58 0108 01805 5337 444068 204868 198"
"171.645625"
"$GPRMC,152938,A,2452.4026,N,08020.4880,W,3.7,72.2,200615,6.6,W"
"##MN+00 00 58 0109 01810 5340 444068 204868 198"
"171.645671"
"$GPRMC,152942,A,2452.4040,N,08020.4832,W,3.7,72.3,200615,6.6,W"
"##MN-00 00 58 0110 01811 5342 444082 204872 198"
"171.645718"
"#increment_net"
"$GPRMC,152946,A,2452.4052,N,08020.4786,W,3.7,72.3,200615,6.6,W"
"##MN-00 00 54 0111 01809 5344 444082 204871 198"
"171.645764"
"$GPRMC,152950,A,2452.4066,N,08020.4740,W,3.7,72.4,200615,6.6,W"
"##MN-00 00 06 0112 01809 5347 444088 204873 198"
"171.64581"
"$GPRMC,152954,A,2452.4080,N,08020.4695,W,3.7,72.8,200615,6.6,W"
"##MN-00 00 56 0113 01806 5349 444093 204872 198"
"171.645856"
"$GPRMC,152958,A,2452.4091,N,08020.4649,W,3.7,73.1,200615,6.6,W"
"##MN-00 00 07 0114 01807 5351 444118 204882 198"
"171.645903"
"$GPRMC,153002,A,2452.4105,N,08020.4604,W,3.7,73.0,200615,6.6,W"
"##MN-00 00 07 0115 01809 5353 444159 204893 198"
"171.645949"
"$GPRMC,153006,A,2452.4117,N,08020.4559,W,3.7,72.7,200615,6.6,W"
"##MN-00 00 07 0116 01810 5356 444189 204899 198"
"171.645995"
"$GPRMC,153011,A,2452.4131,N,08020.4501,W,3.7,73.4,200615,6.6,W"
"##MN-00 00 07 0117 01808 5358 444209 204904 198"
"171.646042"
"$GPRMC,153015,A,2452.4142,N,08020.4455,W,3.7,73.1,200615,6.6,W"
"##MN-00 00 07 0118 01809 5360 444195 204903 198"
"171.646088"
"$GPRMC,153019,A,2452.4153,N,08020.4411,W,3.7,72.8,200615,6.6,W"
"##MN-00 00 07 0119 01810 5362 444179 204900 198"
"171.646134"
"$GPRMC,153022,A,2452.4164,N,08020.4379,W,3.7,73.1,200615,6.6,W"
"##MN-00 00 07 0120 01810 5365 444172 204896 198"
"171.646181"
"$GPRMC,153027,A,2452.4178,N,08020.4326,W,3.7,72.9,200615,6.6,W"
"##MN-00 00 57 0121 01811 5367 444141 204890 198"
"171.646227"
"$GPRMC,153031,A,2452.4189,N,08020.4288,W,3.7,72.6,200615,6.6,W"
"##MN-00 00 06 0122 01810 5369 444126 204886 198"
"171.646273"
"$GPRMC,153035,A,2452.4203,N,08020.4246,W,3.8,72.4,200615,6.6,W"
"##MN+00 00 54 0123 01810 5371 444100 204879 198"
"171.646319"
"$GPRMC,153039,A,2452.4214,N,08020.4203,W,3.8,72.1,200615,6.6,W"
"##MN+00 00 58 0124 01812 5373 444082 204876 198"
"171.646366"
"$GPRMC,153043,A,2452.4227,N,08020.4156,W,3.7,71.9,200615,6.6,W"
"##MN+00 00 07 0125 01811 5376 444076 204874 198"
"171.646412"
"$GPRMC,153047,A,2452.4240,N,08020.4112,W,3.7,72.0,200615,6.6,W"
"##MN-00 00 57 0126 01810 5378 444075 204875 198"
"171.646458"
"$GPRMC,153051,A,2452.4256,N,08020.4068,W,3.7,71.8,200615,6.6,W"
"##MN+00 00 58 0127 01808 5380 444075 204876 198"
"171.646505"
"$GPRMC,153055,A,2452.4269,N,08020.4023,W,3.7,71.8,200615,6.6,W"
"##MN+00 00 58 0128 01808 5382 444079 204878 198"
"171.646551"
"$GPRMC,153059,A,2452.4283,N,08020.3979,W,3.7,72.2,200615,6.6,W"
"##MN+00 00 58 0129 01810 5384 444086 204882 198"
"171.646597"
"$GPRMC,153103,A,2452.4299,N,08020.3935,W,3.7,72.1,200615,6.6,W"
"##MN-00 00 58 0130 01811 5386 444088 204882 198"
"171.646644"
"$GPRMC,153107,A,2452.4312,N,08020.3890,W,3.8,71.8,200615,6.6,W"
"##MN-00 00 58 0131 01809 5389 444086 204882 198"
"171.64669"
"#increment_net"
"$GPRMC,153111,A,2452.4326,N,08020.3845,W,3.8,71.2,200615,6.6,W"
"##MN-00 00 06 0132 01808 5391 444083 204882 198"
"171.646736"
"$GPRMC,153115,A,2452.4340,N,08020.3801,W,3.8,70.9,200615,6.6,W"
"##MN-00 00 57 0133 01808 5393 444083 204881 198"
"171.646782"
"$GPRMC,153119,A,2452.4352,N,08020.3758,W,3.8,71.2,200615,6.6,W"
"##MN-00 00 06 0134 01806 5395 444082 204880 198"
"171.646829"
"$GPRMC,153123,A,2452.4366,N,08020.3713,W,3.7,71.2,200615,6.6,W"
"##MN-00 00 08 0135 01805 5397 444080 204879 198"
"171.646875"
"$GPRMC,153127,A,2452.4379,N,08020.3671,W,3.7,71.1,200615,6.6,W"
"##MN-00 00 07 0136 01804 5399 444080 204879 198"
"171.646921"
"$GPRMC,153131,A,2452.4391,N,08020.3628,W,3.7,71.5,200615,6.6,W"
"##MN-00 00 07 0137 01805 5401 444082 204880 198"
"171.646968"
"$GPRMC,153135,A,2452.4406,N,08020.3585,W,3.7,72.0,200615,6.6,W"
"##MN-00 00 07 0138 01805 5403 444084 204880 198"
"171.647014"
"$GPRMC,153139,A,2452.4419,N,08020.3542,W,3.6,72.1,200615,6.6,W"
"##MN-00 00 07 0139 01803 5405 444086 204882 198"
"171.64706"
"$GPRMC,153143,A,2452.4431,N,08020.3498,W,3.6,72.2,200615,6.6,W"
"##MN-00 00 07 0140 01803 5407 444092 204884 198"
"171.647106"
"$GPRMC,153147,A,2452.4445,N,08020.3454,W,3.7,72.2,200615,6.6,W"
"##MN-00 00 07 0141 01803 5410 444098 204887 198"
"171.647153"
"$GPRMC,153151,A,2452.4458,N,08020.3411,W,3.7,72.1,200615,6.6,W"
"##MN-00 00 08 0142 01802 5412 444096 204887 198"
"171.647199"
"$GPRMC,153155,A,2452.4470,N,08020.3368,W,3.7,72.2,200615,6.6,W"
"##MN-00 00 07 0143 01802 5414 444092 204886 198"
"171.647245"
"$GPRMC,153159,A,2452.4482,N,08020.3324,W,3.7,72.1,200615,6.6,W"
"##MN-00 00 06 0144 01801 5416 444095 204886 198"
"171.647292"
"$GPRMC,153203,A,2452.4495,N,08020.3284,W,3.7,72.5,200615,6.6,W"
"##MN+00 00 58 0145 01802 5418 444100 204888 198"
"171.647338"
"$GPRMC,153207,A,2452.4509,N,08020.3243,W,3.7,72.5,200615,6.6,W"
"##MN+00 00 08 0146 01800 5420 444109 204890 198"
"171.647384"
"$GPRMC,153211,A,2452.4521,N,08020.3200,W,3.8,71.8,200615,6.6,W"
"##MN+00 00 57 0147 01799 5422 444121 204892 198"
"171.647431"
"$GPRMC,153215,A,2452.4536,N,08020.3154,W,3.8,72.0,200615,6.6,W"
"##MN+00 00 58 0148 01797 5424 444137 204895 198"
"171.647477"
"$GPRMC,153219,A,2452.4549,N,08020.3106,W,3.8,71.7,200615,6.6,W"
"##MN+00 00 07 0149 01797 5426 444151 204899 198"
"171.647523"
"$GPRMC,153223,A,2452.4564,N,08020.3061,W,3.8,71.8,200615,6.6,W"
"##MN+00 00 58 0150 01801 5428 444232 204926 198"
"171.647569"
"#increment_net"
"$GPRMC,153227,A,2452.4578,N,08020.3014,W,3.8,71.2,200615,6.6,W"
"##MN-00 00 06 0151 01800 5430 444437 204993 198"
"171.647616"
"$GPRMC,153231,A,2452.4592,N,08020.2968,W,3.8,71.2,200615,6.6,W"
"##MN-00 00 07 0152 01799 5432 444762 205033 198"
"171.647662"
"$GPRMC,153235,A,2452.4607,N,08020.2924,W,3.8,71.3,200615,6.6,W"
"##MN-00 00 07 0153 01799 5434 444932 205089 198"
"171.647708"
"$GPRMC,153239,A,2452.4621,N,08020.2880,W,3.8,71.5,200615,6.6,W"
"##MN-00 00 07 0154 01800 5435 444979 205105 198"
"171.647755"
"$GPRMC,153243,A,2452.4635,N,08020.2835,W,3.8,71.3,200615,6.6,W"
"##MN-00 00 07 0155 01798 5438 445009 205122 198"
"171.647801"
"$GPRMC,153247,A,2452.4648,N,08020.2789,W,3.9,70.9,200615,6.6,W"
"##MN-00 00 07 0156 01797 5440 444914 205094 198"
"171.647847"
"$GPRMC,153251,A,2452.4661,N,08020.2745,W,3.8,71.5,200615,6.6,W"
"##MN-00 00 07 0157 01800 5442 444736 205060 198"
"171.647894"
"$GPRMC,153255,A,2452.4673,N,08020.2702,W,3.8,71.5,200615,6.6,W"
"##MN-00 00 07 0158 01798 5444 444638 205039 198"
"171.64794"
"$GPRMC,153259,A,2452.4686,N,08020.2656,W,3.8,71.6,200615,6.6,W"
"##MN-00 00 07 0159 01799 5446 444610 205034 198"
"171.647986"
"$GPRMC,153303,A,2452.4699,N,08020.2609,W,3.8,71.8,200615,6.6,W"
"##MN-00 00 07 0160 01799 5448 444575 205025 198"
"171.648032"
"$GPRMC,153307,A,2452.4712,N,08020.2565,W,3.8,71.9,200615,6.6,W"
"##MN+00 00 07 0161 01801 5449 444574 205026 198"
"171.648079"
"$GPRMC,153311,A,2452.4724,N,08020.2521,W,3.8,72.2,200615,6.6,W"
"##MN+00 00 07 0162 01796 5452 444575 205025 198"
"171.648125"
"$GPRMC,153315,A,2452.4731,N,08020.2483,W,3.8,72.4,200615,6.6,W"
"##MN+00 00 07 0163 01800 5454 444579 205028 198"
"171.648171"
"$GPRMC,153319,A,2452.4744,N,08020.2438,W,3.7,72.4,200615,6.6,W"
"##MN-00 00 07 0164 01799 5455 444636 205042 198"
"171.648218"
"$GPRMC,153323,A,2452.4753,N,08020.2393,W,3.7,72.5,200615,6.6,W"
"##MN-00 00 07 0165 01799 5457 444734 205071 198"
"171.648264"
"$GPRMC,153327,A,2452.4764,N,08020.2347,W,3.7,72.7,200615,6.6,W"
"##MN+00 00 07 0166 01801 5459 444837 205104 198"
"171.648322"
"$GPRMC,153331,A,2452.4777,N,08020.2301,W,3.7,72.9,200615,6.6,W"
"##MN+00 00 07 0167 01801 5461 444921 205123 198"
"171.648368"
"$GPRMC,153335,A,2452.4789,N,08020.2257,W,3.7,72.8,200615,6.6,W"
"##MN+00 00 07 0168 01806 5463 445080 205166 198"
"171.648414"
"$GPRMC,153339,A,2452.4800,N,08020.2217,W,3.7,73.0,200615,6.6,W"
"##MN-00 00 07 0169 01805 5465 445332 205238 198"
"171.648461"
"#increment_net"
"$GPRMC,153343,A,2452.4814,N,08020.2177,W,3.8,72.8,200615,6.6,W"
"##MN-00 00 07 0170 01805 5466 445564 205257 198"
"171.648507"
"$GPRMC,153347,A,2452.4827,N,08020.2131,W,3.8,72.6,200615,6.6,W"
"##MN-00 00 07 0172 01804 5468 445554 205270 198"
"171.648553"
"$GPRMC,153351,A,2452.4841,N,08020.2084,W,3.8,72.3,200615,6.6,W"
"##MN-00 00 07 0173 01803 5470 445520 205270 198"
"171.6486"
"$GPRMC,153355,A,2452.4854,N,08020.2037,W,3.8,72.4,200615,6.6,W"
"##MN-00 00 07 0174 01806 5472 445303 205224 198"
"171.648646"
"$GPRMC,153359,A,2452.4868,N,08020.1994,W,3.8,71.8,200615,6.6,W"
"##MN-00 00 07 0175 01802 5474 445077 205186 198"
"171.648692"
"$GPRMC,153403,A,2452.4881,N,08020.1945,W,3.8,71.6,200615,6.6,W"
"##MN-00 00 07 0176 01802 5476 444938 205150 198"
"171.648738"
"$GPRMC,153407,A,2452.4896,N,08020.1897,W,3.8,71.3,200615,6.6,W"
"##MN-00 00 07 0177 01802 5478 444925 205161 198"
"171.648785"
"$GPRMC,153411,A,2452.4911,N,08020.1852,W,3.8,71.1,200615,6.6,W"
"##MN+00 00 07 0178 01804 5479 445027 205177 198"
"171.648831"
"$GPRMC,153415,A,2452.4928,N,08020.1810,W,3.8,70.8,200615,6.6,W"
"##MN+00 00 07 0179 01802 5481 445094 205191 198"
"171.648877"
"$GPRMC,153419,A,2452.4941,N,08020.1766,W,3.8,70.8,200615,6.6,W"
"##MN+00 00 07 0180 01800 5483 445154 205204 198"
"171.648924"
"$GPRMC,153423,A,2452.4955,N,08020.1722,W,3.8,70.9,200615,6.6,W"
"##MN-00 00 07 0181 01800 5485 445191 205215 198"
"171.64897"
"$GPRMC,153427,A,2452.4969,N,08020.1677,W,3.7,71.1,200615,6.6,W"
"##MN-00 00 07 0182 01802 5486 445269 205229 198"
"171.649016"
"$GPRMC,153431,A,2452.4984,N,08020.1632,W,3.8,71.3,200615,6.6,W"
"##MN-00 00 07 0183 01803 5488 445261 205230 198"
"171.649063"
"$GPRMC,153436,A,2452.5001,N,08020.1576,W,3.8,70.6,200615,6.6,W"
"##MN+00 00 07 0184 01803 5490 445241 205227 198"
"171.649109"
"$GPRMC,153439,A,2452.5009,N,08020.1544,W,3.7,71.1,200615,6.6,W"
"##MN+00 00 07 0185 01804 5492 445225 205224 198"
"171.649155"
"$GPRMC,153443,A,2452.5022,N,08020.1503,W,3.7,71.3,200615,6.6,W"
"##MN+00 00 07 0187 01809 5493 445051 205182 198"
"171.649201"
"#increment_net"
"$GPRMC,153448,A,2452.5038,N,08020.1449,W,3.7,71.3,200615,6.6,W"
"##MN-00 00 07 0188 01810 5495 444997 205183 198"
"171.649248"
"$GPRMC,153452,A,2452.5051,N,08020.1404,W,3.8,71.7,200615,6.6,W"
"##MN-00 00 56 0189 01818 5497 445083 205196 198"
"171.649294"
"$GPRMC,153456,A,2452.5067,N,08020.1352,W,3.7,72.4,200615,6.6,W"
"##MN-00 00 57 0191 01822 5498 445183 205223 198"
"171.64934"
"$GPRMC,153500,A,2452.5081,N,08020.1308,W,3.8,72.7,200615,6.6,W"
"##MN-00 00 06 0192 01827 5500 445438 205283 198"
"171.649387"
"$GPRMC,153504,A,2452.5092,N,08020.1264,W,3.8,73.1,200615,6.6,W"
"##MN-00 00 54 0193 01832 5502 445869 205374 198"
"171.649433"
"$GPRMC,153508,A,2452.5105,N,08020.1222,W,3.8,72.8,200615,6.6,W"
"##MN-00 00 07 0195 01835 5504 446480 205497 198"
"171.649479"
"$GPRMC,153512,A,2452.5117,N,08020.1177,W,3.9,72.9,200615,6.6,W"
"##MN-00 00 57 0196 01831 5506 446957 205599 198"
"171.649525"
"$GPRMC,153516,A,2452.5128,N,08020.1132,W,3.9,73.1,200615,6.6,W"
"##MN-00 00 48 0198 01832 5507 447101 205629 198"
"171.649572"
"$GPRMC,153520,A,2452.5142,N,08020.1087,W,3.9,73.2,200615,6.6,W"
"##MN-00 00 57 0199 01829 5509 447223 205649 198"
"171.649618"
"$GPRMC,153524,A,2452.5156,N,08020.1041,W,3.9,73.1,200615,6.6,W"
"##MN-00 00 02 0200 01829 5510 447334 205678 198"
"171.649664"
"$GPRMC,153528,A,2452.5170,N,08020.0995,W,3.9,73.1,200615,6.6,W"
"##MN-00 00 55 0202 01827 5512 447396 205688 198"
"171.649711"
"$GPRMC,153532,A,2452.5183,N,08020.0948,W,3.9,73.0,200615,6.6,W"
"##MN-00 00 58 0203 01827 5513 447333 205685 198"
"171.649757"
"$GPRMC,153536,A,2452.5197,N,08020.0900,W,4.0,72.9,200615,6.6,W"
"##MN-00 00 56 0205 01825 5515 447226 205668 198"
"171.649803"
"$GPRMC,153540,A,2452.5212,N,08020.0851,W,4.0,72.6,200615,6.6,W"
"##MN-00 00 58 0206 01821 5517 447002 205631 198"
"171.64985"
"$GPRMC,153544,A,2452.5226,N,08020.0802,W,4.0,72.6,200615,6.6,W"
"##MN-00 00 57 0208 01818 5519 446869 205598 198"
"171.649896"
"$GPRMC,153548,A,2452.5239,N,08020.0758,W,4.0,72.7,200615,6.6,W"
"##MN-00 00 57 0209 01814 5520 446570 205554 198"
"171.649942"
"$GPRMC,153552,A,2452.5251,N,08020.0713,W,4.0,72.3,200615,6.6,W"
"##MN-00 00 07 0210 01813 5522 446117 205468 198"
"171.649988"
"$GPRMC,153556,A,2452.5265,N,08020.0666,W,4.0,72.2,200615,6.6,W"
"##MN-00 00 07 0212 01809 5523 445733 205387 198"
"171.650035"
"$GPRMC,153600,A,2452.5276,N,08020.0617,W,4.0,72.3,200615,6.6,W"
"##MN-00 00 06 0213 01806 5525 445492 205342 198"
"171.650081"
"$GPRMC,153604,A,2452.5290,N,08020.0570,W,4.0,72.9,200615,6.6,W"
"##MN-00 00 06 0215 01804 5527 445473 205340 198"
"171.650127"
"$GPRMC,153608,A,2452.5302,N,08020.0521,W,4.0,73.4,200615,6.6,W"
"##MN-00 00 06 0216 01799 5528 445495 205339 198"
"171.650174"
"$GPRMC,153612,A,2452.5316,N,08020.0473,W,4.0,72.9,200615,6.6,W"
"##MN-00 00 07 0218 01796 5529 445532 205341 198"
"171.65022"
"$GPRMC,153616,A,2452.5327,N,08020.0424,W,4.0,74.1,200615,6.6,W"
"##MN-00 00 07 0219 01792 5531 445485 205335 198"
"171.650266"
"$GPRMC,153620,A,2452.5341,N,08020.0375,W,4.0,74.4,200615,6.6,W"
"##MN-00 00 50 0220 01789 5533 445367 205316 198"
"171.650313"
"$GPRMC,153624,A,2452.5354,N,08020.0326,W,4.0,74.2,200615,6.6,W"
"##MN-00 00 06 0222 01784 5534 445256 205288 198"
"171.650359"
"$GPRMC,153628,A,2452.5367,N,08020.0276,W,4.0,74.1,200615,6.6,W"
"##MN-00 00 06 0223 01780 5535 445100 205267 198"
"171.650405"
"$GPRMC,153632,A,2452.5378,N,08020.0227,W,4.1,74.0,200615,6.6,W"
"##MN-00 00 07 0225 01778 5537 444962 205252 198"
"171.650451"
"$GPRMC,153636,A,2452.5392,N,08020.0179,W,4.1,73.7,200615,6.6,W"
"##MN-00 00 51 0226 01774 5538 444848 205226 198"
"171.650498"
"$GPRMC,153640,A,2452.5403,N,08020.0132,W,4.0,74.4,200615,6.6,W"
"##MN-00 00 54 0227 01772 5540 444711 205186 198"
"171.650544"
"$GPRMC,153644,A,2452.5417,N,08020.0085,W,4.1,73.5,200615,6.6,W"
"##MN-00 00 06 0229 01768 5542 444548 205139 198"
"171.65059"
"$GPRMC,153648,A,2452.5428,N,08020.0037,W,4.1,73.7,200615,6.6,W"
"##MN-00 00 07 0230 01766 5543 444423 205104 198"
"171.650637"
"$GPRMC,153652,A,2452.5439,N,08019.9989,W,4.0,74.3,200615,6.6,W"
"##MN-00 00 07 0232 01762 5544 444361 205092 198"
"171.650683"
"$GPRMC,153656,A,2452.5453,N,08019.9940,W,4.1,73.7,200615,6.6,W"
"##MN-00 00 07 0233 01760 5546 444323 205086 198"
"171.650729"
"$GPRMC,153700,A,2452.5467,N,08019.9892,W,4.1,73.6,200615,6.6,W"
"##MN-00 00 07 0235 01758 5547 444301 205083 198"
"171.650775"
"$GPRMC,153704,A,2452.5479,N,08019.9844,W,4.1,73.7,200615,6.6,W"
"##MN-00 00 07 0236 01754 5549 444283 205072 198"
"171.650822"
"$GPRMC,153708,A,2452.5492,N,08019.9796,W,4.1,73.8,200615,6.6,W"
"##MN-00 00 07 0237 01749 5550 444255 205060 198"
"171.650868"
"$GPRMC,153712,A,2452.5506,N,08019.9747,W,4.1,73.4,200615,6.6,W"
"##MN-00 00 44 0239 01746 5552 444225 205052 198"
"171.650914"
"$GPRMC,153716,A,2452.5519,N,08019.9696,W,4.1,73.5,200615,6.6,W"
"##MN-00 00 07 0240 01740 5554 444204 205045 198"
"171.650961"
"$GPRMC,153720,A,2452.5533,N,08019.9642,W,4.2,73.3,200615,6.6,W"
"##MN-00 00 07 0242 01737 5555 444173 205038 198"
"171.651007"
"$GPRMC,153724,A,2452.5546,N,08019.9596,W,4.2,73.3,200615,6.6,W"
"##MN-00 00 07 0243 01732 5556 444157 205032 198"
"171.651053"
"$GPRMC,153728,A,2452.5558,N,08019.9552,W,4.2,73.1,200615,6.6,W"
"##MN-00 00 07 0244 01731 5558 444137 205027 198"
"171.6511"
"$GPRMC,153732,A,2452.5565,N,08019.9515,W,4.2,72.9,200615,6.6,W"
"##MN-00 00 07 0246 01727 5560 444119 205022 198"
"171.651146"
"$GPRMC,153736,A,2452.5576,N,08019.9468,W,4.2,73.3,200615,6.6,W"
"##MN-00 00 07 0247 01724 5561 444104 205019 198"
"171.651192"
"$GPRMC,153740,A,2452.5587,N,08019.9419,W,4.2,73.4,200615,6.6,W"
"##MN-00 00 07 0249 01721 5562 444065 205006 198"
"171.651238"
"$GPRMC,153744,A,2452.5601,N,08019.9367,W,4.2,73.4,200615,6.6,W"
"##MN-00 00 07 0250 01717 5564 444021 204998 198"
"171.651285"
"$GPRMC,153748,A,2452.5619,N,08019.9307,W,4.2,73.6,200615,6.6,W"
"##MN-00 00 07 0251 01711 5565 443987 204989 198"
"171.651331"
"$GPRMC,153752,A,2452.5630,N,08019.9269,W,4.1,73.2,200615,6.6,W"
"##MN-00 00 07 0253 01708 5567 443960 204981 198"
"171.651377"
"$GPRMC,153756,A,2452.5648,N,08019.9207,W,4.1,73.3,200615,6.6,W"
"##MN-00 00 07 0254 01707 5568 443942 204976 198"
"171.651424"
"$GPRMC,153800,A,2452.5662,N,08019.9158,W,4.1,73.6,200615,6.6,W"
"##MN-00 00 07 0256 01704 5570 443930 204974 198"
"171.65147"
"$GPRMC,153804,A,2452.5676,N,08019.9109,W,4.1,73.7,200615,6.6,W"
"##MN-00 00 07 0257 01700 5571 443927 204973 198"
"171.651516"
"$GPRMC,153808,A,2452.5688,N,08019.9060,W,4.2,73.9,200615,6.6,W"
"##MN-00 00 08 0258 01696 5573 443926 204973 198"
"171.651574"
"$GPRMC,153812,A,2452.5699,N,08019.9012,W,4.1,74.1,200615,6.6,W"
"##MN-00 00 07 0260 01693 5574 443924 204973 198"
"171.65162"
"$GPRMC,153816,A,2452.5713,N,08019.8964,W,4.0,74.2,200615,6.6,W"
"##MN-00 00 07 0261 01689 5576 443923 204972 198"
"171.651667"
"$GPRMC,153820,A,2452.5725,N,08019.8917,W,4.0,74.4,200615,6.6,W"
"##MN-00 00 07 0262 01685 5577 443924 204974 198"
"171.651713"
"$GPRMC,153824,A,2452.5739,N,08019.8870,W,4.0,74.5,200615,6.6,W"
"##MN-00 00 08 0264 01680 5578 443927 204976 198"
"171.651759"
"$GPRMC,153828,A,2452.5752,N,08019.8821,W,4.0,74.6,200615,6.6,W"
"##MN-00 00 07 0265 01677 5580 443925 204977 198"
"171.651806"
"$GPRMC,153832,A,2452.5764,N,08019.8773,W,4.1,74.1,200615,6.6,W"
"##MN-00 00 07 0267 01675 5581 443923 204978 198"
"171.651852"
"$GPRMC,153836,A,2452.5777,N,08019.8725,W,4.1,73.8,200615,6.6,W"
"##MN-00 00 50 0268 01672 5583 443929 204980 198"
"171.651898"
"$GPRMC,153840,A,2452.5792,N,08019.8676,W,4.1,73.7,200615,6.6,W"
"##MN-00 00 07 0269 01668 5584 443933 204982 198"
"171.651944"
"$GPRMC,153844,A,2452.5806,N,08019.8627,W,4.1,73.5,200615,6.6,W"
"##MN-00 00 07 0271 01665 5586 443935 204982 198"
"171.651991"
"$GPRMC,153848,A,2452.5820,N,08019.8577,W,4.1,73.5,200615,6.6,W"
"##MN-00 00 07 0272 01661 5587 443917 204978 198"
"171.652037"
"$GPRMC,153852,A,2452.5832,N,08019.8529,W,4.1,73.0,200615,6.6,W"
"##MN-00 00 07 0274 01659 5589 443903 204975 198"
"171.652083"
"$GPRMC,153856,A,2452.5844,N,08019.8483,W,4.1,72.8,200615,6.6,W"
"##MN-00 00 50 0275 01657 5590 443897 204976 198"
"171.65213"
"$GPRMC,153900,A,2452.5855,N,08019.8435,W,4.2,72.5,200615,6.6,W"
"##MN-00 00 33 0276 01653 5592 443902 204978 198"
"171.652176"
"$GPRMC,153904,A,2452.5869,N,08019.8388,W,4.2,72.6,200615,6.6,W"
"##MN-00 00 45 0278 01649 5593 443919 204986 198"
"171.652222"
"$GPRMC,153908,A,2452.5883,N,08019.8340,W,4.2,72.9,200615,6.6,W"
"##MN-00 00 53 0279 01646 5594 443938 204989 198"
"171.652269"
"$GPRMC,153912,A,2452.5898,N,08019.8292,W,4.1,73.0,200615,6.6,W"
"##MN-00 00 55 0281 01642 5596 443942 204993 198"
"171.652315"
"$GPRMC,153916,A,2452.5912,N,08019.8243,W,4.2,72.9,200615,6.6,W"
"##MN-00 00 53 0282 01639 5597 443948 204996 198"
"171.652361"
"$GPRMC,153920,A,2452.5927,N,08019.8194,W,4.2,72.9,200615,6.6,W"
"##MN-00 00 07 0284 01634 5598 443959 205000 198"
"171.652407"
"$GPRMC,153924,A,2452.5940,N,08019.8144,W,4.2,72.7,200615,6.6,W"
"##MN-00 00 53 0285 01631 5600 443955 205000 198"
"171.652454"
"$GPRMC,153928,A,2452.5956,N,08019.8094,W,4.2,72.8,200615,6.6,W"
"##MN-00 00 54 0286 01628 5601 443961 205003 198"
"171.6525"
"$GPRMC,153932,A,2452.5970,N,08019.8045,W,4.2,72.7,200615,6.6,W"
"##MN-00 00 07 0288 01624 5603 443963 205005 198"
"171.652546"
"$GPRMC,153936,A,2452.5984,N,08019.7997,W,4.2,72.4,200615,6.6,W"
"##MN-00 00 07 0289 01619 5604 443961 205006 198"
"171.652593"
"$GPRMC,153940,A,2452.5997,N,08019.7949,W,4.2,72.5,200615,6.6,W"
"##MN-00 00 08 0291 01614 5606 443953 205005 198"
"171.652639"
"$GPRMC,153945,A,2452.6014,N,08019.7886,W,4.2,73.0,200615,6.6,W"
"##MN-00 00 07 0292 01611 5607 443943 205004 198"
"171.652685"
"$GPRMC,153949,A,2452.6027,N,08019.7837,W,4.2,73.0,200615,6.6,W"
"##MN-00 00 07 0293 01609 5608 443929 205001 198"
"171.652731"
"$GPRMC,153953,A,2452.6039,N,08019.7790,W,4.2,73.7,200615,6.6,W"
"##MN-00 00 07 0295 01605 5610 443930 205003 198"
"171.652778"
"$GPRMC,153957,A,2452.6053,N,08019.7743,W,4.1,74.1,200615,6.6,W"
"##MN-00 00 07 0296 01601 5611 443925 205001 198"
"171.652824"
"$GPRMC,154001,A,2452.6067,N,08019.7694,W,4.1,74.2,200615,6.6,W"
"##MN-00 00 07 0297 01597 5612 443918 205000 198"
"171.65287"
"$GPRMC,154005,A,2452.6079,N,08019.7645,W,4.1,74.3,200615,6.6,W"
"##MN-00 00 08 0299 01595 5614 443916 204999 198"
"171.652917"
"$GPRMC,154009,A,2452.6093,N,08019.7595,W,4.1,74.2,200615,6.6,W"
"##MN-00 00 07 0300 01590 5615 443907 204998 198"
"171.652963"
"$GPRMC,154013,A,2452.6106,N,08019.7546,W,4.1,73.5,200615,6.6,W"
"##MN-00 00 07 0302 01588 5617 443892 204996 198"
"171.653009"
"$GPRMC,154017,A,2452.6117,N,08019.7498,W,4.1,73.8,200615,6.6,W"
"##MN-00 00 07 0303 01587 5618 443879 204995 198"
"171.653056"
"$GPRMC,154021,A,2452.6129,N,08019.7448,W,4.1,74.3,200615,6.6,W"
"##MN-00 00 07 0304 01582 5619 443859 204993 198"
"171.653102"
"$GPRMC,154025,A,2452.6143,N,08019.7398,W,4.1,74.6,200615,6.6,W"
"##MN-00 00 07 0306 01578 5621 443849 204996 198"
"171.653148"
"$GPRMC,154029,A,2452.6156,N,08019.7347,W,4.1,73.8,200615,6.6,W"
"##MN-00 00 07 0307 01572 5622 443847 204994 198"
"171.653194"
"$GPRMC,154033,A,2452.6165,N,08019.7296,W,4.1,73.4,200615,6.6,W"
"##MN-00 00 07 0309 01570 5624 443814 204989 198"
"171.653241"
"$GPRMC,154037,A,2452.6179,N,08019.7248,W,4.2,73.6,200615,6.6,W"
"##MN-00 00 08 0310 01566 5625 443783 204982 198"
"171.653287"
"$GPRMC,154041,A,2452.6194,N,08019.7197,W,4.2,73.6,200615,6.6,W"
"##MN-00 00 08 0311 01564 5626 443753 204979 198"
"171.653333"
"$GPRMC,154045,A,2452.6207,N,08019.7149,W,4.2,73.2,200615,6.6,W"
"##MN-00 00 08 0313 01557 5627 443722 204973 198"
"171.65338"
"$GPRMC,154049,A,2452.6223,N,08019.7099,W,4.2,72.3,200615,6.6,W"
"##MN-00 00 08 0314 01553 5629 443679 204964 198"
"171.653426"
"$GPRMC,154053,A,2452.6237,N,08019.7048,W,4.2,72.0,200615,6.6,W"
"##MN-00 00 08 0316 01550 5630 443493 204931 198"
"171.653472"
"$GPRMC,154057,A,2452.6252,N,08019.7000,W,4.2,72.4,200615,6.6,W"
"##MN-00 00 08 0317 01548 5631 442932 204822 198"
"171.653519"
"$GPRMC,154101,A,2452.6266,N,08019.6951,W,4.2,71.6,200615,6.6,W"
"##MN-00 00 08 0318 01548 5633 442598 204724 198"
"171.653565"
"$GPRMC,154105,A,2452.6281,N,08019.6901,W,4.2,71.7,200615,6.6,W"
"##MN-00 00 08 0319 01547 5634 442339 204704 198"
