" Tow: 8WM   RVWS/WS15161"
" Date: 20/06/2015"
" Temperature Probe #  4762    Conductivity Probe #  710"
" Pressure Probe #  188"
" Flow Meter Calibration  4.71 (m/count)  "
"171.809051"
"$GPRMC,192458,A,2455.3685,N,08021.1449,W,2.4,276.5,200615,6.6,"
"##MN-00 00 00 0000 02664 5319 529797 093459 201"
"171.809097"
"$GPRMC,192503,A,2455.3690,N,08021.1486,W,2.4,277.3,200615,6.6,"
"##MN-00 00 00 0000 02664 5317 519728 024586 201"
"171.809144"
"$GPRMC,192507,A,2455.3694,N,08021.1517,W,2.5,277.9,200615,6.6,"
"##MN-00 00 00 0000 02665 5315 811408 024581 201"
"171.80919"
"$GPRMC,192511,A,2455.3698,N,08021.1546,W,2.4,278.3,200615,6.6,"
"##MN-00 00 00 0000 02664 5314 488448 024582 201"
"171.809236"
"$GPRMC,192515,A,2455.3701,N,08021.1576,W,2.5,278.5,200615,6.6,"
"##MN-00 00 00 0000 02663 5312 025856 024556 201"
"171.809294"
"$GPRMC,192519,A,2455.3703,N,08021.1607,W,2.5,278.2,200615,6.6,"
"##MN-00 00 13 0000 02664 5310 843824 024566 201"
"171.80934"
"$GPRMC,192523,A,2455.3706,N,08021.1637,W,2.5,278.0,200615,6.6,"
"##MN-00 00 21 0000 02664 5308 667960 024564 201"
"171.809387"
"$GPRMC,192527,A,2455.3709,N,08021.1666,W,2.4,277.3,200615,6.6,"
"##MN-00 00 39 0000 02665 5307 394352 024552 201"
"171.809433"
"$GPRMC,192531,A,2455.3714,N,08021.1695,W,2.4,276.9,200615,6.6,"
"##MN-00 00 39 0000 02666 5305 970880 024563 201"
"171.809479"
"$GPRMC,192535,A,2455.3716,N,08021.1724,W,2.4,276.4,200615,6.6,"
"##MN-00 00 42 0001 02664 5303 646152 024583 201"
"171.809525"
"$GPRMC,192539,A,2455.3719,N,08021.1752,W,2.3,275.8,200615,6.6,"
"##MN-00 00 42 0001 02664 5301 978304 024585 201"
"171.809572"
"$GPRMC,192543,A,2455.3719,N,08021.1777,W,2.3,275.5,200615,6.6,"
"##MN-00 00 51 0002 02668 5300 427016 024555 201"
"171.809618"
"$GPRMC,192547,A,2455.3718,N,08021.1801,W,2.2,275.2,200615,6.6,"
"##MN-00 00 50 0003 02667 5298 060480 024541 201"
"171.809664"
"$GPRMC,192551,A,2455.3719,N,08021.1825,W,2.2,275.4,200615,6.6,"
"##MN-00 00 51 0004 02665 5296 542144 024551 201"
"171.809711"
"$GPRMC,192555,A,2455.3722,N,08021.1850,W,2.2,275.7,200615,6.6,"
"##MN-00 00 51 0005 02666 5295 419944 024559 201"
"171.809757"
"$GPRMC,192559,A,2455.3725,N,08021.1875,W,2.1,275.7,200615,6.6,"
"##MN-00 00 50 0005 02670 5293 184384 024577 201"
"171.809803"
"$GPRMC,192603,A,2455.3727,N,08021.1900,W,2.1,275.2,200615,6.6,"
"##MN-00 00 50 0006 02665 5292 589376 024546 201"
"171.80985"
"$GPRMC,192607,A,2455.3727,N,08021.1923,W,2.1,274.8,200615,6.6,"
"##MN-00 00 50 0007 02667 5290 125424 024557 201"
"171.809896"
"$GPRMC,192612,A,2455.3730,N,08021.1954,W,2.1,275.0,200615,6.6,"
"##MN-00 00 51 0008 02666 5289 525456 024546 201"
"171.809942"
"$GPRMC,192615,A,2455.3734,N,08021.1973,W,2.0,275.6,200615,6.6,"
"##MN-00 00 50 0009 02667 5287 814304 024537 201"
"171.809988"
"$GPRMC,192619,A,2455.3740,N,08021.2001,W,1.9,275.5,200615,6.6,"
"##MN-00 00 50 0010 02667 5286 689240 024526 201"
"171.810035"
"$GPRMC,192623,A,2455.3741,N,08021.2024,W,1.9,276.0,200615,6.6,"
"##MN-00 00 50 0011 02667 5284 852320 024493 201"
"171.810081"
"$GPRMC,192627,A,2455.3744,N,08021.2049,W,1.9,276.3,200615,6.6,"
"##MN-00 00 50 0012 02667 5284 623760 024517 201"
"171.810127"
"$GPRMC,192632,A,2455.3748,N,08021.2081,W,1.9,276.5,200615,6.6,"
"##MN-00 00 50 0013 02667 5282 390312 024505 201"
"171.810174"
"$GPRMC,192636,A,2455.3749,N,08021.2104,W,1.9,277.1,200615,6.6,"
"##MN-00 00 50 0014 02669 5281 886992 024494 201"
"171.81022"
"$GPRMC,192640,A,2455.3752,N,08021.2129,W,1.9,276.8,200615,6.6,"
"##MN-00 00 50 0015 02670 5279 136688 024492 201"
"171.810266"
"$GPRMC,192644,A,2455.3758,N,08021.2155,W,2.0,277.5,200615,6.6,"
"##MN-00 00 51 0016 02669 5278 913808 024487 201"
"171.810313"
"$GPRMC,192647,A,2455.3762,N,08021.2175,W,2.0,277.9,200615,6.6,"
"##MN-00 00 50 0017 02669 5277 303088 024488 201"
"171.810359"
"$GPRMC,192652,A,2455.3766,N,08021.2204,W,2.0,279.6,200615,6.6,"
"##MN-00 00 51 0018 02670 5276 444960 024497 201"
"171.810405"
"$GPRMC,192656,A,2455.3772,N,08021.2229,W,2.0,280.7,200615,6.6,"
"##MN-00 00 50 0019 02671 5275 462408 024474 201"
"171.810451"
"$GPRMC,192700,A,2455.3777,N,08021.2252,W,2.0,282.1,200615,6.6,"
"##MN-00 00 50 0020 02670 5275 476768 024455 201"
"171.810498"
"$GPRMC,192704,A,2455.3783,N,08021.2277,W,2.0,282.7,200615,6.6,"
"##MN-00 00 50 0021 02671 5274 010576 024458 201"
"171.810544"
"$GPRMC,192708,A,2455.3788,N,08021.2301,W,2.0,283.2,200615,6.6,"
"##MN-00 00 50 0022 02670 5273 498488 024467 201"
"171.81059"
"$GPRMC,192712,A,2455.3792,N,08021.2326,W,2.0,283.4,200615,6.6,"
"##MN-00 00 51 0023 02672 5272 783920 024448 201"
"171.810637"
"$GPRMC,192716,A,2455.3798,N,08021.2349,W,2.0,283.2,200615,6.6,"
"##MN-00 00 51 0024 02671 5271 412704 024454 201"
"171.810683"
"$GPRMC,192720,A,2455.3801,N,08021.2373,W,2.0,282.6,200615,6.6,"
"##MN-00 00 51 0025 02671 5270 810936 024429 201"
"171.810729"
"$GPRMC,192724,A,2455.3805,N,08021.2396,W,1.9,281.1,200615,6.6,"
"##MN-00 00 51 0025 02672 5270 253456 024438 201"
"171.810775"
"$GPRMC,192728,A,2455.3808,N,08021.2420,W,1.9,279.9,200615,6.6,"
"##MN-00 00 51 0026 02674 5269 450672 024428 201"
"171.810822"
"$GPRMC,192732,A,2455.3810,N,08021.2442,W,1.9,278.9,200615,6.6,"
"##MN-00 00 51 0027 02671 5269 841456 024448 201"
"171.810868"
"$GPRMC,192736,A,2455.3811,N,08021.2465,W,1.9,277.7,200615,6.6,"
"##MN-00 00 50 0028 02673 5268 698528 024430 201"
"171.810914"
"$GPRMC,192740,A,2455.3815,N,08021.2489,W,1.9,276.4,200615,6.6,"
"##MN-00 00 51 0029 02675 5268 566264 024438 201"
"171.810961"
"$GPRMC,192744,A,2455.3815,N,08021.2511,W,1.9,275.2,200615,6.6,"
"##MN-00 00 51 0030 02675 5268 865648 024415 201"
"171.811007"
"$GPRMC,192748,A,2455.3819,N,08021.2536,W,1.9,273.9,200615,6.6,"
"##MN-00 00 51 0031 02675 5267 488192 024424 201"
"171.811053"
"$GPRMC,192752,A,2455.3820,N,08021.2562,W,1.9,271.7,200615,6.6,"
"##MN-00 00 51 0032 02677 5267 878544 024416 201"
"171.8111"
"$GPRMC,192756,A,2455.3822,N,08021.2587,W,1.9,269.5,200615,6.6,"
"##MN-00 00 51 0033 02679 5267 889960 024408 201"
"171.811146"
"$GPRMC,192800,A,2455.3824,N,08021.2609,W,1.9,267.8,200615,6.6,"
"##MN-00 00 51 0034 02678 5266 895032 024400 201"
"171.811192"
"$GPRMC,192804,A,2455.3822,N,08021.2633,W,1.9,266.5,200615,6.6,"
"##MN-00 00 51 0035 02681 5267 613856 024417 201"
"171.811238"
"$GPRMC,192808,A,2455.3820,N,08021.2655,W,1.9,266.3,200615,6.6,"
"##MN-00 00 51 0036 02680 5266 625320 024401 201"
"171.811285"
"$GPRMC,192812,A,2455.3819,N,08021.2681,W,2.0,266.4,200615,6.6,"
"##MN-00 00 51 0037 02680 5266 916720 024407 201"
"171.811331"
"$GPRMC,192816,A,2455.3819,N,08021.2709,W,2.0,266.8,200615,6.6,"
"##MN-00 00 51 0038 02683 5266 542016 024391 201"
"171.811377"
"$GPRMC,192820,A,2455.3823,N,08021.2735,W,2.1,267.5,200615,6.6,"
"##MN-00 00 51 0039 02682 5266 934576 024390 201"
"171.811424"
"$GPRMC,192824,A,2455.3821,N,08021.2760,W,2.1,268.1,200615,6.6,"
"##MN-00 00 51 0040 02684 5266 382000 024389 201"
"171.81147"
"$GPRMC,192828,A,2455.3820,N,08021.2785,W,2.1,269.2,200615,6.6,"
"##MN-00 00 51 0041 02684 5267 950704 024412 201"
"171.811516"
"$GPRMC,192832,A,2455.3820,N,08021.2811,W,2.2,270.6,200615,6.6,"
"##MN-00 00 51 0042 02689 5267 950888 024412 201"
"171.811563"
"$GPRMC,192836,A,2455.3820,N,08021.2837,W,2.2,271.7,200615,6.6,"
"##MN-00 00 51 0043 02689 5267 952944 024403 201"
"171.811609"
"$GPRMC,192840,A,2455.3820,N,08021.2863,W,2.2,273.0,200615,6.6,"
"##MN-00 00 51 0044 02689 5267 967920 024400 201"
"171.811655"
"$GPRMC,192844,A,2455.3823,N,08021.2890,W,2.2,273.9,200615,6.6,"
"##MN-00 00 51 0045 02690 5267 975856 024394 201"
"171.811701"
"$GPRMC,192848,A,2455.3824,N,08021.2915,W,2.2,274.3,200615,6.6,"
"##MN-00 00 51 0046 02692 5268 600656 024401 201"
"171.811748"
"$GPRMC,192852,A,2455.3824,N,08021.2942,W,2.2,274.0,200615,6.6,"
"##MN-00 00 51 0047 02692 5268 991456 024381 201"
"171.811794"
"$GPRMC,192856,A,2455.3826,N,08021.2969,W,2.2,273.7,200615,6.6,"
"##MN-00 00 51 0048 02694 5268 439344 024381 201"
"171.81184"
"$GPRMC,192900,A,2455.3825,N,08021.2995,W,2.2,274.2,200615,6.6,"
"##MN-00 00 51 0050 02694 5269 006280 024375 201"
"171.811887"
"$GPRMC,192904,A,2455.3826,N,08021.3021,W,2.2,273.8,200615,6.6,"
"##MN-00 00 51 0051 02698 5269 006064 024409 201"
"171.811933"
"$GPRMC,192908,A,2455.3826,N,08021.3049,W,2.3,273.4,200615,6.6,"
"##MN-00 00 51 0052 02699 5270 006848 024413 201"
"171.811979"
"$GPRMC,192912,A,2455.3824,N,08021.3075,W,2.3,272.7,200615,6.6,"
"##MN-00 00 51 0053 02700 5270 022728 024393 201"
"171.812025"
"$GPRMC,192916,A,2455.3826,N,08021.3105,W,2.3,272.3,200615,6.6,"
"##MN-00 00 52 0054 02702 5271 028848 024385 201"
"171.812072"
"$GPRMC,192920,A,2455.3824,N,08021.3132,W,2.3,271.3,200615,6.6,"
"##MN-00 00 52 0055 02704 5271 034936 024392 201"
"171.812118"
"$GPRMC,192924,A,2455.3824,N,08021.3161,W,2.2,270.8,200615,6.6,"
"##MN-00 00 52 0056 02705 5272 041920 024386 201"
"171.812164"
"$GPRMC,192928,A,2455.3824,N,08021.3190,W,2.2,269.7,200615,6.6,"
"##MN-00 00 52 0057 02707 5273 803296 024385 201"
"171.812211"
"$GPRMC,192932,A,2455.3821,N,08021.3215,W,2.2,270.1,200615,6.6,"
"##MN-00 00 51 0058 02709 5273 009104 024373 201"
"171.812257"
"$GPRMC,192936,A,2455.3823,N,08021.3244,W,2.2,269.4,200615,6.6,"
"##MN-00 00 52 0059 02713 5273 013440 024357 201"
"171.812303"
"$GPRMC,192940,A,2455.3820,N,08021.3269,W,2.2,269.6,200615,6.6,"
"##MN-00 00 52 0060 02713 5275 013736 024385 201"
"171.81235"
"$GPRMC,192944,A,2455.3818,N,08021.3293,W,2.2,269.4,200615,6.6,"
"##MN-00 00 52 0061 02716 5275 013120 024399 201"
"171.812396"
"$GPRMC,192948,A,2455.3817,N,08021.3320,W,2.2,268.5,200615,6.6,"
"##MN-00 00 51 0063 02718 5276 015224 024382 201"
"171.812442"
"$GPRMC,192952,A,2455.3819,N,08021.3349,W,2.2,268.7,200615,6.6,"
"##MN-00 00 51 0064 02720 5277 030656 024377 201"
"171.8125"
"$GPRMC,192956,A,2455.3820,N,08021.3374,W,2.2,269.3,200615,6.6,"
"##MN-00 00 51 0065 02721 5278 036784 024363 201"
"171.812546"
"$GPRMC,193000,A,2455.3820,N,08021.3403,W,2.2,269.9,200615,6.6,"
"##MN-00 00 51 0066 02724 5278 042032 024364 201"
"171.812593"
"$GPRMC,193004,A,2455.3820,N,08021.3429,W,2.2,270.3,200615,6.6,"
"##MN-00 00 51 0067 02729 5279 048912 024358 201"
"171.812639"
"$GPRMC,193008,A,2455.3819,N,08021.3457,W,2.2,270.8,200615,6.6,"
"##MN-00 00 51 0068 02730 5280 052872 024363 201"
"171.812685"
"$GPRMC,193012,A,2455.3821,N,08021.3484,W,2.2,271.1,200615,6.6,"
"##MN-00 00 51 0069 02732 5281 059848 024360 201"
"171.812732"
"$GPRMC,193016,A,2455.3823,N,08021.3512,W,2.2,272.1,200615,6.6,"
"##MN-00 00 51 0070 02735 5282 069968 024339 201"
"171.812778"
"$GPRMC,193020,A,2455.3824,N,08021.3540,W,2.2,272.7,200615,6.6,"
"##MN-00 00 51 0071 02738 5283 069872 024365 201"
"171.812824"
"$GPRMC,193024,A,2455.3824,N,08021.3566,W,2.3,273.3,200615,6.6,"
"##MN-00 00 51 0072 02738 5284 067104 024363 201"
"171.81287"
"$GPRMC,193028,A,2455.3826,N,08021.3595,W,2.3,273.9,200615,6.6,"
"##MN-00 00 52 0073 02740 5285 069224 024361 201"
"171.812917"
"$GPRMC,193032,A,2455.3826,N,08021.3623,W,2.3,273.8,200615,6.6,"
"##MN-00 00 52 0074 02744 5286 079808 024354 201"
"171.812963"
"$GPRMC,193036,A,2455.3828,N,08021.3649,W,2.3,273.1,200615,6.6,"
"##MN-00 00 52 0076 02748 5287 088160 024345 201"
"171.813009"
"$GPRMC,193040,A,2455.3828,N,08021.3678,W,2.3,273.2,200615,6.6,"
"##MN-00 00 52 0077 02752 5288 339472 024335 201"
"171.813056"
"$GPRMC,193044,A,2455.3830,N,08021.3706,W,2.3,273.0,200615,6.6,"
"##MN-00 00 52 0078 02753 5289 096848 024339 201"
"171.813102"
"$GPRMC,193048,A,2455.3831,N,08021.3735,W,2.3,272.2,200615,6.6,"
"##MN-00 00 53 0079 02757 5290 103488 024338 201"
"171.813148"
"$GPRMC,193052,A,2455.3831,N,08021.3759,W,2.2,271.4,200615,6.6,"
"##MN-00 00 52 0080 02758 5291 110936 024335 201"
"171.813194"
"$GPRMC,193056,A,2455.3830,N,08021.3784,W,2.2,270.5,200615,6.6,"
"##MN-00 00 51 0081 02763 5292 118000 024337 201"
"171.813241"
"$GPRMC,193100,A,2455.3830,N,08021.3808,W,2.1,270.5,200615,6.6,"
"##MN-00 00 51 0082 02763 5294 124592 024308 201"
"171.813287"
"$GPRMC,193104,A,2455.3830,N,08021.3833,W,2.1,270.8,200615,6.6,"
"##MN-00 00 52 0083 02768 5295 124976 024328 201"
"171.813333"
"$GPRMC,193109,A,2455.3830,N,08021.3862,W,2.0,270.8,200615,6.6,"
"##MN-00 00 52 0084 02772 5296 125328 024342 201"
"171.81338"
"$GPRMC,193112,A,2455.3831,N,08021.3883,W,1.9,270.9,200615,6.6,"
"##MN-00 00 51 0085 02777 5297 124736 024339 201"
"171.813426"
"$GPRMC,193116,A,2455.3835,N,08021.3907,W,1.9,271.2,200615,6.6,"
"##MN-00 00 52 0086 02777 5298 126400 024338 201"
"171.813472"
"$GPRMC,193120,A,2455.3836,N,08021.3934,W,1.9,271.1,200615,6.6,"
"##MN-00 00 51 0087 02781 5300 140112 024335 201"
"171.813519"
"$GPRMC,193125,A,2455.3842,N,08021.3964,W,1.9,270.6,200615,6.6,"
"##MN-00 00 52 0088 02784 5301 425664 024324 201"
"171.813565"
"$GPRMC,193129,A,2455.3846,N,08021.3988,W,2.0,271.0,200615,6.6,"
"##MN-00 00 51 0089 02789 5302 151520 024324 201"
"171.813611"
"$GPRMC,193133,A,2455.3846,N,08021.4012,W,2.0,271.6,200615,6.6,"
"##MN-00 00 52 0090 02791 5303 153648 024319 201"
"171.813657"
"$GPRMC,193137,A,2455.3848,N,08021.4036,W,2.0,272.4,200615,6.6,"
"##MN-00 00 52 0091 02796 5304 159400 024327 201"
"171.813704"
"$GPRMC,193141,A,2455.3849,N,08021.4062,W,2.0,273.1,200615,6.6,"
"##MN-00 00 52 0092 02799 5306 164216 024317 201"
"171.81375"
"$GPRMC,193145,A,2455.3849,N,08021.4089,W,2.0,273.7,200615,6.6,"
"##MN-00 00 52 0093 02803 5307 168592 024308 201"
"171.813796"
"$GPRMC,193149,A,2455.3849,N,08021.4115,W,2.0,274.0,200615,6.6,"
"##MN-00 00 51 0094 02809 5308 176120 024295 201"
"171.813843"
"$GPRMC,193153,A,2455.3850,N,08021.4140,W,2.0,274.3,200615,6.6,"
"##MN-00 00 51 0095 02809 5310 180928 024300 201"
"171.813889"
"$GPRMC,193157,A,2455.3853,N,08021.4163,W,2.0,274.9,200615,6.6,"
"##MN-00 00 51 0096 02816 5311 180824 024326 201"
"171.813935"
"$GPRMC,193201,A,2455.3855,N,08021.4188,W,2.0,275.3,200615,6.6,"
"##MN-00 00 51 0097 02819 5312 426760 024338 201"
"171.813981"
"$GPRMC,193205,A,2455.3855,N,08021.4213,W,2.0,276.2,200615,6.6,"
"##MN-00 00 51 0098 02821 5313 180624 024341 201"
"171.814028"
"$GPRMC,193209,A,2455.3860,N,08021.4238,W,2.0,276.4,200615,6.6,"
"##MN-00 00 51 0099 02824 5315 181912 024333 201"
"171.814074"
"$GPRMC,193213,A,2455.3866,N,08021.4261,W,2.0,276.7,200615,6.6,"
"##MN-00 00 50 0100 02829 5316 184960 024330 201"
"171.81412"
"$GPRMC,193217,A,2455.3867,N,08021.4285,W,2.0,276.5,200615,6.6,"
"##MN-00 00 50 0101 02831 5317 197416 024314 201"
"171.814167"
"$GPRMC,193221,A,2455.3870,N,08021.4310,W,2.0,276.5,200615,6.6,"
"##MN-00 00 50 0102 02833 5319 201328 024318 201"
"171.814213"
"$GPRMC,193225,A,2455.3871,N,08021.4335,W,2.0,276.4,200615,6.6,"
"##MN-00 00 50 0103 02838 5320 207920 024316 201"
"171.814259"
"$GPRMC,193229,A,2455.3871,N,08021.4358,W,2.0,276.0,200615,6.6,"
"##MN-00 00 50 0104 02841 5322 208744 024322 201"
"171.814306"
"$GPRMC,193233,A,2455.3873,N,08021.4383,W,1.9,275.4,200615,6.6,"
"##MN-00 00 51 0106 02842 5323 214064 024315 201"
"171.814352"
"$GPRMC,193237,A,2455.3875,N,08021.4407,W,1.9,275.8,200615,6.6,"
"##MN-00 00 50 0107 02845 5325 216648 024319 201"
"171.814398"
"$GPRMC,193241,A,2455.3877,N,08021.4429,W,1.9,276.0,200615,6.6,"
"##MN-00 00 50 0108 02844 5326 221928 024312 201"
"171.814444"
"$GPRMC,193245,A,2455.3878,N,08021.4454,W,1.9,275.6,200615,6.6,"
"##MN-00 00 50 0109 02850 5327 227184 024313 201"
"171.814491"
"$GPRMC,193249,A,2455.3881,N,08021.4477,W,1.9,275.2,200615,6.6,"
"##MN-00 00 50 0110 02852 5329 233400 024307 201"
"171.814537"
"$GPRMC,193253,A,2455.3885,N,08021.4503,W,1.9,274.7,200615,6.6,"
"##MN-00 00 50 0111 02856 5330 236880 024308 201"
"171.814583"
"$GPRMC,193257,A,2455.3885,N,08021.4525,W,1.8,273.8,200615,6.6,"
"##MN-00 00 50 0112 02857 5332 236816 024327 201"
"171.81463"
"$GPRMC,193301,A,2455.3887,N,08021.4549,W,1.9,273.5,200615,6.6,"
"##MN-00 00 51 0113 02861 5333 237600 024341 201"
"171.814676"
"$GPRMC,193305,A,2455.3889,N,08021.4574,W,1.9,273.4,200615,6.6,"
"##MN-00 00 51 0114 02862 5334 235760 024346 201"
"171.814722"
"$GPRMC,193309,A,2455.3892,N,08021.4599,W,1.9,273.3,200615,6.6,"
"##MN-00 00 50 0115 02862 5336 236600 024347 201"
"171.814769"
"$GPRMC,193313,A,2455.3893,N,08021.4624,W,1.9,273.3,200615,6.6,"
"##MN-00 00 50 0116 02866 5337 236560 024351 201"
"171.814815"
"$GPRMC,193317,A,2455.3894,N,08021.4646,W,1.9,273.1,200615,6.6,"
"##MN-00 00 50 0117 02868 5339 520024 024334 201"
"171.814861"
"$GPRMC,193321,A,2455.3896,N,08021.4671,W,1.9,273.1,200615,6.6,"
"##MN-00 00 50 0118 02868 5340 256424 024329 201"
"171.814907"
"$GPRMC,193325,A,2455.3898,N,08021.4693,W,1.8,273.1,200615,6.6,"
"##MN-00 00 51 0119 02870 5342 260400 024334 201"
"171.814954"
"$GPRMC,193329,A,2455.3898,N,08021.4715,W,1.9,273.2,200615,6.6,"
"##MN-00 00 50 0120 02871 5343 647376 024330 201"
"171.815"
"$GPRMC,193333,A,2455.3899,N,08021.4738,W,1.9,273.8,200615,6.6,"
"##MN-00 00 50 0121 02871 5345 264752 024331 201"
"171.815046"
"$GPRMC,193337,A,2455.3898,N,08021.4762,W,1.9,274.0,200615,6.6,"
"##MN-00 00 50 0122 02873 5346 266944 024336 201"
"171.815093"
"$GPRMC,193341,A,2455.3902,N,08021.4784,W,1.9,275.0,200615,6.6,"
"##MN-00 00 50 0123 02874 5348 272632 024320 201"
"171.815139"
"$GPRMC,193345,A,2455.3904,N,08021.4809,W,1.9,276.0,200615,6.6,"
"##MN-00 00 50 0124 02875 5349 275248 024321 201"
"171.815185"
"$GPRMC,193349,A,2455.3908,N,08021.4832,W,1.9,276.2,200615,6.6,"
"##MN-00 00 50 0125 02878 5351 280104 024325 201"
"171.815231"
"$GPRMC,193353,A,2455.3907,N,08021.4856,W,1.9,276.5,200615,6.6,"
"##MN-00 00 50 0127 02879 5352 285856 024315 201"
"171.815278"
"$GPRMC,193357,A,2455.3910,N,08021.4879,W,1.9,276.5,200615,6.6,"
"##MN-00 00 50 0128 02881 5354 291984 024296 201"
"171.815324"
"$GPRMC,193401,A,2455.3913,N,08021.4903,W,2.0,277.1,200615,6.6,"
"##MN-00 00 50 0129 02881 5355 291952 024311 201"
"171.81537"
"$GPRMC,193405,A,2455.3915,N,08021.4928,W,2.0,277.0,200615,6.6,"
"##MN-00 00 50 0130 02881 5357 292784 024345 201"
"171.815417"
"$GPRMC,193409,A,2455.3918,N,08021.4951,W,2.0,277.1,200615,6.6,"
"##MN-00 00 50 0131 02881 5358 292720 024337 201"
"171.815463"
"$GPRMC,193413,A,2455.3920,N,08021.4975,W,1.9,276.6,200615,6.6,"
"##MN-00 00 50 0132 02882 5360 292656 024348 201"
"171.815509"
"$GPRMC,193417,A,2455.3924,N,08021.4997,W,1.9,276.4,200615,6.6,"
"##MN-00 00 50 0133 02883 5362 292600 024348 201"
"171.815556"
"$GPRMC,193421,A,2455.3925,N,08021.5022,W,1.9,276.3,200615,6.6,"
"##MN-00 00 51 0134 02885 5363 292560 024344 201"
"171.815602"
"$GPRMC,193425,A,2455.3928,N,08021.5045,W,1.9,276.1,200615,6.6,"
"##MN-00 00 51 0135 02886 5364 293432 024330 201"
"171.815648"
"$GPRMC,193429,A,2455.3931,N,08021.5069,W,1.9,276.2,200615,6.6,"
"##MN-00 00 50 0136 02886 5366 306296 024329 201"
"171.815694"
"$GPRMC,193433,A,2455.3932,N,08021.5092,W,1.9,276.1,200615,6.6,"
"##MN-00 00 50 0137 02888 5368 865856 024327 201"
"171.815752"
"$GPRMC,193437,A,2455.3936,N,08021.5116,W,1.9,276.0,200615,6.6,"
"##MN-00 00 50 0138 02889 5369 314224 024332 201"
"171.815799"
"$GPRMC,193441,A,2455.3938,N,08021.5138,W,1.9,275.7,200615,6.6,"
"##MN-00 00 50 0139 02889 5371 320880 024321 201"
"171.815845"
"$GPRMC,193445,A,2455.3939,N,08021.5163,W,1.9,275.6,200615,6.6,"
"##MN-00 00 50 0140 02892 5372 321296 024326 201"
"171.815891"
"$GPRMC,193449,A,2455.3940,N,08021.5185,W,1.9,274.8,200615,6.6,"
"##MN-00 00 50 0141 02888 5373 323864 024318 201"
"171.815938"
"$GPRMC,193453,A,2455.3940,N,08021.5210,W,1.9,273.7,200615,6.6,"
"##MN-00 00 51 0142 02892 5375 328736 024317 201"
"171.815984"
"$GPRMC,193457,A,2455.3943,N,08021.5232,W,1.9,272.9,200615,6.6,"
"##MN-00 00 50 0143 02891 5377 330040 024310 201"
"171.81603"
"$GPRMC,193501,A,2455.3945,N,08021.5257,W,1.9,272.9,200615,6.6,"
"##MN-00 00 51 0144 02891 5378 333120 024314 201"
"171.816076"
"$GPRMC,193505,A,2455.3946,N,08021.5280,W,1.9,272.9,200615,6.6,"
"##MN-00 00 50 0145 02892 5380 338448 024310 201"
"171.816123"
"$GPRMC,193509,A,2455.3947,N,08021.5303,W,1.9,272.9,200615,6.6,"
"##MN-00 00 50 0147 02891 5381 344608 024316 201"
"171.816169"
"$GPRMC,193513,A,2455.3947,N,08021.5327,W,1.9,272.9,200615,6.6,"
"##MN-00 00 50 0148 02893 5383 070048 024246 201"
"171.816215"
"$GPRMC,193517,A,2455.3947,N,08021.5351,W,1.9,273.1,200615,6.6,"
"##MN-00 00 50 0149 02897 5384 348976 024286 201"
"171.816262"
"$GPRMC,193521,A,2455.3947,N,08021.5376,W,1.9,273.7,200615,6.6,"
"##MN-00 00 51 0150 02894 5386 348992 024326 201"
"171.816308"
"$GPRMC,193525,A,2455.3950,N,08021.5398,W,1.9,274.5,200615,6.6,"
"##MN-00 00 51 0151 02895 5388 625368 024329 201"
"171.816354"
"$GPRMC,193529,A,2455.3951,N,08021.5421,W,1.9,275.2,200615,6.6,"
"##MN-00 00 50 0152 02897 5389 596632 024335 201"
"171.8164"
"$GPRMC,193533,A,2455.3952,N,08021.5445,W,1.9,275.9,200615,6.6,"
"##MN-00 00 50 0153 02896 5391 348736 024336 201"
"171.816447"
"$GPRMC,193537,A,2455.3954,N,08021.5470,W,1.9,276.3,200615,6.6,"
"##MN-00 00 50 0154 02897 5392 348720 024335 201"
"171.816493"
"$GPRMC,193541,A,2455.3957,N,08021.5493,W,1.9,276.5,200615,6.6,"
"##MN-00 00 50 0155 02898 5394 349568 024349 201"
"171.816539"
"$GPRMC,193545,A,2455.3960,N,08021.5517,W,1.9,276.3,200615,6.6,"
"##MN-00 00 50 0156 02897 5395 624216 024349 201"
"171.816586"
"$GPRMC,193550,A,2455.3961,N,08021.5547,W,1.9,276.6,200615,6.6,"
"##MN-00 00 50 0157 02900 5397 351264 024328 201"
"171.816632"
"$GPRMC,193554,A,2455.3964,N,08021.5571,W,1.9,276.1,200615,6.6,"
"##MN-00 00 50 0158 02898 5398 222008 024318 201"
"171.816678"
"$GPRMC,193557,A,2455.3965,N,08021.5589,W,1.9,275.9,200615,6.6,"
"##MN-00 00 50 0159 02901 5400 781136 024322 201"
"171.816725"
"$GPRMC,193602,A,2455.3969,N,08021.5618,W,1.9,276.4,200615,6.6,"
"##MN-00 00 50 0160 02901 5401 371632 024328 201"
"171.816771"
"$GPRMC,193605,A,2455.3969,N,08021.5636,W,1.9,275.7,200615,6.6,"
"##MN+00 00 50 0161 02899 5403 236560 024327 201"
"171.816817"
"$GPRMC,193610,A,2455.3972,N,08021.5665,W,1.9,275.4,200615,6.6,"
"##MN+00 00 50 0162 02901 5404 377824 024294 201"
"171.816863"
"$GPRMC,193614,A,2455.3972,N,08021.5688,W,1.9,274.9,200615,6.6,"
"##MN+00 00 56 0163 02901 5406 376880 024337 201"
"171.81691"
"$GPRMC,193618,A,2455.3973,N,08021.5712,W,1.9,274.6,200615,6.6,"
"##MN-00 00 54 0164 02902 5407 518264 024311 201"
"171.816956"
"$GPRMC,193622,A,2455.3974,N,08021.5737,W,1.9,274.2,200615,6.6,"
"##MN-00 00 53 0166 02902 5409 935968 024309 201"
"171.817002"
"#increment_net"
"$GPRMC,193626,A,2455.3976,N,08021.5760,W,1.9,274.1,200615,6.6,"
"##MN-00 00 52 0167 02902 5410 247936 024311 201"
"171.817049"
"$GPRMC,193630,A,2455.3979,N,08021.5784,W,1.9,273.9,200615,6.6,"
"##MN-00 00 52 0168 02903 5412 389168 024313 201"
"171.817095"
"$GPRMC,193634,A,2455.3979,N,08021.5809,W,1.9,273.3,200615,6.6,"
"##MN-00 00 52 0169 02903 5414 666288 024275 201"
"171.817141"
"$GPRMC,193638,A,2455.3981,N,08021.5832,W,1.9,273.4,200615,6.6,"
"##MN-00 00 51 0170 02904 5415 627224 024307 201"
"171.817187"
"$GPRMC,193642,A,2455.3983,N,08021.5857,W,1.9,273.3,200615,6.6,"
"##MN-00 00 51 0171 02905 5417 222592 024261 201"
"171.817234"
"$GPRMC,193646,A,2455.3985,N,08021.5882,W,1.9,273.3,200615,6.6,"
"##MN-00 00 51 0172 02905 5418 405104 024263 201"
"171.81728"
"$GPRMC,193650,A,2455.3987,N,08021.5905,W,1.9,273.2,200615,6.6,"
"##MN-00 00 51 0173 02905 5420 179888 024305 201"
"171.817326"
"$GPRMC,193654,A,2455.3985,N,08021.5928,W,1.9,273.5,200615,6.6,"
"##MN-00 00 51 0174 02906 5421 541184 024338 201"
"171.817373"
"$GPRMC,193658,A,2455.3985,N,08021.5950,W,1.9,273.3,200615,6.6,"
"##MN-00 00 51 0175 02907 5423 538160 024337 201"
"171.817419"
"$GPRMC,193702,A,2455.3990,N,08021.5975,W,1.9,273.5,200615,6.6,"
"##MN-00 00 51 0176 02907 5424 954352 024336 201"
"171.817465"
"$GPRMC,193706,A,2455.3990,N,08021.5998,W,1.9,273.6,200615,6.6,"
"##MN-00 00 51 0177 02909 5426 402464 024347 201"
"171.817512"
"$GPRMC,193710,A,2455.3991,N,08021.6020,W,1.9,274.0,200615,6.6,"
"##MN-00 00 51 0178 02908 5427 404032 024350 201"
"171.817558"
"$GPRMC,193714,A,2455.3992,N,08021.6044,W,2.0,274.7,200615,6.6,"
"##MN-00 00 51 0179 02910 5429 679552 024354 201"
"171.817604"
"$GPRMC,193718,A,2455.3994,N,08021.6067,W,1.9,275.5,200615,6.6,"
"##MN-00 00 51 0180 02910 5430 405424 024344 201"
"171.81765"
"$GPRMC,193722,A,2455.3996,N,08021.6091,W,1.9,276.2,200615,6.6,"
"##MN-00 00 51 0181 02908 5432 191152 024325 201"
"171.817697"
"$GPRMC,193726,A,2455.3999,N,08021.6113,W,1.9,276.4,200615,6.6,"
"##MN-00 00 51 0182 02911 5434 282696 024323 201"
"171.817743"
"$GPRMC,193730,A,2455.4001,N,08021.6136,W,1.9,276.3,200615,6.6,"
"##MN-00 00 51 0184 02912 5435 974608 024317 201"
"171.817789"
"$GPRMC,193734,A,2455.4003,N,08021.6161,W,1.9,275.8,200615,6.6,"
"##MN-00 00 51 0185 02913 5436 426536 024305 201"
"171.817836"
"$GPRMC,193738,A,2455.4007,N,08021.6185,W,1.9,275.2,200615,6.6,"
"##MN-00 00 51 0186 02914 5438 813552 024299 201"
"171.817882"
"$GPRMC,193742,A,2455.4010,N,08021.6208,W,1.9,275.6,200615,6.6,"
"##MN-00 00 51 0187 02912 5439 433152 024310 201"
"171.817928"
"$GPRMC,193746,A,2455.4012,N,08021.6233,W,1.9,275.4,200615,6.6,"
"##MN-00 00 51 0188 02914 5441 707800 024307 201"
"171.817975"
"$GPRMC,193750,A,2455.4012,N,08021.6257,W,1.9,274.9,200615,6.6,"
"##MN-00 00 51 0189 02913 5443 706176 024317 201"
"171.818021"
"$GPRMC,193754,A,2455.4014,N,08021.6275,W,1.9,274.9,200615,6.6,"
"##MN-00 00 51 0190 02914 5444 434136 024291 201"
"171.818067"
"$GPRMC,193758,A,2455.4016,N,08021.6297,W,1.9,275.1,200615,6.6,"
"##MN-00 00 51 0191 02915 5445 716576 024284 201"
"171.818113"
"$GPRMC,193802,A,2455.4019,N,08021.6326,W,1.9,275.0,200615,6.6,"
"##MN-00 00 51 0192 02914 5447 164688 024280 201"
"171.81816"
"$GPRMC,193806,A,2455.4021,N,08021.6344,W,1.9,275.0,200615,6.6,"
"##MN-00 00 51 0193 02916 5448 581472 024282 201"
"171.818206"
"$GPRMC,193810,A,2455.4023,N,08021.6373,W,1.9,274.7,200615,6.6,"
"##MN-00 00 51 0194 02916 5450 449808 024276 201"
"171.818252"
"$GPRMC,193814,A,2455.4025,N,08021.6398,W,1.9,274.6,200615,6.6,"
"##MN-00 00 51 0195 02917 5451 449336 024289 201"
"171.818299"
"$GPRMC,193818,A,2455.4026,N,08021.6420,W,1.9,274.5,200615,6.6,"
"##MN-00 00 51 0196 02918 5453 866816 024282 201"
"171.818345"
"$GPRMC,193822,A,2455.4029,N,08021.6443,W,1.9,274.4,200615,6.6,"
"##MN+00 00 50 0197 02918 5454 360480 024288 201"
"171.818391"
"$GPRMC,193826,A,2455.4030,N,08021.6467,W,1.9,274.7,200615,6.6,"
"##MN+00 00 50 0198 02918 5456 511768 024293 201"
"171.818437"
"$GPRMC,193830,A,2455.4032,N,08021.6492,W,1.9,274.7,200615,6.6,"
"##MN+00 00 55 0199 02920 5458 361408 024283 201"
"171.818484"
"#increment_net"
"$GPRMC,193834,A,2455.4034,N,08021.6514,W,1.9,274.8,200615,6.6,"
"##MN-00 00 52 0200 02920 5459 372248 024292 201"
"171.81853"
"$GPRMC,193838,A,2455.4036,N,08021.6540,W,1.9,274.5,200615,6.6,"
"##MN-00 00 51 0201 02923 5460 735880 024290 201"
"171.818576"
"$GPRMC,193842,A,2455.4037,N,08021.6562,W,1.9,274.3,200615,6.6,"
"##MN-00 00 51 0202 02921 5462 461168 024294 201"
"171.818623"
"$GPRMC,193846,A,2455.4039,N,08021.6586,W,1.9,273.8,200615,6.6,"
"##MN-00 00 51 0203 02921 5463 322136 024280 201"
"171.818669"
"$GPRMC,193850,A,2455.4039,N,08021.6608,W,1.9,273.9,200615,6.6,"
"##MN-00 00 51 0205 02924 5465 461104 024289 201"
"171.818715"
"$GPRMC,193854,A,2455.4040,N,08021.6629,W,1.9,273.4,200615,6.6,"
"##MN-00 00 52 0206 02923 5466 735800 024289 201"
"171.818762"
"$GPRMC,193858,A,2455.4040,N,08021.6651,W,1.9,272.8,200615,6.6,"
"##MN-00 00 51 0207 02923 5468 322024 024295 201"
"171.818808"
"$GPRMC,193902,A,2455.4040,N,08021.6673,W,1.9,272.7,200615,6.6,"
"##MN-00 00 51 0208 02924 5469 733232 024284 201"
"171.818854"
"$GPRMC,193906,A,2455.4040,N,08021.6696,W,1.9,272.2,200615,6.6,"
"##MN-00 00 51 0209 02925 5471 435880 024288 201"
"171.8189"
"$GPRMC,193910,A,2455.4040,N,08021.6721,W,1.8,271.6,200615,6.6,"
"##MN-00 00 51 0210 02925 5472 369920 024294 201"
"171.818947"
"$GPRMC,193914,A,2455.4043,N,08021.6746,W,1.9,271.7,200615,6.6,"
"##MN-00 00 51 0211 02925 5474 559776 024290 201"
"171.819005"
"$GPRMC,193918,A,2455.4043,N,08021.6770,W,1.9,272.7,200615,6.6,"
"##MN-00 00 51 0212 02926 5475 479208 024302 201"
"171.819051"
"$GPRMC,193922,A,2455.4044,N,08021.6793,W,1.9,273.0,200615,6.6,"
"##MN-00 00 51 0213 02927 5476 250864 024293 201"
"171.819097"
"$GPRMC,193926,A,2455.4044,N,08021.6817,W,1.9,273.3,200615,6.6,"
"##MN-00 00 51 0214 02927 5478 478504 024301 201"
"171.819144"
"$GPRMC,193930,A,2455.4047,N,08021.6840,W,1.9,273.8,200615,6.6,"
"##MN-00 00 51 0215 02926 5479 033440 024297 201"
"171.81919"
"$GPRMC,193934,A,2455.4048,N,08021.6864,W,1.9,274.4,200615,6.6,"
"##MN-00 00 51 0216 02929 5480 349864 024312 201"
"171.819236"
"$GPRMC,193938,A,2455.4052,N,08021.6887,W,1.9,274.8,200615,6.6,"
"##MN-00 00 51 0217 02927 5482 624544 024295 201"
"171.819282"
"$GPRMC,193942,A,2455.4053,N,08021.6911,W,1.9,275.2,200615,6.6,"
"##MN-00 00 51 0218 02926 5484 984544 024301 201"
"171.819329"
"$GPRMC,193946,A,2455.4058,N,08021.6936,W,1.9,275.3,200615,6.6,"
"##MN-00 00 51 0219 02929 5485 924656 024304 201"
"171.819375"
"$GPRMC,193950,A,2455.4061,N,08021.6960,W,1.9,275.3,200615,6.6,"
"##MN-00 00 51 0220 02927 5486 493712 024308 201"
"171.819421"
"$GPRMC,193954,A,2455.4063,N,08021.6985,W,2.0,275.9,200615,6.6,"
"##MN-00 00 52 0222 02928 5488 380432 024306 201"
"171.819468"
"$GPRMC,193958,A,2455.4066,N,08021.7010,W,2.0,276.3,200615,6.6,"
"##MN-00 00 51 0223 02928 5489 498992 024308 201"
"171.819514"
"$GPRMC,194002,A,2455.4069,N,08021.7034,W,2.0,276.3,200615,6.6,"
"##MN-00 00 51 0224 02928 5491 496288 024313 201"
"171.81956"
"$GPRMC,194006,A,2455.4072,N,08021.7059,W,2.0,276.5,200615,6.6,"
"##MN-00 00 51 0225 02927 5492 367064 024308 201"
"171.819606"
"$GPRMC,194010,A,2455.4074,N,08021.7084,W,2.0,276.5,200615,6.6,"
"##MN-00 00 51 0226 02928 5494 006864 024312 201"
"171.819653"
"$GPRMC,194014,A,2455.4077,N,08021.7107,W,1.9,276.6,200615,6.6,"
"##MN-00 00 51 0227 02928 5495 371040 024310 201"
"171.819699"
"$GPRMC,194018,A,2455.4080,N,08021.7132,W,1.9,276.2,200615,6.6,"
"##MN-00 00 51 0228 02928 5496 513576 024318 201"
"171.819745"
"$GPRMC,194023,A,2455.4081,N,08021.7161,W,2.0,275.5,200615,6.6,"
"##MN+00 00 51 0229 02929 5498 017488 024277 201"
"171.819792"
"$GPRMC,194026,A,2455.4081,N,08021.7179,W,2.0,275.0,200615,6.6,"
"##MN+00 00 51 0230 02929 5499 513752 024273 201"
"171.819838"
"$GPRMC,194031,A,2455.4084,N,08021.7208,W,1.9,274.1,200615,6.6,"
"##MN+00 00 53 0231 02929 5500 016608 024309 201"
"171.819884"
"#increment_net"
"$GPRMC,194034,A,2455.4084,N,08021.7226,W,1.9,273.8,200615,6.6,"
"##MN-00 00 53 0232 02928 5502 517992 024310 201"
"171.819931"
"$GPRMC,194038,A,2455.4086,N,08021.7251,W,1.9,273.0,200615,6.6,"
"##MN-00 00 53 0233 02929 5503 379832 024315 201"
"171.819977"
"$GPRMC,194042,A,2455.4086,N,08021.7276,W,1.9,272.3,200615,6.6,"
"##MN-00 00 52 0234 02930 5505 514784 024321 201"
"171.820023"
"$GPRMC,194047,A,2455.4088,N,08021.7308,W,2.0,272.3,200615,6.6,"
"##MN-00 00 53 0235 02928 5506 266968 024317 201"
"171.820069"
"$GPRMC,194051,A,2455.4090,N,08021.7331,W,1.9,271.8,200615,6.6,"
"##MN-00 00 52 0237 02927 5507 241168 024311 201"
"171.820116"
"$GPRMC,194055,A,2455.4090,N,08021.7355,W,2.0,272.1,200615,6.6,"
"##MN-00 00 52 0238 02928 5509 516952 024323 201"
"171.820162"
"$GPRMC,194059,A,2455.4089,N,08021.7378,W,2.0,272.6,200615,6.6,"
"##MN-00 00 52 0239 02926 5510 518288 024315 201"
"171.820208"
"$GPRMC,194103,A,2455.4089,N,08021.7402,W,2.0,273.2,200615,6.6,"
"##MN-00 00 52 0240 02927 5512 266440 024312 201"
"171.820255"
"$GPRMC,194107,A,2455.4090,N,08021.7425,W,1.9,273.4,200615,6.6,"
"##MN-00 00 52 0241 02926 5513 517320 024316 201"
"171.820301"
"$GPRMC,194111,A,2455.4097,N,08021.7449,W,1.9,273.9,200615,6.6,"
"##MN-00 00 52 0242 02927 5515 243712 024316 201"
"171.820347"
"$GPRMC,194115,A,2455.4097,N,08021.7471,W,1.9,274.6,200615,6.6,"
"##MN-00 00 52 0243 02926 5516 269480 024294 201"
"171.820393"
"$GPRMC,194119,A,2455.4099,N,08021.7496,W,1.9,274.5,200615,6.6,"
"##MN-00 00 53 0244 02925 5517 531536 024317 201"
"171.82044"
"$GPRMC,194123,A,2455.4100,N,08021.7520,W,1.9,274.4,200615,6.6,"
"##MN-00 00 52 0245 02925 5519 535512 024272 201"
"171.820486"
"$GPRMC,194127,A,2455.4102,N,08021.7547,W,2.0,274.5,200615,6.6,"
"##MN-00 00 52 0246 02926 5520 397360 024325 201"
"171.820532"
"$GPRMC,194131,A,2455.4106,N,08021.7572,W,2.0,274.9,200615,6.6,"
"##MN-00 00 53 0247 02924 5521 537728 024300 201"
"171.820579"
"$GPRMC,194135,A,2455.4109,N,08021.7597,W,2.0,276.3,200615,6.6,"
"##MN-00 00 53 0248 02925 5522 540816 024298 201"
"171.820625"
"$GPRMC,194139,A,2455.4117,N,08021.7621,W,2.0,276.5,200615,6.6,"
"##MN-00 00 52 0249 02924 5524 542128 024324 201"
"171.820671"
"$GPRMC,194143,A,2455.4124,N,08021.7646,W,2.0,276.7,200615,6.6,"
"##MN-00 00 52 0251 02924 5525 545680 024290 201"
"171.820718"
"$GPRMC,194147,A,2455.4130,N,08021.7670,W,2.0,276.4,200615,6.6,"
"##MN-00 00 53 0252 02921 5526 545664 024283 201"
"171.820764"
"$GPRMC,194151,A,2455.4134,N,08021.7693,W,1.9,276.2,200615,6.6,"
"##MN-00 00 53 0253 02923 5528 546072 024288 201"
"171.82081"
"$GPRMC,194155,A,2455.4136,N,08021.7717,W,1.9,276.3,200615,6.6,"
"##MN-00 00 53 0254 02922 5529 295096 024283 201"
"171.820856"
"$GPRMC,194159,A,2455.4139,N,08021.7742,W,1.9,275.9,200615,6.6,"
"##MN-00 00 53 0255 02922 5530 272896 024300 201"
"171.820903"
"$GPRMC,194203,A,2455.4140,N,08021.7765,W,1.9,275.4,200615,6.6,"
"##MN-00 00 52 0256 02919 5532 301320 024282 201"
"171.820949"
"$GPRMC,194207,A,2455.4142,N,08021.7789,W,1.9,275.4,200615,6.6,"
"##MN-00 00 52 0257 02923 5533 555392 024280 201"
"171.820995"
"$GPRMC,194211,A,2455.4143,N,08021.7814,W,1.9,275.3,200615,6.6,"
"##MN-00 00 53 0258 02924 5534 418112 024271 201"
"171.821042"
"$GPRMC,194215,A,2455.4145,N,08021.7836,W,1.9,275.1,200615,6.6,"
"##MN-00 00 52 0259 02920 5536 554856 024282 201"
"171.821088"
"$GPRMC,194219,A,2455.4146,N,08021.7854,W,1.9,274.7,200615,6.6,"
"##MN-00 00 52 0260 02924 5537 056992 024290 201"
"171.821134"
"$GPRMC,194223,A,2455.4146,N,08021.7884,W,1.9,274.7,200615,6.6,"
"##MN-00 00 53 0261 02921 5538 422928 024271 201"
"171.821181"
"$GPRMC,194227,A,2455.4148,N,08021.7908,W,1.9,275.0,200615,6.6,"
"##MN+00 00 53 0262 02920 5540 060512 024266 201"
"171.821227"
"$GPRMC,194231,A,2455.4149,N,08021.7930,W,1.9,274.8,200615,6.6,"
"##MN+00 00 52 0263 02922 5541 564584 024265 201"
"171.821273"
"$GPRMC,194235,A,2455.4149,N,08021.7952,W,1.9,274.7,200615,6.6,"
"##MN+00 00 55 0264 02919 5542 180864 024258 201"
"171.821319"
"#increment_net"
"$GPRMC,194239,A,2455.4150,N,08021.7975,W,1.9,274.4,200615,6.6,"
"##MN-00 00 54 0265 02921 5544 573008 024257 201"
"171.821366"
"$GPRMC,194243,A,2455.4152,N,08021.7999,W,1.9,274.0,200615,6.6,"
"##MN-00 00 54 0266 02922 5545 435744 024257 201"
"171.821412"
"$GPRMC,194247,A,2455.4153,N,08021.8021,W,1.9,273.5,200615,6.6,"
"##MN-00 00 53 0268 02921 5546 573824 024253 201"
"171.821458"
"$GPRMC,194251,A,2455.4153,N,08021.8045,W,1.9,273.0,200615,6.6,"
"##MN-00 00 53 0269 02920 5547 322416 024265 201"
"171.821505"
"$GPRMC,194255,A,2455.4156,N,08021.8068,W,1.9,273.0,200615,6.6,"
"##MN-00 00 53 0270 02922 5549 574672 024329 201"
"171.821551"
"$GPRMC,194259,A,2455.4156,N,08021.8092,W,1.9,273.2,200615,6.6,"
"##MN-00 00 52 0271 02923 5550 435200 024312 201"
"171.821597"
"$GPRMC,194303,A,2455.4156,N,08021.8116,W,1.9,273.2,200615,6.6,"
"##MN-00 00 53 0272 02922 5551 322824 024319 201"
"171.821644"
"$GPRMC,194307,A,2455.4156,N,08021.8140,W,1.9,273.2,200615,6.6,"
"##MN-00 00 53 0273 02924 5552 572816 024311 201"
"171.82169"
"$GPRMC,194311,A,2455.4156,N,08021.8165,W,1.9,273.5,200615,6.6,"
"##MN-00 00 52 0274 02923 5554 573664 024313 201"
"171.821736"
"$GPRMC,194315,A,2455.4158,N,08021.8188,W,2.0,274.4,200615,6.6,"
"##MN-00 00 53 0275 02924 5555 569168 024329 201"
"171.821782"
"$GPRMC,194319,A,2455.4158,N,08021.8212,W,1.9,274.8,200615,6.6,"
"##MN-00 00 52 0276 02924 5556 575888 024302 201"
"171.821829"
"$GPRMC,194323,A,2455.4160,N,08021.8237,W,1.9,274.4,200615,6.6,"
"##MN-00 00 52 0277 02925 5557 435488 024311 201"
"171.821875"
"$GPRMC,194327,A,2455.4164,N,08021.8262,W,1.9,274.6,200615,6.6,"
"##MN-00 00 52 0278 02923 5559 573568 024317 201"
"171.821921"
"$GPRMC,194331,A,2455.4166,N,08021.8288,W,2.0,275.1,200615,6.6,"
"##MN-00 00 52 0279 02925 5560 573576 024314 201"
"171.821968"
"$GPRMC,194335,A,2455.4167,N,08021.8313,W,2.0,275.6,200615,6.6,"
"##MN-00 00 52 0281 02922 5561 573568 024302 201"
"171.822014"
"$GPRMC,194339,A,2455.4172,N,08021.8338,W,2.0,276.5,200615,6.6,"
"##MN-00 00 52 0282 02923 5563 330608 024287 201"
"171.82206"
"$GPRMC,194343,A,2455.4174,N,08021.8363,W,2.0,276.5,200615,6.6,"
"##MN-00 00 52 0283 02923 5564 589992 024280 201"
"171.822107"
"$GPRMC,194347,A,2455.4175,N,08021.8387,W,2.0,275.9,200615,6.6,"
"##MN-00 00 52 0284 02922 5565 586816 024292 201"
"171.822153"
"$GPRMC,194351,A,2455.4178,N,08021.8411,W,2.0,275.3,200615,6.6,"
"##MN-00 00 52 0285 02923 5566 457120 024276 201"
"171.822199"
"$GPRMC,194355,A,2455.4178,N,08021.8436,W,2.0,274.6,200615,6.6,"
"##MN-00 00 52 0286 02923 5568 592144 024276 201"
"171.822257"
"$GPRMC,194359,A,2455.4185,N,08021.8461,W,2.0,274.0,200615,6.6,"
"##MN-00 00 52 0287 02922 5569 593480 024290 201"
"171.822303"
"$GPRMC,194403,A,2455.4187,N,08021.8486,W,2.0,273.6,200615,6.6,"
"##MN-00 00 52 0288 02923 5570 594800 024271 201"
"171.82235"
"$GPRMC,194407,A,2455.4191,N,08021.8509,W,1.9,273.3,200615,6.6,"
"##MN-00 00 52 0289 02922 5571 598816 024268 201"
"171.822396"
"$GPRMC,194411,A,2455.4193,N,08021.8533,W,1.9,273.3,200615,6.6,"
"##MN-00 00 52 0290 02921 5573 601448 024284 201"
"171.822442"
"$GPRMC,194415,A,2455.4196,N,08021.8556,W,1.9,273.3,200615,6.6,"
"##MN-00 00 52 0291 02923 5574 963808 024287 201"
"171.822488"
"$GPRMC,194419,A,2455.4199,N,08021.8580,W,1.9,273.8,200615,6.6,"
"##MN-00 00 52 0292 02919 5575 555648 024274 201"
"171.822535"
"$GPRMC,194423,A,2455.4199,N,08021.8603,W,1.9,273.7,200615,6.6,"
"##MN-00 00 52 0294 02922 5576 601808 024280 201"
"171.822581"
"$GPRMC,194427,A,2455.4199,N,08021.8627,W,1.9,273.0,200615,6.6,"
"##MN-00 00 52 0295 02924 5577 603128 024273 201"
"171.822627"
"$GPRMC,194431,A,2455.4197,N,08021.8652,W,1.9,272.1,200615,6.6,"
"##MN-00 00 52 0296 02922 5579 607136 024286 201"
"171.822674"
"$GPRMC,194435,A,2455.4194,N,08021.8678,W,1.9,271.5,200615,6.6,"
"##MN-00 00 52 0297 02924 5579 610704 024272 201"
"171.82272"
"$GPRMC,194439,A,2455.4193,N,08021.8703,W,1.9,271.6,200615,6.6,"
"##MN-00 00 51 0298 02922 5581 611992 024265 201"
"171.822766"
"$GPRMC,194443,A,2455.4193,N,08021.8728,W,1.9,271.6,200615,6.6,"
"##MN-00 00 52 0299 02923 5582 609776 024274 201"
"171.822812"
"$GPRMC,194447,A,2455.4193,N,08021.8751,W,1.9,272.3,200615,6.6,"
"##MN-00 00 51 0300 02922 5583 613328 024270 201"
"171.822859"
"$GPRMC,194451,A,2455.4193,N,08021.8775,W,1.9,272.0,200615,6.6,"
"##MN-00 00 51 0301 02922 5585 616896 024274 201"
"171.822905"
"$GPRMC,194455,A,2455.4193,N,08021.8797,W,1.9,272.4,200615,6.6,"
"##MN-00 00 51 0302 02924 5585 618200 024267 201"
"171.822951"
"$GPRMC,194459,A,2455.4195,N,08021.8822,W,1.9,272.9,200615,6.6,"
"##MN-00 00 51 0303 02920 5587 619544 024278 201"
"171.822998"
"$GPRMC,194503,A,2455.4200,N,08021.8847,W,1.9,274.3,200615,6.6,"
"##MN-00 00 51 0304 02924 5588 117648 024270 201"
"171.823044"
"$GPRMC,194508,A,2455.4204,N,08021.8876,W,1.9,274.8,200615,6.6,"
"##MN-00 00 52 0305 02922 5589 623056 024269 201"
"171.82309"
"$GPRMC,194511,A,2455.4207,N,08021.8894,W,1.9,275.0,200615,6.6,"
"##MN-00 00 52 0306 02923 5590 624816 024253 201"
"171.823137"
"$GPRMC,194516,A,2455.4207,N,08021.8923,W,1.9,275.2,200615,6.6,"
"##MN-00 00 52 0308 02921 5592 629280 024246 201"
"171.823183"
"$GPRMC,194519,A,2455.4207,N,08021.8941,W,1.9,275.0,200615,6.6,"
"##MN-00 00 52 0309 02922 5593 629272 024240 201"
"171.823229"
"$GPRMC,194523,A,2455.4207,N,08021.8961,W,1.9,275.4,200615,6.6,"
"##MN-00 00 52 0310 02920 5594 630112 024243 201"
"171.823275"
"$GPRMC,194528,A,2455.4213,N,08021.8989,W,1.9,276.0,200615,6.6,"
"##MN-00 00 53 0311 02922 5595 630136 024246 201"
"171.823322"
"$GPRMC,194532,A,2455.4218,N,08021.9012,W,1.9,276.2,200615,6.6,"
"##MN-00 00 52 0312 02921 5596 629184 024254 201"
"171.823368"
"$GPRMC,194536,A,2455.4219,N,08021.9035,W,1.9,275.7,200615,6.6,"
"##MN-00 00 52 0313 02921 5597 631416 024265 201"
"171.823414"
"$GPRMC,194540,A,2455.4225,N,08021.9059,W,1.9,275.7,200615,6.6,"
"##MN-00 00 52 0314 02923 5598 628304 024290 201"
"171.823461"
"$GPRMC,194544,A,2455.4228,N,08021.9083,W,1.9,275.5,200615,6.6,"
"##MN-00 00 52 0315 02921 5600 630072 024292 201"
"171.823507"
"$GPRMC,194548,A,2455.4231,N,08021.9108,W,1.9,274.7,200615,6.6,"
"##MN-00 00 52 0316 02921 5601 630048 024295 201"
"171.823553"
"$GPRMC,194552,A,2455.4232,N,08021.9131,W,1.9,274.0,200615,6.6,"
"##MN-00 00 52 0317 02921 5602 630000 024291 201"
"171.823599"
"$GPRMC,194556,A,2455.4235,N,08021.9155,W,1.9,273.4,200615,6.6,"
"##MN-00 00 52 0318 02921 5603 492280 024285 201"
"171.823646"
"$GPRMC,194600,A,2455.4234,N,08021.9180,W,1.9,273.0,200615,6.6,"
"##MN-00 00 52 0319 02921 5604 631728 024290 201"
"171.823692"
"$GPRMC,194604,A,2455.4234,N,08021.9205,W,1.9,272.5,200615,6.6,"
"##MN-00 00 52 0320 02922 5605 629000 024288 201"
"171.823738"
"$GPRMC,194608,A,2455.4234,N,08021.9228,W,1.9,272.3,200615,6.6,"
"##MN-00 00 54 0322 02922 5607 377600 024279 201"
"171.823785"
"$GPRMC,194612,A,2455.4232,N,08021.9253,W,1.9,272.3,200615,6.6,"
"##MN-00 00 52 0323 02922 5607 629920 024294 201"
"171.823831"
"$GPRMC,194616,A,2455.4231,N,08021.9277,W,1.9,272.3,200615,6.6,"
"##MN-00 00 52 0324 02919 5609 629864 024283 201"
"171.823877"
"$GPRMC,194620,A,2455.4232,N,08021.9300,W,1.9,272.7,200615,6.6,"
"##MN-00 00 52 0325 02921 5610 630736 024283 201"
"171.823924"
"$GPRMC,194624,A,2455.4231,N,08021.9321,W,1.9,272.8,200615,6.6,"
"##MN+00 00 53 0326 02920 5611 632488 024276 201"
"171.82397"
"$GPRMC,194628,A,2455.4232,N,08021.9346,W,1.9,272.7,200615,6.6,"
"##MN+00 00 52 0327 02920 5612 361552 024260 201"
"171.824016"
"$GPRMC,194632,A,2455.4232,N,08021.9371,W,1.9,272.8,200615,6.6,"
"##MN+00 00 52 0328 02921 5613 644488 024282 201"
"171.824063"
"#increment_net"
"$GPRMC,194636,A,2455.4238,N,08021.9394,W,1.9,272.9,200615,6.6,"
"##MN-00 00 52 0329 02920 5614 649880 024269 201"
"171.824109"
"$GPRMC,194640,A,2455.4238,N,08021.9419,W,1.9,273.3,200615,6.6,"
"##MN-00 00 52 0330 02920 5615 646720 024261 201"
"171.824155"
"$GPRMC,194644,A,2455.4236,N,08021.9444,W,1.9,273.5,200615,6.6,"
"##MN-00 00 52 0331 02921 5616 648920 024275 201"
"171.824201"
"$GPRMC,194648,A,2455.4236,N,08021.9467,W,1.9,274.1,200615,6.6,"
"##MN-00 00 52 0332 02920 5617 649328 024269 201"
"171.824248"
"$GPRMC,194652,A,2455.4236,N,08021.9492,W,1.9,274.4,200615,6.6,"
"##MN-00 00 52 0333 02921 5619 651128 024265 201"
"171.824294"
"$GPRMC,194656,A,2455.4237,N,08021.9517,W,2.0,274.5,200615,6.6,"
"##MN-00 00 52 0334 02921 5620 652048 024263 201"
"171.82434"
"$GPRMC,194700,A,2455.4238,N,08021.9541,W,2.0,274.6,200615,6.6,"
"##MN-00 00 52 0336 02922 5621 399312 024268 201"
"171.824387"
"$GPRMC,194704,A,2455.4240,N,08021.9566,W,2.0,274.6,200615,6.6,"
"##MN-00 00 53 0337 02922 5622 655120 024275 201"
"171.824433"
"$GPRMC,194708,A,2455.4243,N,08021.9589,W,2.0,274.5,200615,6.6,"
"##MN-00 00 52 0338 02922 5623 658240 024256 201"
"171.824479"
"$GPRMC,194712,A,2455.4243,N,08021.9614,W,2.0,274.6,200615,6.6,"
"##MN-00 00 52 0339 02922 5624 658192 024259 201"
"171.824525"
"$GPRMC,194716,A,2455.4246,N,08021.9639,W,2.0,274.7,200615,6.6,"
"##MN-00 00 53 0340 02922 5625 658192 024265 201"
"171.824572"
"$GPRMC,194720,A,2455.4247,N,08021.9664,W,2.0,274.6,200615,6.6,"
"##MN-00 00 52 0341 02923 5626 520496 024256 201"
"171.824618"
"$GPRMC,194724,A,2455.4247,N,08021.9687,W,2.0,274.3,200615,6.6,"
"##MN-00 00 53 0342 02921 5627 659504 024255 201"
"171.824664"
"$GPRMC,194728,A,2455.4249,N,08021.9711,W,2.0,274.5,200615,6.6,"
"##MN-00 00 52 0343 02920 5628 659936 024263 201"
"171.824711"
"$GPRMC,194732,A,2455.4253,N,08021.9736,W,2.0,274.8,200615,6.6,"
"##MN-00 00 53 0344 02922 5629 662160 024256 201"
"171.824757"
"$GPRMC,194736,A,2455.4254,N,08021.9759,W,2.0,274.7,200615,6.6,"
"##MN-00 00 52 0345 02919 5630 665264 024258 201"
"171.824803"
"$GPRMC,194740,A,2455.4257,N,08021.9784,W,2.0,274.5,200615,6.6,"
"##MN-00 00 52 0347 02921 5631 667056 024254 201"
"171.82485"
"$GPRMC,194744,A,2455.4258,N,08021.9809,W,2.0,274.6,200615,6.6,"
"##MN-00 00 53 0348 02922 5632 667920 024256 201"
"171.824896"
"$GPRMC,194748,A,2455.4260,N,08021.9834,W,2.0,274.7,200615,6.6,"
"##MN-00 00 53 0349 02921 5634 415184 024256 201"
"171.824942"
"$GPRMC,194752,A,2455.4263,N,08021.9859,W,2.1,274.5,200615,6.6,"
"##MN-00 00 52 0350 02918 5635 667880 024253 201"
"171.824988"
"$GPRMC,194756,A,2455.4263,N,08021.9882,W,2.0,274.6,200615,6.6,"
"##MN-00 00 53 0351 02918 5635 669648 024244 201"
"171.825035"
"$GPRMC,194800,A,2455.4265,N,08021.9906,W,2.0,274.6,200615,6.6,"
"##MN-00 00 53 0352 02921 5637 672760 024264 201"
"171.825081"
"$GPRMC,194804,A,2455.4267,N,08021.9931,W,1.9,273.8,200615,6.6,"
"##MN-00 00 53 0353 02917 5637 673232 024260 201"
"171.825127"
"$GPRMC,194808,A,2455.4269,N,08021.9953,W,1.9,273.7,200615,6.6,"
"##MN-00 00 52 0354 02917 5639 674112 024252 201"
"171.825174"
"$GPRMC,194812,A,2455.4268,N,08021.9978,W,1.9,273.5,200615,6.6,"
"##MN-00 00 53 0355 02918 5640 675864 024256 201"
"171.82522"
"$GPRMC,194816,A,2455.4270,N,08022.0001,W,1.9,273.5,200615,6.6,"
"##MN-00 00 52 0356 02917 5641 678560 024248 201"
"171.825266"
"$GPRMC,194820,A,2455.4272,N,08022.0025,W,1.9,273.7,200615,6.6,"
"##MN-00 00 53 0357 02920 5642 679832 024253 201"
"171.825313"
"$GPRMC,194824,A,2455.4276,N,08022.0048,W,1.9,273.4,200615,6.6,"
"##MN-00 00 53 0358 02919 5643 684704 024238 201"
"171.825359"
"$GPRMC,194828,A,2455.4276,N,08022.0072,W,1.9,273.4,200615,6.6,"
"##MN-00 00 53 0359 02919 5644 548800 024229 201"
"171.825405"
"$GPRMC,194832,A,2455.4278,N,08022.0097,W,1.9,272.9,200615,6.6,"
"##MN+00 00 53 0361 02917 5645 686480 024230 201"
"171.825463"
"$GPRMC,194836,A,2455.4276,N,08022.0121,W,1.9,273.1,200615,6.6,"
"##MN+00 00 53 0362 02919 5646 687328 024243 201"
"171.825509"
"$GPRMC,194840,A,2455.4277,N,08022.0145,W,1.9,273.5,200615,6.6,"
"##MN+00 00 55 0363 02919 5647 432824 024228 201"
"171.825556"
"#increment_net"
"$GPRMC,194844,A,2455.4279,N,08022.0170,W,1.9,273.9,200615,6.6,"
"##MN-00 00 54 0364 02919 5648 686432 024262 201"
"171.825602"
"$GPRMC,194848,A,2455.4281,N,08022.0195,W,1.9,274.4,200615,6.6,"
"##MN-00 00 54 0365 02919 5649 686848 024265 201"
"171.825648"
"$GPRMC,194852,A,2455.4283,N,08022.0218,W,2.0,275.2,200615,6.6,"
"##MN-00 00 54 0366 02918 5650 411040 024271 201"
"171.825694"
"$GPRMC,194856,A,2455.4285,N,08022.0242,W,2.0,275.3,200615,6.6,"
"##MN-00 00 54 0367 02920 5651 686400 024274 201"
"171.825741"
"$GPRMC,194900,A,2455.4287,N,08022.0264,W,2.0,275.7,200615,6.6,"
"##MN-00 00 54 0368 02917 5652 296880 024268 201"
"171.825787"
"$GPRMC,194904,A,2455.4290,N,08022.0286,W,2.0,275.7,200615,6.6,"
"##MN-00 00 54 0369 02918 5653 684544 024262 201"
"171.825833"
"$GPRMC,194908,A,2455.4293,N,08022.0311,W,2.0,275.8,200615,6.6,"
"##MN-00 00 54 0370 02918 5654 686320 024268 201"
"171.82588"
"$GPRMC,194912,A,2455.4294,N,08022.0333,W,2.0,276.3,200615,6.6,"
"##MN-00 00 54 0371 02917 5655 686304 024270 201"
"171.825926"
"$GPRMC,194916,A,2455.4297,N,08022.0357,W,2.0,276.8,200615,6.6,"
"##MN-00 00 54 0372 02915 5656 686272 024265 201"
"171.825972"
"$GPRMC,194920,A,2455.4300,N,08022.0381,W,2.1,276.8,200615,6.6,"
"##MN-00 00 54 0374 02916 5657 686240 024271 201"
"171.826018"
"$GPRMC,194924,A,2455.4301,N,08022.0405,W,2.1,276.7,200615,6.6,"
"##MN-00 00 54 0375 02915 5658 687096 024275 201"
"171.826065"
"$GPRMC,194928,A,2455.4304,N,08022.0430,W,2.1,276.6,200615,6.6,"
"##MN-00 00 54 0376 02917 5659 685344 024259 201"
"171.826111"
"$GPRMC,194932,A,2455.4305,N,08022.0456,W,2.1,276.2,200615,6.6,"
"##MN-00 00 54 0377 02915 5660 686192 024270 201"
"171.826157"
"$GPRMC,194936,A,2455.4308,N,08022.0484,W,2.0,276.0,200615,6.6,"
"##MN-00 00 54 0378 02915 5661 686176 024258 201"
"171.826204"
"$GPRMC,194940,A,2455.4312,N,08022.0509,W,2.0,275.9,200615,6.6,"
"##MN-00 00 54 0379 02915 5662 686192 024242 201"
"171.82625"
"$GPRMC,194944,A,2455.4315,N,08022.0535,W,2.0,276.0,200615,6.6,"
"##MN-00 00 54 0380 02916 5663 693728 024252 201"
"171.826296"
"$GPRMC,194948,A,2455.4316,N,08022.0558,W,2.0,275.7,200615,6.6,"
"##MN-00 00 54 0381 02913 5663 187888 024244 201"
"171.826343"
"$GPRMC,194953,A,2455.4319,N,08022.0589,W,2.0,274.7,200615,6.6,"
"##MN-00 00 54 0382 02914 5665 697296 024236 201"
"171.826389"
"$GPRMC,194957,A,2455.4321,N,08022.0611,W,2.0,274.2,200615,6.6,"
"##MN-00 00 54 0383 02913 5665 703080 024242 201"
"171.826435"
"$GPRMC,195001,A,2455.4321,N,08022.0636,W,1.9,273.9,200615,6.6,"
"##MN-00 00 54 0384 02913 5666 704848 024248 201"
"171.826482"
"$GPRMC,195005,A,2455.4323,N,08022.0661,W,1.9,274.1,200615,6.6,"
"##MN-00 00 54 0386 02911 5667 705272 024240 201"
"171.826528"
"$GPRMC,195008,A,2455.4323,N,08022.0679,W,1.9,274.2,200615,6.6,"
"##MN-00 00 54 0387 02911 5669 430368 024250 201"
"171.826574"
"$GPRMC,195013,A,2455.4324,N,08022.0712,W,2.0,274.3,200615,6.6,"
"##MN-00 00 54 0388 02912 5670 705240 024246 201"
"171.82662"
"$GPRMC,195017,A,2455.4326,N,08022.0737,W,2.0,274.4,200615,6.6,"
"##MN-00 00 54 0389 02912 5670 706568 024248 201"
"171.826667"
"$GPRMC,195021,A,2455.4330,N,08022.0760,W,2.0,274.5,200615,6.6,"
"##MN-00 00 54 0390 02912 5671 195792 024241 201"
"171.826713"
"$GPRMC,195025,A,2455.4332,N,08022.0784,W,2.0,274.4,200615,6.6,"
"##MN-00 00 53 0391 02910 5672 706528 024238 201"
"171.826759"
"$GPRMC,195029,A,2455.4332,N,08022.0807,W,2.0,274.6,200615,6.6,"
"##MN-00 00 54 0392 02911 5673 708304 024248 201"
"171.826806"
"$GPRMC,195033,A,2455.4333,N,08022.0831,W,2.0,274.5,200615,6.6,"
"##MN-00 00 54 0393 02910 5674 711368 024240 201"
"171.826852"
"$GPRMC,195037,A,2455.4337,N,08022.0853,W,1.9,274.8,200615,6.6,"
"##MN-00 00 54 0394 02911 5675 714464 024244 201"
"171.826898"
"$GPRMC,195041,A,2455.4339,N,08022.0876,W,1.9,275.2,200615,6.6,"
"##MN+00 00 54 0395 02912 5676 714472 024244 201"
"171.826944"
"$GPRMC,195045,A,2455.4341,N,08022.0900,W,1.9,275.2,200615,6.6,"
"##MN+00 00 54 0396 02911 5677 714448 024257 201"
"171.826991"
"$GPRMC,195049,A,2455.4342,N,08022.0925,W,2.0,275.2,200615,6.6,"
"##MN+00 00 52 0398 02909 5678 713584 024244 201"
"171.827037"
"#increment_net"
"$GPRMC,195053,A,2455.4344,N,08022.0950,W,2.0,275.5,200615,6.6,"
"##MN-00 00 52 0399 02909 5679 577232 024243 201"
"171.827083"
"$GPRMC,195057,A,2455.4347,N,08022.0972,W,2.0,275.9,200615,6.6,"
"##MN-00 00 52 0400 02910 5679 715312 024236 201"
"171.82713"
"$GPRMC,195101,A,2455.4348,N,08022.0995,W,1.9,276.0,200615,6.6,"
"##MN-00 00 52 0401 02910 5680 714416 024248 201"
"171.827176"
"$GPRMC,195105,A,2455.4350,N,08022.1020,W,2.0,276.0,200615,6.6,"
"##MN-00 00 52 0402 02910 5681 716640 024243 201"
"171.827222"
"$GPRMC,195109,A,2455.4352,N,08022.1044,W,2.0,275.5,200615,6.6,"
"##MN-00 00 52 0403 02910 5683 720672 024233 201"
"171.827269"
"$GPRMC,195113,A,2455.4353,N,08022.1070,W,2.0,275.3,200615,6.6,"
"##MN-00 00 52 0404 02907 5683 718832 024231 201"
"171.827315"
"$GPRMC,195117,A,2455.4357,N,08022.1095,W,2.0,275.6,200615,6.6,"
"##MN-00 00 52 0405 02907 5684 724192 024234 201"
"171.827361"
"$GPRMC,195121,A,2455.4359,N,08022.1120,W,2.0,276.0,200615,6.6,"
"##MN-00 00 52 0406 02906 5685 722408 024233 201"
"171.827407"
"$GPRMC,195125,A,2455.4362,N,08022.1142,W,2.0,276.4,200615,6.6,"
"##MN-00 00 52 0407 02908 5686 725968 024232 201"
"171.827454"
"$GPRMC,195129,A,2455.4363,N,08022.1165,W,2.0,276.4,200615,6.6,"
"##MN-00 00 52 0409 02910 5686 724176 024237 201"
"171.8275"
"$GPRMC,195133,A,2455.4365,N,08022.1189,W,2.0,275.5,200615,6.6,"
"##MN-00 00 52 0410 02908 5687 725456 024240 201"
"171.827546"
"$GPRMC,195137,A,2455.4366,N,08022.1211,W,2.0,275.2,200615,6.6,"
"##MN-00 00 52 0411 02906 5688 726816 024235 201"
"171.827593"
"$GPRMC,195141,A,2455.4369,N,08022.1236,W,1.9,275.0,200615,6.6,"
"##MN-00 00 53 0412 02907 5689 476344 024249 201"
"171.827639"
"$GPRMC,195145,A,2455.4370,N,08022.1261,W,2.0,274.9,200615,6.6,"
"##MN-00 00 53 0413 02907 5690 731248 024235 201"
"171.827685"
"$GPRMC,195149,A,2455.4372,N,08022.1286,W,1.9,275.0,200615,6.6,"
"##MN-00 00 52 0414 02906 5691 731248 024227 201"
"171.827731"
"$GPRMC,195153,A,2455.4376,N,08022.1311,W,1.9,274.4,200615,6.6,"
"##MN-00 00 52 0415 02906 5692 731232 024235 201"
"171.827778"
"$GPRMC,195157,A,2455.4377,N,08022.1337,W,1.9,274.3,200615,6.6,"
"##MN-00 00 52 0416 02907 5693 731704 024232 201"
"171.827824"
"$GPRMC,195201,A,2455.4379,N,08022.1362,W,1.9,274.6,200615,6.6,"
"##MN-00 00 52 0417 02906 5694 732536 024232 201"
"171.82787"
"$GPRMC,195205,A,2455.4381,N,08022.1385,W,1.9,274.1,200615,6.6,"
"##MN-00 00 52 0418 02907 5695 733856 024232 201"
"171.827917"
"$GPRMC,195209,A,2455.4384,N,08022.1410,W,1.9,274.3,200615,6.6,"
"##MN-00 00 52 0420 02906 5696 597504 024233 201"
"171.827963"
"$GPRMC,195213,A,2455.4386,N,08022.1434,W,1.9,274.0,200615,6.6,"
"##MN-00 00 52 0421 02907 5696 738272 024237 201"
"171.828009"
"$GPRMC,195217,A,2455.4388,N,08022.1456,W,1.9,274.4,200615,6.6,"
"##MN-00 00 52 0422 02905 5697 736952 024225 201"
"171.828056"
"$GPRMC,195221,A,2455.4390,N,08022.1479,W,1.9,274.3,200615,6.6,"
"##MN-00 00 52 0423 02906 5698 742312 024213 201"
"171.828102"
"$GPRMC,195225,A,2455.4391,N,08022.1503,W,1.9,274.4,200615,6.6,"
"##MN-00 00 52 0424 02906 5699 009664 024213 201"
"171.828148"
"$GPRMC,195229,A,2455.4391,N,08022.1528,W,1.9,274.9,200615,6.6,"
"##MN-00 00 52 0425 02906 5700 743624 024205 201"
"171.828194"
"$GPRMC,195233,A,2455.4391,N,08022.1553,W,1.9,275.3,200615,6.6,"
"##MN-00 00 52 0426 02907 5701 234656 024218 201"
"171.828241"
"$GPRMC,195237,A,2455.4394,N,08022.1576,W,1.9,275.3,200615,6.6,"
"##MN-00 00 52 0427 02906 5701 742720 024217 201"
"171.828287"
"$GPRMC,195241,A,2455.4395,N,08022.1600,W,2.0,275.4,200615,6.6,"
"##MN-00 00 52 0428 02907 5703 742704 024244 201"
"171.828333"
"$GPRMC,195245,A,2455.4397,N,08022.1623,W,2.0,275.4,200615,6.6,"
"##MN+00 00 52 0430 02905 5703 606360 024250 201"
"171.82838"
"$GPRMC,195249,A,2455.4399,N,08022.1647,W,2.0,275.4,200615,6.6,"
"##MN+00 00 52 0431 02905 5704 741816 024239 201"
"171.828426"
"$GPRMC,195253,A,2455.4402,N,08022.1671,W,2.0,275.6,200615,6.6,"
"##MN+00 00 55 0432 02907 5705 742736 024239 201"
"171.828472"
"#increment_net"
"$GPRMC,195257,A,2455.4404,N,08022.1696,W,2.0,275.9,200615,6.6,"
"##MN-00 00 54 0433 02905 5706 743584 024237 201"
"171.828519"
"$GPRMC,195301,A,2455.4408,N,08022.1720,W,2.0,275.8,200615,6.6,"
"##MN-00 00 54 0434 02906 5707 742688 024255 201"
"171.828576"
"$GPRMC,195305,A,2455.4406,N,08022.1746,W,2.0,275.0,200615,6.6,"
"##MN-00 00 54 0435 02907 5707 741752 024251 201"
"171.828623"
"$GPRMC,195309,A,2455.4408,N,08022.1772,W,2.1,274.4,200615,6.6,"
"##MN-00 00 54 0436 02904 5708 744384 024236 201"
"171.828669"
"$GPRMC,195313,A,2455.4411,N,08022.1796,W,2.0,274.3,200615,6.6,"
"##MN-00 00 54 0437 02905 5709 741720 024246 201"
"171.828715"
"$GPRMC,195317,A,2455.4414,N,08022.1818,W,2.0,273.8,200615,6.6,"
"##MN-00 00 54 0438 02905 5710 743552 024255 201"
"171.828762"
"$GPRMC,195321,A,2455.4417,N,08022.1842,W,2.0,273.5,200615,6.6,"
"##MN-00 00 54 0439 02903 5711 740800 024243 201"
"171.828808"
"$GPRMC,195325,A,2455.4419,N,08022.1864,W,1.9,273.3,200615,6.6,"
"##MN-00 00 54 0441 02905 5712 742608 024247 201"
"171.828854"
"$GPRMC,195329,A,2455.4420,N,08022.1889,W,1.9,272.9,200615,6.6,"
"##MN-00 00 54 0442 02907 5713 742608 024249 201"
"171.8289"
"$GPRMC,195333,A,2455.4423,N,08022.1912,W,1.9,272.6,200615,6.6,"
"##MN-00 00 54 0443 02905 5713 742576 024248 201"
"171.828947"
"$GPRMC,195337,A,2455.4424,N,08022.1936,W,1.9,272.3,200615,6.6,"
"##MN-00 00 54 0444 02904 5714 742560 024254 201"
"171.828993"
"$GPRMC,195341,A,2455.4426,N,08022.1959,W,1.9,272.9,200615,6.6,"
"##MN-00 00 54 0445 02906 5715 744336 024247 201"
"171.829039"
"$GPRMC,195345,A,2455.4426,N,08022.1983,W,1.9,272.4,200615,6.6,"
"##MN-00 00 54 0446 02903 5716 741648 024253 201"
"171.829086"
"$GPRMC,195349,A,2455.4426,N,08022.2008,W,1.9,271.9,200615,6.6,"
"##MN-00 00 54 0447 02903 5717 742512 024256 201"
"171.829132"
"$GPRMC,195353,A,2455.4425,N,08022.2032,W,1.9,271.4,200615,6.6,"
"##MN-00 00 54 0448 02903 5717 743384 024251 201"
"171.829178"
"$GPRMC,195357,A,2455.4426,N,08022.2057,W,1.9,271.5,200615,6.6,"
"##MN-00 00 54 0449 02903 5718 745136 024236 201"
"171.829225"
"$GPRMC,195401,A,2455.4428,N,08022.2075,W,2.0,272.0,200615,6.6,"
"##MN-00 00 54 0450 02904 5719 497784 024218 201"
"171.829271"
"$GPRMC,195405,A,2455.4428,N,08022.2104,W,1.9,272.0,200615,6.6,"
"##MN-00 00 54 0451 02899 5720 754464 024227 201"
"171.829317"
"$GPRMC,195409,A,2455.4428,N,08022.2128,W,1.9,272.1,200615,6.6,"
"##MN-00 00 54 0453 02904 5721 757568 024226 201"
"171.829363"
"$GPRMC,195413,A,2455.4426,N,08022.2153,W,1.9,272.1,200615,6.6,"
"##MN-00 00 54 0454 02903 5722 758912 024235 201"
"171.82941"
"$GPRMC,195417,A,2455.4427,N,08022.2178,W,1.9,272.3,200615,6.6,"
"##MN-00 00 54 0455 02903 5722 487600 024231 201"
"171.829456"
"$GPRMC,195421,A,2455.4428,N,08022.2202,W,1.9,272.4,200615,6.6,"
"##MN-00 00 54 0456 02902 5723 760680 024216 201"
"171.829502"
"$GPRMC,195425,A,2455.4427,N,08022.2227,W,1.9,272.4,200615,6.6,"
"##MN-00 00 54 0457 02901 5724 758448 024230 201"
"171.829549"
"$GPRMC,195429,A,2455.4428,N,08022.2254,W,2.0,272.7,200615,6.6,"
"##MN-00 00 54 0458 02902 5725 761136 024239 201"
"171.829595"
"$GPRMC,195434,A,2455.4431,N,08022.2285,W,2.0,273.8,200615,6.6,"
"##MN-00 00 54 0459 02900 5725 761560 024234 201"
"171.829641"
"$GPRMC,195438,A,2455.4434,N,08022.2310,W,2.0,274.6,200615,6.6,"
"##MN-00 00 54 0460 02901 5726 761104 024232 201"
"171.829688"
"$GPRMC,195442,A,2455.4435,N,08022.2334,W,2.0,275.6,200615,6.6,"
"##MN-00 00 54 0461 02899 5727 762872 024231 201"
"171.829734"
"$GPRMC,195446,A,2455.4438,N,08022.2359,W,2.0,275.5,200615,6.6,"
"##MN-00 00 54 0462 02900 5728 253008 024237 201"
"171.82978"
"$GPRMC,195450,A,2455.4442,N,08022.2384,W,2.0,275.4,200615,6.6,"
"##MN+00 00 54 0463 02900 5729 761984 024231 201"
"171.829826"
"$GPRMC,195454,A,2455.4442,N,08022.2410,W,2.0,275.9,200615,6.6,"
"##MN+00 00 54 0465 02899 5729 761032 024232 201"
"171.829873"
"$GPRMC,195458,A,2455.4446,N,08022.2431,W,1.9,275.6,200615,6.6,"
"##MN+00 00 59 0466 02902 5730 770864 024225 201"
"171.829919"
"#increment_net"
"$GPRMC,195502,A,2455.4445,N,08022.2458,W,1.9,275.0,200615,6.6,"
"##MN-00 00 54 0467 02900 5731 629168 024222 201"
"171.829965"
"$GPRMC,195506,A,2455.4445,N,08022.2478,W,1.9,274.1,200615,6.6,"
"##MN-00 00 54 0468 02900 5732 769936 024225 201"
"171.830012"
"$GPRMC,195510,A,2455.4445,N,08022.2498,W,1.9,273.2,200615,6.6,"
"##MN-00 00 52 0469 02901 5732 768616 024233 201"
"171.830058"
"$GPRMC,195514,A,2455.4445,N,08022.2522,W,1.9,272.1,200615,6.6,"
"##MN-00 00 52 0471 02902 5733 263648 024218 201"
"171.830104"
"$GPRMC,195518,A,2455.4445,N,08022.2547,W,1.9,271.6,200615,6.6,"
"##MN-00 00 52 0472 02904 5733 770824 024235 201"
"171.83015"
"$GPRMC,195522,A,2455.4449,N,08022.2572,W,1.9,271.7,200615,6.6,"
"##MN-00 00 52 0473 02906 5734 770856 024234 201"
"171.830197"
"$GPRMC,195526,A,2455.4452,N,08022.2598,W,1.9,271.5,200615,6.6,"
"##MN-00 00 51 0474 02908 5735 769920 024228 201"
"171.830243"
"$GPRMC,195530,A,2455.4452,N,08022.2624,W,1.9,270.7,200615,6.6,"
"##MN-00 00 51 0476 02910 5736 771272 024225 201"
"171.830289"
"$GPRMC,195534,A,2455.4452,N,08022.2648,W,1.9,270.1,200615,6.6,"
"##MN-00 00 51 0477 02911 5737 770864 024229 201"
"171.830336"
"$GPRMC,195538,A,2455.4451,N,08022.2673,W,2.0,270.0,200615,6.6,"
"##MN-00 00 50 0478 02911 5738 771264 024236 201"
"171.830382"
"$GPRMC,195542,A,2455.4449,N,08022.2697,W,2.0,269.8,200615,6.6,"
"##MN-00 00 50 0479 02913 5738 773440 024230 201"
"171.830428"
"$GPRMC,195546,A,2455.4452,N,08022.2720,W,2.0,270.2,200615,6.6,"
"##MN-00 00 50 0481 02914 5739 773896 024224 201"
"171.830475"
"$GPRMC,195550,A,2455.4453,N,08022.2743,W,2.0,270.0,200615,6.6,"
"##MN-00 00 50 0482 02916 5740 775664 024226 201"
"171.830521"
"$GPRMC,195554,A,2455.4453,N,08022.2768,W,2.1,270.5,200615,6.6,"
"##MN-00 00 50 0483 02915 5740 776176 024228 201"
"171.830567"
"$GPRMC,195558,A,2455.4454,N,08022.2794,W,2.1,271.1,200615,6.6,"
"##MN-00 00 50 0485 02916 5741 778744 024235 201"
"171.830613"
"$GPRMC,195602,A,2455.4455,N,08022.2821,W,2.1,271.9,200615,6.6,"
"##MN-00 00 50 0486 02918 5742 777008 024229 201"
"171.83066"
"$GPRMC,195606,A,2455.4456,N,08022.2848,W,2.1,272.0,200615,6.6,"
"##MN-00 00 50 0487 02917 5743 779664 024229 201"
"171.830706"
"$GPRMC,195610,A,2455.4456,N,08022.2876,W,2.1,271.9,200615,6.6,"
