" Tow: 8WS-A   RVWS/WS15161"
" Date: 20/06/2015"
" Temperature Probe #  4762    Conductivity Probe #  710"
" Pressure Probe #  159"
" Flow Meter Calibration  4.71 (m/count)  "
"171.672882"
"$GPRMC,160853,A,2452.9611,N,08020.2281,W,1.9,277.0,200615,6.6,"
"##MN-00 00 87 0000 01547 4286 424766 827731 197"
"171.672928"
"$GPRMC,160857,A,2452.9612,N,08020.2302,W,1.8,274.9,200615,6.6,"
"##MN-00 00 87 0000 01546 4283 424668 827841 197"
"171.672975"
"$GPRMC,160902,A,2452.9609,N,08020.2330,W,1.8,271.7,200615,6.6,"
"##MN-00 00 87 0000 01546 4280 425091 827841 197"
"171.673021"
"$GPRMC,160905,A,2452.9610,N,08020.2346,W,1.8,270.1,200615,6.6,"
"##MN-00 00 87 0000 01547 4277 423598 827841 197"
"171.673067"
"$GPRMC,160910,A,2452.9608,N,08020.2373,W,1.8,267.9,200615,6.6,"
"##MN-00 00 87 0000 01546 4273 423510 827841 197"
"171.673113"
"$GPRMC,160914,A,2452.9605,N,08020.2388,W,1.8,266.5,200615,6.6,"
"##MN-00 00 87 0000 01546 4270 421952 827840 197"
"171.67316"
"$GPRMC,160918,A,2452.9603,N,08020.2413,W,1.7,264.9,200615,6.6,"
"##MN-00 00 87 0000 01547 4267 419508 827772 197"
"171.673206"
"$GPRMC,160922,A,2452.9603,N,08020.2435,W,1.7,264.6,200615,6.6,"
"##MN-00 00 87 0000 01548 4264 418656 827840 197"
"171.673252"
"$GPRMC,160926,A,2452.9601,N,08020.2451,W,1.7,265.1,200615,6.6,"
"##MN-00 00 87 0000 01547 4261 418043 827839 197"
"171.673299"
"$GPRMC,160930,A,2452.9603,N,08020.2472,W,1.8,266.0,200615,6.6,"
"##MN-00 00 87 0000 01545 4258 418229 827703 197"
"171.673345"
"$GPRMC,160934,A,2452.9603,N,08020.2496,W,1.8,266.9,200615,6.6,"
"##MN-00 00 87 0000 01548 4255 418202 827839 197"
"171.673391"
"$GPRMC,160938,A,2452.9605,N,08020.2522,W,1.8,268.8,200615,6.6,"
"##MN-00 00 87 0000 01550 4252 418061 827770 197"
"171.673438"
"$GPRMC,160942,A,2452.9610,N,08020.2543,W,1.9,270.7,200615,6.6,"
"##MN-00 00 87 0000 01548 4249 417590 827770 197"
"171.673484"
"$GPRMC,160946,A,2452.9615,N,08020.2562,W,1.9,273.2,200615,6.6,"
"##MN-00 00 87 0000 01546 4246 417742 827771 197"
"171.67353"
"$GPRMC,160950,A,2452.9615,N,08020.2588,W,1.9,274.6,200615,6.6,"
"##MN-00 00 87 0000 01547 4244 418418 827837 197"
"171.673576"
"$GPRMC,160954,A,2452.9621,N,08020.2610,W,2.0,275.7,200615,6.6,"
"##MN-00 00 86 0000 01548 4241 419275 827837 197"
"171.673623"
"$GPRMC,160958,A,2452.9620,N,08020.2633,W,2.1,277.1,200615,6.6,"
"##MN-00 00 82 0000 01547 4238 420143 827837 197"
"171.673669"
"$GPRMC,161002,A,2452.9621,N,08020.2667,W,2.0,278.5,200615,6.6,"
"##MN-00 00 82 0000 01548 4236 422697 827836 197"
"171.673715"
"$GPRMC,161006,A,2452.9626,N,08020.2692,W,2.1,279.3,200615,6.6,"
"##MN-00 00 82 0000 01547 4233 424806 827834 197"
"171.673762"
"$GPRMC,161010,A,2452.9631,N,08020.2714,W,2.1,279.8,200615,6.6,"
"##MN-00 00 82 0000 01547 4231 426801 827697 197"
"171.673808"
"$GPRMC,161014,A,2452.9637,N,08020.2738,W,2.1,280.4,200615,6.6,"
"##MN-00 00 82 0000 01549 4228 427888 827834 197"
"171.673854"
"$GPRMC,161018,A,2452.9644,N,08020.2761,W,2.1,280.0,200615,6.6,"
"##MN-00 00 82 0000 01547 4226 428571 827833 197"
"171.6739"
"$GPRMC,161022,A,2452.9646,N,08020.2786,W,2.1,279.9,200615,6.6,"
"##MN-00 00 82 0000 01551 4224 429279 827833 197"
"171.673947"
"$GPRMC,161026,A,2452.9645,N,08020.2818,W,2.1,280.4,200615,6.6,"
"##MN-00 00 82 0000 01549 4221 429482 827832 197"
"171.673993"
"$GPRMC,161030,A,2452.9648,N,08020.2841,W,2.1,279.9,200615,6.6,"
"##MN-00 00 82 0000 01549 4219 430264 827832 197"
"171.674039"
"$GPRMC,161034,A,2452.9647,N,08020.2869,W,2.1,279.2,200615,6.6,"
"##MN-00 00 82 0000 01548 4217 430873 827831 197"
"171.674086"
"$GPRMC,161038,A,2452.9650,N,08020.2894,W,2.0,278.1,200615,6.6,"
"##MN-00 00 82 0000 01548 4215 431356 827832 197"
"171.674132"
"$GPRMC,161042,A,2452.9655,N,08020.2916,W,2.0,277.2,200615,6.6,"
"##MN-00 00 82 0000 01546 4213 431449 827832 197"
"171.674178"
"$GPRMC,161046,A,2452.9654,N,08020.2942,W,1.9,275.7,200615,6.6,"
"##MN-00 00 82 0000 01549 4211 431501 827832 197"
"171.674225"
"$GPRMC,161050,A,2452.9655,N,08020.2964,W,1.9,274.5,200615,6.6,"
"##MN-00 00 82 0000 01547 4209 432014 827833 197"
"171.674271"
"$GPRMC,161054,A,2452.9656,N,08020.2986,W,1.9,273.0,200615,6.6,"
"##MN-00 00 82 0000 01549 4207 432820 827833 197"
"171.674317"
"$GPRMC,161058,A,2452.9657,N,08020.3009,W,1.8,271.5,200615,6.6,"
"##MN-00 00 82 0000 01549 4205 433104 827833 197"
"171.674363"
"$GPRMC,161102,A,2452.9655,N,08020.3031,W,1.7,269.5,200615,6.6,"
"##MN-00 00 82 0000 01548 4204 434310 827765 197"
"171.67441"
"$GPRMC,161106,A,2452.9655,N,08020.3047,W,1.6,267.0,200615,6.6,"
"##MN-00 00 82 0000 01547 4202 434834 827832 197"
"171.674456"
"$GPRMC,161110,A,2452.9655,N,08020.3067,W,1.5,264.3,200615,6.6,"
"##MN-00 00 82 0000 01549 4200 434584 827832 197"
"171.674502"
"$GPRMC,161114,A,2452.9648,N,08020.3082,W,1.5,262.5,200615,6.6,"
"##MN-00 00 82 0000 01550 4199 434416 827764 197"
"171.674549"
"$GPRMC,161118,A,2452.9642,N,08020.3096,W,1.3,260.2,200615,6.6,"
"##MN-00 00 82 0000 01551 4197 432565 827833 197"
"171.674595"
"$GPRMC,161122,A,2452.9635,N,08020.3107,W,1.3,258.2,200615,6.6,"
"##MN-00 00 81 0001 01550 4195 431351 669789 197"
"171.674641"
"$GPRMC,161126,A,2452.9630,N,08020.3118,W,1.2,256.8,200615,6.6,"
"##MN-00 00 15 0002 01551 4194 440348 207320 197"
"171.674687"
"$GPRMC,161130,A,2452.9626,N,08020.3129,W,1.2,256.2,200615,6.6,"
"##MN-00 00 13 0003 01552 4192 440808 205120 197"
"171.674734"
"$GPRMC,161134,A,2452.9626,N,08020.3139,W,1.1,256.1,200615,6.6,"
"##MN-00 00 15 0004 01552 4191 441090 204591 197"
"171.67478"
"$GPRMC,161138,A,2452.9622,N,08020.3151,W,1.0,257.0,200615,6.6,"
"##MN-00 00 15 0005 01553 4190 441156 204598 197"
"171.674826"
"$GPRMC,161142,A,2452.9622,N,08020.3163,W,1.0,259.0,200615,6.6,"
"##MN-00 00 15 0006 01551 4189 441290 204666 197"
"171.674873"
"$GPRMC,161146,A,2452.9626,N,08020.3172,W,0.9,262.2,200615,6.6,"
"##MN-00 00 14 0008 01552 4188 441250 204730 197"
"171.674919"
"$GPRMC,161150,A,2452.9630,N,08020.3183,W,0.9,266.0,200615,6.6,"
"##MN-00 00 13 0009 01555 4188 441216 204707 197"
"171.674965"
"$GPRMC,161154,A,2452.9633,N,08020.3194,W,0.9,269.9,200615,6.6,"
"##MN-00 00 13 0010 01556 4187 441274 204720 197"
"171.675012"
"$GPRMC,161158,A,2452.9637,N,08020.3205,W,0.9,274.9,200615,6.6,"
"##MN-00 00 13 0011 01559 4188 441387 204744 197"
"171.675058"
"$GPRMC,161202,A,2452.9639,N,08020.3219,W,0.9,278.3,200615,6.6,"
"##MN-00 00 14 0012 01561 4188 441567 204774 197"
"171.675116"
"$GPRMC,161206,A,2452.9639,N,08020.3231,W,1.0,281.3,200615,6.6,"
"##MN-00 00 14 0013 01564 4189 441614 204677 197"
"171.675162"
"$GPRMC,161210,A,2452.9641,N,08020.3244,W,1.0,284.3,200615,6.6,"
"##MN-00 00 14 0014 01565 4190 441644 204655 197"
"171.675208"
"$GPRMC,161214,A,2452.9642,N,08020.3256,W,1.1,286.6,200615,6.6,"
"##MN-00 00 14 0015 01569 4191 441840 204648 197"
"171.675255"
"$GPRMC,161218,A,2452.9646,N,08020.3271,W,1.1,288.2,200615,6.6,"
"##MN-00 00 13 0016 01572 4193 441913 204670 197"
"171.675301"
"$GPRMC,161222,A,2452.9650,N,08020.3285,W,1.0,288.9,200615,6.6,"
"##MN-00 00 14 0018 01573 4195 442275 204696 197"
"171.675347"
"$GPRMC,161226,A,2452.9655,N,08020.3296,W,1.1,289.2,200615,6.6,"
"##MN-00 00 14 0019 01577 4197 442522 204705 197"
"171.675394"
"$GPRMC,161230,A,2452.9662,N,08020.3307,W,1.1,288.8,200615,6.6,"
"##MN-00 00 14 0020 01579 4199 442728 204745 197"
"171.67544"
"$GPRMC,161234,A,2452.9666,N,08020.3321,W,1.1,288.1,200615,6.6,"
"##MN-00 00 14 0021 01579 4201 443190 204766 197"
"171.675486"
"$GPRMC,161238,A,2452.9669,N,08020.3334,W,1.2,286.6,200615,6.6,"
"##MN-00 00 14 0022 01582 4204 443385 204860 197"
"171.675532"
"$GPRMC,161242,A,2452.9670,N,08020.3349,W,1.1,284.4,200615,6.6,"
"##MN-00 00 14 0023 01582 4207 443485 204924 197"
"171.675579"
"$GPRMC,161246,A,2452.9671,N,08020.3365,W,1.1,282.7,200615,6.6,"
"##MN-00 00 14 0025 01586 4210 443566 204941 197"
"171.675625"
"$GPRMC,161250,A,2452.9671,N,08020.3385,W,1.1,280.7,200615,6.6,"
"##MN-00 00 14 0026 01587 4213 443600 204949 197"
"171.675671"
"$GPRMC,161254,A,2452.9677,N,08020.3397,W,1.1,278.7,200615,6.6,"
"##MN-00 00 14 0027 01588 4216 443637 204928 197"
"171.675718"
"$GPRMC,161258,A,2452.9679,N,08020.3414,W,1.1,277.1,200615,6.6,"
"##MN-00 00 14 0028 01592 4220 443670 204940 197"
"171.675764"
"$GPRMC,161302,A,2452.9682,N,08020.3426,W,1.1,276.6,200615,6.6,"
"##MN-00 00 14 0030 01592 4223 443706 204978 197"
"171.67581"
"$GPRMC,161306,A,2452.9681,N,08020.3441,W,1.1,276.2,200615,6.6,"
"##MN-00 00 14 0031 01594 4227 443736 204965 197"
"171.675857"
"$GPRMC,161310,A,2452.9683,N,08020.3455,W,1.1,276.5,200615,6.6,"
"##MN-00 00 14 0032 01598 4231 443758 204984 197"
"171.675903"
"$GPRMC,161314,A,2452.9682,N,08020.3469,W,1.1,275.9,200615,6.6,"
"##MN-00 00 14 0033 01600 4234 443779 204990 197"
"171.675949"
"$GPRMC,161318,A,2452.9683,N,08020.3483,W,1.1,275.2,200615,6.6,"
"##MN-00 00 14 0035 01601 4238 443812 205001 197"
"171.675995"
"$GPRMC,161322,A,2452.9684,N,08020.3494,W,1.1,274.7,200615,6.6,"
"##MN-00 00 14 0036 01606 4242 443826 205006 197"
"171.676042"
"$GPRMC,161327,A,2452.9682,N,08020.3509,W,1.1,273.4,200615,6.6,"
"##MN-00 00 14 0037 01607 4246 443837 205007 197"
"171.676088"
"$GPRMC,161331,A,2452.9683,N,08020.3523,W,1.1,272.9,200615,6.6,"
"##MN-00 00 14 0038 01610 4250 443849 205011 197"
"171.676134"
"$GPRMC,161334,A,2452.9682,N,08020.3533,W,1.1,272.7,200615,6.6,"
"##MN-00 00 14 0039 01609 4254 443864 205012 197"
"171.676181"
"$GPRMC,161339,A,2452.9681,N,08020.3553,W,1.2,271.4,200615,6.6,"
"##MN-00 00 14 0041 01611 4259 443873 205012 197"
"171.676227"
"$GPRMC,161343,A,2452.9679,N,08020.3569,W,1.2,270.4,200615,6.6,"
"##MN-00 00 14 0042 01612 4263 443875 205014 197"
"171.676273"
"$GPRMC,161347,A,2452.9678,N,08020.3584,W,1.2,269.7,200615,6.6,"
"##MN-00 00 14 0043 01614 4267 443878 205011 197"
"171.676319"
"$GPRMC,161351,A,2452.9679,N,08020.3598,W,1.3,269.5,200615,6.6,"
"##MN-00 00 14 0045 01616 4272 443876 205010 197"
"171.676366"
"$GPRMC,161355,A,2452.9680,N,08020.3614,W,1.3,268.5,200615,6.6,"
"##MN-00 00 14 0046 01618 4276 443874 205012 197"
"171.676412"
"$GPRMC,161359,A,2452.9683,N,08020.3627,W,1.3,268.4,200615,6.6,"
"##MN-00 00 14 0047 01620 4281 443882 205015 197"
"171.676458"
"$GPRMC,161403,A,2452.9682,N,08020.3646,W,1.3,268.4,200615,6.6,"
"##MN-00 00 14 0049 01620 4285 443889 205015 197"
"171.676505"
"$GPRMC,161407,A,2452.9684,N,08020.3663,W,1.3,268.4,200615,6.6,"
"##MN-00 00 14 0050 01621 4290 443889 205013 197"
"171.676551"
"$GPRMC,161411,A,2452.9686,N,08020.3678,W,1.3,268.5,200615,6.6,"
"##MN-00 00 14 0051 01622 4295 443889 205010 197"
"171.676597"
"$GPRMC,161415,A,2452.9688,N,08020.3693,W,1.4,268.6,200615,6.6,"
"##MN-00 00 14 0052 01623 4299 443899 205012 197"
"171.676644"
"$GPRMC,161419,A,2452.9689,N,08020.3711,W,1.3,269.1,200615,6.6,"
"##MN-00 00 14 0054 01626 4304 443896 205009 197"
"171.67669"
"$GPRMC,161423,A,2452.9689,N,08020.3728,W,1.3,269.4,200615,6.6,"
"##MN-00 00 14 0055 01629 4309 443887 205011 197"
"171.676736"
"$GPRMC,161427,A,2452.9690,N,08020.3746,W,1.3,269.0,200615,6.6,"
"##MN-00 00 14 0056 01628 4313 443879 205002 197"
"171.676782"
"$GPRMC,161431,A,2452.9686,N,08020.3766,W,1.3,268.8,200615,6.6,"
"##MN-00 00 14 0058 01631 4318 443866 204997 197"
"171.676829"
"$GPRMC,161435,A,2452.9687,N,08020.3782,W,1.3,268.8,200615,6.6,"
"##MN-00 00 14 0059 01632 4323 443853 204991 197"
"171.676875"
"$GPRMC,161439,A,2452.9685,N,08020.3794,W,1.3,268.3,200615,6.6,"
"##MN-00 00 14 0060 01635 4328 443842 204985 197"
"171.676921"
"$GPRMC,161443,A,2452.9684,N,08020.3809,W,1.3,266.9,200615,6.6,"
"##MN-00 00 14 0062 01637 4332 443827 204979 197"
"171.676968"
"$GPRMC,161447,A,2452.9680,N,08020.3826,W,1.3,265.1,200615,6.6,"
"##MN-00 00 14 0063 01639 4337 443812 204973 197"
"171.677014"
"$GPRMC,161451,A,2452.9677,N,08020.3842,W,1.2,262.9,200615,6.6,"
"##MN-00 00 14 0064 01640 4343 443808 204968 197"
"171.67706"
"$GPRMC,161455,A,2452.9673,N,08020.3858,W,1.2,261.4,200615,6.6,"
"##MN-00 00 14 0066 01646 4347 443800 204965 197"
"171.677106"
"$GPRMC,161459,A,2452.9673,N,08020.3873,W,1.2,259.8,200615,6.6,"
"##MN-00 00 14 0067 01648 4352 443802 204965 197"
"171.677153"
"$GPRMC,161503,A,2452.9670,N,08020.3887,W,1.2,258.1,200615,6.6,"
"##MN-00 00 14 0068 01649 4357 443803 204963 197"
"171.677199"
"$GPRMC,161507,A,2452.9669,N,08020.3899,W,1.2,257.3,200615,6.6,"
"##MN-00 00 14 0069 01652 4362 443794 204960 197"
"171.677245"
"$GPRMC,161511,A,2452.9664,N,08020.3914,W,1.1,256.9,200615,6.6,"
"##MN-00 00 14 0071 01652 4367 443774 204952 197"
"171.677292"
"$GPRMC,161515,A,2452.9665,N,08020.3927,W,1.2,256.9,200615,6.6,"
"##MN-00 00 14 0072 01655 4372 443754 204945 197"
"171.677338"
"$GPRMC,161519,A,2452.9662,N,08020.3941,W,1.2,257.0,200615,6.6,"
"##MN-00 00 14 0073 01656 4377 443738 204939 197"
"171.677384"
"$GPRMC,161523,A,2452.9660,N,08020.3954,W,1.2,257.3,200615,6.6,"
"##MN-00 00 14 0075 01660 4382 443730 204939 197"
"171.677431"
"$GPRMC,161527,A,2452.9659,N,08020.3968,W,1.3,258.1,200615,6.6,"
"##MN-00 00 14 0076 01663 4387 443715 204934 197"
"171.677477"
"$GPRMC,161531,A,2452.9655,N,08020.3983,W,1.3,259.3,200615,6.6,"
"##MN-00 00 14 0077 01661 4392 443699 204922 197"
"171.677523"
"$GPRMC,161535,A,2452.9651,N,08020.3997,W,1.4,259.9,200615,6.6,"
"##MN-00 00 14 0078 01666 4397 443700 204920 197"
"171.677569"
"$GPRMC,161539,A,2452.9650,N,08020.4014,W,1.3,260.1,200615,6.6,"
"##MN-00 00 14 0080 01667 4402 443702 204921 197"
"171.677616"
"$GPRMC,161543,A,2452.9650,N,08020.4028,W,1.3,260.0,200615,6.6,"
"##MN-00 00 14 0081 01669 4407 443697 204917 197"
"171.677662"
"$GPRMC,161547,A,2452.9648,N,08020.4043,W,1.2,260.3,200615,6.6,"
"##MN-00 00 14 0082 01674 4412 443695 204914 197"
"171.677708"
"$GPRMC,161551,A,2452.9644,N,08020.4058,W,1.2,260.9,200615,6.6,"
"##MN-00 00 14 0084 01672 4417 443688 204910 197"
"171.677755"
"$GPRMC,161555,A,2452.9642,N,08020.4076,W,1.2,261.6,200615,6.6,"
"##MN+00 00 14 0085 01672 4422 443686 204909 197"
"171.677801"
"$GPRMC,161559,A,2452.9639,N,08020.4093,W,1.3,262.7,200615,6.6,"
"##MN+00 00 15 0086 01673 4426 443698 204910 197"
"171.677847"
"$GPRMC,161603,A,2452.9635,N,08020.4109,W,1.3,263.7,200615,6.6,"
"##MN+00 00 15 0088 01672 4432 443703 204911 197"
"171.677893"
"$GPRMC,161607,A,2452.9632,N,08020.4126,W,1.3,264.6,200615,6.6,"
"##MN-00 00 15 0089 01672 4437 443702 204911 197"
"171.67794"
"$GPRMC,161611,A,2452.9630,N,08020.4142,W,1.3,265.1,200615,6.6,"
"##MN-00 00 15 0091 01672 4441 443700 204911 197"
"171.677986"
"$GPRMC,161615,A,2452.9626,N,08020.4160,W,1.3,265.4,200615,6.6,"
"##MN-00 00 15 0092 01670 4447 443701 204912 197"
"171.678032"
"$GPRMC,161619,A,2452.9622,N,08020.4176,W,1.3,265.0,200615,6.6,"
"##MN-00 00 15 0093 01671 4452 443706 204914 197"
"171.678079"
"$GPRMC,161623,A,2452.9622,N,08020.4192,W,1.3,264.9,200615,6.6,"
"##MN-00 00 15 0095 01674 4457 443708 204915 197"
"171.678125"
"$GPRMC,161627,A,2452.9621,N,08020.4206,W,1.2,265.2,200615,6.6,"
"##MN-00 00 15 0096 01672 4462 443706 204912 197"
"171.678171"
"$GPRMC,161631,A,2452.9621,N,08020.4219,W,1.2,265.5,200615,6.6,"
"##MN-00 00 15 0097 01675 4467 443704 204910 197"
"171.678218"
"$GPRMC,161635,A,2452.9619,N,08020.4228,W,1.2,265.4,200615,6.6,"
"##MN-00 00 15 0099 01675 4472 443702 204910 197"
"171.678264"
"$GPRMC,161639,A,2452.9619,N,08020.4242,W,1.2,265.5,200615,6.6,"
"##MN-00 00 15 0100 01675 4476 443700 204909 197"
"171.678322"
"$GPRMC,161643,A,2452.9615,N,08020.4257,W,1.2,265.2,200615,6.6,"
"##MN-00 00 15 0101 01674 4482 443703 204909 197"
"171.678368"
"$GPRMC,161647,A,2452.9613,N,08020.4271,W,1.2,264.0,200615,6.6,"
"##MN+00 00 15 0103 01674 4487 443707 204909 197"
"171.678414"
"$GPRMC,161651,A,2452.9613,N,08020.4285,W,1.1,263.6,200615,6.6,"
"##MN+00 00 15 0104 01675 4491 443711 204909 197"
"171.678461"
"$GPRMC,161655,A,2452.9612,N,08020.4297,W,1.1,263.1,200615,6.6,"
"##MN+00 00 15 0105 01682 4496 443713 204907 197"
"171.678507"
"$GPRMC,161659,A,2452.9612,N,08020.4310,W,1.2,262.3,200615,6.6,"
"##MN-00 00 15 0106 01682 4501 443712 204905 197"
"171.678553"
"#increment_net"
"$GPRMC,161703,A,2452.9612,N,08020.4325,W,1.2,262.2,200615,6.6,"
"##MN-00 00 15 0107 01681 4506 443704 204903 197"
"171.6786"
"$GPRMC,161707,A,2452.9612,N,08020.4340,W,1.2,261.5,200615,6.6,"
"##MN-00 00 15 0109 01683 4511 443704 204901 197"
"171.678646"
"$GPRMC,161711,A,2452.9608,N,08020.4354,W,1.2,260.2,200615,6.6,"
"##MN-00 00 15 0110 01680 4516 443694 204899 197"
"171.678692"
"$GPRMC,161715,A,2452.9604,N,08020.4368,W,1.2,258.8,200615,6.6,"
"##MN-00 00 15 0111 01682 4521 443693 204898 197"
"171.678738"
"$GPRMC,161719,A,2452.9604,N,08020.4380,W,1.2,258.3,200615,6.6,"
"##MN-00 00 15 0113 01678 4526 443696 204900 197"
"171.678785"
"$GPRMC,161723,A,2452.9599,N,08020.4394,W,1.2,257.7,200615,6.6,"
"##MN-00 00 15 0114 01679 4531 443703 204903 197"
"171.678831"
"$GPRMC,161727,A,2452.9599,N,08020.4409,W,1.2,257.7,200615,6.6,"
"##MN-00 00 15 0115 01680 4536 443709 204906 197"
"171.678877"
"$GPRMC,161731,A,2452.9594,N,08020.4429,W,1.2,257.5,200615,6.6,"
"##MN+00 00 15 0117 01681 4541 443720 204909 197"
"171.678924"
"$GPRMC,161735,A,2452.9591,N,08020.4443,W,1.2,257.4,200615,6.6,"
"##MN+00 00 15 0118 01677 4546 443719 204908 197"
"171.67897"
"$GPRMC,161739,A,2452.9588,N,08020.4454,W,1.2,257.6,200615,6.6,"
"##MN+00 00 14 0119 01680 4551 443721 204908 197"
"171.679016"
"$GPRMC,161743,A,2452.9584,N,08020.4473,W,1.2,257.7,200615,6.6,"
"##MN-00 00 15 0121 01678 4555 443715 204907 197"
"171.679063"
"$GPRMC,161747,A,2452.9581,N,08020.4490,W,1.2,258.0,200615,6.6,"
"##MN+00 00 15 0122 01679 4560 443715 204908 197"
"171.679109"
"$GPRMC,161751,A,2452.9577,N,08020.4506,W,1.2,259.1,200615,6.6,"
"##MN+00 00 15 0123 01681 4565 443723 204908 197"
"171.679155"
"$GPRMC,161755,A,2452.9573,N,08020.4523,W,1.2,259.8,200615,6.6,"
"##MN+00 00 14 0124 01678 4570 443718 204906 197"
"171.679201"
"$GPRMC,161759,A,2452.9570,N,08020.4541,W,1.3,260.2,200615,6.6,"
"##MN-00 00 14 0126 01679 4575 443713 204905 197"
"171.679248"
"#increment_net"
"$GPRMC,161804,A,2452.9568,N,08020.4563,W,1.3,260.9,200615,6.6,"
"##MN-00 00 14 0127 01675 4579 443718 204909 197"
"171.679294"
"$GPRMC,161808,A,2452.9565,N,08020.4578,W,1.3,261.0,200615,6.6,"
"##MN-00 00 14 0128 01673 4584 443724 204911 197"
"171.67934"
"$GPRMC,161812,A,2452.9563,N,08020.4595,W,1.3,261.0,200615,6.6,"
"##MN-00 00 14 0130 01673 4589 443719 204909 197"
"171.679387"
"$GPRMC,161816,A,2452.9561,N,08020.4613,W,1.3,261.4,200615,6.6,"
"##MN-00 00 14 0131 01673 4594 443713 204907 197"
"171.679433"
"$GPRMC,161820,A,2452.9557,N,08020.4628,W,1.3,261.4,200615,6.6,"
"##MN-00 00 14 0132 01673 4599 443708 204907 197"
"171.679479"
"$GPRMC,161824,A,2452.9557,N,08020.4639,W,1.3,261.4,200615,6.6,"
"##MN-00 00 14 0134 01670 4603 443706 204907 197"
"171.679525"
"$GPRMC,161828,A,2452.9555,N,08020.4653,W,1.2,261.5,200615,6.6,"
"##MN-00 00 14 0135 01671 4608 443708 204908 197"
"171.679572"
"$GPRMC,161832,A,2452.9554,N,08020.4665,W,1.2,261.5,200615,6.6,"
"##MN+00 00 14 0136 01672 4613 443714 204910 197"
"171.679618"
"$GPRMC,161836,A,2452.9551,N,08020.4678,W,1.2,261.3,200615,6.6,"
"##MN+00 00 14 0138 01670 4617 443715 204910 197"
"171.679664"
"$GPRMC,161840,A,2452.9550,N,08020.4693,W,1.2,261.0,200615,6.6,"
"##MN+00 00 14 0139 01671 4622 443719 204911 197"
"171.679711"
"$GPRMC,161844,A,2452.9548,N,08020.4707,W,1.2,261.2,200615,6.6,"
"##MN-00 00 14 0140 01672 4627 443718 204912 197"
"171.679757"
"$GPRMC,161848,A,2452.9546,N,08020.4722,W,1.1,261.4,200615,6.6,"
"##MN-00 00 15 0141 01670 4632 443719 204910 197"
"171.679803"
"$GPRMC,161852,A,2452.9545,N,08020.4736,W,1.2,260.6,200615,6.6,"
"##MN+00 00 15 0143 01670 4636 443718 204911 197"
"171.67985"
"$GPRMC,161856,A,2452.9541,N,08020.4749,W,1.2,259.9,200615,6.6,"
"##MN+00 00 15 0144 01670 4641 443717 204908 197"
"171.679896"
"$GPRMC,161900,A,2452.9539,N,08020.4763,W,1.1,259.7,200615,6.6,"
"##MN+00 00 14 0145 01673 4646 443712 204905 197"
"171.679942"
"#increment_net"
"$GPRMC,161904,A,2452.9536,N,08020.4777,W,1.1,259.2,200615,6.6,"
"##MN-00 00 14 0146 01672 4650 443701 204899 197"
"171.679988"
"$GPRMC,161908,A,2452.9532,N,08020.4790,W,1.1,259.1,200615,6.6,"
"##MN-00 00 15 0148 01672 4655 443693 204897 197"
"171.680035"
"$GPRMC,161912,A,2452.9529,N,08020.4805,W,1.2,258.7,200615,6.6,"
"##MN-00 00 15 0149 01669 4659 443693 204899 197"
"171.680081"
"$GPRMC,161916,A,2452.9527,N,08020.4820,W,1.2,258.2,200615,6.6,"
"##MN-00 00 15 0150 01669 4664 443693 204901 197"
"171.680127"
"$GPRMC,161920,A,2452.9525,N,08020.4837,W,1.2,258.1,200615,6.6,"
"##MN-00 00 14 0152 01668 4669 443702 204904 197"
"171.680174"
"$GPRMC,161924,A,2452.9522,N,08020.4852,W,1.2,258.6,200615,6.6,"
"##MN-00 00 15 0153 01665 4674 443708 204906 197"
"171.68022"
"$GPRMC,161928,A,2452.9519,N,08020.4867,W,1.2,259.7,200615,6.6,"
"##MN-00 00 15 0154 01666 4678 443713 204909 197"
"171.680266"
"$GPRMC,161932,A,2452.9518,N,08020.4881,W,1.2,260.2,200615,6.6,"
"##MN+00 00 14 0156 01664 4682 443721 204911 197"
"171.680312"
"$GPRMC,161936,A,2452.9514,N,08020.4899,W,1.2,260.9,200615,6.6,"
"##MN+00 00 14 0157 01664 4687 443724 204911 197"
"171.680359"
"$GPRMC,161940,A,2452.9511,N,08020.4913,W,1.2,261.5,200615,6.6,"
"##MN+00 00 14 0158 01665 4692 443726 204911 197"
"171.680405"
"$GPRMC,161944,A,2452.9509,N,08020.4928,W,1.2,261.8,200615,6.6,"
"##MN-00 00 14 0160 01668 4696 443716 204908 197"
"171.680451"
"$GPRMC,161948,A,2452.9507,N,08020.4942,W,1.2,262.2,200615,6.6,"
"##MN+00 00 14 0161 01667 4701 443702 204901 197"
"171.680498"
"$GPRMC,161952,A,2452.9507,N,08020.4957,W,1.2,262.5,200615,6.6,"
"##MN+00 00 14 0163 01667 4705 443688 204895 197"
"171.680544"
"$GPRMC,161956,A,2452.9504,N,08020.4971,W,1.2,262.6,200615,6.6,"
"##MN+00 00 14 0164 01670 4710 443685 204894 197"
"171.68059"
"#increment_net"
"$GPRMC,162000,A,2452.9503,N,08020.4986,W,1.1,263.2,200615,6.6,"
"##MN-00 00 14 0165 01668 4714 443679 204891 197"
"171.680637"
"$GPRMC,162004,A,2452.9502,N,08020.5000,W,1.1,263.9,200615,6.6,"
"##MN-00 00 15 0166 01666 4719 443676 204892 197"
"171.680683"
"$GPRMC,162008,A,2452.9500,N,08020.5014,W,1.2,264.5,200615,6.6,"
"##MN-00 00 14 0167 01665 4724 443683 204895 197"
"171.680729"
"$GPRMC,162012,A,2452.9500,N,08020.5029,W,1.2,264.1,200615,6.6,"
"##MN-00 00 14 0169 01665 4728 443686 204896 197"
"171.680775"
"$GPRMC,162016,A,2452.9496,N,08020.5040,W,1.2,263.4,200615,6.6,"
"##MN-00 00 14 0170 01662 4732 443689 204899 197"
"171.680822"
"$GPRMC,162020,A,2452.9496,N,08020.5051,W,1.2,262.4,200615,6.6,"
"##MN-00 00 14 0171 01662 4737 443697 204900 197"
"171.680868"
"$GPRMC,162024,A,2452.9493,N,08020.5065,W,1.2,262.0,200615,6.6,"
"##MN+00 00 15 0173 01662 4741 443694 204899 197"
"171.680914"
"$GPRMC,162028,A,2452.9492,N,08020.5079,W,1.2,262.0,200615,6.6,"
"##MN+00 00 15 0174 01660 4746 443692 204899 197"
"171.680961"
"$GPRMC,162032,A,2452.9492,N,08020.5091,W,1.2,262.4,200615,6.6,"
"##MN+00 00 15 0176 01661 4750 443692 204900 197"
"171.681007"
"$GPRMC,162036,A,2452.9492,N,08020.5103,W,1.2,262.3,200615,6.6,"
"##MN-00 00 14 0177 01660 4755 443695 204901 197"
"171.681053"
"$GPRMC,162040,A,2452.9486,N,08020.5119,W,1.2,261.4,200615,6.6,"
"##MN-00 00 14 0178 01660 4759 443693 204902 197"
"171.6811"
"$GPRMC,162044,A,2452.9483,N,08020.5134,W,1.1,260.6,200615,6.6,"
"##MN-00 00 14 0180 01661 4763 443695 204903 197"
"171.681146"
"$GPRMC,162048,A,2452.9482,N,08020.5148,W,1.1,260.2,200615,6.6,"
"##MN+00 00 14 0181 01662 4768 443690 204901 197"
"171.681192"
"$GPRMC,162052,A,2452.9478,N,08020.5163,W,1.1,259.8,200615,6.6,"
"##MN+00 00 14 0183 01658 4772 443686 204899 197"
"171.681238"
"$GPRMC,162056,A,2452.9476,N,08020.5175,W,1.1,259.1,200615,6.6,"
"##MN+00 00 14 0184 01663 4776 443684 204897 197"
"171.681285"
"#increment_net"
"$GPRMC,162100,A,2452.9474,N,08020.5188,W,1.1,259.2,200615,6.6,"
"##MN-00 00 14 0185 01667 4781 443676 204894 197"
"171.681331"
"$GPRMC,162104,A,2452.9471,N,08020.5202,W,1.2,259.1,200615,6.6,"
"##MN-00 00 14 0187 01675 4785 443666 204887 197"
"171.681377"
"$GPRMC,162108,A,2452.9468,N,08020.5218,W,1.2,258.5,200615,6.6,"
"##MN-00 00 14 0189 01683 4789 443644 204878 197"
"171.681424"
"$GPRMC,162112,A,2452.9464,N,08020.5235,W,1.2,257.9,200615,6.6,"
"##MN-00 00 14 0191 01687 4794 443651 204873 197"
"171.681482"
"$GPRMC,162116,A,2452.9460,N,08020.5249,W,1.3,257.0,200615,6.6,"
"##MN-00 00 14 0192 01694 4798 443644 204867 197"
"171.681528"
"$GPRMC,162120,A,2452.9455,N,08020.5265,W,1.3,255.6,200615,6.6,"
"##MN-00 00 14 0194 01698 4802 443633 204863 197"
"171.681574"
"$GPRMC,162124,A,2452.9450,N,08020.5282,W,1.4,254.9,200615,6.6,"
"##MN-00 00 14 0196 01697 4807 443607 204850 197"
"171.68162"
"$GPRMC,162128,A,2452.9447,N,08020.5300,W,1.5,254.5,200615,6.6,"
"##MN-00 00 14 0197 01700 4811 443589 204844 197"
"171.681667"
"$GPRMC,162132,A,2452.9442,N,08020.5318,W,1.5,253.6,200615,6.6,"
"##MN-00 00 14 0199 01699 4815 443575 204837 197"
"171.681713"
"$GPRMC,162136,A,2452.9435,N,08020.5339,W,1.5,253.2,200615,6.6,"
"##MN-00 00 14 0201 01697 4819 443579 204843 197"
"171.681759"
"$GPRMC,162140,A,2452.9431,N,08020.5358,W,1.5,254.1,200615,6.6,"
"##MN-00 00 14 0203 01695 4824 443589 204844 197"
"171.681806"
"$GPRMC,162144,A,2452.9426,N,08020.5376,W,1.5,255.0,200615,6.6,"
"##MN-00 00 14 0204 01692 4827 443585 204845 197"
"171.681852"
"$GPRMC,162148,A,2452.9420,N,08020.5397,W,1.5,255.2,200615,6.6,"
"##MN-00 00 15 0206 01688 4832 443592 204852 197"
"171.681898"
"$GPRMC,162152,A,2452.9415,N,08020.5416,W,1.5,256.0,200615,6.6,"
"##MN-00 00 16 0207 01688 4836 443603 204857 197"
"171.681944"
"$GPRMC,162156,A,2452.9413,N,08020.5435,W,1.6,256.0,200615,6.6,"
"##MN-00 00 14 0209 01683 4840 443608 204858 197"
"171.681991"
"$GPRMC,162200,A,2452.9409,N,08020.5455,W,1.5,256.8,200615,6.6,"
"##MN-00 00 15 0211 01681 4844 443601 204857 197"
"171.682037"
"$GPRMC,162204,A,2452.9406,N,08020.5473,W,1.6,257.3,200615,6.6,"
"##MN-00 00 14 0212 01679 4848 443603 204861 197"
"171.682083"
"$GPRMC,162208,A,2452.9402,N,08020.5491,W,1.6,257.2,200615,6.6,"
"##MN-00 00 15 0214 01679 4853 443624 204870 197"
"171.68213"
"$GPRMC,162212,A,2452.9398,N,08020.5510,W,1.6,257.0,200615,6.6,"
"##MN-00 00 14 0215 01674 4857 443646 204877 197"
"171.682176"
"$GPRMC,162216,A,2452.9393,N,08020.5528,W,1.6,256.8,200615,6.6,"
"##MN-00 00 14 0217 01671 4861 443641 204877 197"
"171.682222"
"$GPRMC,162220,A,2452.9388,N,08020.5549,W,1.6,256.4,200615,6.6,"
"##MN-00 00 14 0219 01670 4865 443637 204877 197"
"171.682269"
"$GPRMC,162224,A,2452.9381,N,08020.5568,W,1.6,255.5,200615,6.6,"
"##MN-00 00 15 0220 01666 4869 443644 204882 197"
"171.682315"
"$GPRMC,162228,A,2452.9377,N,08020.5587,W,1.6,255.1,200615,6.6,"
"##MN-00 00 14 0222 01664 4873 443660 204889 197"
"171.682361"
"$GPRMC,162232,A,2452.9375,N,08020.5603,W,1.6,254.6,200615,6.6,"
"##MN-00 00 14 0224 01661 4877 443666 204893 197"
"171.682407"
"$GPRMC,162236,A,2452.9370,N,08020.5616,W,1.6,254.4,200615,6.6,"
"##MN-00 00 14 0225 01657 4881 443672 204899 197"
"171.682454"
"$GPRMC,162240,A,2452.9366,N,08020.5632,W,1.5,254.2,200615,6.6,"
"##MN-00 00 14 0227 01655 4885 443687 204905 197"
"171.6825"
"$GPRMC,162244,A,2452.9361,N,08020.5648,W,1.5,253.9,200615,6.6,"
"##MN-00 00 14 0228 01650 4889 443693 204909 197"
"171.682546"
"$GPRMC,162248,A,2452.9356,N,08020.5665,W,1.5,253.5,200615,6.6,"
"##MN-00 00 14 0230 01648 4893 443697 204914 197"
"171.682593"
"$GPRMC,162252,A,2452.9352,N,08020.5684,W,1.5,253.9,200615,6.6,"
"##MN-00 00 14 0232 01645 4897 443716 204921 197"
"171.682639"
"$GPRMC,162257,A,2452.9343,N,08020.5712,W,1.6,254.5,200615,6.6,"
"##MN-00 00 16 0233 01643 4901 443730 204927 197"
"171.682685"
"$GPRMC,162301,A,2452.9338,N,08020.5731,W,1.6,255.0,200615,6.6,"
"##MN-00 00 14 0235 01639 4905 443735 204930 197"
"171.682731"
"$GPRMC,162305,A,2452.9333,N,08020.5752,W,1.6,255.4,200615,6.6,"
"##MN-00 00 14 0236 01637 4909 443741 204936 197"
"171.682778"
"$GPRMC,162309,A,2452.9330,N,08020.5773,W,1.6,255.7,200615,6.6,"
"##MN-00 00 14 0238 01632 4913 443745 204937 197"
"171.682824"
"$GPRMC,162313,A,2452.9325,N,08020.5795,W,1.6,256.4,200615,6.6,"
"##MN-00 00 14 0240 01630 4917 443752 204943 197"
"171.68287"
"$GPRMC,162317,A,2452.9321,N,08020.5813,W,1.6,257.0,200615,6.6,"
"##MN-00 00 15 0241 01625 4921 443763 204947 197"
"171.682917"
"$GPRMC,162320,A,2452.9319,N,08020.5829,W,1.7,257.4,200615,6.6,"
"##MN-00 00 14 0243 01624 4924 443765 204948 197"
"171.682963"
"$GPRMC,162325,A,2452.9316,N,08020.5853,W,1.7,257.6,200615,6.6,"
"##MN-00 00 16 0245 01621 4928 443751 204947 197"
"171.683009"
"$GPRMC,162329,A,2452.9314,N,08020.5872,W,1.6,257.8,200615,6.6,"
"##MN-00 00 15 0246 01619 4932 443749 204950 197"
"171.683056"
"$GPRMC,162333,A,2452.9310,N,08020.5892,W,1.6,257.8,200615,6.6,"
"##MN-00 00 15 0248 01616 4936 443765 204958 197"
"171.683102"
"$GPRMC,162337,A,2452.9305,N,08020.5914,W,1.7,257.5,200615,6.6,"
"##MN-00 00 15 0249 01615 4940 443783 204964 197"
"171.683148"
"$GPRMC,162341,A,2452.9298,N,08020.5933,W,1.7,257.4,200615,6.6,"
"##MN-00 00 15 0251 01610 4944 443796 204968 197"
"171.683194"
"$GPRMC,162345,A,2452.9294,N,08020.5952,W,1.6,257.0,200615,6.6,"
"##MN-00 00 15 0252 01608 4948 443785 204964 197"
"171.683241"
"$GPRMC,162349,A,2452.9290,N,08020.5972,W,1.6,256.6,200615,6.6,"
"##MN-00 00 15 0254 01603 4951 443754 204958 197"
"171.683287"
"$GPRMC,162353,A,2452.9286,N,08020.5990,W,1.6,256.0,200615,6.6,"
"##MN-00 00 15 0256 01605 4955 443741 204958 197"
"171.683333"
"$GPRMC,162357,A,2452.9283,N,08020.6008,W,1.6,255.7,200615,6.6,"
"##MN-00 00 15 0257 01600 4959 443739 204958 197"
"171.68338"
"$GPRMC,162401,A,2452.9276,N,08020.6026,W,1.6,255.0,200615,6.6,"
"##MN-00 00 15 0259 01598 4963 443736 204958 197"
"171.683426"
"$GPRMC,162405,A,2452.9270,N,08020.6042,W,1.6,254.1,200615,6.6,"
"##MN-00 00 15 0260 01597 4967 443727 204956 197"
"171.683472"
"$GPRMC,162409,A,2452.9267,N,08020.6059,W,1.5,253.3,200615,6.6,"
"##MN-00 00 15 0262 01593 4970 443715 204953 197"
"171.683518"
"$GPRMC,162413,A,2452.9261,N,08020.6076,W,1.5,253.2,200615,6.6,"
"##MN-00 00 15 0264 01590 4974 443685 204943 197"
"171.683565"
"$GPRMC,162417,A,2452.9258,N,08020.6092,W,1.5,252.5,200615,6.6,"
"##MN-00 00 15 0265 01588 4978 443628 204934 197"
"171.683611"
"$GPRMC,162421,A,2452.9251,N,08020.6110,W,1.6,252.6,200615,6.6,"
"##MN-00 00 15 0267 01586 4981 443601 204928 197"
"171.683657"
"$GPRMC,162425,A,2452.9247,N,08020.6125,W,1.5,252.5,200615,6.6,"
"##MN-00 00 15 0268 01583 4985 443579 204926 197"
"171.683704"
"$GPRMC,162429,A,2452.9242,N,08020.6142,W,1.5,252.2,200615,6.6,"
"##MN-00 00 15 0270 01578 4989 443555 204922 197"
"171.68375"
"$GPRMC,162433,A,2452.9238,N,08020.6161,W,1.5,252.5,200615,6.6,"
"##MN-00 00 15 0272 01576 4992 443519 204920 197"
"171.683796"
"$GPRMC,162437,A,2452.9231,N,08020.6181,W,1.5,253.3,200615,6.6,"
"##MN-00 00 15 0273 01575 4996 443459 204914 197"
"171.683843"
"$GPRMC,162441,A,2452.9229,N,08020.6197,W,1.5,253.6,200615,6.6,"
"##MN-00 00 16 0275 01570 4999 443431 204915 197"
"171.683889"
"$GPRMC,162445,A,2452.9225,N,08020.6215,W,1.6,254.4,200615,6.6,"
"##MN-00 00 16 0276 01568 5003 443376 204899 197"
"171.683935"
"$GPRMC,162449,A,2452.9218,N,08020.6236,W,1.6,254.8,200615,6.6,"
"##MN-00 00 16 0278 01564 5007 443238 204881 197"
"171.683981"
"$GPRMC,162453,A,2452.9213,N,08020.6258,W,1.6,255.8,200615,6.6,"
"##MN-00 00 16 0279 01562 5010 443186 204880 197"
"171.684028"
"$GPRMC,162457,A,2452.9211,N,08020.6277,W,1.6,256.7,200615,6.6,"
"##MN-00 00 16 0281 01558 5014 443129 204869 197"
"171.684074"
"$GPRMC,162501,A,2452.9207,N,08020.6295,W,1.6,256.9,200615,6.6,"
"##MN-00 00 15 0282 01554 5018 442935 204867 197"
"171.68412"
"$GPRMC,162505,A,2452.9204,N,08020.6315,W,1.6,257.3,200615,6.6,"
"##MN-00 00 15 0284 01553 5021 442969 204874 197"
"171.684167"
"$GPRMC,162509,A,2452.9203,N,08020.6333,W,1.6,258.2,200615,6.6,"
"##MN-00 00 15 0286 01550 5025 441794 204721 197"
"171.684213"
"$GPRMC,162513,A,2452.9200,N,08020.6351,W,1.6,259.1,200615,6.6,"
"##MN-00 00 16 0287 01548 5028 441388 204740 197"
"171.684259"
"$GPRMC,162517,A,2452.9197,N,08020.6366,W,1.6,259.3,200615,6.6,"
"##MN-00 00 16 0288 01549 5032 441135 204685 197"
"171.684306"
"$GPRMC,162521,A,2452.9195,N,08020.6388,W,1.6,260.0,200615,6.6,"
"##MN-00 00 16 0290 01548 5035 440925 204631 197"
