" Tow: 8WS-B   RVWS/WS15161"
" Date: 20/06/2015"
" Temperature Probe #  4762    Conductivity Probe #  710"
" Pressure Probe #  159"
" Flow Meter Calibration  4.71 (m/count)  "
"171.710995"
"$GPRMC,170346,A,2452.9684,N,08025.0744,W,2.8,275.3,200615,6.6,"
"##MN-00 00 87 0000 01535 5611 404076 827296 198"
"171.711042"
"$GPRMC,170350,A,2452.9688,N,08025.0777,W,2.8,276.0,200615,6.6,"
"##MN-00 00 87 0000 01536 5612 403007 827687 198"
"171.711088"
"$GPRMC,170354,A,2452.9691,N,08025.0811,W,2.8,276.8,200615,6.6,"
"##MN-00 00 87 0000 01535 5614 403046 827753 197"
"171.711134"
"$GPRMC,170358,A,2452.9697,N,08025.0849,W,2.9,277.4,200615,6.6,"
"##MN-00 00 87 0000 01537 5615 403244 827687 198"
"171.711181"
"$GPRMC,170402,A,2452.9702,N,08025.0882,W,2.9,278.4,200615,6.6,"
"##MN-00 00 87 0000 01535 5616 402827 827685 197"
"171.711227"
"$GPRMC,170406,A,2452.9706,N,08025.0918,W,2.9,278.6,200615,6.6,"
"##MN-00 00 87 0000 01536 5617 401974 827617 197"
"171.711273"
"$GPRMC,170410,A,2452.9709,N,08025.0954,W,2.9,278.3,200615,6.6,"
"##MN-00 00 86 0000 01534 5618 401587 827616 197"
"171.711319"
"$GPRMC,170414,A,2452.9713,N,08025.0990,W,2.9,278.1,200615,6.6,"
"##MN-00 00 86 0000 01534 5619 401608 827412 197"
"171.711366"
"$GPRMC,170418,A,2452.9717,N,08025.1030,W,2.9,277.8,200615,6.6,"
"##MN-00 00 86 0000 01537 5620 401681 827820 197"
"171.711412"
"$GPRMC,170422,A,2452.9722,N,08025.1069,W,2.9,277.2,200615,6.6,"
"##MN-00 00 83 0000 01535 5621 402335 827478 197"
"171.711458"
"$GPRMC,170426,A,2452.9726,N,08025.1103,W,2.9,276.7,200615,6.6,"
"##MN-00 00 81 0000 01536 5622 403573 827546 197"
"171.711505"
"$GPRMC,170430,A,2452.9730,N,08025.1139,W,2.9,276.2,200615,6.6,"
"##MN-00 00 79 0000 01536 5623 405046 827615 197"
"171.711551"
"$GPRMC,170434,A,2452.9733,N,08025.1174,W,2.8,275.6,200615,6.6,"
"##MN-00 00 79 0000 01536 5624 406625 827613 197"
"171.711597"
"$GPRMC,170438,A,2452.9734,N,08025.1207,W,2.8,274.7,200615,6.6,"
"##MN-00 00 79 0000 01537 5624 407728 827543 197"
"171.711644"
"$GPRMC,170443,A,2452.9736,N,08025.1246,W,2.8,273.4,200615,6.6,"
"##MN-00 00 79 0000 01537 5625 409721 827613 197"
"171.71169"
"$GPRMC,170446,A,2452.9738,N,08025.1269,W,2.8,272.8,200615,6.6,"
"##MN-00 00 79 0000 01537 5625 411489 827405 197"
"171.711736"
"$GPRMC,170451,A,2452.9738,N,08025.1308,W,2.8,272.7,200615,6.6,"
"##MN-00 00 79 0000 01536 5626 413303 827745 197"
"171.711782"
"$GPRMC,170454,A,2452.9740,N,08025.1331,W,2.8,273.0,200615,6.6,"
"##MN-00 00 79 0000 01535 5627 414953 827543 197"
"171.711829"
"$GPRMC,170459,A,2452.9739,N,08025.1373,W,2.8,272.4,200615,6.6,"
"##MN-00 00 79 0000 01534 5628 416271 827607 197"
"171.711875"
"$GPRMC,170503,A,2452.9742,N,08025.1409,W,2.7,272.7,200615,6.6,"
"##MN-00 00 79 0000 01537 5628 417369 827606 197"
"171.711921"
"$GPRMC,170507,A,2452.9743,N,08025.1445,W,2.7,273.2,200615,6.6,"
"##MN-00 00 79 0000 01538 5629 418207 827742 197"
"171.711968"
"$GPRMC,170511,A,2452.9747,N,08025.1478,W,2.6,273.8,200615,6.6,"
"##MN-00 00 79 0000 01536 5630 418902 827741 197"
"171.712014"
"$GPRMC,170515,A,2452.9749,N,08025.1511,W,2.6,274.9,200615,6.6,"
"##MN-00 00 79 0000 01535 5631 418934 827675 197"
"171.71206"
"$GPRMC,170519,A,2452.9753,N,08025.1543,W,2.6,276.0,200615,6.6,"
"##MN-00 00 77 0001 01534 5631 433305 234064 197"
"171.712106"
"$GPRMC,170523,A,2452.9758,N,08025.1575,W,2.6,277.5,200615,6.6,"
"##MN-00 00 14 0001 01537 5632 438214 203480 197"
"171.712153"
"$GPRMC,170527,A,2452.9763,N,08025.1607,W,2.5,278.6,200615,6.6,"
"##MN-00 00 14 0002 01536 5633 438307 203381 197"
"171.712199"
"$GPRMC,170531,A,2452.9767,N,08025.1637,W,2.5,280.0,200615,6.6,"
"##MN-00 00 10 0003 01537 5633 438376 203451 197"
"171.712245"
"$GPRMC,170535,A,2452.9773,N,08025.1665,W,2.4,280.6,200615,6.6,"
"##MN-00 00 09 0004 01537 5634 438532 203721 197"
"171.712292"
"$GPRMC,170539,A,2452.9777,N,08025.1687,W,2.4,281.2,200615,6.6,"
"##MN-00 00 10 0005 01537 5634 438495 203621 197"
"171.712338"
"$GPRMC,170543,A,2452.9784,N,08025.1721,W,2.4,281.8,200615,6.6,"
"##MN-00 00 10 0006 01538 5635 438453 203683 197"
"171.712384"
"$GPRMC,170547,A,2452.9788,N,08025.1741,W,2.3,281.9,200615,6.6,"
"##MN-00 00 10 0007 01544 5636 438400 203651 197"
"171.712431"
"$GPRMC,170551,A,2452.9795,N,08025.1775,W,2.3,282.2,200615,6.6,"
"##MN-00 00 10 0008 01545 5637 438336 203578 197"
"171.712477"
"$GPRMC,170555,A,2452.9799,N,08025.1796,W,2.3,282.4,200615,6.6,"
"##MN-00 00 11 0009 01549 5638 438327 203606 197"
"171.712523"
"$GPRMC,170559,A,2452.9806,N,08025.1828,W,2.2,282.9,200615,6.6,"
"##MN-00 00 11 0011 01550 5639 438778 203708 197"
"171.712569"
"$GPRMC,170603,A,2452.9810,N,08025.1853,W,2.2,282.8,200615,6.6,"
"##MN-00 00 10 0012 01555 5640 439848 203853 197"
"171.712616"
"$GPRMC,170607,A,2452.9817,N,08025.1879,W,2.1,282.6,200615,6.6,"
"##MN-00 00 10 0013 01555 5641 440629 203924 197"
"171.712662"
"$GPRMC,170611,A,2452.9823,N,08025.1904,W,2.1,282.5,200615,6.6,"
"##MN-00 00 11 0014 01559 5641 441161 204059 197"
"171.712708"
"$GPRMC,170615,A,2452.9828,N,08025.1930,W,2.1,282.5,200615,6.6,"
"##MN-00 00 10 0015 01564 5643 441324 204191 197"
"171.712755"
"$GPRMC,170619,A,2452.9835,N,08025.1954,W,2.1,282.4,200615,6.6,"
"##MN-00 00 10 0016 01566 5644 441495 204186 197"
"171.712801"
"$GPRMC,170623,A,2452.9841,N,08025.1980,W,2.1,282.6,200615,6.6,"
"##MN-00 00 11 0017 01568 5645 441605 204156 197"
"171.712847"
"$GPRMC,170627,A,2452.9846,N,08025.2003,W,2.0,283.0,200615,6.6,"
"##MN-00 00 11 0018 01571 5646 441750 204254 197"
"171.712893"
"$GPRMC,170631,A,2452.9853,N,08025.2027,W,2.0,282.7,200615,6.6,"
"##MN-00 00 11 0019 01575 5647 441886 204317 197"
"171.71294"
"$GPRMC,170635,A,2452.9857,N,08025.2049,W,2.0,282.6,200615,6.6,"
"##MN-00 00 11 0020 01577 5648 442074 204364 197"
"171.712986"
"$GPRMC,170639,A,2452.9864,N,08025.2074,W,2.0,282.7,200615,6.6,"
"##MN-00 00 11 0022 01583 5649 442262 204348 197"
"171.713032"
"$GPRMC,170643,A,2452.9868,N,08025.2096,W,1.9,282.6,200615,6.6,"
"##MN-00 00 11 0023 01585 5650 442356 204399 197"
"171.713079"
"$GPRMC,170647,A,2452.9872,N,08025.2121,W,1.9,282.3,200615,6.6,"
"##MN-00 00 11 0024 01588 5652 442494 204427 197"
"171.713125"
"$GPRMC,170651,A,2452.9876,N,08025.2143,W,1.9,282.3,200615,6.6,"
"##MN-00 00 11 0025 01592 5653 442602 204434 197"
"171.713171"
"$GPRMC,170655,A,2452.9881,N,08025.2167,W,1.9,281.8,200615,6.6,"
"##MN-00 00 11 0026 01597 5654 442796 204488 197"
"171.713218"
"$GPRMC,170659,A,2452.9886,N,08025.2190,W,1.9,281.8,200615,6.6,"
"##MN-00 00 11 0027 01599 5655 442916 204536 197"
"171.713264"
"$GPRMC,170703,A,2452.9890,N,08025.2215,W,1.9,281.7,200615,6.6,"
"##MN-00 00 11 0028 01600 5656 442995 204546 197"
"171.71331"
"$GPRMC,170707,A,2452.9893,N,08025.2237,W,1.9,281.7,200615,6.6,"
"##MN-00 00 11 0029 01603 5657 443033 204570 197"
"171.713356"
"$GPRMC,170711,A,2452.9897,N,08025.2261,W,1.9,281.8,200615,6.6,"
"##MN-00 00 11 0030 01603 5658 443005 204557 197"
"171.713403"
"$GPRMC,170715,A,2452.9903,N,08025.2283,W,1.9,282.1,200615,6.6,"
"##MN-00 00 11 0031 01608 5660 443026 204588 197"
"171.713449"
"$GPRMC,170719,A,2452.9908,N,08025.2305,W,1.9,282.5,200615,6.6,"
"##MN-00 00 11 0032 01611 5661 443058 204584 197"
"171.713495"
"$GPRMC,170723,A,2452.9914,N,08025.2327,W,1.9,282.7,200615,6.6,"
"##MN-00 00 11 0034 01614 5662 443099 204597 197"
"171.713542"
"$GPRMC,170727,A,2452.9919,N,08025.2349,W,1.9,282.6,200615,6.6,"
"##MN-00 00 11 0035 01617 5664 443131 204609 197"
"171.713588"
"$GPRMC,170731,A,2452.9922,N,08025.2371,W,1.9,282.9,200615,6.6,"
"##MN-00 00 11 0036 01619 5664 443140 204619 197"
"171.713646"
"$GPRMC,170735,A,2452.9928,N,08025.2393,W,1.9,282.5,200615,6.6,"
"##MN-00 00 11 0037 01624 5666 443139 204620 197"
"171.713692"
"$GPRMC,170739,A,2452.9933,N,08025.2415,W,1.8,282.3,200615,6.6,"
"##MN-00 00 11 0038 01626 5667 443156 204617 197"
"171.713738"
"$GPRMC,170743,A,2452.9937,N,08025.2431,W,1.8,281.9,200615,6.6,"
"##MN-00 00 11 0039 01629 5668 443168 204618 197"
"171.713785"
"$GPRMC,170747,A,2452.9940,N,08025.2447,W,1.8,281.6,200615,6.6,"
"##MN-00 00 12 0040 01632 5669 443172 204614 197"
"171.713831"
"$GPRMC,170751,A,2452.9944,N,08025.2467,W,1.8,281.3,200615,6.6,"
"##MN-00 00 11 0041 01633 5670 443177 204625 197"
"171.713877"
"$GPRMC,170755,A,2452.9948,N,08025.2489,W,1.9,280.9,200615,6.6,"
"##MN-00 00 12 0042 01637 5672 443186 204628 197"
"171.713924"
"$GPRMC,170759,A,2452.9951,N,08025.2511,W,1.8,280.5,200615,6.6,"
"##MN-00 00 11 0043 01642 5673 443191 204627 197"
"171.71397"
"$GPRMC,170803,A,2452.9955,N,08025.2533,W,1.8,280.6,200615,6.6,"
"##MN-00 00 12 0044 01643 5674 443198 204630 197"
"171.714016"
"$GPRMC,170807,A,2452.9957,N,08025.2555,W,1.8,280.6,200615,6.6,"
"##MN-00 00 12 0045 01649 5675 443197 204628 197"
"171.714063"
"$GPRMC,170811,A,2452.9961,N,08025.2579,W,1.8,280.2,200615,6.6,"
"##MN-00 00 12 0047 01648 5676 443208 204631 197"
"171.714109"
"$GPRMC,170815,A,2452.9963,N,08025.2601,W,1.8,279.8,200615,6.6,"
"##MN-00 00 12 0048 01648 5678 443213 204633 197"
"171.714155"
"$GPRMC,170819,A,2452.9966,N,08025.2626,W,1.8,279.4,200615,6.6,"
"##MN-00 00 12 0049 01648 5679 443212 204636 197"
"171.714201"
"$GPRMC,170823,A,2452.9971,N,08025.2644,W,1.8,279.3,200615,6.6,"
"##MN-00 00 12 0050 01647 5680 443218 204638 197"
"171.714248"
"$GPRMC,170827,A,2452.9973,N,08025.2666,W,1.8,278.6,200615,6.6,"
"##MN-00 00 12 0051 01646 5681 443227 204639 197"
"171.714294"
"$GPRMC,170831,A,2452.9974,N,08025.2688,W,1.7,278.0,200615,6.6,"
"##MN+00 00 12 0053 01650 5682 443227 204638 197"
"171.71434"
"$GPRMC,170835,A,2452.9977,N,08025.2710,W,1.7,277.2,200615,6.6,"
"##MN+00 00 12 0054 01647 5683 443233 204640 197"
"171.714387"
"$GPRMC,170839,A,2452.9977,N,08025.2731,W,1.7,275.9,200615,6.6,"
"##MN+00 00 12 0055 01647 5685 443230 204641 197"
"171.714433"
"$GPRMC,170843,A,2452.9979,N,08025.2751,W,1.7,274.5,200615,6.6,"
"##MN+00 00 12 0056 01646 5686 443231 204640 197"
"171.714479"
"$GPRMC,170847,A,2452.9980,N,08025.2776,W,1.7,272.7,200615,6.6,"
"##MN+00 00 12 0057 01644 5687 443229 204642 197"
"171.714525"
"$GPRMC,170851,A,2452.9980,N,08025.2796,W,1.7,270.8,200615,6.6,"
"##MN+00 00 12 0058 01650 5688 443236 204642 197"
"171.714572"
"$GPRMC,170855,A,2452.9977,N,08025.2818,W,1.7,269.1,200615,6.6,"
"##MN-00 00 12 0059 01648 5689 443239 204644 197"
"171.714618"
"#increment_net"
"$GPRMC,170859,A,2452.9974,N,08025.2843,W,1.8,266.9,200615,6.6,"
"##MN-00 00 12 0061 01646 5690 443245 204644 197"
"171.714664"
"$GPRMC,170903,A,2452.9973,N,08025.2868,W,1.8,266.4,200615,6.6,"
"##MN-00 00 12 0062 01646 5691 443246 204645 197"
"171.714711"
"$GPRMC,170907,A,2452.9973,N,08025.2894,W,1.9,265.6,200615,6.6,"
"##MN-00 00 12 0063 01645 5692 443247 204645 197"
"171.714757"
"$GPRMC,170912,A,2452.9971,N,08025.2924,W,1.9,265.5,200615,6.6,"
"##MN-00 00 12 0064 01643 5694 443248 204646 197"
"171.714803"
"$GPRMC,170915,A,2452.9969,N,08025.2941,W,1.9,265.0,200615,6.6,"
"##MN-00 00 12 0066 01640 5695 443246 204646 197"
"171.71485"
"$GPRMC,170920,A,2452.9966,N,08025.2970,W,1.9,265.4,200615,6.6,"
"##MN-00 00 12 0067 01642 5696 443242 204646 197"
"171.714896"
"$GPRMC,170924,A,2452.9964,N,08025.2995,W,2.0,265.8,200615,6.6,"
"##MN-00 00 12 0068 01641 5697 443240 204646 197"
"171.714942"
"$GPRMC,170928,A,2452.9964,N,08025.3020,W,2.0,266.1,200615,6.6,"
"##MN-00 00 12 0069 01637 5699 443247 204647 197"
"171.714988"
"$GPRMC,170932,A,2452.9962,N,08025.3046,W,2.0,266.4,200615,6.6,"
"##MN-00 00 12 0071 01637 5699 443251 204647 197"
"171.715035"
"$GPRMC,170936,A,2452.9959,N,08025.3071,W,2.0,266.7,200615,6.6,"
"##MN+00 00 12 0072 01636 5701 443255 204647 197"
"171.715081"
"$GPRMC,170940,A,2452.9957,N,08025.3096,W,2.1,267.0,200615,6.6,"
"##MN+00 00 12 0073 01638 5702 443257 204648 197"
"171.715127"
"$GPRMC,170944,A,2452.9957,N,08025.3121,W,2.1,266.7,200615,6.6,"
"##MN+00 00 12 0074 01634 5703 443255 204648 197"
"171.715174"
"$GPRMC,170948,A,2452.9955,N,08025.3147,W,2.1,266.8,200615,6.6,"
"##MN-00 00 12 0076 01634 5704 443251 204648 197"
"171.71522"
"$GPRMC,170952,A,2452.9955,N,08025.3172,W,2.1,266.9,200615,6.6,"
"##MN+00 00 12 0077 01634 5705 443243 204647 197"
"171.715266"
"$GPRMC,170956,A,2452.9952,N,08025.3197,W,2.0,266.7,200615,6.6,"
"##MN+00 00 12 0078 01637 5706 443237 204644 197"
"171.715312"
"$GPRMC,171000,A,2452.9950,N,08025.3224,W,2.0,266.2,200615,6.6,"
"##MN+00 00 12 0079 01635 5707 443242 204645 197"
"171.715359"
"#increment_net"
"$GPRMC,171004,A,2452.9949,N,08025.3248,W,2.0,265.7,200615,6.6,"
"##MN-00 00 12 0081 01635 5709 443245 204645 197"
"171.715405"
"$GPRMC,171008,A,2452.9946,N,08025.3273,W,2.1,265.6,200615,6.6,"
"##MN-00 00 12 0082 01633 5709 443244 204646 197"
"171.715451"
"$GPRMC,171012,A,2452.9942,N,08025.3295,W,2.0,264.9,200615,6.6,"
"##MN-00 00 12 0083 01632 5711 443244 204645 197"
"171.715498"
"$GPRMC,171016,A,2452.9938,N,08025.3316,W,2.0,264.3,200615,6.6,"
"##MN-00 00 12 0084 01631 5712 443237 204646 197"
"171.715544"
"$GPRMC,171020,A,2452.9936,N,08025.3338,W,1.9,263.8,200615,6.6,"
"##MN-00 00 12 0086 01631 5713 443236 204644 197"
"171.71559"
"$GPRMC,171024,A,2452.9932,N,08025.3361,W,1.9,263.6,200615,6.6,"
"##MN-00 00 12 0087 01631 5714 443234 204644 197"
"171.715637"
"$GPRMC,171028,A,2452.9930,N,08025.3385,W,1.9,263.7,200615,6.6,"
"##MN-00 00 12 0088 01632 5715 443239 204644 197"
"171.715683"
"$GPRMC,171032,A,2452.9927,N,08025.3407,W,1.9,263.5,200615,6.6,"
"##MN+00 00 12 0089 01631 5717 443241 204644 197"
"171.715729"
"$GPRMC,171036,A,2452.9924,N,08025.3432,W,1.9,263.4,200615,6.6,"
"##MN+00 00 12 0091 01630 5718 443232 204642 197"
"171.715775"
"$GPRMC,171040,A,2452.9920,N,08025.3454,W,1.9,263.1,200615,6.6,"
"##MN+00 00 12 0092 01631 5718 443226 204640 197"
"171.715822"
"$GPRMC,171044,A,2452.9917,N,08025.3479,W,1.9,263.2,200615,6.6,"
"##MN-00 00 12 0093 01632 5720 443229 204641 197"
"171.715868"
"$GPRMC,171048,A,2452.9915,N,08025.3504,W,1.9,263.0,200615,6.6,"
"##MN-00 00 12 0095 01631 5720 443227 204641 197"
"171.715914"
"$GPRMC,171052,A,2452.9915,N,08025.3529,W,1.9,263.5,200615,6.6,"
"##MN+00 00 12 0096 01632 5722 443229 204641 197"
"171.715961"
"$GPRMC,171056,A,2452.9914,N,08025.3552,W,1.9,263.6,200615,6.6,"
"##MN+00 00 12 0097 01631 5723 443228 204641 197"
"171.716007"
"$GPRMC,171100,A,2452.9911,N,08025.3577,W,1.9,264.0,200615,6.6,"
"##MN+00 00 12 0098 01634 5724 443224 204640 197"
"171.716053"
"#increment_net"
"$GPRMC,171104,A,2452.9911,N,08025.3600,W,1.9,264.1,200615,6.6,"
"##MN-00 00 12 0099 01634 5725 443224 204640 197"
"171.7161"
"$GPRMC,171108,A,2452.9909,N,08025.3624,W,1.9,264.1,200615,6.6,"
"##MN-00 00 12 0100 01632 5726 443234 204641 197"
"171.716146"
"$GPRMC,171112,A,2452.9908,N,08025.3647,W,2.0,264.2,200615,6.6,"
"##MN-00 00 12 0102 01633 5727 443240 204640 197"
"171.716192"
"$GPRMC,171116,A,2452.9906,N,08025.3674,W,2.0,264.7,200615,6.6,"
"##MN-00 00 12 0103 01634 5728 443238 204640 197"
"171.716238"
"$GPRMC,171120,A,2452.9904,N,08025.3699,W,2.1,264.8,200615,6.6,"
"##MN-00 00 12 0104 01633 5729 443240 204641 197"
"171.716285"
"$GPRMC,171124,A,2452.9901,N,08025.3725,W,2.1,264.8,200615,6.6,"
"##MN-00 00 12 0106 01632 5730 443246 204641 197"
"171.716331"
"$GPRMC,171128,A,2452.9899,N,08025.3750,W,2.0,264.9,200615,6.6,"
"##MN+00 00 12 0107 01635 5732 443247 204641 197"
"171.716377"
"$GPRMC,171132,A,2452.9897,N,08025.3775,W,2.0,265.4,200615,6.6,"
"##MN+00 00 12 0108 01633 5732 443248 204642 197"
"171.716424"
"$GPRMC,171136,A,2452.9897,N,08025.3801,W,2.0,265.7,200615,6.6,"
"##MN+00 00 12 0110 01633 5734 443245 204642 197"
"171.71647"
"$GPRMC,171140,A,2452.9894,N,08025.3827,W,2.0,265.8,200615,6.6,"
"##MN-00 00 12 0111 01632 5735 443238 204642 197"
"171.716516"
"$GPRMC,171144,A,2452.9892,N,08025.3852,W,1.9,266.0,200615,6.6,"
"##MN-00 00 12 0112 01633 5736 443232 204641 197"
"171.716563"
"$GPRMC,171148,A,2452.9890,N,08025.3876,W,1.9,265.9,200615,6.6,"
"##MN+00 00 12 0114 01631 5737 443228 204639 197"
"171.716609"
"$GPRMC,171152,A,2452.9888,N,08025.3896,W,1.9,265.7,200615,6.6,"
"##MN+00 00 12 0115 01631 5737 443225 204638 197"
"171.716655"
"$GPRMC,171156,A,2452.9886,N,08025.3918,W,1.9,265.1,200615,6.6,"
"##MN+00 00 12 0116 01634 5739 443237 204638 197"
"171.716701"
"#increment_net"
"$GPRMC,171200,A,2452.9885,N,08025.3941,W,1.9,264.9,200615,6.6,"
"##MN-00 00 12 0117 01632 5740 443253 204644 197"
"171.716748"
"$GPRMC,171204,A,2452.9883,N,08025.3963,W,1.9,264.5,200615,6.6,"
"##MN-00 00 12 0119 01633 5741 443267 204645 197"
"171.716806"
"$GPRMC,171208,A,2452.9881,N,08025.3985,W,1.9,264.4,200615,6.6,"
"##MN-00 00 12 0120 01632 5742 443273 204646 197"
"171.716852"
"$GPRMC,171212,A,2452.9876,N,08025.4010,W,1.9,264.3,200615,6.6,"
"##MN-00 00 12 0121 01630 5743 443275 204647 197"
"171.716898"
"$GPRMC,171216,A,2452.9873,N,08025.4032,W,1.9,264.4,200615,6.6,"
"##MN-00 00 12 0123 01633 5744 443276 204647 197"
"171.716944"
"$GPRMC,171220,A,2452.9868,N,08025.4053,W,1.9,263.7,200615,6.6,"
"##MN-00 00 12 0124 01632 5745 443276 204646 197"
"171.716991"
"$GPRMC,171224,A,2452.9865,N,08025.4077,W,1.9,263.4,200615,6.6,"
"##MN+00 00 12 0125 01634 5746 443280 204647 197"
"171.717037"
"$GPRMC,171228,A,2452.9863,N,08025.4104,W,1.9,263.0,200615,6.6,"
"##MN+00 00 12 0126 01633 5747 443280 204647 197"
"171.717083"
"$GPRMC,171232,A,2452.9857,N,08025.4124,W,1.9,263.2,200615,6.6,"
"##MN+00 00 12 0128 01635 5748 443283 204648 197"
"171.71713"
"$GPRMC,171236,A,2452.9858,N,08025.4151,W,1.9,263.4,200615,6.6,"
"##MN-00 00 12 0129 01636 5749 443286 204648 197"
"171.717176"
"$GPRMC,171240,A,2452.9857,N,08025.4174,W,1.9,263.8,200615,6.6,"
"##MN-00 00 12 0130 01637 5750 443294 204650 197"
"171.717222"
"$GPRMC,171244,A,2452.9854,N,08025.4198,W,1.9,264.1,200615,6.6,"
"##MN+00 00 12 0132 01635 5751 443309 204652 197"
"171.717269"
"$GPRMC,171248,A,2452.9854,N,08025.4221,W,1.9,263.8,200615,6.6,"
"##MN+00 00 12 0133 01635 5752 443318 204654 197"
"171.717315"
"$GPRMC,171252,A,2452.9852,N,08025.4243,W,1.9,264.0,200615,6.6,"
"##MN+00 00 12 0134 01640 5753 443330 204660 197"
"171.717361"
"#increment_net"
"$GPRMC,171256,A,2452.9850,N,08025.4267,W,1.9,264.3,200615,6.6,"
"##MN-00 00 12 0136 01642 5754 443358 204668 197"
"171.717407"
"$GPRMC,171300,A,2452.9849,N,08025.4290,W,1.9,264.5,200615,6.6,"
"##MN-00 00 12 0137 01650 5755 443400 204677 197"
"171.717454"
"$GPRMC,171304,A,2452.9846,N,08025.4315,W,2.0,264.5,200615,6.6,"
"##MN-00 00 12 0139 01660 5756 443591 204726 197"
"171.7175"
"$GPRMC,171308,A,2452.9843,N,08025.4340,W,2.1,264.1,200615,6.6,"
"##MN-00 00 12 0141 01663 5757 443940 204787 197"
"171.717546"
"$GPRMC,171312,A,2452.9841,N,08025.4366,W,2.1,263.2,200615,6.6,"
"##MN-00 00 12 0143 01665 5758 444391 204871 197"
"171.717593"
"$GPRMC,171316,A,2452.9836,N,08025.4393,W,2.1,262.2,200615,6.6,"
"##MN-00 00 11 0144 01667 5759 444635 204890 197"
"171.717639"
"$GPRMC,171320,A,2452.9832,N,08025.4422,W,2.2,261.6,200615,6.6,"
"##MN-00 00 11 0146 01664 5760 444702 204903 197"
"171.717685"
"$GPRMC,171324,A,2452.9827,N,08025.4444,W,2.2,261.4,200615,6.6,"
"##MN-00 00 11 0148 01664 5761 444724 204917 197"
"171.717731"
"$GPRMC,171328,A,2452.9822,N,08025.4474,W,2.2,261.2,200615,6.6,"
"##MN-00 00 11 0150 01663 5762 444730 204920 197"
"171.717778"
"$GPRMC,171332,A,2452.9819,N,08025.4505,W,2.2,260.7,200615,6.6,"
"##MN-00 00 11 0151 01662 5763 444714 204917 197"
"171.717824"
"$GPRMC,171336,A,2452.9815,N,08025.4542,W,2.2,260.6,200615,6.6,"
"##MN-00 00 11 0153 01659 5764 444680 204910 197"
"171.71787"
"$GPRMC,171340,A,2452.9813,N,08025.4571,W,2.2,260.4,200615,6.6,"
"##MN-00 00 11 0155 01657 5765 444650 204905 197"
"171.717917"
"$GPRMC,171344,A,2452.9809,N,08025.4592,W,2.3,261.0,200615,6.6,"
"##MN-00 00 11 0157 01654 5766 444608 204900 197"
"171.717963"
"$GPRMC,171348,A,2452.9805,N,08025.4629,W,2.3,261.9,200615,6.6,"
"##MN-00 00 11 0158 01651 5767 444551 204890 197"
"171.718009"
"$GPRMC,171352,A,2452.9803,N,08025.4657,W,2.2,262.3,200615,6.6,"
"##MN-00 00 11 0160 01650 5768 444524 204887 197"
"171.718056"
"$GPRMC,171356,A,2452.9799,N,08025.4683,W,2.2,262.5,200615,6.6,"
"##MN-00 00 11 0162 01648 5768 444501 204877 197"
"171.718102"
"$GPRMC,171400,A,2452.9796,N,08025.4709,W,2.2,262.7,200615,6.6,"
"##MN-00 00 11 0163 01644 5769 444301 204840 197"
"171.718148"
"$GPRMC,171404,A,2452.9792,N,08025.4736,W,2.2,262.6,200615,6.6,"
"##MN-00 00 11 0165 01641 5770 444086 204797 197"
"171.718194"
"$GPRMC,171408,A,2452.9789,N,08025.4762,W,2.2,262.8,200615,6.6,"
"##MN-00 00 11 0167 01642 5771 443909 204776 197"
"171.718241"
"$GPRMC,171412,A,2452.9786,N,08025.4787,W,2.2,263.1,200615,6.6,"
"##MN-00 00 11 0168 01638 5772 443809 204752 197"
"171.718287"
"$GPRMC,171416,A,2452.9788,N,08025.4808,W,2.2,263.4,200615,6.6,"
"##MN-00 00 11 0170 01635 5773 443698 204731 197"
"171.718333"
"$GPRMC,171421,A,2452.9785,N,08025.4837,W,2.1,264.7,200615,6.6,"
"##MN-00 00 11 0172 01635 5774 443592 204708 197"
"171.71838"
"$GPRMC,171425,A,2452.9782,N,08025.4861,W,2.1,265.3,200615,6.6,"
"##MN-00 00 10 0174 01635 5775 443513 204696 197"
"171.718426"
"$GPRMC,171428,A,2452.9781,N,08025.4879,W,2.1,265.0,200615,6.6,"
"##MN-00 00 10 0175 01633 5776 443433 204680 197"
"171.718472"
"$GPRMC,171433,A,2452.9778,N,08025.4908,W,2.0,265.2,200615,6.6,"
"##MN-00 00 11 0177 01634 5777 443362 204668 197"
"171.718518"
"$GPRMC,171437,A,2452.9778,N,08025.4933,W,2.0,265.5,200615,6.6,"
"##MN-00 00 10 0178 01630 5778 443314 204657 197"
"171.718565"
"$GPRMC,171441,A,2452.9777,N,08025.4957,W,2.0,266.0,200615,6.6,"
"##MN-00 00 10 0180 01630 5779 443278 204651 197"
"171.718611"
"$GPRMC,171445,A,2452.9775,N,08025.4979,W,2.0,266.0,200615,6.6,"
"##MN-00 00 11 0182 01628 5779 443264 204650 197"
"171.718657"
"$GPRMC,171449,A,2452.9774,N,08025.5004,W,2.0,265.6,200615,6.6,"
"##MN-00 00 11 0183 01625 5780 443266 204646 197"
"171.718704"
"$GPRMC,171453,A,2452.9771,N,08025.5029,W,1.9,265.8,200615,6.6,"
"##MN-00 00 11 0185 01622 5781 443255 204645 197"
"171.71875"
"$GPRMC,171457,A,2452.9767,N,08025.5054,W,1.9,265.7,200615,6.6,"
"##MN-00 00 10 0186 01621 5782 443245 204640 197"
"171.718796"
"$GPRMC,171501,A,2452.9766,N,08025.5079,W,1.9,265.5,200615,6.6,"
"##MN-00 00 11 0188 01618 5783 443230 204637 197"
"171.718843"
"$GPRMC,171505,A,2452.9763,N,08025.5102,W,1.9,265.3,200615,6.6,"
"##MN-00 00 11 0190 01615 5784 443215 204635 197"
"171.718889"
"$GPRMC,171509,A,2452.9762,N,08025.5124,W,1.9,265.2,200615,6.6,"
"##MN-00 00 10 0191 01614 5785 443208 204632 197"
"171.718935"
"$GPRMC,171513,A,2452.9758,N,08025.5152,W,1.9,265.2,200615,6.6,"
"##MN-00 00 10 0193 01610 5786 443197 204630 197"
"171.718982"
"$GPRMC,171517,A,2452.9756,N,08025.5180,W,1.9,265.0,200615,6.6,"
"##MN-00 00 11 0195 01607 5786 443178 204628 197"
"171.719028"
"$GPRMC,171521,A,2452.9755,N,08025.5206,W,1.9,264.8,200615,6.6,"
"##MN-00 00 11 0196 01605 5787 443155 204623 197"
"171.719074"
"$GPRMC,171525,A,2452.9753,N,08025.5229,W,1.9,264.3,200615,6.6,"
"##MN-00 00 11 0198 01602 5788 443146 204622 197"
"171.71912"
"$GPRMC,171529,A,2452.9749,N,08025.5253,W,1.9,264.2,200615,6.6,"
"##MN-00 00 11 0199 01599 5789 443141 204620 197"
"171.719167"
"$GPRMC,171533,A,2452.9745,N,08025.5275,W,1.9,264.2,200615,6.6,"
"##MN-00 00 11 0201 01598 5790 443126 204619 197"
"171.719213"
"$GPRMC,171537,A,2452.9742,N,08025.5300,W,1.9,263.9,200615,6.6,"
"##MN-00 00 11 0203 01591 5791 443115 204616 197"
"171.719259"
"$GPRMC,171541,A,2452.9742,N,08025.5321,W,1.9,263.9,200615,6.6,"
"##MN-00 00 11 0204 01592 5792 443101 204613 197"
"171.719306"
"$GPRMC,171545,A,2452.9738,N,08025.5341,W,1.9,263.1,200615,6.6,"
"##MN-00 00 11 0206 01585 5793 443096 204612 197"
"171.719352"
"$GPRMC,171549,A,2452.9738,N,08025.5366,W,1.9,262.6,200615,6.6,"
"##MN-00 00 11 0207 01582 5794 443075 204610 197"
"171.719398"
"$GPRMC,171553,A,2452.9735,N,08025.5391,W,1.9,262.6,200615,6.6,"
"##MN-00 00 11 0209 01580 5794 443043 204603 197"
"171.719444"
"$GPRMC,171557,A,2452.9732,N,08025.5415,W,1.9,262.5,200615,6.6,"
"##MN-00 00 11 0211 01575 5795 442978 204590 197"
"171.719491"
"$GPRMC,171601,A,2452.9729,N,08025.5437,W,1.9,262.2,200615,6.6,"
"##MN-00 00 11 0212 01572 5796 442926 204581 197"
"171.719537"
"$GPRMC,171605,A,2452.9727,N,08025.5460,W,1.9,262.0,200615,6.6,"
"##MN-00 00 11 0214 01569 5797 442905 204579 197"
"171.719583"
"$GPRMC,171609,A,2452.9724,N,08025.5485,W,1.9,262.0,200615,6.6,"
"##MN-00 00 11 0215 01566 5798 442873 204576 197"
"171.71963"
"$GPRMC,171613,A,2452.9722,N,08025.5506,W,1.9,262.7,200615,6.6,"
"##MN-00 00 11 0217 01562 5799 442705 204531 197"
"171.719676"
"$GPRMC,171617,A,2452.9720,N,08025.5528,W,1.9,263.8,200615,6.6,"
"##MN-00 00 11 0219 01555 5800 442328 204471 197"
"171.719722"
"$GPRMC,171621,A,2452.9718,N,08025.5554,W,1.9,264.6,200615,6.6,"
"##MN-00 00 11 0220 01554 5800 441962 204420 197"
"171.719769"
"$GPRMC,171625,A,2452.9717,N,08025.5574,W,1.9,265.0,200615,6.6,"
"##MN-00 00 11 0222 01551 5801 441900 204391 197"
"171.719815"
"$GPRMC,171629,A,2452.9719,N,08025.5596,W,1.9,266.0,200615,6.6,"
"##MN-00 00 11 0223 01543 5802 441693 204321 197"
"171.719861"
"$GPRMC,171633,A,2452.9717,N,08025.5623,W,1.9,267.4,200615,6.6,"
"##MN-00 00 11 0225 01541 5803 441361 204265 197"
"171.719907"
"$GPRMC,171637,A,2452.9717,N,08025.5645,W,1.9,268.2,200615,6.6,"
"##MN-00 00 11 0227 01540 5804 440697 204077 197"
"171.719954"
"$GPRMC,171641,A,2452.9717,N,08025.5669,W,1.9,269.1,200615,6.6,"
"##MN-00 00 12 0228 01537 5805 439780 203906 197"
"171.720012"
"$GPRMC,171645,A,2452.9720,N,08025.5693,W,2.0,269.6,200615,6.6,"
"##MN-00 00 12 0230 01538 5806 439067 203771 197"
"171.720058"
"$GPRMC,171649,A,2452.9720,N,08025.5716,W,2.0,269.9,200615,6.6,"
"##MN-00 00 12 0231 01538 5806 438641 203688 197"
