" Tow: 8WS   RVWS/WS15161"
" Date: 20/06/2015"
" Temperature Probe #  4762    Conductivity Probe #  710"
" Pressure Probe #  188"
" Flow Meter Calibration  4.71 (m/count)  "
"171.855301"
"$GPRMC,203134,A,2456.0139,N,08021.6778,W,3.8,82.4,200615,6.6,W"
"##MN-00 00 80 0000 02712 6095 790255 024184 201"
"171.855347"
"$GPRMC,203139,A,2456.0146,N,08021.6720,W,3.9,82.2,200615,6.6,W"
"##MN-00 00 80 0000 02712 6097 887720 024148 201"
"171.855393"
"$GPRMC,203142,A,2456.0153,N,08021.6687,W,3.9,81.2,200615,6.6,W"
"##MN-00 00 80 0000 02711 6099 896736 024153 201"
"171.85544"
"$GPRMC,203146,A,2456.0160,N,08021.6640,W,4.0,81.0,200615,6.6,W"
"##MN-00 00 80 0000 02710 6100 905432 024141 201"
"171.855486"
"$GPRMC,203150,A,2456.0168,N,08021.6591,W,4.0,80.6,200615,6.6,W"
"##MN-00 00 80 0000 02712 6101 915040 024134 201"
"171.855532"
"$GPRMC,203154,A,2456.0179,N,08021.6541,W,4.1,79.6,200615,6.6,W"
"##MN-00 00 80 0000 02712 6103 914792 024144 201"
"171.855579"
"$GPRMC,203159,A,2456.0190,N,08021.6478,W,4.1,79.2,200615,6.6,W"
"##MN-00 00 80 0000 02711 6104 924744 024130 201"
"171.855625"
"$GPRMC,203203,A,2456.0199,N,08021.6429,W,4.0,78.8,200615,6.6,W"
"##MN-00 00 79 0000 02714 6105 936576 024147 201"
"171.855671"
"$GPRMC,203207,A,2456.0206,N,08021.6380,W,4.1,78.2,200615,6.6,W"
"##MN-00 00 79 0000 02713 6106 942624 024144 201"
"171.855718"
"$GPRMC,203211,A,2456.0218,N,08021.6327,W,4.2,77.4,200615,6.6,W"
"##MN-00 00 77 0000 02713 6107 951312 024134 201"
"171.855764"
"$GPRMC,203215,A,2456.0225,N,08021.6276,W,4.2,77.2,200615,6.6,W"
"##MN-00 00 67 0000 02714 6108 959096 024143 201"
"171.85581"
"$GPRMC,203219,A,2456.0235,N,08021.6227,W,4.3,76.5,200615,6.6,W"
"##MN-00 00 58 0000 02712 6109 969600 024116 201"
"171.855856"
"$GPRMC,203223,A,2456.0247,N,08021.6178,W,4.2,75.3,200615,6.6,W"
"##MN-00 00 47 0000 02711 6110 970696 024168 201"
"171.855903"
"$GPRMC,203227,A,2456.0262,N,08021.6127,W,4.3,74.9,200615,6.6,W"
"##MN-00 00 30 0000 02713 6111 972160 024161 201"
"171.855949"
"$GPRMC,203231,A,2456.0276,N,08021.6079,W,4.2,74.1,200615,6.6,W"
"##MN-00 00 28 0000 02713 6112 999168 024154 201"
"171.855995"
"$GPRMC,203235,A,2456.0291,N,08021.6030,W,4.2,73.5,200615,6.6,W"
"##MN-00 00 28 0000 02713 6113 995400 024167 201"
"171.856042"
"$GPRMC,203239,A,2456.0305,N,08021.5981,W,4.2,73.3,200615,6.6,W"
"##MN-00 00 28 0000 02714 6113 003152 024152 201"
"171.856088"
"$GPRMC,203243,A,2456.0315,N,08021.5935,W,4.2,74.0,200615,6.6,W"
"##MN-00 00 04 0000 02710 6114 009168 024151 201"
"171.856134"
"$GPRMC,203247,A,2456.0327,N,08021.5886,W,4.1,74.1,200615,6.6,W"
"##MN-00 00 00 0000 02711 6115 021440 024133 201"
"171.856181"
"$GPRMC,203251,A,2456.0340,N,08021.5841,W,4.1,74.6,200615,6.6,W"
"##MN-00 00 00 0000 02713 6116 025224 024131 201"
"171.856227"
"$GPRMC,203255,A,2456.0349,N,08021.5790,W,4.0,75.1,200615,6.6,W"
"##MN-00 00 00 0000 02714 6116 025776 024164 201"
"171.856273"
"$GPRMC,203259,A,2456.0359,N,08021.5738,W,4.0,75.8,200615,6.6,W"
"##MN-00 00 21 0000 02711 6117 026960 024150 201"
"171.856319"
"$GPRMC,203303,A,2456.0370,N,08021.5689,W,4.0,76.6,200615,6.6,W"
"##MN-00 00 36 0000 02712 6118 041352 024145 201"
"171.856366"
"$GPRMC,203307,A,2456.0381,N,08021.5638,W,4.0,77.4,200615,6.6,W"
"##MN-00 00 36 0001 02714 6118 045200 024148 201"
"171.856412"
"$GPRMC,203311,A,2456.0389,N,08021.5602,W,4.0,77.8,200615,6.6,W"
"##MN-00 00 47 0001 02715 6118 476992 024153 201"
"171.856458"
"$GPRMC,203315,A,2456.0399,N,08021.5553,W,4.0,78.3,200615,6.6,W"
"##MN-00 00 48 0002 02713 6119 114864 024136 201"
"171.856505"
"$GPRMC,203319,A,2456.0410,N,08021.5494,W,3.9,78.7,200615,6.6,W"
"##MN-00 00 49 0003 02713 6120 017376 024137 201"
"171.856551"
"$GPRMC,203323,A,2456.0417,N,08021.5448,W,3.9,79.0,200615,6.6,W"
"##MN-00 00 47 0003 02713 6120 024352 024129 201"
"171.856597"
"$GPRMC,203327,A,2456.0428,N,08021.5404,W,3.8,78.2,200615,6.6,W"
"##MN-00 00 46 0004 02712 6120 032120 024116 201"
"171.856644"
"$GPRMC,203331,A,2456.0436,N,08021.5360,W,3.8,77.9,200615,6.6,W"
"##MN-00 00 46 0005 02713 6121 420728 024125 201"
"171.85669"
"$GPRMC,203335,A,2456.0449,N,08021.5317,W,3.7,77.8,200615,6.6,W"
"##MN-00 00 46 0005 02710 6121 031680 024133 201"
"171.856736"
"$GPRMC,203339,A,2456.0457,N,08021.5274,W,3.7,77.6,200615,6.6,W"
"##MN-00 00 46 0006 02713 6122 042184 024128 201"
"171.856782"
"$GPRMC,203343,A,2456.0466,N,08021.5231,W,3.7,77.5,200615,6.6,W"
"##MN-00 00 47 0007 02710 6122 050944 024127 201"
"171.856829"
"$GPRMC,203347,A,2456.0471,N,08021.5187,W,3.7,77.5,200615,6.6,W"
"##MN-00 00 47 0008 02711 6123 055704 024123 201"
"171.856875"
"$GPRMC,203351,A,2456.0478,N,08021.5143,W,3.8,76.8,200615,6.6,W"
"##MN-00 00 47 0009 02715 6123 592064 024128 201"
"171.856921"
"$GPRMC,203355,A,2456.0489,N,08021.5103,W,3.8,76.0,200615,6.6,W"
"##MN-00 00 46 0009 02711 6124 064328 024115 201"
"171.856968"
"$GPRMC,203359,A,2456.0497,N,08021.5056,W,3.8,75.7,200615,6.6,W"
"##MN-00 00 47 0010 02711 6124 071704 024115 201"
"171.857014"
"$GPRMC,203403,A,2456.0510,N,08021.5009,W,3.8,75.3,200615,6.6,W"
"##MN-00 00 47 0011 02713 6124 076976 024114 201"
"171.85706"
"$GPRMC,203407,A,2456.0522,N,08021.4963,W,3.8,74.5,200615,6.6,W"
"##MN-00 00 47 0012 02713 6125 085360 024098 201"
"171.857106"
"$GPRMC,203411,A,2456.0535,N,08021.4914,W,3.8,73.8,200615,6.6,W"
"##MN-00 00 47 0013 02713 6125 087520 024091 201"
"171.857153"
"$GPRMC,203415,A,2456.0547,N,08021.4867,W,3.8,73.3,200615,6.6,W"
"##MN-00 00 47 0014 02710 6125 087440 024115 201"
"171.857199"
"$GPRMC,203419,A,2456.0558,N,08021.4823,W,3.8,72.9,200615,6.6,W"
"##MN-00 00 47 0015 02713 6126 087360 024115 201"
"171.857245"
"$GPRMC,203423,A,2456.0572,N,08021.4779,W,3.8,73.0,200615,6.6,W"
"##MN-00 00 47 0016 02711 6126 087312 024121 201"
"171.857292"
"$GPRMC,203427,A,2456.0583,N,08021.4737,W,3.7,73.0,200615,6.6,W"
"##MN-00 00 46 0017 02712 6126 090840 024113 201"
"171.857338"
"$GPRMC,203431,A,2456.0594,N,08021.4696,W,3.7,73.2,200615,6.6,W"
"##MN-00 00 47 0017 02713 6127 101504 024101 201"
"171.857384"
"$GPRMC,203435,A,2456.0608,N,08021.4653,W,3.7,73.0,200615,6.6,W"
"##MN-00 00 47 0018 02712 6127 105440 024097 201"
"171.857431"
"$GPRMC,203439,A,2456.0619,N,08021.4609,W,3.7,72.6,200615,6.6,W"
"##MN-00 00 47 0019 02713 6127 106736 024098 201"
"171.857477"
"$GPRMC,203443,A,2456.0631,N,08021.4567,W,3.7,73.0,200615,6.6,W"
"##MN-00 00 47 0020 02713 6127 113400 024109 201"
"171.857523"
"$GPRMC,203447,A,2456.0643,N,08021.4526,W,3.7,73.9,200615,6.6,W"
"##MN-00 00 47 0021 02713 6128 114704 024090 201"
"171.857569"
"$GPRMC,203451,A,2456.0652,N,08021.4478,W,3.6,74.6,200615,6.6,W"
"##MN-00 00 47 0022 02712 6128 116512 024101 201"
"171.857627"
"$GPRMC,203455,A,2456.0665,N,08021.4433,W,3.7,75.1,200615,6.6,W"
"##MN-00 00 47 0023 02714 6128 120968 024091 201"
"171.857674"
"$GPRMC,203459,A,2456.0676,N,08021.4387,W,3.6,75.7,200615,6.6,W"
"##MN-00 00 47 0024 02714 6128 125408 024088 201"
"171.85772"
"$GPRMC,203503,A,2456.0684,N,08021.4338,W,3.7,76.4,200615,6.6,W"
"##MN-00 00 46 0024 02713 6129 515144 024090 201"
"171.857766"
"$GPRMC,203507,A,2456.0694,N,08021.4294,W,3.7,77.2,200615,6.6,W"
"##MN-00 00 47 0025 02714 6129 127984 024089 201"
"171.857812"
"$GPRMC,203511,A,2456.0703,N,08021.4247,W,3.7,77.9,200615,6.6,W"
"##MN-00 00 47 0026 02714 6129 131584 024086 201"
"171.857859"
"$GPRMC,203515,A,2456.0712,N,08021.4204,W,3.7,78.4,200615,6.6,W"
"##MN-00 00 46 0027 02715 6129 134272 024082 201"
"171.857905"
"$GPRMC,203519,A,2456.0721,N,08021.4164,W,3.6,79.1,200615,6.6,W"
"##MN-00 00 47 0028 02714 6130 137840 024080 201"
"171.857951"
"$GPRMC,203523,A,2456.0730,N,08021.4120,W,3.7,79.4,200615,6.6,W"
"##MN-00 00 47 0029 02714 6130 142224 024080 201"
"171.857998"
"$GPRMC,203527,A,2456.0737,N,08021.4074,W,3.7,79.5,200615,6.6,W"
"##MN-00 00 47 0030 02717 6130 144032 024070 201"
"171.858044"
"$GPRMC,203531,A,2456.0742,N,08021.4029,W,3.7,79.8,200615,6.6,W"
"##MN-00 00 47 0031 02716 6130 144016 024062 201"
"171.85809"
"$GPRMC,203535,A,2456.0746,N,08021.3988,W,3.7,79.6,200615,6.6,W"
"##MN-00 00 46 0032 02718 6130 144000 024054 201"
"171.858137"
"$GPRMC,203539,A,2456.0750,N,08021.3946,W,3.7,79.5,200615,6.6,W"
"##MN-00 00 47 0033 02719 6131 144016 024071 201"
"171.858183"
"$GPRMC,203543,A,2456.0757,N,08021.3904,W,3.7,79.2,200615,6.6,W"
"##MN-00 00 47 0033 02717 6131 144016 024061 201"
"171.858229"
"$GPRMC,203547,A,2456.0768,N,08021.3860,W,3.7,78.7,200615,6.6,W"
"##MN-00 00 47 0034 02719 6131 143984 024069 201"
"171.858275"
"$GPRMC,203551,A,2456.0778,N,08021.3815,W,3.7,78.4,200615,6.6,W"
"##MN-00 00 47 0035 02721 6131 144896 024079 201"
"171.858322"
"$GPRMC,203555,A,2456.0788,N,08021.3772,W,3.7,77.3,200615,6.6,W"
"##MN-00 00 47 0036 02722 6131 146656 024083 201"
"171.858368"
"$GPRMC,203559,A,2456.0799,N,08021.3727,W,3.8,76.6,200615,6.6,W"
"##MN-00 00 50 0037 02722 6131 141296 024096 201"
"171.858414"
"$GPRMC,203603,A,2456.0807,N,08021.3678,W,3.7,76.2,200615,6.6,W"
"##MN-00 00 50 0038 02721 6131 143968 024105 201"
"171.858461"
"$GPRMC,203607,A,2456.0820,N,08021.3637,W,3.8,75.2,200615,6.6,W"
"##MN-00 00 50 0039 02723 6131 143952 024091 201"
"171.858507"
"$GPRMC,203611,A,2456.0831,N,08021.3592,W,3.8,75.1,200615,6.6,W"
"##MN-00 00 50 0040 02723 6132 143936 024095 201"
"171.858553"
"$GPRMC,203616,A,2456.0844,N,08021.3538,W,3.8,75.1,200615,6.6,W"
"##MN-00 00 50 0041 02726 6132 145736 024096 201"
"171.8586"
"$GPRMC,203619,A,2456.0854,N,08021.3503,W,3.7,75.1,200615,6.6,W"
"##MN-00 00 51 0042 02728 6132 146624 024091 201"
"171.858646"
"$GPRMC,203623,A,2456.0862,N,08021.3459,W,3.7,74.7,200615,6.6,W"
"##MN-00 00 50 0043 02728 6132 150592 024077 201"
"171.858692"
"$GPRMC,203628,A,2456.0876,N,08021.3406,W,3.7,75.0,200615,6.6,W"
"##MN-00 00 50 0043 02732 6132 154608 024086 201"
"171.858738"
"$GPRMC,203632,A,2456.0887,N,08021.3362,W,3.6,75.1,200615,6.6,W"
"##MN-00 00 49 0044 02733 6132 157232 024075 201"
"171.858785"
"$GPRMC,203636,A,2456.0897,N,08021.3314,W,3.6,75.5,200615,6.6,W"
"##MN-00 00 49 0045 02735 6132 156792 024080 201"
"171.858831"
"$GPRMC,203640,A,2456.0907,N,08021.3269,W,3.6,76.1,200615,6.6,W"
"##MN-00 00 49 0046 02736 6132 155504 024076 201"
"171.858877"
"$GPRMC,203644,A,2456.0919,N,08021.3226,W,3.6,76.5,200615,6.6,W"
"##MN-00 00 49 0047 02737 6132 156808 024082 201"
"171.858924"
"$GPRMC,203648,A,2456.0929,N,08021.3181,W,3.6,77.1,200615,6.6,W"
"##MN-00 00 49 0048 02738 6133 159024 024069 201"
"171.85897"
"$GPRMC,203652,A,2456.0940,N,08021.3138,W,3.6,77.6,200615,6.6,W"
"##MN-00 00 49 0049 02741 6133 161280 024080 201"
"171.859016"
"$GPRMC,203656,A,2456.0945,N,08021.3099,W,3.6,78.1,200615,6.6,W"
"##MN-00 00 49 0050 02740 6133 162592 024073 201"
"171.859063"
"$GPRMC,203700,A,2456.0955,N,08021.3055,W,3.6,78.4,200615,6.6,W"
"##MN-00 00 49 0051 02744 6132 163024 024073 201"
"171.859109"
"$GPRMC,203704,A,2456.0963,N,08021.3010,W,3.6,78.8,200615,6.6,W"
"##MN-00 00 49 0052 02746 6133 163000 024062 201"
"171.859155"
"$GPRMC,203708,A,2456.0972,N,08021.2966,W,3.6,78.7,200615,6.6,W"
"##MN-00 00 49 0053 02747 6133 163424 024076 201"
"171.859201"
"$GPRMC,203712,A,2456.0977,N,08021.2921,W,3.6,78.7,200615,6.6,W"
"##MN-00 00 49 0054 02748 6133 164784 024065 201"
"171.859248"
"$GPRMC,203716,A,2456.0983,N,08021.2873,W,3.7,78.9,200615,6.6,W"
"##MN-00 00 49 0055 02750 6133 165248 024075 201"
"171.859294"
"$GPRMC,203720,A,2456.0990,N,08021.2830,W,3.6,78.8,200615,6.6,W"
"##MN-00 00 49 0056 02752 6133 165312 024065 201"
"171.85934"
"$GPRMC,203724,A,2456.0999,N,08021.2788,W,3.6,78.5,200615,6.6,W"
"##MN-00 00 49 0057 02754 6133 167056 024065 201"
"171.859387"
"$GPRMC,203728,A,2456.1009,N,08021.2746,W,3.7,78.1,200615,6.6,W"
"##MN-00 00 50 0058 02755 6133 167080 024075 201"
"171.859433"
"$GPRMC,203732,A,2456.1017,N,08021.2706,W,3.6,77.4,200615,6.6,W"
"##MN-00 00 49 0059 02756 6133 168832 024079 201"
"171.859479"
"$GPRMC,203736,A,2456.1028,N,08021.2662,W,3.7,76.9,200615,6.6,W"
"##MN-00 00 49 0060 02757 6133 169312 024074 201"
"171.859525"
"$GPRMC,203740,A,2456.1039,N,08021.2619,W,3.7,76.7,200615,6.6,W"
"##MN-00 00 49 0061 02757 6133 169288 024071 201"
"171.859572"
"$GPRMC,203744,A,2456.1049,N,08021.2575,W,3.7,76.1,200615,6.6,W"
"##MN-00 00 49 0062 02761 6133 171472 024066 201"
"171.859618"
"$GPRMC,203748,A,2456.1059,N,08021.2529,W,3.7,75.1,200615,6.6,W"
"##MN-00 00 49 0063 02763 6133 169696 024057 201"
"171.859664"
"$GPRMC,203752,A,2456.1070,N,08021.2489,W,3.7,74.9,200615,6.6,W"
"##MN-00 00 49 0064 02763 6133 171456 024068 201"
"171.859711"
"$GPRMC,203756,A,2456.1081,N,08021.2446,W,3.6,74.5,200615,6.6,W"
"##MN-00 00 49 0065 02764 6133 170584 024075 201"
"171.859757"
"$GPRMC,203800,A,2456.1092,N,08021.2404,W,3.6,74.5,200615,6.6,W"
"##MN-00 00 49 0066 02768 6133 172320 024066 201"
"171.859803"
"$GPRMC,203804,A,2456.1104,N,08021.2364,W,3.6,74.8,200615,6.6,W"
"##MN-00 00 49 0067 02769 6133 436832 024058 201"
"171.85985"
"$GPRMC,203808,A,2456.1114,N,08021.2321,W,3.6,74.7,200615,6.6,W"
"##MN-00 00 49 0068 02770 6133 172328 024061 201"
"171.859896"
"$GPRMC,203812,A,2456.1122,N,08021.2279,W,3.6,74.7,200615,6.6,W"
"##MN-00 00 49 0069 02768 6133 172304 024074 201"
"171.859942"
"$GPRMC,203816,A,2456.1135,N,08021.2236,W,3.6,74.8,200615,6.6,W"
"##MN-00 00 49 0070 02773 6133 172344 024062 201"
"171.859988"
"$GPRMC,203820,A,2456.1144,N,08021.2192,W,3.6,74.5,200615,6.6,W"
"##MN-00 00 49 0071 02776 6133 172352 024067 201"
"171.860035"
"$GPRMC,203824,A,2456.1154,N,08021.2146,W,3.6,75.0,200615,6.6,W"
"##MN-00 00 49 0072 02775 6133 171896 024063 201"
"171.860081"
"$GPRMC,203828,A,2456.1165,N,08021.2098,W,3.6,75.4,200615,6.6,W"
"##MN-00 00 49 0073 02777 6132 173216 024067 201"
"171.860127"
"$GPRMC,203832,A,2456.1175,N,08021.2055,W,3.6,76.2,200615,6.6,W"
"##MN-00 00 48 0073 02780 6133 172384 024067 201"
"171.860174"
"$GPRMC,203836,A,2456.1183,N,08021.2011,W,3.6,76.8,200615,6.6,W"
"##MN-00 00 49 0074 02782 6132 172368 024059 201"
"171.86022"
"$GPRMC,203840,A,2456.1190,N,08021.1963,W,3.6,77.4,200615,6.6,W"
"##MN-00 00 48 0075 02782 6132 172392 024067 201"
"171.860266"
"$GPRMC,203844,A,2456.1200,N,08021.1924,W,3.6,78.0,200615,6.6,W"
"##MN-00 00 49 0076 02784 6132 171912 024061 201"
"171.860312"
"$GPRMC,203848,A,2456.1208,N,08021.1885,W,3.6,78.1,200615,6.6,W"
"##MN-00 00 48 0077 02785 6132 172416 024066 201"
"171.860359"
"$GPRMC,203852,A,2456.1216,N,08021.1839,W,3.6,78.4,200615,6.6,W"
"##MN-00 00 49 0078 02784 6132 172816 024068 201"
"171.860405"
"$GPRMC,203856,A,2456.1223,N,08021.1796,W,3.6,77.9,200615,6.6,W"
"##MN-00 00 49 0079 02786 6132 172384 024061 201"
"171.860451"
"$GPRMC,203900,A,2456.1230,N,08021.1749,W,3.6,77.3,200615,6.6,W"
"##MN-00 00 49 0080 02788 6132 171976 024058 201"
"171.860498"
"$GPRMC,203904,A,2456.1240,N,08021.1701,W,3.6,77.5,200615,6.6,W"
"##MN-00 00 49 0081 02788 6132 172400 024066 201"
"171.860544"
"$GPRMC,203908,A,2456.1250,N,08021.1655,W,3.6,77.5,200615,6.6,W"
"##MN-00 00 49 0082 02790 6132 171960 024070 201"
"171.86059"
"$GPRMC,203912,A,2456.1259,N,08021.1610,W,3.7,76.9,200615,6.6,W"
"##MN-00 00 49 0083 02790 6132 565760 024065 201"
"171.860637"
"$GPRMC,203916,A,2456.1269,N,08021.1565,W,3.7,76.4,200615,6.6,W"
"##MN-00 00 49 0084 02794 6132 688080 024061 201"
"171.860683"
"$GPRMC,203920,A,2456.1280,N,08021.1524,W,3.7,76.5,200615,6.6,W"
"##MN-00 00 49 0085 02795 6132 168032 024069 201"
"171.860729"
"$GPRMC,203924,A,2456.1292,N,08021.1485,W,3.7,76.6,200615,6.6,W"
"##MN-00 00 49 0086 02794 6131 168912 024054 201"
"171.860787"
"$GPRMC,203928,A,2456.1303,N,08021.1444,W,3.7,76.2,200615,6.6,W"
"##MN-00 00 49 0087 02797 6131 168464 024061 201"
"171.860833"
"$GPRMC,203932,A,2456.1313,N,08021.1403,W,3.7,75.9,200615,6.6,W"
"##MN-00 00 49 0088 02799 6132 167136 024063 201"
"171.86088"
"$GPRMC,203936,A,2456.1324,N,08021.1361,W,3.7,75.6,200615,6.6,W"
"##MN-00 00 49 0089 02800 6131 167584 024070 201"
"171.860926"
"$GPRMC,203940,A,2456.1335,N,08021.1318,W,3.8,75.2,200615,6.6,W"
"##MN-00 00 49 0090 02801 6131 166680 024070 201"
"171.860972"
"$GPRMC,203944,A,2456.1348,N,08021.1275,W,3.7,74.9,200615,6.6,W"
"##MN-00 00 49 0091 02801 6131 168048 024067 201"
"171.861018"
"$GPRMC,203948,A,2456.1360,N,08021.1231,W,3.7,74.9,200615,6.6,W"
"##MN-00 00 49 0092 02802 6131 167592 024065 201"
"171.861065"
"$GPRMC,203952,A,2456.1371,N,08021.1188,W,3.7,74.6,200615,6.6,W"
"##MN-00 00 49 0093 02805 6131 167168 024063 201"
"171.861111"
"$GPRMC,203956,A,2456.1382,N,08021.1144,W,3.6,74.4,200615,6.6,W"
"##MN-00 00 49 0094 02802 6131 166264 024051 201"
"171.861157"
"$GPRMC,204000,A,2456.1391,N,08021.1092,W,3.6,74.2,200615,6.6,W"
"##MN-00 00 49 0095 02810 6131 946672 024058 201"
"171.861204"
"$GPRMC,204004,A,2456.1400,N,08021.1039,W,3.6,75.0,200615,6.6,W"
"##MN-00 00 49 0096 02808 6130 166296 024070 201"
"171.86125"
"$GPRMC,204008,A,2456.1410,N,08021.0992,W,3.6,75.4,200615,6.6,W"
"##MN-00 00 49 0097 02811 6130 165440 024063 201"
"171.861296"
"$GPRMC,204012,A,2456.1418,N,08021.0947,W,3.6,75.6,200615,6.6,W"
"##MN-00 00 49 0098 02810 6130 165432 024057 201"
"171.861343"
"$GPRMC,204016,A,2456.1429,N,08021.0903,W,3.7,76.1,200615,6.6,W"
"##MN-00 00 49 0099 02811 6130 164528 024069 201"
"171.861389"
"$GPRMC,204020,A,2456.1440,N,08021.0861,W,3.7,76.0,200615,6.6,W"
"##MN+00 00 49 0100 02813 6130 164576 024069 201"
"171.861435"
"$GPRMC,204024,A,2456.1451,N,08021.0823,W,3.7,76.9,200615,6.6,W"
"##MN+00 00 49 0101 02813 6130 173032 024058 201"
"171.861482"
"$GPRMC,204028,A,2456.1460,N,08021.0782,W,3.7,77.5,200615,6.6,W"
"##MN+00 00 54 0102 02816 6130 148528 024061 201"
"171.861528"
"$GPRMC,204032,A,2456.1469,N,08021.0736,W,3.7,77.9,200615,6.6,W"
"##MN-00 00 54 0103 02815 6130 164112 024064 201"
"171.861574"
"#increment_net"
"$GPRMC,204036,A,2456.1476,N,08021.0690,W,3.7,78.4,200615,6.6,W"
"##MN-00 00 53 0104 02815 6129 163648 024070 201"
"171.86162"
"$GPRMC,204040,A,2456.1486,N,08021.0645,W,3.7,78.4,200615,6.6,W"
"##MN-00 00 52 0105 02817 6129 168112 024069 201"
"171.861667"
"$GPRMC,204044,A,2456.1493,N,08021.0605,W,3.7,78.5,200615,6.6,W"
"##MN-00 00 52 0106 02818 6129 158336 024064 201"
"171.861713"
"$GPRMC,204048,A,2456.1501,N,08021.0558,W,3.7,78.3,200615,6.6,W"
"##MN-00 00 52 0107 02818 6129 162800 024056 201"
"171.861759"
"$GPRMC,204052,A,2456.1510,N,08021.0512,W,3.7,78.0,200615,6.6,W"
"##MN-00 00 51 0108 02818 6129 161464 024064 201"
"171.861806"
"$GPRMC,204056,A,2456.1519,N,08021.0465,W,3.7,77.8,200615,6.6,W"
"##MN-00 00 51 0109 02818 6129 160144 024074 201"
"171.861852"
"$GPRMC,204100,A,2456.1529,N,08021.0420,W,3.7,77.6,200615,6.6,W"
"##MN-00 00 51 0110 02822 6129 159632 024061 201"
"171.861898"
"$GPRMC,204104,A,2456.1539,N,08021.0375,W,3.7,77.1,200615,6.6,W"
"##MN-00 00 51 0111 02819 6128 159200 024069 201"
"171.861944"
"$GPRMC,204109,A,2456.1552,N,08021.0320,W,3.7,76.7,200615,6.6,W"
"##MN-00 00 51 0112 02821 6128 158792 024068 201"
"171.861991"
"$GPRMC,204113,A,2456.1561,N,08021.0289,W,3.7,76.4,200615,6.6,W"
"##MN-00 00 51 0113 02821 6128 159248 024068 201"
"171.862037"
"$GPRMC,204117,A,2456.1576,N,08021.0236,W,3.8,76.1,200615,6.6,W"
"##MN-00 00 51 0114 02822 6128 157944 024063 201"
"171.862083"
"$GPRMC,204121,A,2456.1584,N,08021.0188,W,3.7,76.3,200615,6.6,W"
"##MN-00 00 51 0115 02823 6128 421032 024062 201"
"171.86213"
"$GPRMC,204125,A,2456.1595,N,08021.0139,W,3.7,76.2,200615,6.6,W"
"##MN-00 00 51 0116 02823 6127 155648 024068 201"
"171.862176"
"$GPRMC,204129,A,2456.1604,N,08021.0092,W,3.7,76.3,200615,6.6,W"
"##MN-00 00 51 0117 02824 6127 154784 024065 201"
"171.862222"
"$GPRMC,204133,A,2456.1613,N,08021.0045,W,3.8,76.5,200615,6.6,W"
"##MN-00 00 51 0118 02825 6127 055728 024066 201"
"171.862269"
"$GPRMC,204137,A,2456.1624,N,08021.0001,W,3.7,76.6,200615,6.6,W"
"##MN-00 00 51 0119 02824 6127 200768 024069 201"
"171.862315"
"$GPRMC,204141,A,2456.1635,N,08020.9958,W,3.7,76.5,200615,6.6,W"
"##MN-00 00 50 0120 02828 6127 149440 024074 201"
"171.862361"
"$GPRMC,204145,A,2456.1645,N,08020.9917,W,3.7,76.7,200615,6.6,W"
"##MN-00 00 50 0121 02827 6127 149912 024064 201"
"171.862407"
"$GPRMC,204149,A,2456.1653,N,08020.9875,W,3.7,77.2,200615,6.6,W"
"##MN-00 00 50 0122 02829 6126 149008 024075 201"
"171.862454"
"$GPRMC,204153,A,2456.1663,N,08020.9831,W,3.7,77.3,200615,6.6,W"
"##MN-00 00 50 0123 02828 6126 150384 024070 201"
"171.8625"
"$GPRMC,204157,A,2456.1671,N,08020.9787,W,3.7,77.5,200615,6.6,W"
"##MN-00 00 51 0124 02829 6126 147240 024075 201"
"171.862546"
"$GPRMC,204201,A,2456.1681,N,08020.9742,W,3.7,77.6,200615,6.6,W"
"##MN-00 00 50 0125 02828 6126 148592 024077 201"
"171.862593"
"$GPRMC,204205,A,2456.1688,N,08020.9698,W,3.6,77.8,200615,6.6,W"
"##MN-00 00 50 0126 02830 6126 147232 024079 201"
"171.862639"
"$GPRMC,204209,A,2456.1698,N,08020.9655,W,3.7,78.1,200615,6.6,W"
"##MN-00 00 50 0127 02829 6126 145920 024080 201"
"171.862685"
"$GPRMC,204213,A,2456.1706,N,08020.9611,W,3.7,77.8,200615,6.6,W"
"##MN-00 00 50 0128 02830 6126 144144 024076 201"
"171.862731"
"$GPRMC,204217,A,2456.1716,N,08020.9572,W,3.6,77.2,200615,6.6,W"
"##MN-00 00 50 0129 02833 6126 146832 024072 201"
"171.862778"
"$GPRMC,204221,A,2456.1725,N,08020.9529,W,3.7,77.4,200615,6.6,W"
"##MN-00 00 50 0130 02832 6125 143296 024087 201"
"171.862824"
"$GPRMC,204225,A,2456.1734,N,08020.9480,W,3.7,77.2,200615,6.6,W"
"##MN-00 00 50 0131 02834 6125 144176 024080 201"
"171.86287"
"$GPRMC,204229,A,2456.1743,N,08020.9434,W,3.7,76.7,200615,6.6,W"
"##MN+00 00 50 0132 02832 6125 144176 024078 201"
"171.862917"
"$GPRMC,204233,A,2456.1754,N,08020.9392,W,3.7,75.6,200615,6.6,W"
"##MN+00 00 50 0133 02832 6125 144232 024081 201"
"171.862963"
"$GPRMC,204237,A,2456.1765,N,08020.9355,W,3.7,74.5,200615,6.6,W"
"##MN+00 00 54 0134 02833 6124 144224 024080 201"
"171.863009"
"#increment_net"
"$GPRMC,204241,A,2456.1778,N,08020.9317,W,3.7,73.8,200615,6.6,W"
"##MN-00 00 50 0135 02834 6124 144208 024088 201"
"171.863056"
"$GPRMC,204245,A,2456.1790,N,08020.9277,W,3.6,73.2,200615,6.6,W"
"##MN-00 00 50 0136 02834 6124 144176 024100 201"
"171.863102"
"$GPRMC,204249,A,2456.1803,N,08020.9235,W,3.7,72.7,200615,6.6,W"
"##MN-00 00 50 0137 02835 6124 144232 024095 201"
"171.863148"
"$GPRMC,204253,A,2456.1815,N,08020.9192,W,3.6,72.6,200615,6.6,W"
"##MN-00 00 50 0138 02835 6124 144256 024086 201"
"171.863194"
"$GPRMC,204257,A,2456.1828,N,08020.9150,W,3.6,72.5,200615,6.6,W"
"##MN-00 00 49 0139 02834 6123 144256 024099 201"
"171.863241"
"$GPRMC,204301,A,2456.1839,N,08020.9102,W,3.6,72.9,200615,6.6,W"
"##MN-00 00 49 0139 02837 6123 144320 024103 201"
"171.863287"
"$GPRMC,204305,A,2456.1850,N,08020.9063,W,3.6,73.0,200615,6.6,W"
"##MN-00 00 50 0140 02837 6123 144304 024087 201"
"171.863333"
"$GPRMC,204309,A,2456.1861,N,08020.9022,W,3.6,73.5,200615,6.6,W"
"##MN-00 00 49 0141 02834 6123 144368 024101 201"
"171.86338"
"$GPRMC,204313,A,2456.1870,N,08020.8981,W,3.6,74.5,200615,6.6,W"
"##MN-00 00 49 0142 02837 6123 050672 024091 201"
"171.863426"
"$GPRMC,204317,A,2456.1877,N,08020.8930,W,3.6,74.9,200615,6.6,W"
"##MN-00 00 49 0143 02835 6123 191208 024100 201"
"171.863472"
"$GPRMC,204321,A,2456.1886,N,08020.8884,W,3.6,75.7,200615,6.6,W"
"##MN-00 00 49 0144 02837 6123 144360 024097 201"
"171.863519"
"$GPRMC,204325,A,2456.1895,N,08020.8841,W,3.6,76.4,200615,6.6,W"
"##MN-00 00 49 0145 02837 6122 143488 024066 201"
"171.863565"
"$GPRMC,204329,A,2456.1906,N,08020.8803,W,3.6,76.7,200615,6.6,W"
"##MN-00 00 49 0146 02837 6122 144784 024041 201"
"171.863611"
"$GPRMC,204333,A,2456.1913,N,08020.8756,W,3.6,77.2,200615,6.6,W"
"##MN-00 00 49 0147 02837 6122 922944 024040 201"
"171.863657"
"$GPRMC,204337,A,2456.1920,N,08020.8711,W,3.6,77.7,200615,6.6,W"
"##MN-00 00 49 0148 02838 6122 144808 024049 201"
"171.863704"
"$GPRMC,204341,A,2456.1928,N,08020.8665,W,3.7,78.3,200615,6.6,W"
"##MN-00 00 49 0149 02840 6121 144336 024035 201"
"171.86375"
"$GPRMC,204345,A,2456.1937,N,08020.8619,W,3.7,78.4,200615,6.6,W"
"##MN-00 00 49 0150 02837 6121 408408 024029 201"
"171.863796"
"$GPRMC,204349,A,2456.1946,N,08020.8576,W,3.6,77.8,200615,6.6,W"
"##MN-00 00 49 0151 02836 6121 144352 024037 201"
"171.863843"
"$GPRMC,204353,A,2456.1959,N,08020.8537,W,3.6,76.8,200615,6.6,W"
"##MN-00 00 50 0152 02837 6121 534144 024041 201"
"171.863901"
"$GPRMC,204357,A,2456.1969,N,08020.8498,W,3.6,76.3,200615,6.6,W"
"##MN-00 00 49 0153 02839 6121 147056 024025 201"
"171.863947"
"$GPRMC,204401,A,2456.1978,N,08020.8447,W,3.6,75.8,200615,6.6,W"
"##MN-00 00 49 0154 02837 6121 139040 024040 201"
"171.863993"
"$GPRMC,204405,A,2456.1989,N,08020.8404,W,3.6,75.4,200615,6.6,W"
"##MN-00 00 49 0155 02837 6120 144840 024033 201"
"171.864039"
"$GPRMC,204409,A,2456.2002,N,08020.8365,W,3.6,75.2,200615,6.6,W"
"##MN-00 00 49 0156 02837 6120 156912 024026 201"
"171.864086"
"$GPRMC,204413,A,2456.2014,N,08020.8325,W,3.7,74.5,200615,6.6,W"
"##MN-00 00 49 0157 02837 6120 137696 024036 201"
"171.864132"
"$GPRMC,204417,A,2456.2025,N,08020.8283,W,3.7,73.9,200615,6.6,W"
"##MN-00 00 49 0158 02836 6120 144416 024039 201"
"171.864178"
"$GPRMC,204421,A,2456.2036,N,08020.8240,W,3.7,74.2,200615,6.6,W"
"##MN-00 00 49 0159 02838 6119 144840 024033 201"
"171.864225"
"$GPRMC,204425,A,2456.2047,N,08020.8196,W,3.7,73.9,200615,6.6,W"
"##MN-00 00 49 0160 02837 6119 408464 024024 201"
"171.864271"
"$GPRMC,204429,A,2456.2057,N,08020.8150,W,3.7,74.6,200615,6.6,W"
"##MN-00 00 49 0161 02837 6119 144384 024035 201"
"171.864317"
"$GPRMC,204433,A,2456.2065,N,08020.8104,W,3.7,74.5,200615,6.6,W"
"##MN+00 00 49 0162 02839 6119 144848 024027 201"
"171.864363"
"$GPRMC,204437,A,2456.2074,N,08020.8059,W,3.7,74.8,200615,6.6,W"
"##MN+00 00 49 0163 02839 6119 144432 024038 201"
"171.86441"
"$GPRMC,204441,A,2456.2085,N,08020.8019,W,3.7,75.1,200615,6.6,W"
"##MN+00 00 55 0164 02837 6118 143960 024053 201"
"171.864456"
"#increment_net"
"$GPRMC,204445,A,2456.2094,N,08020.7975,W,3.7,75.4,200615,6.6,W"
"##MN-00 00 53 0165 02836 6118 144416 024047 201"
"171.864502"
"$GPRMC,204449,A,2456.2103,N,08020.7926,W,3.7,75.9,200615,6.6,W"
"##MN-00 00 52 0166 02836 6118 144432 024052 201"
"171.864549"
"$GPRMC,204453,A,2456.2112,N,08020.7881,W,3.7,76.2,200615,6.6,W"
"##MN-00 00 52 0167 02837 6118 144008 024063 201"
"171.864595"
"$GPRMC,204457,A,2456.2121,N,08020.7837,W,3.6,76.8,200615,6.6,W"
"##MN-00 00 52 0168 02835 6118 142640 024042 201"
"171.864641"
"$GPRMC,204501,A,2456.2130,N,08020.7791,W,3.7,77.7,200615,6.6,W"
"##MN-00 00 52 0169 02836 6117 664744 024051 201"
"171.864688"
"$GPRMC,204505,A,2456.2137,N,08020.7748,W,3.7,78.1,200615,6.6,W"
"##MN-00 00 52 0170 02835 6117 034704 024054 201"
"171.864734"
"$GPRMC,204509,A,2456.2147,N,08020.7707,W,3.6,78.3,200615,6.6,W"
"##MN-00 00 52 0171 02836 6117 194416 024048 201"
"171.86478"
"$GPRMC,204513,A,2456.2157,N,08020.7665,W,3.6,77.5,200615,6.6,W"
"##MN-00 00 51 0172 02836 6117 140000 024048 201"
"171.864826"
"$GPRMC,204517,A,2456.2166,N,08020.7621,W,3.6,77.2,200615,6.6,W"
"##MN-00 00 51 0172 02835 6117 531080 024047 201"
"171.864873"
"$GPRMC,204521,A,2456.2177,N,08020.7579,W,3.6,76.7,200615,6.6,W"
"##MN-00 00 51 0173 02837 6117 140896 024050 201"
"171.864919"
"$GPRMC,204525,A,2456.2187,N,08020.7532,W,3.6,75.8,200615,6.6,W"
"##MN-00 00 50 0174 02835 6116 139152 024049 201"
"171.864965"
"$GPRMC,204530,A,2456.2201,N,08020.7478,W,3.6,75.3,200615,6.6,W"
"##MN-00 00 50 0175 02837 6116 402800 024056 201"
"171.865012"
"$GPRMC,204534,A,2456.2213,N,08020.7435,W,3.6,74.8,200615,6.6,W"
"##MN-00 00 50 0176 02836 6116 135648 024059 201"
"171.865058"
"$GPRMC,204538,A,2456.2223,N,08020.7388,W,3.7,74.7,200615,6.6,W"
"##MN-00 00 51 0177 02837 6116 135600 024052 201"
"171.865104"
"$GPRMC,204542,A,2456.2234,N,08020.7340,W,3.7,74.2,200615,6.6,W"
"##MN-00 00 50 0178 02835 6116 132944 024057 201"
"171.86515"
"$GPRMC,204546,A,2456.2245,N,08020.7294,W,3.7,73.9,200615,6.6,W"
"##MN-00 00 51 0179 02837 6115 132952 024053 201"
"171.865197"
"$GPRMC,204550,A,2456.2256,N,08020.7251,W,3.7,74.0,200615,6.6,W"
"##MN-00 00 51 0180 02837 6115 133856 024062 201"
"171.865243"
"$GPRMC,204553,A,2456.2266,N,08020.7218,W,3.7,73.9,200615,6.6,W"
"##MN-00 00 51 0181 02835 6115 132088 024056 201"
"171.865289"
"$GPRMC,204558,A,2456.2281,N,08020.7164,W,3.7,74.2,200615,6.6,W"
"##MN-00 00 50 0182 02836 6115 131200 024042 201"
"171.865336"
"$GPRMC,204602,A,2456.2292,N,08020.7122,W,3.7,74.7,200615,6.6,W"
"##MN-00 00 51 0183 02835 6115 130304 024055 201"
"171.865382"
"$GPRMC,204606,A,2456.2303,N,08020.7079,W,3.7,75.3,200615,6.6,W"
"##MN-00 00 50 0184 02836 6114 129896 024058 201"
"171.865428"
"$GPRMC,204610,A,2456.2314,N,08020.7034,W,3.7,75.6,200615,6.6,W"
"##MN-00 00 50 0185 02834 6114 124064 024054 201"
"171.865475"
"$GPRMC,204614,A,2456.2323,N,08020.6991,W,3.7,76.9,200615,6.6,W"
"##MN-00 00 51 0186 02834 6114 132080 024064 201"
"171.865521"
"$GPRMC,204618,A,2456.2328,N,08020.6947,W,3.7,78.1,200615,6.6,W"
"##MN-00 00 51 0187 02834 6114 129408 024050 201"
"171.865567"
"$GPRMC,204622,A,2456.2338,N,08020.6901,W,3.7,79.0,200615,6.6,W"
"##MN-00 00 50 0188 02833 6113 128560 024059 201"
"171.865613"
"$GPRMC,204626,A,2456.2343,N,08020.6858,W,3.7,79.0,200615,6.6,W"
"##MN-00 00 51 0189 02835 6113 127688 024058 201"
"171.86566"
"$GPRMC,204630,A,2456.2350,N,08020.6813,W,3.7,79.6,200615,6.6,W"
"##MN-00 00 51 0190 02834 6113 127648 024051 201"
"171.865706"
"$GPRMC,204634,A,2456.2356,N,08020.6770,W,3.7,79.6,200615,6.6,W"
"##MN-00 00 51 0191 02833 6113 126336 024051 201"
"171.865752"
"$GPRMC,204638,A,2456.2364,N,08020.6725,W,3.7,79.9,200615,6.6,W"
"##MN-00 00 51 0192 02835 6112 126752 024050 201"
"171.865799"
"$GPRMC,204642,A,2456.2372,N,08020.6682,W,3.7,79.5,200615,6.6,W"
"##MN+00 00 51 0193 02835 6112 125440 024055 201"
"171.865845"
"$GPRMC,204646,A,2456.2379,N,08020.6637,W,3.7,78.9,200615,6.6,W"
"##MN+00 00 51 0194 02835 6112 125024 024062 201"
"171.865891"
"$GPRMC,204650,A,2456.2388,N,08020.6592,W,3.7,78.6,200615,6.6,W"
"##MN+00 00 55 0195 02834 6112 123256 024064 201"
"171.865937"
"#increment_net"
"$GPRMC,204654,A,2456.2397,N,08020.6550,W,3.7,77.9,200615,6.6,W"
"##MN-00 00 53 0196 02832 6112 122416 024057 201"
"171.865984"
"$GPRMC,204658,A,2456.2407,N,08020.6499,W,3.7,77.5,200615,6.6,W"
"##MN-00 00 53 0197 02834 6112 124184 024061 201"
"171.86603"
"$GPRMC,204702,A,2456.2417,N,08020.6454,W,3.7,77.0,200615,6.6,W"
"##MN-00 00 53 0198 02834 6112 122840 024065 201"
"171.866076"
"$GPRMC,204706,A,2456.2428,N,08020.6409,W,3.8,76.2,200615,6.6,W"
"##MN-00 00 52 0199 02833 6111 121488 024067 201"
"171.866123"
"$GPRMC,204710,A,2456.2437,N,08020.6366,W,3.8,75.7,200615,6.6,W"
"##MN-00 00 52 0200 02831 6111 121976 024061 201"
"171.866169"
"$GPRMC,204714,A,2456.2448,N,08020.6324,W,3.8,75.2,200615,6.6,W"
"##MN-00 00 51 0201 02833 6111 909008 024063 201"
"171.866215"
"$GPRMC,204718,A,2456.2459,N,08020.6280,W,3.8,74.7,200615,6.6,W"
"##MN-00 00 50 0202 02834 6111 115264 024061 201"
"171.866262"
"$GPRMC,204722,A,2456.2473,N,08020.6232,W,3.8,74.9,200615,6.6,W"
"##MN-00 00 50 0203 02832 6111 118848 024062 201"
"171.866308"
"$GPRMC,204726,A,2456.2484,N,08020.6188,W,3.8,74.7,200615,6.6,W"
"##MN-00 00 50 0204 02833 6110 117064 024066 201"
"171.866354"
"$GPRMC,204730,A,2456.2495,N,08020.6143,W,3.8,74.3,200615,6.6,W"
"##MN-00 00 50 0205 02830 6110 116624 024062 201"
"171.8664"
"$GPRMC,204734,A,2456.2506,N,08020.6096,W,3.8,74.7,200615,6.6,W"
"##MN-00 00 50 0206 02833 6110 117088 024063 201"
"171.866447"
"$GPRMC,204738,A,2456.2518,N,08020.6052,W,3.7,74.4,200615,6.6,W"
"##MN-00 00 50 0207 02831 6110 117048 024059 201"
"171.866493"
"$GPRMC,204742,A,2456.2530,N,08020.6006,W,3.7,74.8,200615,6.6,W"
"##MN-00 00 50 0208 02832 6109 115328 024067 201"
"171.866539"
"$GPRMC,204746,A,2456.2541,N,08020.5960,W,3.7,75.4,200615,6.6,W"
"##MN-00 00 50 0209 02831 6109 116176 024059 201"
"171.866586"
"$GPRMC,204750,A,2456.2552,N,08020.5916,W,3.7,75.6,200615,6.6,W"
"##MN-00 00 51 0210 02832 6109 116160 024071 201"
"171.866632"
"$GPRMC,204754,A,2456.2563,N,08020.5874,W,3.8,75.8,200615,6.6,W"
"##MN-00 00 50 0211 02830 6109 116216 024065 201"
"171.866678"
"$GPRMC,204758,A,2456.2573,N,08020.5829,W,3.8,76.0,200615,6.6,W"
"##MN-00 00 50 0212 02830 6109 116240 024062 201"
"171.866725"
"$GPRMC,204802,A,2456.2581,N,08020.5778,W,3.7,77.5,200615,6.6,W"
"##MN-00 00 51 0213 02832 6109 116272 024068 201"
"171.866771"
"$GPRMC,204806,A,2456.2589,N,08020.5730,W,3.8,77.9,200615,6.6,W"
"##MN-00 00 51 0214 02832 6108 116280 024057 201"
"171.866817"
"$GPRMC,204810,A,2456.2598,N,08020.5684,W,3.7,77.9,200615,6.6,W"
"##MN-00 00 51 0215 02833 6108 644320 024070 201"
"171.866863"
"$GPRMC,204814,A,2456.2605,N,08020.5640,W,3.8,77.9,200615,6.6,W"
"##MN-00 00 50 0216 02831 6108 115408 024067 201"
"171.86691"
"$GPRMC,204818,A,2456.2612,N,08020.5597,W,3.8,78.1,200615,6.6,W"
"##MN-00 00 51 0217 02831 6108 115440 024067 201"
"171.866956"
"$GPRMC,204822,A,2456.2620,N,08020.5554,W,3.8,77.8,200615,6.6,W"
"##MN-00 00 50 0218 02832 6107 115424 024076 201"
"171.867002"
"$GPRMC,204826,A,2456.2628,N,08020.5513,W,3.8,77.7,200615,6.6,W"
"##MN-00 00 51 0219 02831 6107 113648 024065 201"
"171.867049"
"$GPRMC,204830,A,2456.2635,N,08020.5468,W,3.8,77.6,200615,6.6,W"
"##MN-00 00 50 0220 02830 6107 111416 024077 201"
"171.867095"
"$GPRMC,204834,A,2456.2645,N,08020.5419,W,3.8,77.6,200615,6.6,W"
"##MN-00 00 51 0221 02831 6107 110104 024062 201"
"171.867153"
"$GPRMC,204838,A,2456.2654,N,08020.5373,W,3.8,77.3,200615,6.6,W"
"##MN-00 00 50 0222 02833 6107 888768 024071 201"
"171.867199"
"$GPRMC,204842,A,2456.2665,N,08020.5326,W,3.8,76.6,200615,6.6,W"
"##MN-00 00 50 0223 02830 6106 108792 024062 201"
"171.867245"
"$GPRMC,204846,A,2456.2679,N,08020.5286,W,3.8,75.8,200615,6.6,W"
"##MN-00 00 51 0224 02831 6106 636448 024065 201"
"171.867292"
"$GPRMC,204850,A,2456.2693,N,08020.5245,W,3.8,75.2,200615,6.6,W"
"##MN-00 00 50 0225 02830 6106 498960 024066 201"
"171.867338"
"$GPRMC,204854,A,2456.2706,N,08020.5204,W,3.7,74.4,200615,6.6,W"
"##MN-00 00 50 0225 02831 6106 108352 024062 201"
"171.867384"
"$GPRMC,204858,A,2456.2719,N,08020.5162,W,3.7,74.2,200615,6.6,W"
"##MN-00 00 51 0226 02831 6105 107864 024061 201"
"171.867431"
"$GPRMC,204902,A,2456.2732,N,08020.5120,W,3.7,73.8,200615,6.6,W"
"##MN-00 00 50 0227 02832 6105 841744 024067 201"
"171.867477"
"$GPRMC,204906,A,2456.2744,N,08020.5077,W,3.7,74.0,200615,6.6,W"
"##MN-00 00 50 0228 02833 6105 214480 024066 201"
"171.867523"
"$GPRMC,204910,A,2456.2755,N,08020.5035,W,3.7,74.3,200615,6.6,W"
"##MN-00 00 50 0229 02830 6105 497208 024075 201"
"171.867569"
"$GPRMC,204914,A,2456.2766,N,08020.4988,W,3.7,74.7,200615,6.6,W"
"##MN-00 00 50 0230 02831 6105 106528 024072 201"
"171.867616"
"$GPRMC,204918,A,2456.2776,N,08020.4941,W,3.7,74.9,200615,6.6,W"
"##MN-00 00 51 0231 02833 6104 107008 024061 201"
"171.867662"
"$GPRMC,204922,A,2456.2787,N,08020.4895,W,3.7,75.0,200615,6.6,W"
"##MN-00 00 50 0232 02832 6104 106528 024068 201"
"171.867708"
"$GPRMC,204926,A,2456.2798,N,08020.4852,W,3.7,75.0,200615,6.6,W"
"##MN-00 00 50 0233 02831 6104 107880 024052 201"
"171.867755"
"$GPRMC,204930,A,2456.2807,N,08020.4805,W,3.7,75.2,200615,6.6,W"
"##MN-00 00 50 0234 02831 6104 104312 024079 201"
"171.867801"
"$GPRMC,204934,A,2456.2815,N,08020.4756,W,3.7,75.9,200615,6.6,W"
"##MN-00 00 51 0235 02831 6104 103008 024064 201"
"171.867847"
"$GPRMC,204938,A,2456.2823,N,08020.4710,W,3.7,76.9,200615,6.6,W"
"##MN-00 00 51 0236 02832 6103 102592 024071 201"
"171.867894"
"$GPRMC,204942,A,2456.2831,N,08020.4663,W,3.7,77.2,200615,6.6,W"
"##MN-00 00 51 0237 02831 6103 629312 024073 201"
"171.86794"
"$GPRMC,204946,A,2456.2841,N,08020.4618,W,3.7,77.2,200615,6.6,W"
"##MN-00 00 51 0238 02833 6103 101672 024058 201"
"171.867986"
"$GPRMC,204950,A,2456.2849,N,08020.4576,W,3.7,77.4,200615,6.6,W"
"##MN-00 00 51 0239 02831 6103 101216 024077 201"
"171.868032"
"$GPRMC,204954,A,2456.2859,N,08020.4533,W,3.7,77.4,200615,6.6,W"
"##MN-00 00 50 0240 02831 6103 102120 024067 201"
"171.868079"
"$GPRMC,204958,A,2456.2867,N,08020.4493,W,3.7,77.3,200615,6.6,W"
"##MN-00 00 50 0241 02830 6102 100816 024065 201"
"171.868125"
"$GPRMC,205002,A,2456.2876,N,08020.4449,W,3.7,77.4,200615,6.6,W"
"##MN-00 00 50 0242 02831 6102 094000 024072 201"
"171.868171"
"$GPRMC,205006,A,2456.2885,N,08020.4402,W,3.7,77.1,200615,6.6,W"
"##MN-00 00 50 0243 02831 6102 097648 024067 201"
"171.868218"
"$GPRMC,205010,A,2456.2895,N,08020.4354,W,3.7,76.8,200615,6.6,W"
"##MN-00 00 50 0244 02831 6102 094080 024085 201"
"171.868264"
"$GPRMC,205014,A,2456.2905,N,08020.4304,W,3.8,76.4,200615,6.6,W"
"##MN-00 00 51 0245 02831 6102 095016 024074 201"
"171.86831"
"$GPRMC,205019,A,2456.2919,N,08020.4248,W,3.7,75.9,200615,6.6,W"
"##MN-00 00 50 0246 02833 6102 870976 024077 201"
"171.868356"
"$GPRMC,205023,A,2456.2928,N,08020.4203,W,3.8,75.3,200615,6.6,W"
"##MN-00 00 50 0247 02832 6101 357240 024078 201"
"171.868403"
"$GPRMC,205027,A,2456.2939,N,08020.4157,W,3.8,75.7,200615,6.6,W"
"##MN-00 00 51 0248 02831 6101 092336 024078 201"
"171.868449"
"$GPRMC,205031,A,2456.2952,N,08020.4111,W,3.8,75.6,200615,6.6,W"
"##MN-00 00 51 0249 02829 6101 090576 024086 201"
"171.868495"
"$GPRMC,205035,A,2456.2964,N,08020.4070,W,3.7,75.1,200615,6.6,W"
"##MN-00 00 51 0250 02831 6100 086168 024081 201"
"171.868542"
"$GPRMC,205039,A,2456.2975,N,08020.4027,W,3.6,74.8,200615,6.6,W"
"##MN-00 00 51 0251 02833 6101 092592 024077 201"
"171.868588"
"$GPRMC,205043,A,2456.2985,N,08020.3984,W,3.6,74.4,200615,6.6,W"
"##MN-00 00 51 0252 02830 6100 088344 024084 201"
"171.868634"
"$GPRMC,205047,A,2456.2996,N,08020.3944,W,3.6,74.2,200615,6.6,W"
"##MN-00 00 50 0253 02832 6100 087968 024087 201"
"171.868681"
"$GPRMC,205051,A,2456.3007,N,08020.3902,W,3.6,73.8,200615,6.6,W"
"##MN-00 00 50 0254 02833 6100 478192 024091 201"
"171.868727"
"$GPRMC,205055,A,2456.3018,N,08020.3862,W,3.6,73.9,200615,6.6,W"
"##MN-00 00 50 0254 02832 6100 088016 024097 201"
"171.868773"
"$GPRMC,205059,A,2456.3028,N,08020.3819,W,3.6,74.3,200615,6.6,W"
"##MN+00 00 50 0255 02832 6099 087968 024091 201"
"171.868819"
"$GPRMC,205103,A,2456.3037,N,08020.3774,W,3.7,75.0,200615,6.6,W"
"##MN+00 00 50 0256 02833 6099 092480 024079 201"
"171.868866"
"$GPRMC,205107,A,2456.3047,N,08020.3722,W,3.6,75.3,200615,6.6,W"
"##MN+00 00 50 0257 02832 6099 079104 024085 201"
"171.868912"
"#increment_net"
"$GPRMC,205111,A,2456.3055,N,08020.3676,W,3.7,75.7,200615,6.6,W"
"##MN-00 00 49 0258 02833 6099 088000 024082 201"
"171.868958"
"$GPRMC,205115,A,2456.3065,N,08020.3631,W,3.6,76.2,200615,6.6,W"
"##MN-00 00 50 0259 02832 6098 087984 024094 201"
"171.869005"
"$GPRMC,205119,A,2456.3076,N,08020.3587,W,3.7,76.5,200615,6.6,W"
"##MN-00 00 50 0260 02832 6098 088016 024082 201"
"171.869051"
"$GPRMC,205123,A,2456.3084,N,08020.3545,W,3.7,77.2,200615,6.6,W"
"##MN-00 00 50 0261 02833 6098 088000 024093 201"
"171.869097"
"$GPRMC,205127,A,2456.3094,N,08020.3501,W,3.7,77.5,200615,6.6,W"
"##MN-00 00 49 0262 02832 6098 088024 024089 201"
"171.869143"
"$GPRMC,205131,A,2456.3102,N,08020.3457,W,3.7,77.8,200615,6.6,W"
"##MN-00 00 49 0263 02832 6098 088040 024099 201"
"171.86919"
"$GPRMC,205135,A,2456.3111,N,08020.3413,W,3.7,78.1,200615,6.6,W"
"##MN-00 00 50 0264 02833 6098 088000 024105 201"
"171.869236"
"$GPRMC,205139,A,2456.3120,N,08020.3369,W,3.6,78.2,200615,6.6,W"
"##MN-00 00 50 0265 02833 6097 088024 024096 201"
"171.869282"
"$GPRMC,205143,A,2456.3130,N,08020.3327,W,3.7,78.1,200615,6.6,W"
"##MN-00 00 49 0266 02834 6097 087984 024074 201"
"171.869329"
"$GPRMC,205147,A,2456.3140,N,08020.3285,W,3.7,77.5,200615,6.6,W"
"##MN-00 00 49 0267 02832 6097 352040 024053 201"
"171.869375"
"$GPRMC,205151,A,2456.3152,N,08020.3240,W,3.7,76.8,200615,6.6,W"
"##MN-00 00 50 0268 02832 6097 088032 024068 201"
"171.869421"
"$GPRMC,205155,A,2456.3162,N,08020.3196,W,3.7,75.8,200615,6.6,W"
"##MN-00 00 50 0269 02834 6097 088000 024058 201"
"171.869468"
"$GPRMC,205159,A,2456.3170,N,08020.3152,W,3.7,74.9,200615,6.6,W"
"##MN-00 00 49 0270 02834 6096 088064 024074 201"
"171.869514"
"$GPRMC,205203,A,2456.3181,N,08020.3110,W,3.7,75.0,200615,6.6,W"
"##MN-00 00 50 0271 02834 6096 218368 024059 201"
"171.86956"
"$GPRMC,205207,A,2456.3192,N,08020.3066,W,3.7,74.4,200615,6.6,W"
"##MN-00 00 49 0272 02834 6096 088032 024057 201"
"171.869606"
"$GPRMC,205211,A,2456.3203,N,08020.3024,W,3.7,73.7,200615,6.6,W"
"##MN-00 00 50 0273 02834 6095 088048 024057 201"
"171.869653"
"$GPRMC,205215,A,2456.3213,N,08020.2981,W,3.7,75.2,200615,6.6,W"
"##MN-00 00 49 0274 02834 6095 478184 024051 201"
"171.869699"
"$GPRMC,205219,A,2456.3224,N,08020.2937,W,3.7,75.7,200615,6.6,W"
"##MN-00 00 50 0275 02835 6095 088944 024058 201"
"171.869745"
"$GPRMC,205223,A,2456.3235,N,08020.2892,W,3.6,75.7,200615,6.6,W"
"##MN-00 00 50 0276 02835 6095 088048 024046 201"
"171.869792"
"$GPRMC,205227,A,2456.3246,N,08020.2852,W,3.7,76.0,200615,6.6,W"
"##MN-00 00 50 0277 02834 6095 088064 024058 201"
"171.869838"
"$GPRMC,205231,A,2456.3256,N,08020.2806,W,3.6,76.6,200615,6.6,W"
"##MN-00 00 50 0277 02835 6095 088088 024046 201"
"171.869884"
"$GPRMC,205235,A,2456.3264,N,08020.2759,W,3.7,77.2,200615,6.6,W"
"##MN-00 00 50 0278 02834 6094 352528 024061 201"
"171.869931"
"$GPRMC,205239,A,2456.3274,N,08020.2712,W,3.7,77.3,200615,6.6,W"
"##MN-00 00 50 0279 02835 6094 088048 024048 201"
"171.869977"
"$GPRMC,205243,A,2456.3282,N,08020.2667,W,3.7,77.6,200615,6.6,W"
"##MN-00 00 50 0280 02837 6094 478256 024063 201"
"171.870023"
"$GPRMC,205247,A,2456.3289,N,08020.2624,W,3.7,78.2,200615,6.6,W"
"##MN-00 00 50 0281 02835 6094 088064 024052 201"
"171.870069"
"$GPRMC,205251,A,2456.3297,N,08020.2580,W,3.7,78.8,200615,6.6,W"
"##MN-00 00 49 0282 02833 6094 087624 024059 201"
"171.870116"
"$GPRMC,205255,A,2456.3304,N,08020.2536,W,3.7,79.2,200615,6.6,W"
"##MN-00 00 50 0283 02835 6093 603648 024067 201"
"171.870162"
"$GPRMC,205259,A,2456.3312,N,08020.2492,W,3.7,79.0,200615,6.6,W"
"##MN-00 00 49 0284 02835 6094 094752 024061 201"
"171.870208"
"$GPRMC,205303,A,2456.3320,N,08020.2446,W,3.7,79.6,200615,6.6,W"
"##MN+00 00 49 0285 02834 6093 088064 024071 201"
"171.870255"
"$GPRMC,205307,A,2456.3326,N,08020.2401,W,3.7,80.1,200615,6.6,W"
"##MN+00 00 49 0286 02835 6093 868432 024069 201"
"171.870301"
"$GPRMC,205311,A,2456.3336,N,08020.2358,W,3.7,79.7,200615,6.6,W"
"##MN+00 00 53 0287 02834 6093 352584 024070 201"
"171.870347"
"#increment_net"
"$GPRMC,205315,A,2456.3344,N,08020.2315,W,3.7,79.1,200615,6.6,W"
"##MN-00 00 52 0288 02836 6092 086304 024059 201"
"171.870405"
"$GPRMC,205319,A,2456.3354,N,08020.2264,W,3.7,78.6,200615,6.6,W"
"##MN-00 00 50 0289 02835 6092 476472 024069 201"
"171.870451"
"$GPRMC,205323,A,2456.3364,N,08020.2222,W,3.7,78.4,200615,6.6,W"
"##MN-00 00 50 0290 02834 6092 085392 024051 201"
"171.870498"
"$GPRMC,205327,A,2456.3372,N,08020.2177,W,3.7,77.9,200615,6.6,W"
"##MN-00 00 51 0291 02837 6092 082752 024062 201"
"171.870544"
"$GPRMC,205331,A,2456.3383,N,08020.2133,W,3.8,77.3,200615,6.6,W"
"##MN-00 00 50 0292 02834 6092 083200 024061 201"
"171.87059"
"$GPRMC,205335,A,2456.3391,N,08020.2091,W,3.8,76.6,200615,6.6,W"
"##MN-00 00 51 0293 02836 6091 082704 024062 201"
"171.870637"
"$GPRMC,205339,A,2456.3401,N,08020.2048,W,3.8,76.0,200615,6.6,W"
"##MN-00 00 50 0294 02838 6091 347192 024069 201"
"171.870683"
"$GPRMC,205343,A,2456.3412,N,08020.2006,W,3.8,75.6,200615,6.6,W"
"##MN-00 00 50 0295 02837 6091 082800 024056 201"
"171.870729"
"$GPRMC,205347,A,2456.3423,N,08020.1960,W,3.8,75.8,200615,6.6,W"
"##MN-00 00 50 0296 02834 6091 081864 024065 201"
"171.870775"
"$GPRMC,205351,A,2456.3437,N,08020.1913,W,3.7,75.8,200615,6.6,W"
"##MN-00 00 50 0297 02834 6091 081888 024056 201"
"171.870822"
"$GPRMC,205355,A,2456.3448,N,08020.1869,W,3.8,75.8,200615,6.6,W"
"##MN-00 00 50 0298 02836 6091 083200 024067 201"
"171.870868"
"$GPRMC,205359,A,2456.3458,N,08020.1826,W,3.8,75.9,200615,6.6,W"
"##MN-00 00 50 0299 02835 6090 082792 024057 201"
"171.870914"
"$GPRMC,205403,A,2456.3466,N,08020.1779,W,3.8,76.4,200615,6.6,W"
"##MN-00 00 50 0300 02834 6090 081824 024063 201"
"171.870961"
"$GPRMC,205407,A,2456.3474,N,08020.1733,W,3.7,76.8,200615,6.6,W"
"##MN-00 00 50 0301 02836 6090 081440 024064 201"
"171.871007"
"$GPRMC,205411,A,2456.3483,N,08020.1687,W,3.7,77.4,200615,6.6,W"
"##MN-00 00 50 0302 02834 6090 080096 024061 201"
"171.871053"
"$GPRMC,205415,A,2456.3488,N,08020.1641,W,3.7,78.0,200615,6.6,W"
"##MN-00 00 50 0303 02833 6090 079648 024067 201"
"171.8711"
"$GPRMC,205419,A,2456.3497,N,08020.1596,W,3.7,78.7,200615,6.6,W"
"##MN-00 00 50 0304 02832 6089 077392 024061 201"
"171.871146"
"$GPRMC,205423,A,2456.3505,N,08020.1550,W,3.8,78.2,200615,6.6,W"
"##MN-00 00 50 0305 02834 6089 077424 024070 201"
"171.871192"
"$GPRMC,205427,A,2456.3512,N,08020.1503,W,3.8,78.6,200615,6.6,W"
"##MN-00 00 50 0306 02836 6089 077456 024062 201"
"171.871238"
"$GPRMC,205431,A,2456.3521,N,08020.1459,W,3.8,78.4,200615,6.6,W"
"##MN-00 00 50 0307 02834 6089 076472 024064 201"
"171.871285"
"$GPRMC,205435,A,2456.3528,N,08020.1412,W,3.7,77.9,200615,6.6,W"
"##MN-00 00 50 0307 02834 6089 076472 024071 201"
"171.871331"
"$GPRMC,205439,A,2456.3539,N,08020.1367,W,3.7,77.7,200615,6.6,W"
"##MN-00 00 50 0308 02834 6088 855072 024060 201"
"171.871377"
"$GPRMC,205443,A,2456.3549,N,08020.1325,W,3.7,77.5,200615,6.6,W"
"##MN-00 00 50 0309 02835 6088 078272 024067 201"
"171.871424"
"$GPRMC,205448,A,2456.3564,N,08020.1270,W,3.7,77.2,200615,6.6,W"
"##MN-00 00 50 0310 02833 6088 065824 024064 201"
"171.87147"
"$GPRMC,205451,A,2456.3571,N,08020.1242,W,3.7,76.7,200615,6.6,W"
"##MN-00 00 50 0311 02832 6088 081840 024065 201"
"171.871516"
"$GPRMC,205456,A,2456.3584,N,08020.1183,W,3.7,75.3,200615,6.6,W"
"##MN-00 00 50 0312 02834 6088 058672 024070 201"
"171.871562"
"$GPRMC,205459,A,2456.3592,N,08020.1148,W,3.7,74.9,200615,6.6,W"
"##MN-00 00 50 0313 02834 6088 074296 024066 201"
"171.871609"
"$GPRMC,205504,A,2456.3607,N,08020.1096,W,3.7,74.6,200615,6.6,W"
"##MN-00 00 50 0314 02832 6087 078328 024066 201"
"171.871655"
"$GPRMC,205507,A,2456.3617,N,08020.1062,W,3.7,74.6,200615,6.6,W"
"##MN-00 00 50 0315 02835 6087 064080 024056 201"
"171.871701"
"$GPRMC,205512,A,2456.3629,N,08020.1002,W,3.7,73.8,200615,6.6,W"
"##MN+00 00 50 0316 02833 6087 075672 024069 201"
"171.871748"
"$GPRMC,205516,A,2456.3643,N,08020.0963,W,3.8,74.3,200615,6.6,W"
"##MN+00 00 50 0317 02837 6087 065856 024075 201"
"171.871794"
"$GPRMC,205520,A,2456.3656,N,08020.0917,W,3.8,75.0,200615,6.6,W"
"##MN+00 00 46 0318 02834 6087 070248 024059 201"
"171.87184"
"#increment_net"
"$GPRMC,205524,A,2456.3665,N,08020.0865,W,3.8,75.4,200615,6.6,W"
"##MN-00 00 47 0319 02834 6086 070288 024075 201"
"171.871887"
"$GPRMC,205528,A,2456.3672,N,08020.0818,W,3.8,75.7,200615,6.6,W"
"##MN-00 00 47 0320 02832 6086 068976 024062 201"
"171.871933"
"$GPRMC,205532,A,2456.3680,N,08020.0774,W,3.8,76.4,200615,6.6,W"
"##MN-00 00 46 0321 02834 6086 069440 024069 201"
"171.871979"
"$GPRMC,205536,A,2456.3689,N,08020.0729,W,3.8,77.4,200615,6.6,W"
"##MN-00 00 47 0322 02834 6086 069456 024066 201"
"171.872025"
"$GPRMC,205540,A,2456.3698,N,08020.0682,W,3.8,77.6,200615,6.6,W"
"##MN-00 00 47 0323 02832 6086 068992 024062 201"
"171.872072"
"$GPRMC,205544,A,2456.3707,N,08020.0636,W,3.8,78.2,200615,6.6,W"
"##MN-00 00 47 0324 02834 6086 069456 024060 201"
"171.872118"
"$GPRMC,205548,A,2456.3716,N,08020.0590,W,3.8,78.4,200615,6.6,W"
"##MN-00 00 47 0325 02834 6085 069016 024062 201"
"171.872164"
"$GPRMC,205552,A,2456.3723,N,08020.0543,W,3.8,78.3,200615,6.6,W"
"##MN-00 00 46 0326 02834 6085 087280 024080 201"
"171.872211"
"$GPRMC,205556,A,2456.3730,N,08020.0496,W,3.8,79.3,200615,6.6,W"
"##MN-00 00 46 0327 02832 6085 323720 024088 201"
"171.872257"
"$GPRMC,205600,A,2456.3737,N,08020.0450,W,3.8,79.4,200615,6.6,W"
"##MN-00 00 47 0328 02834 6085 067720 024064 201"
"171.872303"
"$GPRMC,205604,A,2456.3745,N,08020.0404,W,3.8,79.0,200615,6.6,W"
"##MN-00 00 47 0329 02833 6085 067712 024074 201"
"171.87235"
"$GPRMC,205608,A,2456.3752,N,08020.0358,W,3.8,79.5,200615,6.6,W"
"##MN-00 00 46 0330 02832 6084 067704 024073 201"
"171.872396"
"$GPRMC,205612,A,2456.3759,N,08020.0313,W,3.8,79.5,200615,6.6,W"
"##MN-00 00 47 0331 02831 6084 066816 024074 201"
"171.872442"
"$GPRMC,205616,A,2456.3766,N,08020.0269,W,3.8,79.7,200615,6.6,W"
"##MN-00 00 46 0332 02833 6084 067248 024071 201"
"171.872488"
"$GPRMC,205620,A,2456.3774,N,08020.0223,W,3.8,79.4,200615,6.6,W"
"##MN-00 00 47 0333 02832 6084 067648 024068 201"
"171.872535"
"$GPRMC,205624,A,2456.3781,N,08020.0180,W,3.7,79.4,200615,6.6,W"
"##MN-00 00 46 0334 02832 6084 066376 024080 201"
"171.872581"
"$GPRMC,205628,A,2456.3792,N,08020.0135,W,3.8,78.9,200615,6.6,W"
"##MN-00 00 47 0335 02831 6084 064992 024078 201"
"171.872627"
"$GPRMC,205632,A,2456.3802,N,08020.0092,W,3.8,78.6,200615,6.6,W"
"##MN-00 00 47 0336 02833 6084 066336 024073 201"
"171.872674"
"$GPRMC,205636,A,2456.3815,N,08020.0054,W,3.7,77.8,200615,6.6,W"
"##MN-00 00 47 0337 02831 6084 065440 024082 201"
"171.87272"
"$GPRMC,205640,A,2456.3827,N,08020.0008,W,3.8,76.9,200615,6.6,W"
"##MN-00 00 47 0338 02835 6083 065888 024069 201"
"171.872766"
"$GPRMC,205644,A,2456.3838,N,08019.9961,W,3.8,76.0,200615,6.6,W"
"##MN-00 00 46 0339 02833 6083 454752 024068 201"
"171.872813"
"$GPRMC,205648,A,2456.3846,N,08019.9928,W,3.8,75.3,200615,6.6,W"
"##MN-00 00 47 0339 02831 6083 063184 024083 201"
"171.872859"
"$GPRMC,205652,A,2456.3859,N,08019.9872,W,3.8,75.5,200615,6.6,W"
"##MN-00 00 47 0340 02832 6082 328136 024070 201"
"171.872905"
"$GPRMC,205656,A,2456.3868,N,08019.9828,W,3.8,74.9,200615,6.6,W"
"##MN-00 00 47 0341 02834 6082 844496 024069 201"
"171.872951"
"$GPRMC,205700,A,2456.3881,N,08019.9783,W,3.7,74.4,200615,6.6,W"
"##MN-00 00 47 0342 02833 6082 191384 024084 201"
"171.872998"
"$GPRMC,205704,A,2456.3889,N,08019.9752,W,3.7,74.9,200615,6.6,W"
"##MN-00 00 47 0343 02834 6082 060552 024076 201"
"171.873044"
"$GPRMC,205708,A,2456.3900,N,08019.9712,W,3.7,74.5,200615,6.6,W"
"##MN-00 00 46 0344 02832 6082 061472 024068 201"
"171.87309"
"$GPRMC,205712,A,2456.3913,N,08019.9653,W,3.7,74.5,200615,6.6,W"
"##MN-00 00 47 0345 02833 6082 060160 024079 201"
"171.873137"
"$GPRMC,205716,A,2456.3922,N,08019.9607,W,3.7,75.2,200615,6.6,W"
"##MN+00 00 47 0346 02832 6082 060640 024071 201"
"171.873183"
"$GPRMC,205720,A,2456.3932,N,08019.9559,W,3.7,75.9,200615,6.6,W"
"##MN+00 00 47 0347 02834 6082 325080 024085 201"
"171.873229"
"$GPRMC,205724,A,2456.3943,N,08019.9515,W,3.7,76.7,200615,6.6,W"
"##MN+00 00 52 0348 02832 6081 060624 024067 201"
"171.873275"
"#increment_net"
"$GPRMC,205728,A,2456.3953,N,08019.9470,W,3.7,77.3,200615,6.6,W"
"##MN-00 00 49 0349 02835 6081 450408 024075 201"
"171.873322"
"$GPRMC,205732,A,2456.3962,N,08019.9426,W,3.8,77.5,200615,6.6,W"
"##MN-00 00 49 0350 02834 6081 060216 024072 201"
"171.873368"
"$GPRMC,205736,A,2456.3971,N,08019.9381,W,3.8,78.3,200615,6.6,W"
"##MN-00 00 49 0351 02833 6081 060672 024081 201"
"171.873414"
"$GPRMC,205740,A,2456.3978,N,08019.9335,W,3.8,79.1,200615,6.6,W"
"##MN-00 00 49 0352 02834 6081 060240 024077 201"
"171.873461"
"$GPRMC,205744,A,2456.3985,N,08019.9289,W,3.8,79.6,200615,6.6,W"
"##MN-00 00 49 0353 02835 6081 589616 024088 201"
"171.873507"
"$GPRMC,205748,A,2456.3990,N,08019.9247,W,3.8,79.1,200615,6.6,W"
"##MN-00 00 49 0354 02835 6080 059752 024081 201"
"171.873553"
"$GPRMC,205752,A,2456.3995,N,08019.9203,W,3.8,79.9,200615,6.6,W"
"##MN-00 00 49 0355 02833 6080 059776 024070 201"
"171.8736"
"$GPRMC,205756,A,2456.4001,N,08019.9158,W,3.8,80.6,200615,6.6,W"
"##MN-00 00 49 0356 02835 6080 060216 024078 201"
"171.873657"
"$GPRMC,205800,A,2456.4008,N,08019.9113,W,3.8,81.1,200615,6.6,W"
"##MN-00 00 49 0357 02834 6080 059360 024081 201"
"171.873704"
"$GPRMC,205804,A,2456.4016,N,08019.9068,W,3.7,81.0,200615,6.6,W"
"##MN-00 00 48 0358 02833 6080 059776 024075 201"
"171.87375"
"$GPRMC,205808,A,2456.4025,N,08019.9022,W,3.7,80.6,200615,6.6,W"
"##MN-00 00 49 0358 02834 6079 060248 024083 201"
"171.873796"
"$GPRMC,205812,A,2456.4034,N,08019.8977,W,3.7,80.3,200615,6.6,W"
"##MN-00 00 48 0359 02833 6079 059776 024081 201"
"171.873843"
"$GPRMC,205816,A,2456.4043,N,08019.8932,W,3.7,79.3,200615,6.6,W"
"##MN-00 00 48 0360 02833 6079 059352 024082 201"
"171.873889"
"$GPRMC,205820,A,2456.4054,N,08019.8886,W,3.7,78.3,200615,6.6,W"
"##MN-00 00 49 0361 02833 6079 059808 024086 201"
"171.873935"
"$GPRMC,205824,A,2456.4063,N,08019.8840,W,3.8,77.5,200615,6.6,W"
"##MN-00 00 49 0362 02834 6079 059856 024088 201"
"171.873981"
"$GPRMC,205828,A,2456.4073,N,08019.8794,W,3.7,76.8,200615,6.6,W"
"##MN-00 00 49 0363 02834 6079 445952 024078 201"
"171.874028"
"$GPRMC,205832,A,2456.4084,N,08019.8748,W,3.8,76.6,200615,6.6,W"
"##MN-00 00 49 0364 02833 6078 056192 024082 201"
"171.874074"
"$GPRMC,205836,A,2456.4095,N,08019.8702,W,3.8,75.8,200615,6.6,W"
"##MN-00 00 49 0365 02832 6078 056232 024078 201"
"171.87412"
"$GPRMC,205840,A,2456.4106,N,08019.8657,W,3.8,75.4,200615,6.6,W"
"##MN-00 00 49 0366 02833 6078 057152 024083 201"
"171.874167"
"$GPRMC,205844,A,2456.4116,N,08019.8613,W,3.8,75.5,200615,6.6,W"
"##MN-00 00 49 0367 02832 6078 055824 024081 201"
"171.874213"
"$GPRMC,205848,A,2456.4126,N,08019.8566,W,3.8,75.8,200615,6.6,W"
"##MN-00 00 49 0368 02834 6078 054448 024076 201"
"171.874259"
"$GPRMC,205852,A,2456.4135,N,08019.8517,W,3.8,75.9,200615,6.6,W"
"##MN-00 00 49 0369 02833 6078 054888 024077 201"
"171.874306"
"$GPRMC,205856,A,2456.4144,N,08019.8472,W,3.8,76.3,200615,6.6,W"
"##MN-00 00 49 0370 02833 6078 054048 024088 201"
"171.874352"
"$GPRMC,205900,A,2456.4153,N,08019.8429,W,3.8,77.4,200615,6.6,W"
"##MN-00 00 49 0371 02833 6077 052672 024076 201"
"171.874398"
"$GPRMC,205904,A,2456.4162,N,08019.8378,W,3.9,78.0,200615,6.6,W"
"##MN-00 00 49 0372 02833 6077 053104 024078 201"
"171.874444"
"$GPRMC,205908,A,2456.4169,N,08019.8329,W,3.9,78.6,200615,6.6,W"
"##MN-00 00 49 0373 02833 6077 052672 024086 201"
"171.874491"
"$GPRMC,205912,A,2456.4178,N,08019.8281,W,3.8,78.6,200615,6.6,W"
"##MN-00 00 49 0374 02833 6077 052712 024089 201"
"171.874537"
"$GPRMC,205916,A,2456.4185,N,08019.8234,W,3.8,79.3,200615,6.6,W"
"##MN-00 00 49 0375 02831 6077 053664 024075 201"
"171.874583"
"$GPRMC,205920,A,2456.4193,N,08019.8187,W,3.8,79.5,200615,6.6,W"
"##MN+00 00 48 0376 02831 6077 052736 024082 201"
"171.87463"
"$GPRMC,205924,A,2456.4200,N,08019.8141,W,3.8,79.2,200615,6.6,W"
"##MN+00 00 48 0377 02828 6076 052768 024084 201"
"171.874676"
"$GPRMC,205928,A,2456.4209,N,08019.8095,W,3.8,79.4,200615,6.6,W"
"##MN+00 00 55 0378 02831 6076 050520 024078 201"
"171.874722"
"#increment_net"
"$GPRMC,205932,A,2456.4217,N,08019.8051,W,3.8,79.7,200615,6.6,W"
"##MN-00 00 52 0379 02832 6076 050528 024082 201"
"171.874768"
"$GPRMC,205937,A,2456.4227,N,08019.7997,W,3.8,79.0,200615,6.6,W"
"##MN-00 00 50 0380 02831 6076 050064 024075 201"
"171.874815"
"$GPRMC,205940,A,2456.4235,N,08019.7966,W,3.8,78.8,200615,6.6,W"
"##MN-00 00 49 0381 02831 6076 050952 024079 201"
"171.874861"
"$GPRMC,205944,A,2456.4243,N,08019.7917,W,3.8,78.5,200615,6.6,W"
"##MN-00 00 49 0382 02830 6076 050112 024081 201"
"171.874907"
"$GPRMC,205948,A,2456.4253,N,08019.7868,W,3.9,78.5,200615,6.6,W"
"##MN-00 00 46 0383 02834 6076 050544 024085 201"
"171.874954"
"$GPRMC,205953,A,2456.4265,N,08019.7801,W,3.9,78.6,200615,6.6,W"
"##MN-00 00 46 0384 02831 6075 050992 024076 201"
"171.875"
"$GPRMC,205957,A,2456.4272,N,08019.7753,W,3.9,78.8,200615,6.6,W"
"##MN-00 00 46 0385 02834 6075 050584 024079 201"
"171.875046"
"$GPRMC,210001,A,2456.4283,N,08019.7707,W,3.9,78.5,200615,6.6,W"
"##MN-00 00 45 0387 02834 6075 050544 024085 201"
"171.875093"
"$GPRMC,210005,A,2456.4292,N,08019.7658,W,3.9,78.4,200615,6.6,W"
"##MN-00 00 44 0388 02837 6075 050064 024074 201"
"171.875139"
"$GPRMC,210009,A,2456.4301,N,08019.7613,W,3.9,77.8,200615,6.6,W"
"##MN-00 00 45 0389 02837 6075 050512 024072 201"
"171.875185"
"$GPRMC,210013,A,2456.4308,N,08019.7569,W,3.9,77.7,200615,6.6,W"
"##MN-00 00 44 0390 02836 6075 579024 024088 201"
"171.875232"
"$GPRMC,210017,A,2456.4318,N,08019.7523,W,3.9,78.4,200615,6.6,W"
"##MN-00 00 45 0391 02838 6074 045216 024068 201"
"171.875278"
"$GPRMC,210021,A,2456.4326,N,08019.7476,W,3.9,79.0,200615,6.6,W"
"##MN-00 00 45 0392 02840 6075 060752 024083 201"
"171.875324"
"$GPRMC,210025,A,2456.4333,N,08019.7430,W,3.8,79.7,200615,6.6,W"
"##MN-00 00 45 0393 02839 6074 049616 024075 201"
"171.87537"
"$GPRMC,210029,A,2456.4340,N,08019.7391,W,3.8,80.8,200615,6.6,W"
"##MN-00 00 45 0395 02838 6074 050072 024084 201"
"171.875417"
"$GPRMC,210033,A,2456.4344,N,08019.7347,W,3.8,82.1,200615,6.6,W"
"##MN-00 00 45 0396 02837 6074 048288 024076 201"
"171.875463"
"$GPRMC,210037,A,2456.4352,N,08019.7307,W,3.8,83.2,200615,6.6,W"
"##MN-00 00 44 0397 02838 6074 046048 024091 201"
"171.875509"
"$GPRMC,210041,A,2456.4355,N,08019.7263,W,3.7,84.8,200615,6.6,W"
"##MN-00 00 44 0398 02840 6074 045584 024083 201"
"171.875556"
"$GPRMC,210045,A,2456.4355,N,08019.7216,W,3.7,85.9,200615,6.6,W"
"##MN-00 00 44 0399 02836 6074 046040 024089 201"
"171.875602"
"$GPRMC,210049,A,2456.4355,N,08019.7164,W,3.7,87.1,200615,6.6,W"
"##MN-00 00 44 0400 02836 6073 043840 024081 201"
"171.875648"
"$GPRMC,210053,A,2456.4354,N,08019.7116,W,3.7,88.5,200615,6.6,W"
"##MN-00 00 43 0401 02839 6073 046064 024083 201"
"171.875694"
"$GPRMC,210057,A,2456.4354,N,08019.7070,W,3.7,89.4,200615,6.6,W"
"##MN-00 00 43 0403 02837 6073 045200 024085 201"
"171.875741"
"$GPRMC,210101,A,2456.4354,N,08019.7027,W,3.6,90.2,200615,6.6,W"
"##MN-00 00 43 0404 02838 6073 044752 024093 201"
"171.875787"
"$GPRMC,210105,A,2456.4350,N,08019.6984,W,3.6,91.3,200615,6.6,W"
"##MN-00 00 43 0405 02837 6073 044776 024085 201"
"171.875833"
"$GPRMC,210109,A,2456.4346,N,08019.6942,W,3.6,93.0,200615,6.6,W"
"##MN-00 00 42 0406 02840 6073 042928 024087 201"
"171.87588"
"$GPRMC,210113,A,2456.4344,N,08019.6899,W,3.5,94.0,200615,6.6,W"
"##MN-00 00 42 0407 02836 6072 044288 024077 201"
"171.875926"
"$GPRMC,210117,A,2456.4340,N,08019.6859,W,3.5,95.5,200615,6.6,W"
"##MN-00 00 42 0408 02835 6072 044720 024085 201"
"171.875972"
"$GPRMC,210121,A,2456.4333,N,08019.6816,W,3.5,97.3,200615,6.6,W"
"##MN-00 00 42 0409 02835 6072 042568 024086 201"
"171.876019"
"$GPRMC,210125,A,2456.4327,N,08019.6780,W,3.4,98.9,200615,6.6,W"
"##MN-00 00 42 0410 02835 6072 039440 024085 201"
"171.876065"
"$GPRMC,210129,A,2456.4319,N,08019.6738,W,3.3,100.2,200615,6.6,"
"##MN-00 00 42 0411 02833 6072 041208 024087 201"
"171.876111"
"$GPRMC,210133,A,2456.4308,N,08019.6698,W,3.3,101.8,200615,6.6,"
"##MN-00 00 42 0412 02832 6072 042080 024077 201"
"171.876157"
"$GPRMC,210137,A,2456.4301,N,08019.6662,W,3.2,102.7,200615,6.6,"
"##MN-00 00 42 0413 02832 6072 037632 024086 201"
"171.876204"
"$GPRMC,210141,A,2456.4294,N,08019.6624,W,3.2,103.7,200615,6.6,"
"##MN-00 00 42 0415 02833 6071 039376 024077 201"
"171.87625"
"$GPRMC,210145,A,2456.4283,N,08019.6586,W,3.2,105.0,200615,6.6,"
"##MN-00 00 42 0416 02831 6071 039376 024088 201"
"171.876296"
"$GPRMC,210149,A,2456.4274,N,08019.6549,W,3.2,106.2,200615,6.6,"
"##MN-00 00 42 0417 02827 6071 036272 024087 201"
"171.876343"
"$GPRMC,210153,A,2456.4265,N,08019.6513,W,3.2,107.6,200615,6.6,"
"##MN-00 00 42 0418 02827 6071 036704 024080 201"
"171.876389"
"$GPRMC,210157,A,2456.4252,N,08019.6478,W,3.1,108.9,200615,6.6,"
"##MN-00 00 42 0419 02828 6071 426920 024087 201"
"171.876435"
"$GPRMC,210201,A,2456.4240,N,08019.6445,W,2.9,110.8,200615,6.6,"
"##MN-00 00 42 0420 02827 6071 035816 024082 201"
"171.876481"
"$GPRMC,210205,A,2456.4229,N,08019.6420,W,2.8,112.8,200615,6.6,"
"##MN-00 00 42 0421 02824 6070 035792 024085 201"
"171.876528"
"$GPRMC,210209,A,2456.4216,N,08019.6395,W,2.8,115.0,200615,6.6,"
"##MN-00 00 42 0422 02823 6070 034904 024079 201"
"171.876574"
"$GPRMC,210213,A,2456.4202,N,08019.6370,W,2.6,117.4,200615,6.6,"
"##MN-00 00 42 0423 02821 6070 034032 024078 201"
"171.87662"
"$GPRMC,210217,A,2456.4189,N,08019.6346,W,2.4,120.1,200615,6.6,"
"##MN-00 00 42 0424 02819 6070 032672 024088 201"
"171.876667"
"$GPRMC,210221,A,2456.4173,N,08019.6323,W,2.3,122.9,200615,6.6,"
"##MN-00 00 42 0425 02818 6070 034912 024097 201"
"171.876713"
"$GPRMC,210225,A,2456.4156,N,08019.6301,W,2.2,126.8,200615,6.6,"
"##MN-00 00 42 0426 02817 6070 034448 024081 201"
"171.876759"
"$GPRMC,210229,A,2456.4139,N,08019.6285,W,2.1,130.5,200615,6.6,"
"##MN-00 00 42 0427 02816 6069 033528 024087 201"
"171.876806"
"$GPRMC,210233,A,2456.4124,N,08019.6270,W,2.0,134.5,200615,6.6,"
"##MN-00 00 42 0428 02814 6069 032176 024082 201"
"171.876852"
"$GPRMC,210237,A,2456.4106,N,08019.6258,W,2.0,139.3,200615,6.6,"
"##MN-00 00 42 0429 02811 6069 033552 024091 201"
"171.87691"
"$GPRMC,210241,A,2456.4086,N,08019.6248,W,1.9,144.3,200615,6.6,"
"##MN-00 00 42 0430 02812 6069 034864 024092 201"
"171.876956"
"$GPRMC,210245,A,2456.4067,N,08019.6238,W,1.9,149.4,200615,6.6,"
