" Tow: 9-ns-n-ed   RVWS/WS15161"
" Date: 14/06/2015"
" Temperature Probe #  4762    Conductivity Probe #  710"
" Pressure Probe #  159"
" Flow Meter Calibration  4.71 (m/count)  "
"165.296806"
"$GPRMC,070716,A,2434.2000,N,08053.2258,W,2.6,239.3,140615,6.2,"
"##MN-00 00 31 2164 01536 5709 048570 585952 190"
"165.296852"
"$GPRMC,070722,A,2434.1978,N,08053.2295,W,2.5,239.1,140615,6.2,"
"##MN-00 00 41 2164 01536 5709 452754 827913 190"
"165.296898"
"$GPRMC,070725,A,2434.1967,N,08053.2314,W,2.5,239.0,140615,6.2,"
"##MN-00 00 50 2164 01536 5710 451559 827912 190"
"165.296944"
"$GPRMC,070730,A,2434.1949,N,08053.2346,W,2.4,238.6,140615,6.2,"
"##MN-00 00 55 2164 01536 5709 451184 528997 190"
"165.296991"
"$GPRMC,070734,A,2434.1937,N,08053.2371,W,2.4,238.9,140615,6.2,"
"##MN-00 00 58 2164 01534 5710 449821 263092 190"
"165.297037"
"$GPRMC,070737,A,2434.1924,N,08053.2388,W,2.4,238.1,140615,6.2,"
"##MN-00 00 47 2165 01535 5710 448018 237168 190"
"165.297083"
"$GPRMC,070741,A,2434.1910,N,08053.2411,W,2.3,237.5,140615,6.2,"
"##MN-00 00 55 2165 01536 5710 447550 206139 190"
"165.29713"
"$GPRMC,070745,A,2434.1897,N,08053.2433,W,2.3,237.3,140615,6.2,"
"##MN-00 00 54 2166 01541 5710 447489 205870 190"
"165.297176"
"$GPRMC,070749,A,2434.1884,N,08053.2457,W,2.1,236.2,140615,6.2,"
"##MN-00 00 49 2167 01539 5710 447459 205860 190"
"165.297222"
"$GPRMC,070754,A,2434.1866,N,08053.2483,W,2.0,235.7,140615,6.2,"
"##MN-00 00 51 2167 01538 5710 447493 205836 190"
"165.297269"
"$GPRMC,070758,A,2434.1852,N,08053.2504,W,2.0,236.5,140615,6.2,"
"##MN-00 00 53 2168 01541 5710 447485 205790 190"
"165.297315"
"$GPRMC,070802,A,2434.1841,N,08053.2525,W,1.9,237.8,140615,6.2,"
"##MN-00 00 50 2169 01540 5710 447446 205775 190"
"165.297361"
"$GPRMC,070806,A,2434.1830,N,08053.2541,W,1.9,238.2,140615,6.2,"
"##MN-00 00 56 2170 01546 5710 447434 205754 190"
"165.297407"
"$GPRMC,070810,A,2434.1817,N,08053.2559,W,1.8,238.8,140615,6.2,"
"##MN-00 00 51 2170 01549 5710 447387 205658 190"
"165.297454"
"$GPRMC,070814,A,2434.1806,N,08053.2577,W,1.8,237.5,140615,6.2,"
"##MN-00 00 51 2171 01549 5710 447395 205606 190"
"165.2975"
"$GPRMC,070818,A,2434.1792,N,08053.2597,W,1.8,236.1,140615,6.2,"
"##MN-00 00 54 2172 01555 5711 447394 205600 190"
"165.297546"
"$GPRMC,070822,A,2434.1785,N,08053.2612,W,1.7,236.3,140615,6.2,"
"##MN-00 00 52 2173 01558 5711 447376 205591 190"
"165.297593"
"$GPRMC,070826,A,2434.1776,N,08053.2630,W,1.7,239.0,140615,6.2,"
"##MN-00 00 52 2174 01559 5711 447370 205586 190"
"165.297639"
"$GPRMC,070830,A,2434.1769,N,08053.2648,W,1.7,242.0,140615,6.2,"
"##MN-00 00 53 2175 01566 5711 447367 205590 190"
"165.297685"
"$GPRMC,070834,A,2434.1763,N,08053.2667,W,1.7,245.5,140615,6.2,"
"##MN-00 00 52 2175 01568 5711 447362 205590 190"
"165.297731"
"$GPRMC,070838,A,2434.1761,N,08053.2686,W,1.7,247.2,140615,6.2,"
"##MN-00 00 52 2176 01567 5712 447359 205575 190"
"165.297778"
"$GPRMC,070842,A,2434.1759,N,08053.2704,W,1.7,249.2,140615,6.2,"
"##MN-00 00 53 2177 01575 5712 447365 205572 190"
"165.297824"
"$GPRMC,070846,A,2434.1758,N,08053.2725,W,1.7,250.8,140615,6.2,"
"##MN-00 00 52 2178 01578 5713 447392 205576 190"
"165.29787"
"$GPRMC,070850,A,2434.1754,N,08053.2746,W,1.7,252.6,140615,6.2,"
"##MN-00 00 52 2179 01577 5713 447387 205576 190"
"165.297917"
"$GPRMC,070854,A,2434.1744,N,08053.2768,W,1.8,253.8,140615,6.2,"
"##MN-00 00 53 2180 01584 5713 447387 205576 190"
"165.297963"
"$GPRMC,070858,A,2434.1738,N,08053.2790,W,1.8,254.9,140615,6.2,"
"##MN-00 00 52 2181 01583 5714 447400 205576 190"
"165.298009"
"$GPRMC,070902,A,2434.1736,N,08053.2808,W,1.8,255.8,140615,6.2,"
"##MN-00 00 52 2182 01583 5714 447388 205572 190"
"165.298056"
"$GPRMC,070906,A,2434.1731,N,08053.2836,W,1.9,256.9,140615,6.2,"
"##MN-00 00 52 2183 01587 5715 447374 205569 190"
"165.298102"
"$GPRMC,070910,A,2434.1725,N,08053.2865,W,2.0,257.2,140615,6.2,"
"##MN-00 00 52 2184 01585 5715 447367 205566 190"
"165.298148"
"$GPRMC,070914,A,2434.1718,N,08053.2890,W,2.0,257.6,140615,6.2,"
"##MN-00 00 54 2184 01590 5716 447384 205565 190"
"165.298194"
"$GPRMC,070918,A,2434.1712,N,08053.2916,W,2.0,257.5,140615,6.2,"
"##MN-00 00 52 2185 01591 5716 447365 205560 190"
"165.298241"
"$GPRMC,070922,A,2434.1708,N,08053.2942,W,2.1,256.6,140615,6.2,"
"##MN-00 00 51 2186 01588 5717 447358 205560 190"
"165.298287"
"$GPRMC,070926,A,2434.1702,N,08053.2966,W,2.0,256.0,140615,6.2,"
"##MN-00 00 53 2187 01594 5717 447362 205560 190"
"165.298333"
"$GPRMC,070930,A,2434.1700,N,08053.2989,W,2.1,255.9,140615,6.2,"
"##MN-00 00 51 2188 01594 5717 447366 205562 190"
"165.29838"
"$GPRMC,070934,A,2434.1690,N,08053.3014,W,2.1,256.1,140615,6.2,"
"##MN-00 00 51 2189 01590 5718 447389 205568 190"
"165.298426"
"$GPRMC,070938,A,2434.1680,N,08053.3038,W,2.1,255.9,140615,6.2,"
"##MN-00 00 55 2190 01597 5718 447399 205570 190"
"165.298472"
"$GPRMC,070942,A,2434.1674,N,08053.3064,W,2.1,255.7,140615,6.2,"
"##MN-00 00 53 2191 01600 5719 447437 205578 190"
"165.298519"
"$GPRMC,070946,A,2434.1673,N,08053.3089,W,2.1,255.3,140615,6.2,"
"##MN-00 00 53 2192 01600 5719 447435 205573 190"
"165.298565"
"$GPRMC,070950,A,2434.1668,N,08053.3111,W,2.0,254.6,140615,6.2,"
"##MN-00 00 54 2193 01605 5720 447388 205567 190"
"165.298611"
"$GPRMC,070954,A,2434.1664,N,08053.3136,W,2.0,254.5,140615,6.2,"
"##MN-00 00 54 2194 01606 5720 447366 205563 190"
"165.298657"
"$GPRMC,070958,A,2434.1655,N,08053.3157,W,1.9,254.5,140615,6.2,"
"##MN-00 00 55 2195 01611 5721 447354 205559 190"
"165.298704"
"$GPRMC,071002,A,2434.1648,N,08053.3179,W,2.0,254.8,140615,6.2,"
"##MN-00 00 53 2196 01614 5721 447348 205552 190"
"165.29875"
"$GPRMC,071006,A,2434.1642,N,08053.3201,W,1.9,255.1,140615,6.2,"
"##MN-00 00 54 2197 01616 5722 447322 205544 190"
"165.298796"
"$GPRMC,071010,A,2434.1636,N,08053.3224,W,2.0,254.7,140615,6.2,"
"##MN-00 00 52 2198 01618 5723 447316 205540 190"
"165.298843"
"$GPRMC,071014,A,2434.1626,N,08053.3249,W,2.1,254.7,140615,6.2,"
"##MN-00 00 54 2199 01620 5723 447324 205541 190"
"165.298889"
"$GPRMC,071018,A,2434.1620,N,08053.3273,W,2.0,254.5,140615,6.2,"
"##MN-00 00 54 2200 01624 5724 447295 205535 190"
"165.298935"
"$GPRMC,071022,A,2434.1615,N,08053.3298,W,2.0,254.2,140615,6.2,"
"##MN-00 00 54 2201 01627 5724 447285 205527 190"
"165.298981"
"$GPRMC,071026,A,2434.1606,N,08053.3322,W,1.9,254.7,140615,6.2,"
"##MN-00 00 54 2202 01630 5725 447290 205525 190"
"165.299028"
"$GPRMC,071030,A,2434.1602,N,08053.3345,W,1.9,254.6,140615,6.2,"
"##MN-00 00 54 2203 01635 5725 447281 205525 190"
"165.299074"
"$GPRMC,071034,A,2434.1599,N,08053.3368,W,1.9,254.3,140615,6.2,"
"##MN-00 00 53 2204 01635 5726 447273 205516 190"
"165.29912"
"$GPRMC,071038,A,2434.1593,N,08053.3392,W,2.0,255.3,140615,6.2,"
"##MN-00 00 54 2205 01639 5726 447261 205510 190"
"165.299167"
"$GPRMC,071042,A,2434.1588,N,08053.3412,W,1.9,255.0,140615,6.2,"
"##MN-00 00 52 2206 01641 5727 447280 205518 190"
"165.299213"
"$GPRMC,071046,A,2434.1579,N,08053.3434,W,1.9,254.5,140615,6.2,"
"##MN-00 00 54 2206 01640 5728 447321 205532 190"
"165.299259"
"$GPRMC,071050,A,2434.1570,N,08053.3457,W,1.9,253.9,140615,6.2,"
"##MN-00 00 54 2207 01646 5728 447358 205531 190"
"165.299306"
"$GPRMC,071054,A,2434.1561,N,08053.3483,W,2.0,252.8,140615,6.2,"
"##MN-00 00 54 2208 01649 5729 447386 205548 190"
"165.299352"
"$GPRMC,071058,A,2434.1554,N,08053.3504,W,1.9,251.1,140615,6.2,"
"##MN-00 00 54 2209 01652 5729 447392 205550 190"
"165.299398"
"$GPRMC,071102,A,2434.1548,N,08053.3526,W,1.9,250.2,140615,6.2,"
"##MN-00 00 53 2210 01655 5730 447358 205540 190"
"165.299444"
"$GPRMC,071106,A,2434.1538,N,08053.3549,W,2.0,249.5,140615,6.2,"
"##MN-00 00 54 2211 01656 5731 447304 205517 190"
"165.299491"
"$GPRMC,071110,A,2434.1530,N,08053.3569,W,1.9,249.5,140615,6.2,"
"##MN-00 00 54 2212 01660 5731 447274 205504 190"
"165.299537"
"$GPRMC,071114,A,2434.1525,N,08053.3591,W,1.9,249.4,140615,6.2,"
"##MN-00 00 54 2213 01664 5732 447284 205506 190"
"165.299583"
"$GPRMC,071118,A,2434.1518,N,08053.3613,W,1.9,250.2,140615,6.2,"
"##MN-00 00 54 2214 01668 5732 447296 205507 190"
"165.29963"
"$GPRMC,071122,A,2434.1516,N,08053.3636,W,1.9,251.6,140615,6.2,"
"##MN-00 00 52 2215 01669 5733 447277 205501 190"
"165.299676"
"$GPRMC,071126,A,2434.1509,N,08053.3660,W,1.9,252.6,140615,6.2,"
"##MN-00 00 52 2216 01672 5734 447241 205482 190"
"165.299722"
"$GPRMC,071130,A,2434.1503,N,08053.3681,W,1.9,254.4,140615,6.2,"
"##MN-00 00 54 2217 01674 5734 447235 205473 190"
"165.299769"
"$GPRMC,071134,A,2434.1498,N,08053.3703,W,1.9,254.5,140615,6.2,"
"##MN-00 00 54 2218 01678 5735 447234 205485 190"
"165.299815"
"$GPRMC,071138,A,2434.1494,N,08053.3726,W,1.9,255.1,140615,6.2,"
"##MN-00 00 54 2219 01686 5735 447257 205499 190"
"165.299861"
"$GPRMC,071142,A,2434.1485,N,08053.3748,W,1.9,255.6,140615,6.2,"
"##MN-00 00 51 2220 01687 5736 447287 205504 190"
"165.299907"
"$GPRMC,071146,A,2434.1478,N,08053.3770,W,1.9,256.0,140615,6.2,"
"##MN-00 00 53 2221 01691 5736 447302 205508 190"
"165.299954"
"$GPRMC,071150,A,2434.1473,N,08053.3794,W,1.9,255.7,140615,6.2,"
"##MN-00 00 54 2222 01692 5737 447245 205492 190"
"165.30"
"$GPRMC,071154,A,2434.1465,N,08053.3820,W,2.0,255.3,140615,6.2,"
"##MN-00 00 52 2223 01696 5738 447166 205431 190"
"165.300058"
"$GPRMC,071158,A,2434.1458,N,08053.3844,W,2.0,253.8,140615,6.2,"
"##MN-00 00 52 2224 01698 5738 447138 205424 190"
"165.300104"
"$GPRMC,071202,A,2434.1451,N,08053.3865,W,2.0,254.0,140615,6.2,"
"##MN-00 00 53 2225 01701 5739 447116 205407 190"
"165.30015"
"$GPRMC,071207,A,2434.1448,N,08053.3891,W,1.9,254.9,140615,6.2,"
"##MN-00 00 52 2226 01706 5740 447092 205373 190"
"165.300197"
"$GPRMC,071211,A,2434.1443,N,08053.3916,W,1.9,254.8,140615,6.2,"
"##MN-00 00 52 2227 01706 5740 447066 205344 190"
"165.300243"
"$GPRMC,071215,A,2434.1436,N,08053.3941,W,2.0,254.2,140615,6.2,"
"##MN-00 00 54 2228 01711 5741 447062 205339 190"
"165.300289"
"$GPRMC,071219,A,2434.1429,N,08053.3964,W,1.9,254.4,140615,6.2,"
"##MN-00 00 54 2229 01713 5741 447057 205331 190"
"165.300336"
"$GPRMC,071223,A,2434.1424,N,08053.3988,W,2.0,253.3,140615,6.2,"
"##MN-00 00 53 2230 01720 5742 447050 205324 190"
"165.300382"
"$GPRMC,071227,A,2434.1413,N,08053.4010,W,1.9,253.0,140615,6.2,"
"##MN-00 00 53 2231 01724 5743 447050 205306 190"
"165.300428"
"$GPRMC,071230,A,2434.1409,N,08053.4025,W,1.9,251.5,140615,6.2,"
"##MN-00 00 54 2232 01728 5743 447054 205277 190"
"165.300475"
"$GPRMC,071235,A,2434.1400,N,08053.4053,W,1.9,250.3,140615,6.2,"
"##MN-00 00 52 2233 01731 5744 447066 205241 190"
"165.300521"
"$GPRMC,071239,A,2434.1393,N,08053.4073,W,1.9,248.3,140615,6.2,"
"##MN-00 00 54 2234 01733 5744 447098 205208 190"
"165.300567"
"$GPRMC,071243,A,2434.1382,N,08053.4095,W,2.0,246.5,140615,6.2,"
"##MN-00 00 53 2234 01742 5745 447134 205177 190"
"165.300613"
"$GPRMC,071247,A,2434.1375,N,08053.4115,W,1.9,246.2,140615,6.2,"
"##MN-00 00 51 2235 01745 5746 447171 205166 190"
"165.30066"
"$GPRMC,071251,A,2434.1365,N,08053.4137,W,1.9,245.9,140615,6.2,"
"##MN-00 00 52 2236 01746 5746 447201 205157 190"
"165.300706"
"$GPRMC,071255,A,2434.1357,N,08053.4158,W,1.9,245.5,140615,6.2,"
"##MN-00 00 52 2237 01755 5747 447230 205143 190"
"165.300752"
"$GPRMC,071259,A,2434.1347,N,08053.4177,W,1.9,246.0,140615,6.2,"
"##MN-00 00 52 2238 01756 5747 447276 205133 190"
"165.300799"
"$GPRMC,071303,A,2434.1339,N,08053.4201,W,2.0,246.1,140615,6.2,"
"##MN-00 00 53 2239 01757 5748 447331 205122 190"
"165.300845"
"$GPRMC,071307,A,2434.1333,N,08053.4223,W,2.0,247.1,140615,6.2,"
"##MN-00 00 52 2240 01764 5749 447366 205115 190"
"165.300891"
"$GPRMC,071311,A,2434.1332,N,08053.4248,W,2.0,249.7,140615,6.2,"
"##MN-00 00 52 2240 01768 5750 447391 205112 190"
"165.300937"
"$GPRMC,071315,A,2434.1328,N,08053.4270,W,2.1,248.7,140615,6.2,"
"##MN-00 00 52 2241 01772 5750 447415 205109 190"
"165.300984"
"$GPRMC,071319,A,2434.1315,N,08053.4288,W,1.9,248.0,140615,6.2,"
"##MN-00 00 53 2242 01778 5751 447440 205108 190"
"165.30103"
"$GPRMC,071323,A,2434.1307,N,08053.4310,W,1.8,248.0,140615,6.2,"
"##MN-00 00 51 2243 01780 5752 447462 205108 190"
"165.301076"
"$GPRMC,071327,A,2434.1300,N,08053.4332,W,1.9,249.3,140615,6.2,"
"##MN-00 00 52 2244 01785 5752 447479 205110 190"
"165.301123"
"$GPRMC,071331,A,2434.1292,N,08053.4354,W,1.9,251.0,140615,6.2,"
"##MN-00 00 51 2245 01792 5753 447498 205110 190"
"165.301169"
"$GPRMC,071335,A,2434.1288,N,08053.4379,W,1.9,251.2,140615,6.2,"
"##MN-00 00 51 2245 01794 5753 447506 205111 190"
"165.301215"
"$GPRMC,071339,A,2434.1281,N,08053.4402,W,1.9,252.3,140615,6.2,"
"##MN-00 00 52 2246 01795 5753 447500 205111 190"
"165.301262"
"$GPRMC,071343,A,2434.1273,N,08053.4425,W,1.9,253.7,140615,6.2,"
"##MN-00 00 51 2247 01800 5754 447498 205110 190"
"165.301308"
"$GPRMC,071347,A,2434.1261,N,08053.4448,W,2.0,253.2,140615,6.2,"
"##MN-00 00 51 2248 01804 5755 447500 205110 190"
"165.301354"
"$GPRMC,071351,A,2434.1252,N,08053.4469,W,2.0,254.1,140615,6.2,"
"##MN-00 00 52 2249 01806 5755 447514 205109 190"
"165.3014"
"$GPRMC,071355,A,2434.1245,N,08053.4494,W,2.0,254.0,140615,6.2,"
"##MN-00 00 52 2250 01806 5756 447538 205115 190"
"165.301447"
"$GPRMC,071359,A,2434.1238,N,08053.4520,W,2.1,254.1,140615,6.2,"
"##MN-00 00 52 2251 01812 5757 447603 205121 190"
"165.301493"
"$GPRMC,071403,A,2434.1232,N,08053.4543,W,2.1,254.6,140615,6.2,"
"##MN-00 00 50 2251 01810 5757 447735 205143 190"
"165.301539"
"$GPRMC,071407,A,2434.1227,N,08053.4568,W,2.1,255.5,140615,6.2,"
"##MN-00 00 52 2252 01814 5758 447823 205155 190"
"165.301586"
"$GPRMC,071411,A,2434.1220,N,08053.4595,W,2.1,255.0,140615,6.2,"
"##MN-00 00 50 2253 01820 5758 447911 205168 190"
"165.301632"
"$GPRMC,071415,A,2434.1212,N,08053.4622,W,2.1,255.1,140615,6.2,"
"##MN-00 00 51 2254 01818 5759 447980 205174 190"
"165.301678"
"$GPRMC,071419,A,2434.1205,N,08053.4646,W,2.1,254.7,140615,6.2,"
"##MN-00 00 53 2255 01822 5760 447999 205187 190"
"165.301725"
"$GPRMC,071423,A,2434.1200,N,08053.4669,W,2.0,254.4,140615,6.2,"
"##MN-00 00 51 2256 01825 5760 448022 205187 190"
"165.301771"
"$GPRMC,071427,A,2434.1191,N,08053.4693,W,2.1,251.6,140615,6.2,"
"##MN-00 00 51 2257 01826 5761 448022 205189 190"
"165.301817"
"$GPRMC,071431,A,2434.1186,N,08053.4715,W,2.0,250.6,140615,6.2,"
"##MN-00 00 51 2257 01833 5761 448087 205200 190"
"165.301863"
"$GPRMC,071435,A,2434.1180,N,08053.4737,W,2.0,249.4,140615,6.2,"
"##MN-00 00 49 2258 01830 5762 448138 205209 190"
"165.30191"
"$GPRMC,071439,A,2434.1167,N,08053.4762,W,2.2,248.1,140615,6.2,"
"##MN-00 00 51 2259 01827 5762 448152 205211 190"
"165.301956"
"$GPRMC,071443,A,2434.1156,N,08053.4784,W,2.2,247.3,140615,6.2,"
"##MN-00 00 51 2260 01834 5763 448141 205209 190"
"165.302002"
"$GPRMC,071447,A,2434.1151,N,08053.4809,W,2.2,246.9,140615,6.2,"
"##MN-00 00 52 2261 01838 5764 448154 205211 190"
"165.302049"
"$GPRMC,071451,A,2434.1140,N,08053.4837,W,2.1,248.3,140615,6.2,"
"##MN-00 00 52 2262 01842 5764 448216 205211 190"
"165.302095"
"$GPRMC,071455,A,2434.1133,N,08053.4864,W,2.1,249.2,140615,6.2,"
"##MN-00 00 52 2263 01846 5765 448303 205228 190"
"165.302141"
"$GPRMC,071459,A,2434.1123,N,08053.4886,W,2.1,249.8,140615,6.2,"
"##MN-00 00 52 2264 01850 5766 448378 205239 190"
"165.302188"
"$GPRMC,071503,A,2434.1116,N,08053.4908,W,2.1,250.5,140615,6.2,"
"##MN-00 00 51 2264 01851 5766 448405 205237 190"
"165.302234"
"$GPRMC,071507,A,2434.1109,N,08053.4931,W,2.1,250.5,140615,6.2,"
"##MN-00 00 53 2265 01850 5767 448425 205251 190"
"165.30228"
"$GPRMC,071511,A,2434.1100,N,08053.4954,W,2.1,249.6,140615,6.2,"
"##MN-00 00 51 2266 01856 5767 448453 205259 190"
"165.302326"
"$GPRMC,071515,A,2434.1093,N,08053.4976,W,2.1,248.3,140615,6.2,"
"##MN-00 00 51 2267 01858 5767 448476 205264 190"
"165.302373"
"$GPRMC,071519,A,2434.1082,N,08053.5000,W,2.1,246.9,140615,6.2,"
"##MN-00 00 51 2268 01862 5768 448490 205267 190"
"165.302419"
"$GPRMC,071523,A,2434.1077,N,08053.5025,W,2.1,246.8,140615,6.2,"
"##MN-00 00 52 2269 01864 5768 448509 205269 190"
"165.302465"
"$GPRMC,071527,A,2434.1069,N,08053.5048,W,2.1,248.3,140615,6.2,"
"##MN-00 00 52 2269 01868 5769 448532 205273 190"
"165.302512"
"$GPRMC,071531,A,2434.1058,N,08053.5072,W,2.1,249.4,140615,6.2,"
"##MN-00 00 51 2270 01872 5770 448564 205279 190"
"165.302558"
"$GPRMC,071535,A,2434.1046,N,08053.5094,W,2.1,249.0,140615,6.2,"
"##MN-00 00 52 2271 01871 5770 448584 205284 190"
"165.302604"
"$GPRMC,071539,A,2434.1037,N,08053.5119,W,2.2,248.6,140615,6.2,"
"##MN-00 00 50 2272 01875 5771 448616 205292 190"
"165.30265"
"$GPRMC,071543,A,2434.1026,N,08053.5142,W,2.1,248.8,140615,6.2,"
"##MN-00 00 53 2273 01877 5771 448650 205300 190"
"165.302697"
"$GPRMC,071547,A,2434.1017,N,08053.5166,W,2.1,249.0,140615,6.2,"
"##MN-00 00 52 2274 01880 5772 448671 205304 190"
"165.302743"
"$GPRMC,071551,A,2434.1011,N,08053.5188,W,2.1,249.0,140615,6.2,"
"##MN-00 00 52 2275 01886 5772 448681 205304 190"
"165.302789"
"$GPRMC,071555,A,2434.1006,N,08053.5213,W,2.1,249.3,140615,6.2,"
"##MN-00 00 52 2276 01888 5773 448698 205305 190"
"165.302836"
"$GPRMC,071559,A,2434.0999,N,08053.5236,W,2.1,249.7,140615,6.2,"
"##MN-00 00 50 2276 01890 5773 448714 205311 190"
"165.302882"
"$GPRMC,071603,A,2434.0990,N,08053.5264,W,2.1,249.7,140615,6.2,"
"##MN-00 00 52 2277 01890 5774 448730 205315 190"
"165.302928"
"$GPRMC,071607,A,2434.0985,N,08053.5283,W,2.1,249.9,140615,6.2,"
"##MN-00 00 52 2278 01897 5774 448735 205316 190"
"165.302975"
"$GPRMC,071611,A,2434.0978,N,08053.5307,W,2.1,250.7,140615,6.2,"
"##MN-00 00 52 2279 01900 5775 448737 205316 190"
"165.303021"
"$GPRMC,071615,A,2434.0970,N,08053.5329,W,2.1,250.1,140615,6.2,"
"##MN-00 00 51 2280 01901 5775 448738 205315 190"
"165.303067"
"$GPRMC,071619,A,2434.0964,N,08053.5351,W,2.0,250.0,140615,6.2,"
"##MN-00 00 52 2281 01906 5776 448740 205316 190"
"165.303113"
"$GPRMC,071623,A,2434.0957,N,08053.5376,W,2.0,250.5,140615,6.2,"
"##MN-00 00 50 2282 01903 5776 448755 205320 190"
"165.30316"
"$GPRMC,071627,A,2434.0949,N,08053.5401,W,2.1,250.1,140615,6.2,"
"##MN-00 00 52 2283 01907 5777 448758 205321 190"
"165.303206"
"$GPRMC,071631,A,2434.0941,N,08053.5423,W,2.1,249.8,140615,6.2,"
"##MN-00 00 51 2283 01912 5777 448774 205324 190"
"165.303252"
"$GPRMC,071635,A,2434.0934,N,08053.5448,W,2.2,251.2,140615,6.2,"
"##MN-00 00 52 2284 01912 5778 448798 205329 190"
"165.30331"
"$GPRMC,071639,A,2434.0927,N,08053.5471,W,2.1,250.2,140615,6.2,"
"##MN-00 00 51 2285 01919 5778 448814 205334 190"
"165.303356"
"$GPRMC,071643,A,2434.0913,N,08053.5493,W,2.1,250.0,140615,6.2,"
"##MN-00 00 50 2286 01919 5779 448825 205336 190"
"165.303403"
"$GPRMC,071647,A,2434.0905,N,08053.5517,W,2.1,248.8,140615,6.2,"
"##MN-00 00 52 2287 01920 5780 448835 205337 190"
"165.303449"
"$GPRMC,071652,A,2434.0889,N,08053.5547,W,2.1,249.1,140615,6.2,"
"##MN-00 00 53 2288 01924 5780 448848 205339 190"
"165.303495"
"$GPRMC,071656,A,2434.0885,N,08053.5564,W,2.1,250.3,140615,6.2,"
"##MN-00 00 51 2288 01929 5781 448871 205344 190"
"165.303542"
"$GPRMC,071700,A,2434.0873,N,08053.5589,W,2.1,249.4,140615,6.2,"
"##MN-00 00 50 2289 01931 5781 448914 205353 190"
"165.303588"
"$GPRMC,071704,A,2434.0860,N,08053.5616,W,2.1,248.8,140615,6.2,"
"##MN-00 00 51 2290 01935 5781 448931 205357 190"
"165.303634"
"$GPRMC,071708,A,2434.0852,N,08053.5639,W,2.1,249.4,140615,6.2,"
"##MN-00 00 52 2291 01936 5782 448963 205361 190"
"165.303681"
"$GPRMC,071712,A,2434.0844,N,08053.5662,W,2.1,249.2,140615,6.2,"
"##MN-00 00 52 2292 01943 5783 449028 205366 190"
"165.303727"
"$GPRMC,071716,A,2434.0840,N,08053.5683,W,2.0,248.1,140615,6.2,"
"##MN-00 00 51 2293 01943 5783 449108 205385 190"
"165.303773"
"$GPRMC,071720,A,2434.0830,N,08053.5708,W,2.0,247.1,140615,6.2,"
"##MN-00 00 52 2294 01947 5784 449154 205396 190"
"165.303819"
"$GPRMC,071724,A,2434.0822,N,08053.5728,W,1.9,246.6,140615,6.2,"
"##MN-00 00 51 2294 01954 5784 449198 205410 190"
"165.303866"
"$GPRMC,071728,A,2434.0815,N,08053.5749,W,1.9,246.1,140615,6.2,"
"##MN-00 00 52 2295 01955 5785 449274 205424 190"
"165.303912"
"$GPRMC,071732,A,2434.0807,N,08053.5770,W,1.9,245.5,140615,6.2,"
"##MN-00 00 52 2296 01963 5785 449371 205446 190"
"165.303958"
"$GPRMC,071736,A,2434.0794,N,08053.5791,W,1.9,245.9,140615,6.2,"
"##MN-00 00 51 2297 01967 5785 449518 205468 190"
"165.304005"
"$GPRMC,071740,A,2434.0786,N,08053.5813,W,1.9,246.1,140615,6.2,"
"##MN-00 00 51 2298 01970 5786 449672 205506 190"
"165.304051"
"$GPRMC,071744,A,2434.0777,N,08053.5835,W,2.0,246.2,140615,6.2,"
"##MN-00 00 51 2298 01971 5786 449964 205553 190"
"165.304097"
"$GPRMC,071748,A,2434.0768,N,08053.5856,W,2.0,246.7,140615,6.2,"
"##MN-00 00 50 2299 01974 5787 450233 205646 190"
"165.304144"
"$GPRMC,071752,A,2434.0764,N,08053.5882,W,2.0,247.9,140615,6.2,"
"##MN-00 00 52 2300 01980 5787 450733 205751 190"
"165.30419"
"$GPRMC,071756,A,2434.0755,N,08053.5907,W,2.0,248.6,140615,6.2,"
"##MN-00 00 51 2301 01985 5788 451047 205760 190"
"165.304236"
"$GPRMC,071800,A,2434.0743,N,08053.5929,W,2.1,249.4,140615,6.2,"
"##MN-00 00 50 2302 01984 5788 451560 205871 190"
"165.304282"
"$GPRMC,071804,A,2434.0735,N,08053.5954,W,2.0,250.8,140615,6.2,"
"##MN-00 00 50 2302 01989 5788 451902 205940 190"
"165.304329"
"$GPRMC,071808,A,2434.0733,N,08053.5972,W,2.0,251.6,140615,6.2,"
"##MN-00 00 52 2303 01995 5789 452225 206025 190"
"165.304375"
"$GPRMC,071812,A,2434.0728,N,08053.5995,W,2.1,251.6,140615,6.2,"
"##MN-00 00 50 2304 01996 5789 452521 206096 190"
"165.304421"
"$GPRMC,071816,A,2434.0721,N,08053.6015,W,2.1,251.9,140615,6.2,"
"##MN-00 00 51 2305 02000 5789 452871 206184 190"
"165.304468"
"$GPRMC,071820,A,2434.0715,N,08053.6040,W,2.1,252.6,140615,6.2,"
"##MN-00 00 51 2306 02002 5790 453134 206207 190"
"165.304514"
"$GPRMC,071824,A,2434.0706,N,08053.6062,W,2.0,252.3,140615,6.2,"
"##MN-00 00 51 2307 02007 5790 453413 206275 190"
"165.30456"
"$GPRMC,071828,A,2434.0697,N,08053.6085,W,2.0,251.6,140615,6.2,"
"##MN-00 00 52 2307 02009 5791 453664 206279 190"
"165.304606"
"$GPRMC,071832,A,2434.0688,N,08053.6107,W,2.0,249.9,140615,6.2,"
"##MN-00 00 52 2308 02015 5791 454098 206446 190"
"165.304653"
"$GPRMC,071836,A,2434.0678,N,08053.6129,W,2.0,248.5,140615,6.2,"
"##MN-00 00 51 2309 02017 5792 454556 206508 190"
"165.304699"
"$GPRMC,071840,A,2434.0672,N,08053.6153,W,2.0,248.4,140615,6.2,"
"##MN-00 00 51 2310 02019 5792 454772 206582 190"
"165.304745"
"$GPRMC,071844,A,2434.0667,N,08053.6176,W,2.1,248.7,140615,6.2,"
"##MN-00 00 50 2311 02023 5792 454981 206633 190"
"165.304792"
"$GPRMC,071848,A,2434.0663,N,08053.6203,W,2.1,248.8,140615,6.2,"
"##MN-00 00 51 2312 02025 5792 455223 206673 190"
"165.304838"
"$GPRMC,071852,A,2434.0656,N,08053.6225,W,2.0,248.6,140615,6.2,"
"##MN-00 00 49 2312 02028 5793 455812 206806 190"
"165.304884"
"$GPRMC,071856,A,2434.0643,N,08053.6250,W,2.1,248.1,140615,6.2,"
"##MN-00 00 50 2313 02027 5793 456770 207069 190"
"165.304931"
"$GPRMC,071900,A,2434.0634,N,08053.6270,W,2.0,247.8,140615,6.2,"
"##MN-00 00 52 2314 02033 5794 457026 207129 190"
"165.304977"
"$GPRMC,071904,A,2434.0625,N,08053.6290,W,1.9,247.3,140615,6.2,"
"##MN-00 00 50 2315 02036 5794 458033 207232 190"
"165.305023"
"$GPRMC,071908,A,2434.0614,N,08053.6311,W,2.0,245.9,140615,6.2,"
"##MN-00 00 51 2315 02037 5794 458729 207425 190"
"165.305069"
"$GPRMC,071912,A,2434.0608,N,08053.6331,W,1.9,246.1,140615,6.2,"
"##MN-00 00 51 2316 02044 5794 459431 207435 190"
"165.305116"
"$GPRMC,071916,A,2434.0595,N,08053.6355,W,2.0,246.3,140615,6.2,"
"##MN-00 00 50 2317 02046 5795 459905 207611 190"
"165.305162"
"$GPRMC,071920,A,2434.0589,N,08053.6380,W,2.1,247.2,140615,6.2,"
"##MN-00 00 51 2318 02046 5795 460816 207857 190"
"165.305208"
"$GPRMC,071924,A,2434.0585,N,08053.6402,W,2.0,248.6,140615,6.2,"
"##MN-00 00 50 2319 02051 5795 461378 207971 190"
"165.305255"
"$GPRMC,071928,A,2434.0574,N,08053.6425,W,2.0,248.7,140615,6.2,"
"##MN-00 00 52 2320 02055 5795 461888 208039 190"
"165.305301"
"$GPRMC,071932,A,2434.0569,N,08053.6447,W,1.9,248.6,140615,6.2,"
"##MN-00 00 51 2320 02059 5795 463394 208380 190"
"165.305347"
"$GPRMC,071936,A,2434.0563,N,08053.6472,W,2.0,248.1,140615,6.2,"
"##MN-00 00 51 2321 02056 5796 464817 208601 190"
"165.305394"
"$GPRMC,071940,A,2434.0553,N,08053.6496,W,2.0,248.2,140615,6.2,"
"##MN-00 00 51 2322 02062 5796 466417 208942 190"
"165.30544"
"$GPRMC,071944,A,2434.0551,N,08053.6521,W,2.1,248.4,140615,6.2,"
"##MN-00 00 50 2323 02065 5796 467630 209138 190"
"165.305486"
"$GPRMC,071948,A,2434.0535,N,08053.6544,W,2.2,247.9,140615,6.2,"
"##MN-00 00 49 2324 02064 5796 467882 209277 190"
"165.305532"
"$GPRMC,071952,A,2434.0522,N,08053.6566,W,2.2,248.4,140615,6.2,"
"##MN-00 00 52 2324 02068 5796 468515 209367 190"
"165.305579"
"$GPRMC,071956,A,2434.0516,N,08053.6590,W,2.1,247.7,140615,6.2,"
"##MN-00 00 51 2325 02076 5796 469084 209499 190"
"165.305625"
"$GPRMC,072000,A,2434.0509,N,08053.6612,W,2.1,248.2,140615,6.2,"
"##MN-00 00 50 2326 02077 5796 469205 209551 190"
"165.305671"
"$GPRMC,072004,A,2434.0499,N,08053.6638,W,2.1,249.1,140615,6.2,"
"##MN-00 00 51 2327 02081 5796 469466 209579 190"
"165.305718"
"$GPRMC,072008,A,2434.0493,N,08053.6658,W,2.0,249.9,140615,6.2,"
"##MN-00 00 51 2328 02084 5796 469775 209670 190"
"165.305764"
"$GPRMC,072012,A,2434.0486,N,08053.6683,W,2.1,250.0,140615,6.2,"
"##MN-00 00 51 2329 02088 5796 470079 209727 190"
"165.30581"
"$GPRMC,072016,A,2434.0479,N,08053.6705,W,2.1,250.2,140615,6.2,"
"##MN-00 00 49 2330 02088 5795 470335 209839 190"
"165.305856"
"$GPRMC,072020,A,2434.0469,N,08053.6730,W,2.1,249.8,140615,6.2,"
"##MN-00 00 51 2330 02089 5795 470756 209933 190"
"165.305903"
"$GPRMC,072024,A,2434.0461,N,08053.6754,W,2.2,249.3,140615,6.2,"
"##MN-00 00 52 2331 02095 5795 471049 209946 190"
"165.305949"
"$GPRMC,072028,A,2434.0453,N,08053.6778,W,2.2,249.2,140615,6.2,"
"##MN-00 00 51 2332 02098 5795 471323 209990 190"
"165.305995"
"$GPRMC,072032,A,2434.0444,N,08053.6801,W,2.1,248.8,140615,6.2,"
"##MN-00 00 50 2333 02101 5795 471451 210045 190"
"165.306042"
"$GPRMC,072036,A,2434.0435,N,08053.6824,W,2.1,248.2,140615,6.2,"
"##MN-00 00 50 2334 02107 5794 471638 210067 190"
"165.306088"
"$GPRMC,072040,A,2434.0428,N,08053.6848,W,2.1,248.8,140615,6.2,"
"##MN-00 00 49 2334 02107 5794 471745 210108 190"
"165.306134"
"$GPRMC,072044,A,2434.0423,N,08053.6871,W,2.1,248.6,140615,6.2,"
"##MN-00 00 51 2335 02105 5794 471812 210114 190"
"165.306181"
"$GPRMC,072048,A,2434.0412,N,08053.6898,W,2.2,248.0,140615,6.2,"
"##MN-00 00 51 2336 02109 5794 471841 210136 190"
"165.306227"
"$GPRMC,072052,A,2434.0401,N,08053.6923,W,2.2,246.9,140615,6.2,"
"##MN-00 00 50 2337 02112 5793 471909 210139 190"
"165.306273"
"$GPRMC,072056,A,2434.0387,N,08053.6947,W,2.2,244.5,140615,6.2,"
"##MN-00 00 49 2338 02111 5793 471967 210153 190"
"165.306319"
"$GPRMC,072100,A,2434.0375,N,08053.6970,W,2.2,243.0,140615,6.2,"
"##MN-00 00 51 2339 02116 5792 472064 210175 190"
"165.306366"
"$GPRMC,072104,A,2434.0364,N,08053.6991,W,2.2,242.7,140615,6.2,"
"##MN-00 00 49 2339 02121 5791 472249 210213 190"
"165.306412"
"$GPRMC,072108,A,2434.0350,N,08053.7013,W,2.2,242.7,140615,6.2,"
"##MN-00 00 50 2340 02115 5791 472328 210234 190"
"165.306458"
"$GPRMC,072112,A,2434.0343,N,08053.7038,W,2.2,243.6,140615,6.2,"
"##MN-00 00 51 2341 02122 5790 472414 210251 190"
"165.306505"
"$GPRMC,072116,A,2434.0334,N,08053.7063,W,2.2,244.7,140615,6.2,"
"##MN-00 00 50 2342 02126 5790 472471 210259 190"
"165.306563"
"$GPRMC,072120,A,2434.0327,N,08053.7092,W,2.2,246.7,140615,6.2,"
"##MN-00 00 51 2343 02123 5789 472487 210267 190"
"165.306609"
"$GPRMC,072124,A,2434.0316,N,08053.7117,W,2.2,247.4,140615,6.2,"
"##MN-00 00 50 2344 02128 5789 472516 210276 190"
"165.306655"
"$GPRMC,072128,A,2434.0309,N,08053.7140,W,2.2,248.0,140615,6.2,"
"##MN-00 00 49 2345 02131 5788 472548 210278 190"
"165.306701"
"$GPRMC,072132,A,2434.0298,N,08053.7168,W,2.3,247.5,140615,6.2,"
"##MN-00 00 50 2345 02131 5787 472561 210283 190"
"165.306748"
"$GPRMC,072136,A,2434.0286,N,08053.7196,W,2.2,247.6,140615,6.2,"
"##MN-00 00 51 2346 02133 5787 472592 210278 190"
"165.306794"
"$GPRMC,072140,A,2434.0275,N,08053.7222,W,2.2,247.2,140615,6.2,"
"##MN-00 00 50 2347 02141 5786 472832 210349 190"
"165.30684"
"$GPRMC,072145,A,2434.0262,N,08053.7248,W,2.2,248.0,140615,6.2,"
"##MN-00 00 50 2348 02143 5785 473571 210486 190"
"165.306887"
"$GPRMC,072149,A,2434.0252,N,08053.7270,W,2.1,247.9,140615,6.2,"
"##MN-00 00 51 2349 02146 5785 474332 210594 190"
"165.306933"
"$GPRMC,072153,A,2434.0242,N,08053.7291,W,2.1,247.9,140615,6.2,"
"##MN-00 00 51 2350 02148 5784 474891 210630 190"
"165.306979"
"$GPRMC,072157,A,2434.0235,N,08053.7312,W,2.1,248.4,140615,6.2,"
"##MN-00 00 51 2350 02155 5784 475990 210883 190"
"165.307025"
"$GPRMC,072201,A,2434.0230,N,08053.7334,W,2.1,248.2,140615,6.2,"
"##MN-00 00 50 2351 02157 5783 477315 211150 190"
"165.307072"
"$GPRMC,072205,A,2434.0223,N,08053.7355,W,2.2,248.3,140615,6.2,"
"##MN-00 00 52 2352 02160 5782 479613 211512 190"
"165.307118"
"$GPRMC,072209,A,2434.0213,N,08053.7378,W,2.2,248.5,140615,6.2,"
"##MN-00 00 51 2353 02164 5782 481024 211904 190"
"165.307164"
"$GPRMC,072213,A,2434.0202,N,08053.7403,W,2.2,248.7,140615,6.2,"
"##MN-00 00 51 2354 02169 5781 482776 211928 190"
"165.307211"
"$GPRMC,072217,A,2434.0188,N,08053.7428,W,2.1,248.0,140615,6.2,"
"##MN-00 00 50 2354 02171 5780 485144 212481 190"
"165.307257"
"$GPRMC,072221,A,2434.0181,N,08053.7451,W,2.2,246.8,140615,6.2,"
"##MN-00 00 51 2355 02174 5779 486001 212824 190"
"165.307303"
"$GPRMC,072225,A,2434.0172,N,08053.7476,W,2.2,246.1,140615,6.2,"
"##MN-00 00 51 2356 02178 5778 486506 212828 190"
"165.30735"
"$GPRMC,072229,A,2434.0162,N,08053.7500,W,2.1,246.9,140615,6.2,"
"##MN-00 00 51 2357 02179 5778 487179 212838 190"
"165.307396"
"$GPRMC,072233,A,2434.0152,N,08053.7525,W,2.2,247.2,140615,6.2,"
"##MN-00 00 51 2358 02182 5777 488308 213391 190"
"165.307442"
"$GPRMC,072237,A,2434.0146,N,08053.7550,W,2.1,248.3,140615,6.2,"
"##MN-00 00 50 2359 02186 5776 489617 213656 190"
"165.307488"
"$GPRMC,072241,A,2434.0135,N,08053.7573,W,2.1,247.3,140615,6.2,"
"##MN-00 00 51 2359 02189 5775 490562 213819 190"
"165.307535"
"$GPRMC,072245,A,2434.0125,N,08053.7599,W,2.1,246.2,140615,6.2,"
"##MN-00 00 51 2360 02194 5774 491240 213971 190"
"165.307581"
"$GPRMC,072249,A,2434.0114,N,08053.7623,W,2.1,245.7,140615,6.2,"
"##MN-00 00 51 2361 02198 5773 491916 214130 190"
"165.307627"
"$GPRMC,072253,A,2434.0103,N,08053.7646,W,2.1,245.8,140615,6.2,"
"##MN-00 00 51 2362 02197 5772 492329 214205 190"
"165.307674"
"$GPRMC,072257,A,2434.0092,N,08053.7670,W,2.1,245.9,140615,6.2,"
"##MN-00 00 51 2362 02203 5770 492711 214320 190"
"165.30772"
"$GPRMC,072301,A,2434.0085,N,08053.7691,W,2.1,246.4,140615,6.2,"
"##MN-00 00 50 2363 02205 5770 493201 214364 190"
"165.307766"
"$GPRMC,072305,A,2434.0076,N,08053.7717,W,2.1,247.9,140615,6.2,"
"##MN-00 00 50 2364 02206 5769 493418 214448 190"
"165.307812"
"$GPRMC,072309,A,2434.0069,N,08053.7740,W,2.1,248.8,140615,6.2,"
"##MN-00 00 50 2365 02212 5768 493584 214519 190"
"165.307859"
"$GPRMC,072313,A,2434.0058,N,08053.7764,W,2.1,249.1,140615,6.2,"
"##MN-00 00 50 2366 02213 5766 493803 214572 190"
"165.307905"
"$GPRMC,072317,A,2434.0049,N,08053.7785,W,2.1,248.6,140615,6.2,"
"##MN-00 00 50 2367 02217 5765 493996 214606 190"
"165.307951"
"$GPRMC,072321,A,2434.0040,N,08053.7808,W,2.1,249.0,140615,6.2,"
"##MN-00 00 53 2367 02219 5764 494135 214633 190"
"165.307998"
"$GPRMC,072325,A,2434.0029,N,08053.7836,W,2.2,248.9,140615,6.2,"
"##MN-00 00 50 2368 02223 5762 494244 214659 190"
"165.308044"
"$GPRMC,072329,A,2434.0020,N,08053.7861,W,2.2,247.7,140615,6.2,"
"##MN-00 00 50 2369 02223 5761 494329 214688 190"
"165.30809"
"$GPRMC,072333,A,2434.0009,N,08053.7887,W,2.2,246.9,140615,6.2,"
"##MN-00 00 50 2370 02221 5760 494445 214716 190"
"165.308137"
"$GPRMC,072337,A,2433.9999,N,08053.7909,W,2.2,247.2,140615,6.2,"
"##MN-00 00 51 2370 02226 5758 494637 214772 190"
"165.308183"
"$GPRMC,072341,A,2433.9991,N,08053.7934,W,2.2,247.5,140615,6.2,"
"##MN-00 00 51 2371 02231 5756 495160 214875 190"
"165.308229"
"$GPRMC,072345,A,2433.9978,N,08053.7962,W,2.2,247.1,140615,6.2,"
"##MN-00 00 51 2372 02232 5755 495456 214910 190"
"165.308275"
"$GPRMC,072349,A,2433.9969,N,08053.7988,W,2.2,247.7,140615,6.2,"
"##MN-00 00 50 2373 02233 5753 496403 215129 190"
"165.308322"
"$GPRMC,072353,A,2433.9959,N,08053.8013,W,2.2,248.3,140615,6.2,"
"##MN-00 00 51 2374 02238 5752 497245 215223 190"
"165.308368"
"$GPRMC,072357,A,2433.9950,N,08053.8040,W,2.2,248.4,140615,6.2,"
"##MN-00 00 50 2375 02238 5750 497825 215366 190"
"165.308414"
"$GPRMC,072401,A,2433.9944,N,08053.8067,W,2.3,248.7,140615,6.2,"
"##MN-00 00 51 2376 02238 5749 498219 215523 190"
"165.308461"
"$GPRMC,072405,A,2433.9933,N,08053.8092,W,2.3,249.2,140615,6.2,"
"##MN-00 00 50 2377 02241 5747 498479 215567 190"
"165.308507"
"$GPRMC,072409,A,2433.9928,N,08053.8111,W,2.2,248.6,140615,6.2,"
"##MN-00 00 50 2377 02241 5745 498702 215659 190"
"165.308553"
"$GPRMC,072413,A,2433.9919,N,08053.8137,W,2.3,248.1,140615,6.2,"
"##MN-00 00 52 2378 02238 5744 499280 215789 190"
"165.3086"
"$GPRMC,072417,A,2433.9908,N,08053.8161,W,2.3,246.9,140615,6.2,"
"##MN-00 00 50 2379 02241 5742 499242 215767 190"
"165.308646"
"$GPRMC,072421,A,2433.9901,N,08053.8186,W,2.3,247.2,140615,6.2,"
"##MN-00 00 51 2380 02241 5740 499583 215826 190"
"165.308692"
"$GPRMC,072425,A,2433.9894,N,08053.8210,W,2.3,245.8,140615,6.2,"
"##MN-00 00 51 2381 02244 5739 500022 215983 190"
"165.308738"
"$GPRMC,072429,A,2433.9890,N,08053.8233,W,2.1,246.3,140615,6.2,"
"##MN-00 00 51 2382 02249 5736 500987 216066 190"
"165.308785"
"$GPRMC,072433,A,2433.9880,N,08053.8259,W,2.2,246.4,140615,6.2,"
"##MN-00 00 50 2383 02247 5735 501630 216315 190"
"165.308831"
"$GPRMC,072437,A,2433.9870,N,08053.8282,W,2.2,247.0,140615,6.2,"
"##MN-00 00 51 2383 02254 5733 502370 216425 190"
"165.308877"
"$GPRMC,072441,A,2433.9861,N,08053.8306,W,2.2,247.2,140615,6.2,"
"##MN-00 00 49 2384 02257 5731 503156 216628 190"
"165.308924"
"$GPRMC,072445,A,2433.9850,N,08053.8331,W,2.3,246.4,140615,6.2,"
"##MN-00 00 49 2385 02253 5730 503572 216698 190"
"165.30897"
"$GPRMC,072449,A,2433.9839,N,08053.8358,W,2.4,248.2,140615,6.2,"
"##MN-00 00 50 2386 02257 5728 503771 216706 190"
"165.309016"
"$GPRMC,072453,A,2433.9832,N,08053.8378,W,2.4,249.0,140615,6.2,"
"##MN-00 00 50 2387 02258 5726 503960 216746 190"
"165.309063"
"$GPRMC,072457,A,2433.9821,N,08053.8403,W,2.4,247.7,140615,6.2,"
"##MN+00 00 50 2388 02261 5724 504061 216764 190"
"165.309109"
"$GPRMC,072501,A,2433.9807,N,08053.8432,W,2.3,247.5,140615,6.2,"
"##MN+00 00 50 2388 02267 5722 504257 216802 190"
"165.309155"
"$GPRMC,072505,A,2433.9796,N,08053.8455,W,2.3,246.9,140615,6.2,"
"##MN+00 00 49 2389 02268 5720 504479 216860 190"
"165.309201"
"$GPRMC,072509,A,2433.9785,N,08053.8482,W,2.2,246.6,140615,6.2,"
"##MN-00 00 51 2390 02271 5718 504748 216926 190"
"165.309248"
"$GPRMC,072513,A,2433.9778,N,08053.8508,W,2.2,247.5,140615,6.2,"
"##MN-00 00 50 2391 02271 5716 504935 216931 190"
"165.309294"
"$GPRMC,072517,A,2433.9768,N,08053.8533,W,2.2,247.7,140615,6.2,"
"##MN-00 00 50 2392 02272 5714 504978 216942 190"
"165.30934"
"$GPRMC,072521,A,2433.9757,N,08053.8556,W,2.2,246.6,140615,6.2,"
"##MN+00 00 49 2393 02272 5711 504970 216947 190"
"165.309387"
"$GPRMC,072525,A,2433.9746,N,08053.8580,W,2.2,246.8,140615,6.2,"
"##MN+00 00 52 2394 02271 5709 505017 216964 190"
"165.309433"
"$GPRMC,072529,A,2433.9738,N,08053.8605,W,2.2,247.2,140615,6.2,"
"##MN+00 00 57 2395 02273 5707 505033 216968 190"
"165.309479"
"$GPRMC,072533,A,2433.9734,N,08053.8627,W,2.2,246.8,140615,6.2,"
"##MN-00 00 55 2396 02275 5705 505154 216990 190"
"165.309525"
"#increment_net"
"$GPRMC,072537,A,2433.9726,N,08053.8650,W,2.1,245.3,140615,6.2,"
"##MN-00 00 52 2396 02281 5703 505325 217027 190"
"165.309572"
"$GPRMC,072541,A,2433.9715,N,08053.8674,W,2.1,246.2,140615,6.2,"
"##MN-00 00 53 2397 02279 5701 505528 217048 190"
"165.309618"
"$GPRMC,072545,A,2433.9706,N,08053.8699,W,2.1,246.1,140615,6.2,"
"##MN-00 00 51 2398 02285 5699 505666 217066 190"
"165.309664"
"$GPRMC,072549,A,2433.9695,N,08053.8722,W,2.0,246.8,140615,6.2,"
"##MN-00 00 52 2399 02282 5696 505855 217089 190"
"165.309711"
"$GPRMC,072553,A,2433.9686,N,08053.8746,W,2.1,246.7,140615,6.2,"
"##MN-00 00 52 2400 02283 5694 505921 217098 190"
"165.309757"
"$GPRMC,072557,A,2433.9677,N,08053.8768,W,2.0,247.6,140615,6.2,"
"##MN-00 00 51 2401 02284 5692 505974 217107 190"
"165.309815"
"$GPRMC,072601,A,2433.9666,N,08053.8790,W,2.1,248.4,140615,6.2,"
"##MN-00 00 51 2402 02282 5690 505983 217116 190"
"165.309861"
"$GPRMC,072606,A,2433.9653,N,08053.8819,W,2.1,247.9,140615,6.2,"
"##MN-00 00 52 2403 02280 5687 505909 217107 190"
"165.309907"
"$GPRMC,072610,A,2433.9644,N,08053.8842,W,2.0,248.6,140615,6.2,"
"##MN-00 00 51 2404 02280 5685 505848 217102 190"
"165.309954"
"$GPRMC,072614,A,2433.9635,N,08053.8866,W,2.1,249.0,140615,6.2,"
"##MN-00 00 52 2405 02277 5683 505748 217092 190"
"165.31"
"$GPRMC,072618,A,2433.9626,N,08053.8891,W,2.1,250.3,140615,6.2,"
"##MN-00 00 53 2405 02274 5680 505657 217085 190"
"165.310046"
"$GPRMC,072622,A,2433.9617,N,08053.8916,W,2.2,250.3,140615,6.2,"
"##MN-00 00 53 2406 02274 5678 505596 217074 190"
"165.310093"
"$GPRMC,072626,A,2433.9608,N,08053.8941,W,2.1,249.8,140615,6.2,"
"##MN-00 00 52 2407 02275 5676 505502 217068 190"
"165.310139"
"$GPRMC,072630,A,2433.9601,N,08053.8964,W,2.1,249.3,140615,6.2,"
"##MN-00 00 51 2408 02273 5673 505495 217071 190"
"165.310185"
"$GPRMC,072634,A,2433.9591,N,08053.8989,W,2.1,249.6,140615,6.2,"
"##MN-00 00 52 2409 02270 5671 505246 217025 190"
"165.310231"
"$GPRMC,072638,A,2433.9584,N,08053.9015,W,2.1,249.7,140615,6.2,"
"##MN-00 00 51 2410 02272 5669 505101 217011 190"
"165.310278"
"$GPRMC,072642,A,2433.9578,N,08053.9037,W,2.1,250.7,140615,6.2,"
"##MN-00 00 50 2411 02272 5667 505010 216989 190"
"165.310324"
"$GPRMC,072646,A,2433.9570,N,08053.9061,W,2.1,250.6,140615,6.2,"
"##MN-00 00 52 2412 02266 5664 504883 216963 190"
"165.31037"
"$GPRMC,072650,A,2433.9561,N,08053.9086,W,2.1,251.6,140615,6.2,"
"##MN-00 00 53 2413 02269 5662 504703 216938 190"
"165.310417"
"$GPRMC,072654,A,2433.9554,N,08053.9109,W,2.1,251.3,140615,6.2,"
"##MN-00 00 52 2414 02268 5660 504543 216911 190"
"165.310463"
"$GPRMC,072658,A,2433.9544,N,08053.9133,W,2.0,250.1,140615,6.2,"
"##MN-00 00 52 2415 02268 5657 504475 216892 190"
"165.310509"
"$GPRMC,072702,A,2433.9536,N,08053.9155,W,2.0,248.8,140615,6.2,"
"##MN-00 00 51 2416 02267 5655 504396 216883 190"
"165.310556"
"$GPRMC,072706,A,2433.9526,N,08053.9176,W,1.9,248.0,140615,6.2,"
"##MN-00 00 50 2417 02264 5652 504291 216866 190"
"165.310602"
"$GPRMC,072710,A,2433.9518,N,08053.9198,W,2.1,247.5,140615,6.2,"
"##MN-00 00 55 2418 02259 5650 504188 216841 190"
"165.310648"
"$GPRMC,072714,A,2433.9507,N,08053.9220,W,2.1,246.5,140615,6.2,"
"##MN-00 00 52 2419 02258 5648 504062 216821 190"
"165.310694"
"$GPRMC,072718,A,2433.9497,N,08053.9245,W,2.1,246.1,140615,6.2,"
"##MN-00 00 51 2419 02258 5645 503878 216799 190"
"165.310741"
"$GPRMC,072722,A,2433.9487,N,08053.9267,W,2.1,246.3,140615,6.2,"
"##MN-00 00 51 2420 02257 5643 503637 216763 190"
"165.310787"
"$GPRMC,072726,A,2433.9479,N,08053.9289,W,2.0,245.7,140615,6.2,"
"##MN-00 00 52 2421 02251 5640 503032 216617 190"
"165.310833"
"$GPRMC,072730,A,2433.9469,N,08053.9314,W,2.1,247.0,140615,6.2,"
"##MN-00 00 52 2422 02251 5638 502161 216467 190"
"165.31088"
"$GPRMC,072734,A,2433.9461,N,08053.9335,W,2.0,248.3,140615,6.2,"
"##MN-00 00 51 2423 02253 5636 501363 216297 190"
"165.310926"
"$GPRMC,072738,A,2433.9453,N,08053.9357,W,2.0,248.8,140615,6.2,"
"##MN-00 00 51 2424 02248 5633 501003 216223 190"
"165.310972"
"$GPRMC,072742,A,2433.9448,N,08053.9378,W,1.9,248.6,140615,6.2,"
"##MN-00 00 54 2425 02246 5631 500405 216101 190"
"165.311019"
"$GPRMC,072746,A,2433.9442,N,08053.9398,W,1.9,249.5,140615,6.2,"
"##MN-00 00 52 2426 02245 5628 499684 215943 190"
"165.311065"
"$GPRMC,072750,A,2433.9435,N,08053.9422,W,1.9,251.0,140615,6.2,"
"##MN-00 00 51 2427 02242 5626 499198 215855 190"
"165.311111"
"$GPRMC,072754,A,2433.9426,N,08053.9444,W,1.9,250.4,140615,6.2,"
"##MN-00 00 52 2428 02242 5624 498762 215749 190"
"165.311157"
"$GPRMC,072758,A,2433.9419,N,08053.9466,W,1.9,249.8,140615,6.2,"
"##MN-00 00 51 2428 02241 5621 498678 215718 190"
"165.311204"
"$GPRMC,072802,A,2433.9413,N,08053.9488,W,1.9,249.7,140615,6.2,"
"##MN-00 00 52 2429 02239 5619 498467 215695 190"
"165.31125"
"$GPRMC,072806,A,2433.9403,N,08053.9512,W,2.0,250.3,140615,6.2,"
"##MN-00 00 52 2430 02237 5617 498145 215608 190"
"165.311296"
"$GPRMC,072810,A,2433.9396,N,08053.9534,W,2.0,251.3,140615,6.2,"
"##MN-00 00 50 2431 02236 5614 497793 215513 190"
"165.311343"
"$GPRMC,072814,A,2433.9391,N,08053.9556,W,1.9,250.8,140615,6.2,"
"##MN-00 00 50 2432 02234 5612 497459 215443 190"
"165.311389"
"$GPRMC,072818,A,2433.9381,N,08053.9577,W,1.9,251.0,140615,6.2,"
"##MN-00 00 52 2433 02231 5609 497319 215408 190"
"165.311435"
"$GPRMC,072822,A,2433.9374,N,08053.9600,W,1.9,250.7,140615,6.2,"
"##MN-00 00 51 2434 02231 5608 497236 215385 190"
"165.311481"
"$GPRMC,072826,A,2433.9366,N,08053.9621,W,1.9,249.4,140615,6.2,"
"##MN-00 00 51 2435 02231 5605 497025 215340 190"
"165.311528"
"$GPRMC,072830,A,2433.9357,N,08053.9642,W,1.9,248.2,140615,6.2,"
"##MN-00 00 51 2436 02228 5603 496810 215305 190"
"165.311574"
"$GPRMC,072834,A,2433.9348,N,08053.9664,W,1.8,247.0,140615,6.2,"
"##MN-00 00 51 2436 02225 5600 496549 215237 190"
"165.31162"
"$GPRMC,072838,A,2433.9339,N,08053.9687,W,1.8,246.9,140615,6.2,"
"##MN-00 00 53 2437 02221 5599 496205 215185 190"
"165.311667"
"$GPRMC,072842,A,2433.9333,N,08053.9708,W,1.8,247.6,140615,6.2,"
"##MN-00 00 50 2438 02220 5596 495957 215085 190"
"165.311713"
"$GPRMC,072846,A,2433.9326,N,08053.9729,W,1.8,249.0,140615,6.2,"
"##MN-00 00 51 2439 02214 5594 495614 215006 190"
"165.311759"
"$GPRMC,072850,A,2433.9319,N,08053.9754,W,2.1,249.9,140615,6.2,"
"##MN-00 00 53 2440 02208 5592 495337 214954 190"
"165.311806"
"$GPRMC,072854,A,2433.9313,N,08053.9776,W,2.0,251.9,140615,6.2,"
"##MN-00 00 50 2441 02211 5590 494817 214854 190"
"165.311852"
"$GPRMC,072858,A,2433.9308,N,08053.9801,W,2.1,252.6,140615,6.2,"
"##MN-00 00 51 2442 02205 5587 494173 214735 190"
"165.311898"
"$GPRMC,072902,A,2433.9301,N,08053.9824,W,2.1,251.7,140615,6.2,"
"##MN-00 00 51 2443 02200 5585 493151 214517 190"
"165.311944"
"$GPRMC,072906,A,2433.9295,N,08053.9848,W,2.0,254.1,140615,6.2,"
"##MN-00 00 51 2444 02199 5583 492465 214416 190"
"165.311991"
"$GPRMC,072910,A,2433.9290,N,08053.9871,W,2.0,254.7,140615,6.2,"
"##MN-00 00 51 2445 02195 5581 491956 214327 190"
"165.312037"
"$GPRMC,072914,A,2433.9281,N,08053.9893,W,1.9,254.1,140615,6.2,"
"##MN-00 00 52 2445 02192 5579 491667 214207 190"
"165.312083"
"$GPRMC,072918,A,2433.9274,N,08053.9917,W,2.0,253.7,140615,6.2,"
"##MN-00 00 52 2446 02189 5577 491466 214172 190"
"165.31213"
"$GPRMC,072922,A,2433.9268,N,08053.9942,W,2.0,252.7,140615,6.2,"
"##MN-00 00 50 2447 02188 5575 491147 214091 190"
"165.312176"
"$GPRMC,072926,A,2433.9259,N,08053.9964,W,2.1,251.2,140615,6.2,"
"##MN-00 00 51 2448 02183 5573 490734 213989 190"
"165.312222"
"$GPRMC,072930,A,2433.9248,N,08053.9986,W,2.1,249.7,140615,6.2,"
"##MN-00 00 51 2449 02177 5571 490004 213857 190"
"165.312269"
"$GPRMC,072934,A,2433.9237,N,08054.0007,W,2.1,248.6,140615,6.2,"
"##MN-00 00 51 2450 02176 5568 489315 213787 190"
"165.312315"
"$GPRMC,072938,A,2433.9229,N,08054.0029,W,2.1,246.7,140615,6.2,"
"##MN-00 00 52 2451 02171 5566 489082 213698 190"
"165.312361"
"$GPRMC,072942,A,2433.9222,N,08054.0050,W,2.0,245.3,140615,6.2,"
"##MN-00 00 53 2452 02169 5564 488851 213650 190"
"165.312407"
"$GPRMC,072946,A,2433.9218,N,08054.0072,W,1.9,244.2,140615,6.2,"
"##MN-00 00 50 2453 02170 5562 488097 213453 190"
"165.312454"
"$GPRMC,072950,A,2433.9208,N,08054.0092,W,1.9,243.8,140615,6.2,"
"##MN-00 00 50 2453 02167 5560 486491 213218 190"
"165.3125"
"$GPRMC,072954,A,2433.9197,N,08054.0115,W,1.9,244.2,140615,6.2,"
"##MN-00 00 50 2454 02162 5559 485410 212953 190"
"165.312546"
"$GPRMC,072958,A,2433.9186,N,08054.0134,W,1.9,244.1,140615,6.2,"
"##MN-00 00 53 2455 02159 5557 484652 212794 190"
"165.312593"
"$GPRMC,073002,A,2433.9176,N,08054.0155,W,1.9,244.2,140615,6.2,"
"##MN-00 00 51 2456 02161 5555 483274 212503 190"
"165.312639"
"$GPRMC,073006,A,2433.9168,N,08054.0177,W,1.9,244.5,140615,6.2,"
"##MN-00 00 51 2457 02159 5553 481980 212284 190"
"165.312685"
"$GPRMC,073010,A,2433.9160,N,08054.0199,W,1.9,244.9,140615,6.2,"
"##MN-00 00 49 2458 02154 5551 478876 211658 190"
"165.312731"
"$GPRMC,073014,A,2433.9149,N,08054.0220,W,1.9,245.6,140615,6.2,"
"##MN-00 00 52 2458 02150 5549 477098 211250 190"
"165.312778"
"$GPRMC,073018,A,2433.9142,N,08054.0243,W,1.9,246.8,140615,6.2,"
"##MN-00 00 51 2459 02148 5548 475916 211031 190"
"165.312824"
"$GPRMC,073022,A,2433.9135,N,08054.0264,W,1.9,247.7,140615,6.2,"
"##MN-00 00 50 2460 02146 5546 475330 210920 190"
"165.31287"
"$GPRMC,073026,A,2433.9124,N,08054.0287,W,1.9,247.3,140615,6.2,"
"##MN-00 00 50 2461 02144 5544 474919 210848 190"
"165.312928"
"$GPRMC,073030,A,2433.9114,N,08054.0307,W,2.0,247.1,140615,6.2,"
"##MN-00 00 50 2462 02144 5542 474776 210814 190"
"165.312975"
"$GPRMC,073035,A,2433.9103,N,08054.0334,W,1.9,246.9,140615,6.2,"
"##MN-00 00 51 2463 02137 5541 474711 210815 190"
"165.313021"
"$GPRMC,073038,A,2433.9096,N,08054.0352,W,1.9,246.8,140615,6.2,"
"##MN-00 00 50 2464 02135 5539 474596 210762 190"
"165.313067"
"$GPRMC,073042,A,2433.9089,N,08054.0373,W,2.0,247.7,140615,6.2,"
"##MN-00 00 50 2465 02132 5538 474252 210683 190"
"165.313113"
"$GPRMC,073047,A,2433.9081,N,08054.0399,W,2.0,249.9,140615,6.2,"
"##MN-00 00 51 2466 02127 5536 473664 210562 190"
"165.31316"
"$GPRMC,073051,A,2433.9077,N,08054.0423,W,1.9,252.3,140615,6.2,"
"##MN-00 00 50 2467 02126 5535 473275 210536 190"
"165.313206"
"$GPRMC,073054,A,2433.9071,N,08054.0438,W,2.0,252.6,140615,6.2,"
"##MN-00 00 54 2468 02118 5533 472922 210425 190"
"165.313252"
"$GPRMC,073058,A,2433.9064,N,08054.0462,W,1.9,252.5,140615,6.2,"
"##MN-00 00 54 2469 02113 5532 472771 210361 190"
"165.313299"
"$GPRMC,073103,A,2433.9052,N,08054.0488,W,1.9,251.3,140615,6.2,"
"##MN-00 00 51 2469 02115 5530 472715 210346 190"
"165.313345"
"$GPRMC,073106,A,2433.9048,N,08054.0504,W,2.0,249.8,140615,6.2,"
"##MN-00 00 52 2470 02111 5529 472692 210347 190"
"165.313391"
"$GPRMC,073111,A,2433.9037,N,08054.0531,W,1.9,248.0,140615,6.2,"
"##MN-00 00 51 2471 02110 5528 472684 210351 190"
"165.313438"
"$GPRMC,073115,A,2433.9028,N,08054.0550,W,1.9,247.9,140615,6.2,"
"##MN-00 00 51 2472 02106 5527 472671 210342 190"
"165.313484"
"$GPRMC,073119,A,2433.9019,N,08054.0571,W,1.8,247.0,140615,6.2,"
"##MN+00 00 51 2473 02103 5526 472667 210336 190"
"165.31353"
"$GPRMC,073123,A,2433.9010,N,08054.0590,W,1.8,246.6,140615,6.2,"
"##MN+00 00 52 2474 02100 5524 472655 210335 190"
"165.313576"
"$GPRMC,073127,A,2433.9001,N,08054.0611,W,1.8,247.0,140615,6.2,"
"##MN+00 00 50 2475 02100 5523 472643 210329 190"
"165.313623"
"$GPRMC,073131,A,2433.8994,N,08054.0632,W,1.8,246.6,140615,6.2,"
"##MN-00 00 51 2476 02098 5522 472627 210322 190"
"165.313669"
"$GPRMC,073135,A,2433.8984,N,08054.0652,W,1.9,245.5,140615,6.2,"
"##MN-00 00 51 2477 02091 5521 472590 210309 190"
"165.313715"
"$GPRMC,073139,A,2433.8976,N,08054.0673,W,1.9,246.3,140615,6.2,"
"##MN+00 00 51 2478 02089 5520 472515 210295 190"
"165.313762"
"$GPRMC,073143,A,2433.8966,N,08054.0693,W,1.9,245.3,140615,6.2,"
"##MN+00 00 50 2479 02090 5518 472303 210257 190"
"165.313808"
"$GPRMC,073147,A,2433.8958,N,08054.0712,W,1.9,244.8,140615,6.2,"
"##MN+00 00 55 2480 02088 5518 471947 210185 190"
"165.313854"
"#increment_net"
"$GPRMC,073151,A,2433.8948,N,08054.0733,W,1.8,245.3,140615,6.2,"
"##MN-00 00 52 2480 02084 5516 471757 210159 190"
"165.3139"
"$GPRMC,073155,A,2433.8941,N,08054.0755,W,1.8,246.5,140615,6.2,"
"##MN-00 00 49 2481 02082 5516 471632 210122 190"
"165.313947"
"$GPRMC,073159,A,2433.8934,N,08054.0775,W,1.8,247.9,140615,6.2,"
"##MN-00 00 50 2482 02075 5515 471389 210063 190"
"165.313993"
"$GPRMC,073203,A,2433.8926,N,08054.0798,W,1.8,248.7,140615,6.2,"
"##MN-00 00 49 2483 02075 5513 470932 209972 190"
"165.314039"
"$GPRMC,073207,A,2433.8918,N,08054.0820,W,1.8,249.6,140615,6.2,"
"##MN-00 00 47 2484 02073 5513 470231 209918 190"
"165.314086"
"$GPRMC,073211,A,2433.8911,N,08054.0842,W,1.9,249.9,140615,6.2,"
"##MN-00 00 49 2485 02065 5512 469106 209657 190"
"165.314132"
"$GPRMC,073215,A,2433.8901,N,08054.0863,W,1.9,250.1,140615,6.2,"
"##MN-00 00 47 2486 02064 5511 468166 209459 190"
"165.314178"
"$GPRMC,073219,A,2433.8893,N,08054.0883,W,1.8,250.3,140615,6.2,"
"##MN-00 00 48 2487 02058 5510 467387 209302 190"
"165.314225"
"$GPRMC,073223,A,2433.8886,N,08054.0907,W,1.9,249.6,140615,6.2,"
"##MN-00 00 49 2488 02051 5510 466336 209099 190"
"165.314271"
"$GPRMC,073227,A,2433.8878,N,08054.0928,W,1.9,249.3,140615,6.2,"
"##MN-00 00 49 2489 02047 5509 464786 208801 190"
"165.314317"
"$GPRMC,073231,A,2433.8871,N,08054.0951,W,1.9,249.3,140615,6.2,"
"##MN-00 00 48 2490 02043 5508 463454 208589 190"
"165.314363"
"$GPRMC,073235,A,2433.8862,N,08054.0972,W,1.8,248.5,140615,6.2,"
"##MN-00 00 47 2491 02043 5507 462278 208240 190"
"165.31441"
"$GPRMC,073239,A,2433.8854,N,08054.0993,W,1.9,249.4,140615,6.2,"
"##MN-00 00 46 2492 02034 5506 461145 208003 190"
"165.314456"
"$GPRMC,073243,A,2433.8847,N,08054.1016,W,1.9,250.0,140615,6.2,"
"##MN-00 00 51 2493 02033 5505 458715 207457 190"
"165.314502"
"$GPRMC,073247,A,2433.8839,N,08054.1040,W,1.9,251.4,140615,6.2,"
"##MN-00 00 47 2494 02031 5505 457724 207364 190"
"165.314549"
"$GPRMC,073251,A,2433.8831,N,08054.1062,W,1.9,250.6,140615,6.2,"
"##MN-00 00 49 2495 02022 5504 457203 207262 190"
"165.314595"
"$GPRMC,073255,A,2433.8822,N,08054.1085,W,1.9,249.1,140615,6.2,"
"##MN-00 00 50 2496 02020 5503 456865 207128 190"
"165.314641"
"$GPRMC,073259,A,2433.8816,N,08054.1109,W,1.9,248.8,140615,6.2,"
"##MN-00 00 49 2497 02017 5503 456555 207038 190"
"165.314687"
"$GPRMC,073303,A,2433.8806,N,08054.1132,W,2.1,248.2,140615,6.2,"
"##MN-00 00 51 2498 02013 5502 456289 206997 190"
"165.314734"
"$GPRMC,073307,A,2433.8796,N,08054.1153,W,1.9,247.9,140615,6.2,"
"##MN-00 00 49 2499 02013 5502 456010 206916 190"
"165.31478"
"$GPRMC,073311,A,2433.8788,N,08054.1176,W,1.9,247.2,140615,6.2,"
"##MN-00 00 49 2500 02005 5502 455868 206871 190"
"165.314826"
"$GPRMC,073315,A,2433.8781,N,08054.1200,W,2.0,247.7,140615,6.2,"
"##MN-00 00 51 2501 02002 5501 455574 206819 190"
"165.314873"
"$GPRMC,073319,A,2433.8771,N,08054.1221,W,1.9,248.8,140615,6.2,"
"##MN-00 00 49 2502 02002 5501 455203 206758 190"
"165.314919"
"$GPRMC,073323,A,2433.8764,N,08054.1244,W,1.9,249.0,140615,6.2,"
"##MN-00 00 49 2503 01995 5501 454995 206695 190"
"165.314965"
"$GPRMC,073327,A,2433.8755,N,08054.1268,W,2.0,248.1,140615,6.2,"
"##MN-00 00 53 2504 01992 5500 454801 206650 190"
"165.315012"
"$GPRMC,073331,A,2433.8748,N,08054.1290,W,1.9,248.4,140615,6.2,"
"##MN-00 00 50 2505 01988 5500 454588 206589 190"
"165.315058"
"$GPRMC,073335,A,2433.8741,N,08054.1312,W,2.0,248.0,140615,6.2,"
"##MN-00 00 51 2506 01986 5500 454339 206559 190"
"165.315104"
"$GPRMC,073339,A,2433.8734,N,08054.1334,W,1.9,248.8,140615,6.2,"
"##MN-00 00 50 2507 01983 5500 454181 206506 190"
"165.31515"
"$GPRMC,073343,A,2433.8727,N,08054.1355,W,1.9,250.6,140615,6.2,"
"##MN-00 00 52 2508 01985 5500 454093 206502 190"
"165.315197"
"$GPRMC,073347,A,2433.8718,N,08054.1376,W,1.9,250.5,140615,6.2,"
"##MN-00 00 49 2508 01985 5500 453960 206474 190"
"165.315243"
"$GPRMC,073351,A,2433.8710,N,08054.1399,W,2.0,249.1,140615,6.2,"
"##MN-00 00 49 2509 01980 5499 453650 206396 190"
"165.315289"
"$GPRMC,073355,A,2433.8702,N,08054.1421,W,1.9,248.4,140615,6.2,"
"##MN-00 00 49 2510 01980 5499 453272 206312 190"
"165.315336"
"$GPRMC,073359,A,2433.8695,N,08054.1442,W,1.9,248.8,140615,6.2,"
"##MN-00 00 49 2511 01972 5500 452965 206252 190"
"165.315382"
"$GPRMC,073403,A,2433.8687,N,08054.1465,W,1.9,248.4,140615,6.2,"
"##MN-00 00 50 2512 01970 5500 452762 206190 190"
"165.315428"
"$GPRMC,073407,A,2433.8677,N,08054.1485,W,1.9,248.7,140615,6.2,"
"##MN-00 00 50 2513 01968 5500 452672 206182 190"
"165.315475"
"$GPRMC,073411,A,2433.8669,N,08054.1507,W,1.9,248.0,140615,6.2,"
"##MN-00 00 49 2514 01966 5500 452565 206148 190"
"165.315521"
"$GPRMC,073415,A,2433.8662,N,08054.1528,W,1.9,247.9,140615,6.2,"
"##MN-00 00 49 2515 01961 5500 452469 206111 190"
"165.315567"
"$GPRMC,073419,A,2433.8652,N,08054.1548,W,1.9,248.1,140615,6.2,"
"##MN-00 00 50 2516 01958 5500 452303 206078 190"
"165.315613"
"$GPRMC,073423,A,2433.8640,N,08054.1566,W,1.9,247.4,140615,6.2,"
"##MN-00 00 50 2517 01956 5500 452136 206047 190"
"165.31566"
"$GPRMC,073427,A,2433.8630,N,08054.1586,W,1.9,246.5,140615,6.2,"
"##MN-00 00 49 2518 01959 5501 451989 206011 190"
"165.315706"
"$GPRMC,073431,A,2433.8622,N,08054.1608,W,2.0,246.8,140615,6.2,"
"##MN-00 00 48 2519 01951 5501 451795 205965 190"
"165.315752"
"$GPRMC,073435,A,2433.8615,N,08054.1630,W,2.0,247.8,140615,6.2,"
"##MN-00 00 51 2520 01950 5501 451571 205915 190"
"165.315799"
"$GPRMC,073439,A,2433.8605,N,08054.1651,W,1.9,247.1,140615,6.2,"
"##MN-00 00 51 2521 01946 5501 451422 205892 190"
"165.315845"
"$GPRMC,073443,A,2433.8597,N,08054.1673,W,1.9,246.6,140615,6.2,"
"##MN-00 00 51 2522 01942 5502 451287 205857 190"
"165.315891"
"$GPRMC,073447,A,2433.8589,N,08054.1694,W,1.9,247.1,140615,6.2,"
"##MN-00 00 49 2523 01940 5502 451125 205822 190"
"165.315937"
"$GPRMC,073451,A,2433.8582,N,08054.1716,W,2.0,248.0,140615,6.2,"
"##MN-00 00 49 2524 01938 5502 450999 205808 190"
"165.315984"
"$GPRMC,073455,A,2433.8575,N,08054.1739,W,2.0,248.3,140615,6.2,"
"##MN-00 00 49 2525 01936 5503 450817 205747 190"
"165.31603"
"$GPRMC,073459,A,2433.8568,N,08054.1763,W,2.0,248.6,140615,6.2,"
"##MN-00 00 49 2526 01932 5503 450565 205713 190"
"165.316088"
"$GPRMC,073503,A,2433.8558,N,08054.1785,W,2.0,248.3,140615,6.2,"
"##MN-00 00 51 2527 01929 5503 450383 205674 190"
"165.316134"
"$GPRMC,073507,A,2433.8551,N,08054.1807,W,2.0,249.1,140615,6.2,"
"##MN-00 00 48 2528 01928 5504 450236 205644 190"
"165.316181"
"$GPRMC,073511,A,2433.8543,N,08054.1832,W,2.0,249.1,140615,6.2,"
"##MN-00 00 49 2529 01922 5505 450106 205617 190"
"165.316227"
"$GPRMC,073516,A,2433.8535,N,08054.1860,W,1.9,249.2,140615,6.2,"
"##MN-00 00 50 2530 01920 5505 450014 205596 190"
"165.316273"
"$GPRMC,073520,A,2433.8525,N,08054.1883,W,2.1,248.7,140615,6.2,"
"##MN-00 00 52 2531 01913 5506 449882 205562 190"
"165.316319"
"$GPRMC,073524,A,2433.8517,N,08054.1905,W,2.0,248.4,140615,6.2,"
"##MN-00 00 49 2532 01914 5506 449775 205541 190"
"165.316366"
"$GPRMC,073527,A,2433.8510,N,08054.1923,W,2.1,247.9,140615,6.2,"
"##MN-00 00 49 2533 01908 5507 449622 205518 190"
"165.316412"
"$GPRMC,073532,A,2433.8499,N,08054.1954,W,2.1,246.9,140615,6.2,"
"##MN-00 00 49 2534 01903 5507 449466 205480 190"
"165.316458"
"$GPRMC,073536,A,2433.8488,N,08054.1977,W,2.1,246.2,140615,6.2,"
"##MN+00 00 52 2535 01902 5508 449366 205464 190"
"165.316505"
"$GPRMC,073540,A,2433.8478,N,08054.2001,W,2.1,245.3,140615,6.2,"
"##MN+00 00 49 2536 01902 5509 449299 205447 190"
"165.316551"
"$GPRMC,073544,A,2433.8470,N,08054.2021,W,1.9,246.1,140615,6.2,"
"##MN+00 00 49 2537 01897 5509 449191 205417 190"
"165.316597"
"$GPRMC,073548,A,2433.8463,N,08054.2045,W,2.0,247.7,140615,6.2,"
"##MN+00 00 51 2538 01894 5510 449091 205391 190"
"165.316644"
"$GPRMC,073552,A,2433.8456,N,08054.2066,W,1.9,249.5,140615,6.2,"
"##MN+00 00 50 2539 01893 5510 449022 205384 190"
"165.31669"
"$GPRMC,073556,A,2433.8447,N,08054.2088,W,1.9,248.7,140615,6.2,"
"##MN+00 00 57 2540 01894 5511 448965 205366 190"
"165.316736"
"#increment_net"
"$GPRMC,073600,A,2433.8438,N,08054.2108,W,1.9,247.4,140615,6.2,"
"##MN-00 00 53 2541 01889 5512 448938 205364 190"
"165.316782"
"$GPRMC,073604,A,2433.8427,N,08054.2128,W,1.9,246.7,140615,6.2,"
"##MN-00 00 50 2542 01889 5512 448915 205357 190"
"165.316829"
"$GPRMC,073608,A,2433.8416,N,08054.2150,W,1.9,246.8,140615,6.2,"
"##MN-00 00 50 2543 01884 5513 448856 205343 190"
"165.316875"
"$GPRMC,073612,A,2433.8407,N,08054.2171,W,1.9,245.8,140615,6.2,"
"##MN-00 00 52 2544 01883 5514 448812 205334 190"
"165.316921"
"$GPRMC,073616,A,2433.8398,N,08054.2191,W,1.9,245.2,140615,6.2,"
"##MN-00 00 49 2545 01881 5514 448788 205328 190"
"165.316968"
"$GPRMC,073620,A,2433.8391,N,08054.2215,W,2.0,246.3,140615,6.2,"
"##MN-00 00 49 2546 01877 5515 448768 205321 190"
"165.317014"
"$GPRMC,073624,A,2433.8381,N,08054.2234,W,1.9,246.6,140615,6.2,"
"##MN-00 00 49 2547 01873 5516 448747 205316 190"
"165.31706"
"$GPRMC,073628,A,2433.8373,N,08054.2255,W,1.9,246.9,140615,6.2,"
"##MN-00 00 55 2548 01868 5517 448718 205310 190"
"165.317106"
"$GPRMC,073632,A,2433.8366,N,08054.2280,W,2.0,248.1,140615,6.2,"
"##MN-00 00 50 2549 01864 5518 448678 205302 190"
"165.317153"
"$GPRMC,073636,A,2433.8358,N,08054.2302,W,2.0,248.7,140615,6.2,"
"##MN-00 00 52 2550 01863 5518 448635 205294 190"
"165.317199"
"$GPRMC,073640,A,2433.8351,N,08054.2326,W,2.0,248.4,140615,6.2,"
"##MN-00 00 50 2551 01860 5519 448562 205282 190"
"165.317245"
"$GPRMC,073644,A,2433.8344,N,08054.2345,W,1.9,248.5,140615,6.2,"
"##MN-00 00 50 2552 01858 5520 448536 205283 190"
"165.317292"
"$GPRMC,073648,A,2433.8335,N,08054.2367,W,1.9,248.2,140615,6.2,"
"##MN-00 00 49 2553 01858 5521 448500 205273 190"
"165.317338"
"$GPRMC,073652,A,2433.8329,N,08054.2388,W,1.9,248.2,140615,6.2,"
"##MN-00 00 49 2554 01854 5522 448462 205266 190"
"165.317384"
"$GPRMC,073656,A,2433.8319,N,08054.2410,W,1.9,247.9,140615,6.2,"
"##MN-00 00 48 2555 01854 5523 448431 205261 190"
"165.317431"
"$GPRMC,073700,A,2433.8311,N,08054.2431,W,1.9,247.3,140615,6.2,"
"##MN-00 00 49 2556 01850 5523 448402 205256 190"
"165.317477"
"$GPRMC,073704,A,2433.8304,N,08054.2451,W,1.8,248.4,140615,6.2,"
"##MN-00 00 50 2558 01846 5525 448353 205251 190"
"165.317523"
"$GPRMC,073708,A,2433.8297,N,08054.2473,W,1.9,249.1,140615,6.2,"
"##MN-00 00 50 2559 01846 5525 448320 205246 190"
"165.317569"
"$GPRMC,073712,A,2433.8289,N,08054.2493,W,1.9,250.2,140615,6.2,"
"##MN-00 00 48 2560 01841 5526 448271 205233 190"
"165.317616"
"$GPRMC,073716,A,2433.8281,N,08054.2515,W,1.9,249.4,140615,6.2,"
"##MN-00 00 52 2561 01836 5527 448210 205224 190"
"165.317662"
"$GPRMC,073720,A,2433.8273,N,08054.2536,W,1.9,249.4,140615,6.2,"
"##MN-00 00 49 2562 01837 5528 448182 205221 190"
"165.317708"
"$GPRMC,073724,A,2433.8268,N,08054.2556,W,1.9,249.3,140615,6.2,"
"##MN-00 00 50 2563 01832 5529 448169 205217 190"
"165.317755"
"$GPRMC,073728,A,2433.8259,N,08054.2579,W,1.9,247.7,140615,6.2,"
"##MN-00 00 49 2564 01831 5529 448155 205215 190"
"165.317801"
"$GPRMC,073732,A,2433.8250,N,08054.2598,W,1.9,247.7,140615,6.2,"
"##MN-00 00 49 2565 01826 5530 448137 205212 190"
"165.317847"
"$GPRMC,073736,A,2433.8242,N,08054.2620,W,1.9,246.9,140615,6.2,"
"##MN-00 00 50 2566 01822 5531 448132 205210 190"
"165.317894"
"$GPRMC,073740,A,2433.8233,N,08054.2644,W,1.9,247.2,140615,6.2,"
"##MN-00 00 52 2567 01821 5532 448128 205210 190"
"165.31794"
"$GPRMC,073744,A,2433.8228,N,08054.2666,W,1.9,248.1,140615,6.2,"
"##MN-00 00 50 2568 01819 5533 448122 205210 190"
"165.317986"
"$GPRMC,073748,A,2433.8221,N,08054.2688,W,1.9,250.0,140615,6.2,"
"##MN-00 00 50 2569 01814 5534 448109 205208 190"
"165.318032"
"$GPRMC,073752,A,2433.8212,N,08054.2709,W,1.9,251.1,140615,6.2,"
"##MN-00 00 53 2570 01810 5535 448094 205205 190"
"165.318079"
"$GPRMC,073756,A,2433.8204,N,08054.2731,W,1.9,251.5,140615,6.2,"
"##MN-00 00 49 2571 01809 5536 448068 205203 190"
"165.318125"
"$GPRMC,073800,A,2433.8199,N,08054.2753,W,1.9,251.7,140615,6.2,"
"##MN-00 00 49 2572 01805 5537 448056 205201 190"
"165.318171"
"$GPRMC,073804,A,2433.8192,N,08054.2775,W,1.9,251.8,140615,6.2,"
"##MN-00 00 53 2573 01799 5538 448043 205198 190"
"165.318218"
"$GPRMC,073808,A,2433.8185,N,08054.2796,W,1.9,252.0,140615,6.2,"
"##MN-00 00 50 2574 01800 5539 448022 205195 190"
"165.318264"
"$GPRMC,073812,A,2433.8177,N,08054.2818,W,1.9,253.3,140615,6.2,"
"##MN-00 00 50 2575 01795 5540 448010 205194 190"
"165.31831"
"$GPRMC,073816,A,2433.8170,N,08054.2840,W,1.9,253.3,140615,6.2,"
"##MN-00 00 51 2576 01793 5541 447992 205193 190"
"165.318356"
"$GPRMC,073820,A,2433.8163,N,08054.2862,W,1.9,252.9,140615,6.2,"
"##MN-00 00 52 2578 01789 5542 447981 205190 190"
"165.318403"
"$GPRMC,073824,A,2433.8158,N,08054.2887,W,1.9,252.7,140615,6.2,"
"##MN-00 00 52 2579 01787 5543 447965 205189 190"
"165.318449"
"$GPRMC,073828,A,2433.8155,N,08054.2908,W,1.9,252.7,140615,6.2,"
"##MN-00 00 49 2579 01784 5544 447948 205188 190"
"165.318495"
