" Tow: 9-ns-n-in   RVWS/WS15161"
" Date: 14/06/2015"
" Temperature Probe #  4762    Conductivity Probe #  710"
" Pressure Probe #  159"
" Flow Meter Calibration  4.71 (m/count)  "
"165.2061"
"$GPRMC,045624,A,2430.7813,N,08058.0007,W,2.5,229.2,140615,6.1,"
"##MN-00 00 57 1562 01537 5795 455721 630807 191"
"165.206146"
"$GPRMC,045645,A,2430.7745,N,08058.0121,W,2.3,237.8,140615,6.1,"
"##MN-00 00 50 1562 01536 5795 447832 232016 191"
"165.206192"
"$GPRMC,045649,A,2430.7733,N,08058.0145,W,2.2,239.0,140615,6.1,"
"##MN-00 00 52 1563 01534 5795 447758 228766 191"
"165.206238"
"$GPRMC,045653,A,2430.7721,N,08058.0170,W,2.2,240.4,140615,6.1,"
"##MN-00 00 55 1564 01535 5794 447720 211843 191"
"165.206285"
"$GPRMC,045657,A,2430.7713,N,08058.0195,W,2.1,242.0,140615,6.1,"
"##MN-00 00 53 1564 01537 5795 447723 206206 191"
"165.206331"
"$GPRMC,045701,A,2430.7701,N,08058.0220,W,2.1,243.5,140615,6.1,"
"##MN-00 00 59 1565 01533 5794 447740 206297 191"
"165.206377"
"$GPRMC,045705,A,2430.7694,N,08058.0240,W,2.1,245.5,140615,6.1,"
"##MN-00 00 57 1566 01535 5794 447732 206470 191"
"165.206424"
"$GPRMC,045709,A,2430.7687,N,08058.0261,W,2.1,246.0,140615,6.1,"
"##MN-00 00 50 1566 01539 5795 447725 241325 191"
"165.20647"
"$GPRMC,045713,A,2430.7676,N,08058.0282,W,2.1,246.9,140615,6.1,"
"##MN-00 00 53 1568 01537 5794 447696 205864 191"
"165.206516"
"$GPRMC,045717,A,2430.7668,N,08058.0303,W,2.1,248.9,140615,6.1,"
"##MN-00 00 52 1568 01538 5795 447678 205774 191"
"165.206562"
"$GPRMC,045721,A,2430.7664,N,08058.0326,W,2.2,250.7,140615,6.1,"
"##MN-00 00 54 1569 01540 5795 447668 205704 191"
"165.206609"
"$GPRMC,045725,A,2430.7654,N,08058.0350,W,2.2,252.7,140615,6.1,"
"##MN-00 00 55 1570 01538 5795 447669 205724 191"
"165.206655"
"$GPRMC,045729,A,2430.7647,N,08058.0376,W,2.1,253.6,140615,6.1,"
"##MN-00 00 52 1571 01540 5795 447680 205718 191"
"165.206701"
"$GPRMC,045733,A,2430.7639,N,08058.0399,W,2.1,253.7,140615,6.1,"
"##MN-00 00 54 1571 01541 5795 447672 205707 191"
"165.206748"
"$GPRMC,045737,A,2430.7632,N,08058.0423,W,2.1,254.1,140615,6.1,"
"##MN-00 00 53 1572 01544 5795 447675 205704 191"
"165.206794"
"$GPRMC,045741,A,2430.7625,N,08058.0445,W,2.1,254.0,140615,6.1,"
"##MN-00 00 52 1573 01547 5795 447684 205707 191"
"165.20684"
"$GPRMC,045745,A,2430.7619,N,08058.0470,W,2.1,253.7,140615,6.1,"
"##MN-00 00 52 1574 01548 5795 447681 205707 191"
"165.206887"
"$GPRMC,045749,A,2430.7614,N,08058.0492,W,2.1,253.4,140615,6.1,"
"##MN-00 00 54 1575 01550 5796 447684 205703 191"
"165.206933"
"$GPRMC,045753,A,2430.7607,N,08058.0514,W,2.0,252.6,140615,6.1,"
"##MN-00 00 53 1576 01554 5796 447673 205700 191"
"165.206979"
"$GPRMC,045757,A,2430.7601,N,08058.0538,W,2.0,251.3,140615,6.1,"
"##MN-00 00 53 1577 01554 5796 447665 205698 191"
"165.207025"
"$GPRMC,045801,A,2430.7599,N,08058.0563,W,2.1,250.4,140615,6.1,"
"##MN-00 00 55 1578 01558 5796 447677 205698 191"
"165.207072"
"$GPRMC,045805,A,2430.7583,N,08058.0585,W,2.1,249.8,140615,6.1,"
"##MN-00 00 54 1579 01560 5796 447689 205697 191"
"165.207118"
"$GPRMC,045809,A,2430.7574,N,08058.0608,W,2.1,249.3,140615,6.1,"
"##MN-00 00 56 1580 01565 5797 447688 205693 191"
"165.207164"
"$GPRMC,045813,A,2430.7567,N,08058.0633,W,2.1,248.5,140615,6.1,"
"##MN-00 00 51 1581 01566 5797 447674 205690 191"
"165.207211"
"$GPRMC,045817,A,2430.7558,N,08058.0658,W,2.1,247.6,140615,6.1,"
"##MN-00 00 53 1581 01563 5797 447669 205689 191"
"165.207257"
"$GPRMC,045821,A,2430.7549,N,08058.0681,W,2.0,247.1,140615,6.1,"
"##MN-00 00 54 1582 01573 5798 447659 205683 191"
"165.207303"
"$GPRMC,045825,A,2430.7536,N,08058.0704,W,2.1,246.0,140615,6.1,"
"##MN-00 00 50 1583 01569 5798 447630 205674 191"
"165.20735"
"$GPRMC,045829,A,2430.7525,N,08058.0727,W,2.1,244.6,140615,6.1,"
"##MN-00 00 54 1584 01571 5798 447627 205671 191"
"165.207396"
"$GPRMC,045833,A,2430.7513,N,08058.0748,W,2.1,242.7,140615,6.1,"
"##MN-00 00 54 1585 01577 5798 447656 205675 191"
"165.207442"
"$GPRMC,045837,A,2430.7500,N,08058.0769,W,2.0,241.2,140615,6.1,"
"##MN-00 00 54 1586 01578 5799 447650 205674 191"
"165.207488"
"$GPRMC,045841,A,2430.7487,N,08058.0788,W,2.0,239.4,140615,6.1,"
"##MN-00 00 55 1587 01585 5799 447645 205671 191"
"165.207535"
"$GPRMC,045845,A,2430.7474,N,08058.0806,W,2.0,237.6,140615,6.1,"
"##MN-00 00 53 1588 01588 5799 447629 205666 191"
"165.207581"
"$GPRMC,045849,A,2430.7462,N,08058.0825,W,2.0,237.0,140615,6.1,"
"##MN-00 00 53 1589 01593 5800 447631 205666 191"
"165.207627"
"$GPRMC,045853,A,2430.7449,N,08058.0845,W,1.9,237.1,140615,6.1,"
"##MN-00 00 55 1590 01595 5800 447634 205666 191"
"165.207674"
"$GPRMC,045857,A,2430.7437,N,08058.0865,W,2.0,237.6,140615,6.1,"
"##MN-00 00 56 1590 01594 5800 447633 205680 191"
"165.20772"
"$GPRMC,045901,A,2430.7426,N,08058.0886,W,2.0,237.7,140615,6.1,"
"##MN-00 00 54 1591 01599 5801 447634 205663 191"
"165.207766"
"$GPRMC,045905,A,2430.7413,N,08058.0907,W,1.9,238.2,140615,6.1,"
"##MN-00 00 54 1592 01599 5801 447647 205668 191"
"165.207813"
"$GPRMC,045909,A,2430.7402,N,08058.0928,W,2.0,239.5,140615,6.1,"
"##MN-00 00 54 1593 01601 5801 447650 205667 191"
"165.207859"
"$GPRMC,045913,A,2430.7396,N,08058.0950,W,2.0,241.0,140615,6.1,"
"##MN-00 00 54 1594 01607 5801 447652 205667 191"
"165.207905"
"$GPRMC,045917,A,2430.7388,N,08058.0972,W,2.0,242.3,140615,6.1,"
"##MN-00 00 54 1595 01608 5802 447650 205666 191"
"165.207951"
"$GPRMC,045921,A,2430.7376,N,08058.0994,W,2.0,242.6,140615,6.1,"
"##MN-00 00 53 1596 01606 5802 447655 205666 191"
"165.207998"
"$GPRMC,045925,A,2430.7369,N,08058.1017,W,2.0,244.3,140615,6.1,"
"##MN-00 00 55 1597 01616 5802 447649 205667 191"
"165.208044"
"$GPRMC,045929,A,2430.7363,N,08058.1041,W,2.0,246.4,140615,6.1,"
"##MN-00 00 56 1598 01616 5803 447649 205663 191"
"165.20809"
"$GPRMC,045933,A,2430.7361,N,08058.1063,W,2.0,247.0,140615,6.1,"
"##MN-00 00 54 1599 01621 5803 447656 205663 191"
"165.208137"
"$GPRMC,045937,A,2430.7352,N,08058.1087,W,2.0,247.9,140615,6.1,"
"##MN-00 00 52 1600 01621 5803 447675 205668 191"
"165.208183"
"$GPRMC,045941,A,2430.7345,N,08058.1105,W,2.1,247.9,140615,6.1,"
"##MN-00 00 54 1601 01622 5804 447676 205663 191"
"165.208229"
"$GPRMC,045945,A,2430.7333,N,08058.1132,W,2.0,248.7,140615,6.1,"
"##MN-00 00 54 1602 01627 5804 447645 205656 191"
"165.208275"
"$GPRMC,045950,A,2430.7323,N,08058.1163,W,2.1,247.8,140615,6.1,"
"##MN-00 00 54 1603 01628 5804 447653 205658 191"
"165.208322"
"$GPRMC,045954,A,2430.7314,N,08058.1186,W,2.0,247.2,140615,6.1,"
"##MN-00 00 54 1604 01633 5805 447644 205655 191"
"165.208368"
"$GPRMC,045958,A,2430.7307,N,08058.1208,W,2.0,246.8,140615,6.1,"
"##MN-00 00 54 1605 01637 5805 447647 205655 191"
"165.208414"
"$GPRMC,050001,A,2430.7296,N,08058.1226,W,2.1,246.9,140615,6.1,"
"##MN-00 00 54 1606 01637 5805 447640 205653 191"
"165.208461"
"$GPRMC,050005,A,2430.7282,N,08058.1250,W,2.1,247.3,140615,6.1,"
"##MN-00 00 54 1607 01641 5806 447630 205650 191"
"165.208507"
"$GPRMC,050009,A,2430.7274,N,08058.1275,W,2.1,246.8,140615,6.1,"
"##MN-00 00 54 1608 01644 5807 447632 205650 191"
"165.208553"
"$GPRMC,050014,A,2430.7264,N,08058.1302,W,2.2,251.0,140615,6.1,"
"##MN-00 00 55 1609 01646 5807 447636 205650 191"
"165.2086"
"$GPRMC,050018,A,2430.7257,N,08058.1326,W,2.2,251.7,140615,6.1,"
"##MN-00 00 54 1610 01649 5807 447626 205645 191"
"165.208646"
"$GPRMC,050022,A,2430.7249,N,08058.1351,W,2.2,252.0,140615,6.1,"
"##MN-00 00 56 1611 01651 5807 447615 205642 191"
"165.208692"
"$GPRMC,050026,A,2430.7245,N,08058.1376,W,2.2,251.6,140615,6.1,"
"##MN-00 00 55 1612 01653 5808 447605 205637 191"
"165.20875"
"$GPRMC,050030,A,2430.7231,N,08058.1395,W,2.1,248.9,140615,6.1,"
"##MN-00 00 54 1613 01658 5808 447604 205634 191"
"165.208796"
"$GPRMC,050034,A,2430.7216,N,08058.1414,W,2.0,246.7,140615,6.1,"
"##MN-00 00 54 1614 01663 5809 447604 205633 191"
"165.208843"
"$GPRMC,050038,A,2430.7206,N,08058.1438,W,1.9,244.2,140615,6.1,"
"##MN-00 00 55 1615 01665 5809 447571 205622 191"
"165.208889"
"$GPRMC,050042,A,2430.7195,N,08058.1459,W,1.9,243.4,140615,6.1,"
"##MN-00 00 54 1616 01668 5810 447571 205621 191"
"165.208935"
"$GPRMC,050046,A,2430.7184,N,08058.1479,W,2.0,242.3,140615,6.1,"
"##MN-00 00 55 1617 01670 5810 447591 205626 191"
"165.208981"
"$GPRMC,050050,A,2430.7173,N,08058.1500,W,1.9,240.6,140615,6.1,"
"##MN-00 00 54 1618 01673 5810 447616 205635 191"
"165.209028"
"$GPRMC,050054,A,2430.7162,N,08058.1519,W,1.9,239.4,140615,6.1,"
"##MN-00 00 54 1619 01679 5811 447621 205631 191"
"165.209074"
"$GPRMC,050058,A,2430.7150,N,08058.1539,W,1.9,239.3,140615,6.1,"
"##MN-00 00 54 1620 01680 5811 447615 205621 191"
"165.20912"
"$GPRMC,050102,A,2430.7141,N,08058.1557,W,1.9,239.4,140615,6.1,"
"##MN-00 00 54 1620 01684 5812 447638 205632 191"
"165.209167"
"$GPRMC,050106,A,2430.7132,N,08058.1577,W,1.9,239.2,140615,6.1,"
"##MN-00 00 52 1621 01686 5812 447645 205638 191"
"165.209213"
"$GPRMC,050110,A,2430.7119,N,08058.1600,W,1.9,240.6,140615,6.1,"
"##MN-00 00 54 1622 01689 5812 447654 205639 191"
"165.209259"
"$GPRMC,050114,A,2430.7109,N,08058.1620,W,1.9,241.8,140615,6.1,"
"##MN-00 00 54 1623 01693 5813 447665 205643 191"
"165.209306"
"$GPRMC,050118,A,2430.7099,N,08058.1642,W,1.9,242.9,140615,6.1,"
"##MN-00 00 54 1624 01693 5813 447672 205646 191"
"165.209352"
"$GPRMC,050122,A,2430.7090,N,08058.1665,W,2.0,243.1,140615,6.1,"
"##MN-00 00 54 1625 01698 5814 447664 205642 191"
"165.209398"
"$GPRMC,050126,A,2430.7080,N,08058.1689,W,2.0,243.2,140615,6.1,"
"##MN-00 00 54 1626 01700 5814 447670 205648 191"
"165.209444"
"$GPRMC,050130,A,2430.7073,N,08058.1709,W,2.0,243.3,140615,6.1,"
"##MN-00 00 54 1627 01702 5814 447677 205648 191"
"165.209491"
"$GPRMC,050134,A,2430.7063,N,08058.1730,W,2.0,244.2,140615,6.1,"
"##MN-00 00 54 1628 01704 5815 447681 205649 191"
"165.209537"
"$GPRMC,050138,A,2430.7051,N,08058.1754,W,2.0,245.4,140615,6.1,"
"##MN-00 00 54 1629 01709 5815 447611 205635 191"
"165.209583"
"$GPRMC,050142,A,2430.7042,N,08058.1777,W,2.1,247.9,140615,6.1,"
"##MN-00 00 53 1630 01712 5815 447514 205610 191"
"165.20963"
"$GPRMC,050146,A,2430.7038,N,08058.1799,W,2.1,247.0,140615,6.1,"
"##MN-00 00 53 1631 01715 5816 447409 205494 191"
"165.209676"
"$GPRMC,050150,A,2430.7029,N,08058.1821,W,2.1,246.1,140615,6.1,"
"##MN-00 00 52 1632 01717 5816 447317 205458 191"
"165.209722"
"$GPRMC,050154,A,2430.7020,N,08058.1843,W,2.1,246.2,140615,6.1,"
"##MN-00 00 54 1633 01720 5816 447281 205440 191"
"165.209769"
"$GPRMC,050158,A,2430.7008,N,08058.1866,W,2.0,246.7,140615,6.1,"
"##MN-00 00 52 1634 01725 5817 447273 205438 191"
"165.209815"
"$GPRMC,050202,A,2430.6996,N,08058.1889,W,2.0,245.7,140615,6.1,"
"##MN-00 00 53 1635 01726 5817 447190 205348 191"
"165.209861"
"$GPRMC,050206,A,2430.6989,N,08058.1911,W,2.1,246.7,140615,6.1,"
"##MN-00 00 53 1636 01727 5818 447071 205322 191"
"165.209907"
"$GPRMC,050210,A,2430.6983,N,08058.1933,W,2.1,246.7,140615,6.1,"
"##MN-00 00 53 1637 01732 5818 447032 205145 191"
"165.209954"
"$GPRMC,050214,A,2430.6975,N,08058.1956,W,2.1,246.2,140615,6.1,"
"##MN-00 00 54 1638 01738 5818 447017 205116 191"
"165.21"
"$GPRMC,050218,A,2430.6964,N,08058.1980,W,2.1,246.7,140615,6.1,"
"##MN-00 00 54 1639 01741 5819 447015 205098 191"
"165.210046"
"$GPRMC,050222,A,2430.6953,N,08058.2002,W,2.1,246.5,140615,6.1,"
"##MN-00 00 55 1640 01746 5819 447047 205093 191"
"165.210093"
"$GPRMC,050226,A,2430.6945,N,08058.2027,W,1.9,246.3,140615,6.1,"
"##MN-00 00 52 1641 01750 5820 447073 205081 191"
"165.210139"
"$GPRMC,050230,A,2430.6938,N,08058.2050,W,2.0,246.6,140615,6.1,"
"##MN-00 00 54 1642 01750 5820 447149 205064 191"
"165.210185"
"$GPRMC,050234,A,2430.6922,N,08058.2074,W,2.1,247.2,140615,6.1,"
"##MN-00 00 53 1642 01755 5820 447233 205052 191"
"165.210231"
"$GPRMC,050238,A,2430.6917,N,08058.2095,W,2.1,247.5,140615,6.1,"
"##MN-00 00 52 1643 01756 5821 447272 205048 191"
"165.210278"
"$GPRMC,050242,A,2430.6907,N,08058.2120,W,2.1,245.9,140615,6.1,"
"##MN-00 00 52 1644 01759 5821 447286 205047 191"
"165.210324"
"$GPRMC,050246,A,2430.6896,N,08058.2140,W,2.1,244.5,140615,6.1,"
"##MN-00 00 54 1645 01765 5821 447309 205044 191"
"165.21037"
"$GPRMC,050250,A,2430.6882,N,08058.2164,W,2.1,243.3,140615,6.1,"
"##MN-00 00 52 1646 01765 5822 447340 205039 191"
"165.210417"
"$GPRMC,050254,A,2430.6870,N,08058.2186,W,2.1,242.0,140615,6.1,"
"##MN-00 00 54 1647 01767 5822 447397 205038 191"
"165.210463"
"$GPRMC,050258,A,2430.6859,N,08058.2205,W,2.0,241.6,140615,6.1,"
"##MN-00 00 54 1648 01775 5823 447451 205038 191"
"165.210509"
"$GPRMC,050302,A,2430.6849,N,08058.2229,W,2.0,241.9,140615,6.1,"
"##MN-00 00 52 1649 01779 5823 447481 205043 191"
"165.210556"
"$GPRMC,050306,A,2430.6839,N,08058.2247,W,1.9,240.9,140615,6.1,"
"##MN-00 00 54 1650 01782 5824 447534 205049 191"
"165.210602"
"$GPRMC,050310,A,2430.6830,N,08058.2267,W,2.0,241.5,140615,6.1,"
"##MN-00 00 53 1650 01789 5824 447594 205053 191"
"165.210648"
"$GPRMC,050314,A,2430.6820,N,08058.2288,W,1.9,241.8,140615,6.1,"
"##MN-00 00 53 1651 01791 5824 447676 205063 191"
"165.210694"
"$GPRMC,050318,A,2430.6809,N,08058.2310,W,2.1,243.0,140615,6.1,"
"##MN-00 00 51 1652 01791 5825 447733 205075 191"
"165.210741"
"$GPRMC,050322,A,2430.6802,N,08058.2335,W,2.1,244.6,140615,6.1,"
"##MN-00 00 54 1653 01796 5825 447789 205080 191"
"165.210787"
"$GPRMC,050326,A,2430.6792,N,08058.2357,W,2.1,243.8,140615,6.1,"
"##MN-00 00 53 1654 01798 5826 447840 205089 191"
"165.210833"
"$GPRMC,050330,A,2430.6783,N,08058.2379,W,2.1,242.2,140615,6.1,"
"##MN-00 00 53 1655 01803 5826 447976 205109 191"
"165.21088"
"$GPRMC,050334,A,2430.6773,N,08058.2400,W,1.9,242.0,140615,6.1,"
"##MN-00 00 52 1656 01808 5827 448162 205152 191"
"165.210926"
"$GPRMC,050338,A,2430.6765,N,08058.2422,W,2.0,242.8,140615,6.1,"
"##MN-00 00 52 1657 01806 5827 448236 205170 191"
"165.210972"
"$GPRMC,050342,A,2430.6759,N,08058.2446,W,2.0,243.2,140615,6.1,"
"##MN-00 00 54 1657 01811 5827 448322 205184 191"
"165.211019"
"$GPRMC,050346,A,2430.6751,N,08058.2467,W,2.0,243.6,140615,6.1,"
"##MN-00 00 53 1658 01814 5828 448419 205201 191"
"165.211065"
"$GPRMC,050350,A,2430.6743,N,08058.2489,W,2.0,243.0,140615,6.1,"
"##MN-00 00 53 1659 01816 5828 448463 205209 191"
"165.211111"
"$GPRMC,050354,A,2430.6729,N,08058.2507,W,1.9,244.2,140615,6.1,"
"##MN-00 00 52 1660 01821 5828 448521 205224 191"
"165.211157"
"$GPRMC,050358,A,2430.6714,N,08058.2527,W,2.1,243.6,140615,6.1,"
"##MN-00 00 53 1661 01824 5829 448592 205245 191"
"165.211204"
"$GPRMC,050402,A,2430.6702,N,08058.2551,W,2.0,244.3,140615,6.1,"
"##MN-00 00 54 1662 01825 5829 448656 205248 191"
"165.21125"
"$GPRMC,050406,A,2430.6693,N,08058.2572,W,2.1,245.9,140615,6.1,"
"##MN-00 00 54 1663 01829 5830 448696 205259 191"
"165.211296"
"$GPRMC,050410,A,2430.6684,N,08058.2595,W,2.1,245.9,140615,6.1,"
"##MN-00 00 52 1664 01831 5830 448749 205286 191"
"165.211343"
"$GPRMC,050414,A,2430.6676,N,08058.2619,W,2.1,247.1,140615,6.1,"
"##MN-00 00 53 1665 01834 5830 448821 205297 191"
"165.211389"
"$GPRMC,050418,A,2430.6665,N,08058.2642,W,2.1,247.2,140615,6.1,"
"##MN-00 00 53 1666 01836 5831 448845 205307 191"
"165.211435"
"$GPRMC,050422,A,2430.6657,N,08058.2664,W,2.0,247.2,140615,6.1,"
"##MN-00 00 54 1667 01839 5831 448874 205314 191"
"165.211481"
"$GPRMC,050426,A,2430.6648,N,08058.2688,W,2.0,247.0,140615,6.1,"
"##MN-00 00 53 1668 01843 5831 448893 205320 191"
"165.211528"
"$GPRMC,050431,A,2430.6636,N,08058.2713,W,2.0,247.0,140615,6.1,"
"##MN-00 00 54 1669 01845 5831 448918 205327 191"
"165.211574"
"$GPRMC,050435,A,2430.6625,N,08058.2735,W,2.0,246.9,140615,6.1,"
"##MN-00 00 53 1669 01845 5832 448956 205334 191"
"165.21162"
"$GPRMC,050438,A,2430.6619,N,08058.2753,W,2.0,246.1,140615,6.1,"
"##MN-00 00 53 1670 01847 5832 449017 205336 191"
"165.211667"
"$GPRMC,050443,A,2430.6613,N,08058.2782,W,2.0,246.3,140615,6.1,"
"##MN-00 00 52 1671 01854 5833 449111 205346 191"
"165.211713"
"$GPRMC,050446,A,2430.6609,N,08058.2798,W,2.1,247.3,140615,6.1,"
"##MN-00 00 51 1672 01853 5833 449194 205376 191"
"165.211759"
"$GPRMC,050451,A,2430.6595,N,08058.2825,W,2.1,248.1,140615,6.1,"
"##MN-00 00 53 1673 01854 5833 449235 205384 191"
"165.211806"
"$GPRMC,050454,A,2430.6584,N,08058.2844,W,2.1,247.6,140615,6.1,"
"##MN-00 00 53 1674 01856 5833 449268 205390 191"
"165.211863"
"$GPRMC,050459,A,2430.6573,N,08058.2873,W,2.1,247.6,140615,6.1,"
"##MN-00 00 54 1675 01861 5834 449291 205391 191"
"165.21191"
"$GPRMC,050503,A,2430.6570,N,08058.2895,W,2.1,247.1,140615,6.1,"
"##MN-00 00 53 1676 01860 5834 449362 205418 191"
"165.211956"
"$GPRMC,050507,A,2430.6561,N,08058.2917,W,2.0,246.6,140615,6.1,"
"##MN-00 00 52 1677 01866 5834 449428 205437 191"
"165.212002"
"$GPRMC,050511,A,2430.6548,N,08058.2938,W,2.0,245.1,140615,6.1,"
"##MN-00 00 52 1678 01869 5835 449475 205434 191"
"165.212049"
"$GPRMC,050515,A,2430.6534,N,08058.2960,W,2.0,245.6,140615,6.1,"
"##MN-00 00 52 1679 01871 5835 449546 205461 191"
"165.212095"
"$GPRMC,050519,A,2430.6520,N,08058.2981,W,2.0,244.9,140615,6.1,"
"##MN-00 00 52 1680 01871 5836 449665 205488 191"
"165.212141"
"$GPRMC,050523,A,2430.6513,N,08058.3002,W,2.0,244.7,140615,6.1,"
"##MN-00 00 53 1681 01872 5836 449746 205495 191"
"165.212188"
"$GPRMC,050527,A,2430.6501,N,08058.3027,W,2.0,244.9,140615,6.1,"
"##MN-00 00 55 1682 01877 5836 449768 205504 191"
"165.212234"
"$GPRMC,050531,A,2430.6491,N,08058.3049,W,2.1,244.7,140615,6.1,"
"##MN-00 00 55 1682 01878 5836 449794 205515 191"
"165.21228"
"$GPRMC,050535,A,2430.6480,N,08058.3071,W,2.1,244.3,140615,6.1,"
"##MN-00 00 52 1683 01884 5837 449806 205516 191"
"165.212326"
"$GPRMC,050539,A,2430.6473,N,08058.3092,W,2.1,242.7,140615,6.1,"
"##MN-00 00 52 1684 01888 5837 449811 205517 191"
"165.212373"
"$GPRMC,050543,A,2430.6463,N,08058.3114,W,2.0,242.4,140615,6.1,"
"##MN-00 00 51 1685 01887 5838 449821 205522 191"
"165.212419"
"$GPRMC,050547,A,2430.6454,N,08058.3136,W,2.1,241.6,140615,6.1,"
"##MN-00 00 53 1686 01890 5838 449824 205520 191"
"165.212465"
"$GPRMC,050551,A,2430.6443,N,08058.3161,W,1.9,241.6,140615,6.1,"
"##MN-00 00 53 1687 01893 5838 449811 205515 191"
"165.212512"
"$GPRMC,050555,A,2430.6436,N,08058.3180,W,1.9,242.0,140615,6.1,"
"##MN-00 00 51 1688 01896 5838 449812 205513 191"
"165.212558"
"$GPRMC,050559,A,2430.6426,N,08058.3204,W,2.0,243.0,140615,6.1,"
"##MN-00 00 54 1689 01900 5838 449822 205513 191"
"165.212604"
"$GPRMC,050603,A,2430.6416,N,08058.3226,W,1.9,243.0,140615,6.1,"
"##MN-00 00 53 1690 01906 5839 449868 205521 191"
"165.21265"
"$GPRMC,050607,A,2430.6406,N,08058.3245,W,2.0,242.9,140615,6.1,"
"##MN-00 00 53 1691 01906 5839 450002 205554 191"
"165.212697"
"$GPRMC,050611,A,2430.6394,N,08058.3269,W,2.0,243.6,140615,6.1,"
"##MN-00 00 53 1692 01913 5839 450155 205574 191"
"165.212743"
"$GPRMC,050615,A,2430.6387,N,08058.3289,W,2.0,244.8,140615,6.1,"
"##MN-00 00 53 1693 01912 5840 450387 205620 191"
"165.212789"
"$GPRMC,050619,A,2430.6371,N,08058.3314,W,2.0,244.5,140615,6.1,"
"##MN-00 00 54 1693 01916 5840 450710 205689 191"
"165.212836"
"$GPRMC,050623,A,2430.6363,N,08058.3335,W,2.0,245.8,140615,6.1,"
"##MN-00 00 52 1694 01920 5840 450825 205721 191"
"165.212882"
"$GPRMC,050627,A,2430.6356,N,08058.3357,W,2.1,245.5,140615,6.1,"
"##MN-00 00 50 1695 01920 5840 450849 205723 191"
"165.212928"
"$GPRMC,050631,A,2430.6347,N,08058.3379,W,2.1,245.2,140615,6.1,"
"##MN-00 00 52 1696 01921 5841 450852 205726 191"
"165.212975"
"$GPRMC,050635,A,2430.6336,N,08058.3400,W,2.1,245.4,140615,6.1,"
"##MN-00 00 53 1697 01927 5841 450851 205720 191"
"165.213021"
"$GPRMC,050639,A,2430.6331,N,08058.3422,W,2.1,244.4,140615,6.1,"
"##MN-00 00 52 1698 01932 5841 450850 205720 191"
"165.213067"
"$GPRMC,050643,A,2430.6320,N,08058.3447,W,2.0,243.1,140615,6.1,"
"##MN-00 00 53 1699 01935 5842 450852 205717 191"
"165.213113"
"$GPRMC,050647,A,2430.6311,N,08058.3466,W,1.9,242.8,140615,6.1,"
"##MN-00 00 52 1700 01939 5842 450874 205720 191"
"165.21316"
"$GPRMC,050651,A,2430.6301,N,08058.3490,W,2.0,242.2,140615,6.1,"
"##MN-00 00 51 1701 01941 5842 450895 205726 191"
"165.213206"
"$GPRMC,050655,A,2430.6292,N,08058.3512,W,2.0,242.8,140615,6.1,"
"##MN-00 00 54 1702 01940 5842 450938 205736 191"
"165.213252"
"$GPRMC,050659,A,2430.6277,N,08058.3534,W,2.1,242.9,140615,6.1,"
"##MN-00 00 53 1703 01945 5842 450966 205740 191"
"165.213299"
"$GPRMC,050703,A,2430.6272,N,08058.3555,W,2.0,242.6,140615,6.1,"
"##MN-00 00 53 1703 01949 5843 450992 205746 191"
"165.213345"
"$GPRMC,050707,A,2430.6260,N,08058.3577,W,2.0,243.3,140615,6.1,"
"##MN-00 00 52 1704 01949 5843 451039 205758 191"
"165.213391"
"$GPRMC,050711,A,2430.6250,N,08058.3596,W,2.0,245.3,140615,6.1,"
"##MN-00 00 53 1705 01954 5843 451109 205774 191"
"165.213437"
"$GPRMC,050715,A,2430.6243,N,08058.3617,W,2.0,246.9,140615,6.1,"
"##MN-00 00 53 1706 01956 5843 451197 205798 191"
"165.213484"
"$GPRMC,050719,A,2430.6237,N,08058.3642,W,2.0,247.3,140615,6.1,"
"##MN-00 00 53 1707 01961 5843 451288 205822 191"
"165.21353"
"$GPRMC,050723,A,2430.6227,N,08058.3664,W,1.9,249.3,140615,6.1,"
"##MN-00 00 52 1708 01965 5844 451360 205836 191"
"165.213576"
"$GPRMC,050727,A,2430.6221,N,08058.3686,W,2.1,249.1,140615,6.1,"
"##MN-00 00 51 1709 01963 5844 451422 205851 191"
"165.213623"
"$GPRMC,050731,A,2430.6208,N,08058.3711,W,2.1,248.7,140615,6.1,"
"##MN-00 00 52 1710 01968 5844 451500 205867 191"
"165.213669"
"$GPRMC,050735,A,2430.6199,N,08058.3736,W,2.1,248.5,140615,6.1,"
"##MN-00 00 53 1711 01970 5844 451615 205886 191"
"165.213715"
"$GPRMC,050739,A,2430.6190,N,08058.3757,W,2.1,247.8,140615,6.1,"
"##MN-00 00 53 1712 01971 5845 451711 205887 191"
"165.213762"
"$GPRMC,050743,A,2430.6174,N,08058.3779,W,1.9,249.2,140615,6.1,"
"##MN-00 00 52 1712 01978 5845 452021 205948 191"
"165.213808"
"$GPRMC,050747,A,2430.6165,N,08058.3802,W,2.0,248.1,140615,6.1,"
"##MN-00 00 53 1713 01978 5845 452543 206095 191"
"165.213854"
"$GPRMC,050751,A,2430.6158,N,08058.3824,W,2.0,247.1,140615,6.1,"
"##MN-00 00 53 1714 01981 5845 452815 206141 191"
"165.2139"
"$GPRMC,050755,A,2430.6153,N,08058.3844,W,1.9,246.7,140615,6.1,"
"##MN-00 00 53 1715 01984 5845 452921 206153 191"
"165.213947"
"$GPRMC,050759,A,2430.6145,N,08058.3869,W,2.0,245.6,140615,6.1,"
"##MN-00 00 53 1716 01989 5846 452968 206149 191"
"165.213993"
"$GPRMC,050803,A,2430.6131,N,08058.3891,W,1.9,245.5,140615,6.1,"
"##MN-00 00 53 1717 01994 5846 452931 206134 191"
"165.214039"
"$GPRMC,050807,A,2430.6124,N,08058.3912,W,1.9,244.9,140615,6.1,"
"##MN-00 00 53 1718 01996 5846 452874 206116 191"
"165.214086"
"$GPRMC,050811,A,2430.6113,N,08058.3934,W,1.9,243.8,140615,6.1,"
"##MN-00 00 53 1719 02001 5846 452822 206096 191"
"165.214132"
"$GPRMC,050815,A,2430.6106,N,08058.3956,W,1.9,243.5,140615,6.1,"
"##MN-00 00 53 1720 02005 5846 452741 206073 191"
"165.214178"
"$GPRMC,050819,A,2430.6100,N,08058.3979,W,1.9,243.9,140615,6.1,"
"##MN-00 00 52 1720 02006 5846 452657 206039 191"
"165.214225"
"$GPRMC,050823,A,2430.6086,N,08058.4000,W,2.0,243.0,140615,6.1,"
"##MN-00 00 54 1721 02012 5846 452564 206013 191"
"165.214271"
"$GPRMC,050827,A,2430.6078,N,08058.4022,W,1.9,243.3,140615,6.1,"
"##MN-00 00 53 1722 02017 5846 452488 205974 191"
"165.214317"
"$GPRMC,050831,A,2430.6071,N,08058.4044,W,2.1,242.8,140615,6.1,"
"##MN-00 00 54 1723 02016 5847 453427 206121 191"
"165.214363"
"$GPRMC,050835,A,2430.6061,N,08058.4065,W,2.0,242.2,140615,6.1,"
"##MN-00 00 53 1724 02020 5847 455337 206602 191"
"165.21441"
"$GPRMC,050839,A,2430.6050,N,08058.4084,W,2.0,241.4,140615,6.1,"
"##MN-00 00 51 1724 02026 5847 455793 206767 191"
"165.214456"
"$GPRMC,050843,A,2430.6039,N,08058.4107,W,2.1,240.9,140615,6.1,"
"##MN-00 00 51 1725 02025 5847 456290 206880 191"
"165.214502"
"$GPRMC,050847,A,2430.6025,N,08058.4129,W,2.1,240.6,140615,6.1,"
"##MN-00 00 52 1726 02032 5847 456564 206917 191"
"165.214549"
"$GPRMC,050851,A,2430.6013,N,08058.4152,W,2.0,240.8,140615,6.1,"
"##MN-00 00 52 1727 02032 5847 457507 207156 191"
"165.214595"
"$GPRMC,050855,A,2430.6008,N,08058.4171,W,2.1,241.5,140615,6.1,"
"##MN-00 00 52 1728 02038 5847 459134 207431 191"
"165.214641"
"$GPRMC,050859,A,2430.5992,N,08058.4194,W,2.0,243.2,140615,6.1,"
"##MN-00 00 52 1729 02044 5848 460901 207732 191"
"165.214688"
"$GPRMC,050904,A,2430.5979,N,08058.4223,W,2.1,245.5,140615,6.1,"
"##MN-00 00 51 1730 02045 5847 462150 208049 191"
"165.214734"
"$GPRMC,050908,A,2430.5975,N,08058.4245,W,2.1,246.2,140615,6.1,"
"##MN-00 00 53 1731 02048 5848 462879 208160 191"
"165.21478"
"$GPRMC,050912,A,2430.5963,N,08058.4268,W,2.1,247.2,140615,6.1,"
"##MN-00 00 52 1732 02053 5848 463590 208316 191"
"165.214826"
"$GPRMC,050915,A,2430.5956,N,08058.4283,W,2.1,246.4,140615,6.1,"
"##MN-00 00 51 1733 02057 5847 464049 208469 191"
"165.214873"
"$GPRMC,050919,A,2430.5945,N,08058.4304,W,2.1,246.5,140615,6.1,"
"##MN-00 00 52 1733 02061 5847 464579 208469 191"
"165.214919"
"$GPRMC,050923,A,2430.5939,N,08058.4324,W,2.1,246.9,140615,6.1,"
"##MN-00 00 52 1734 02064 5848 465187 208567 191"
"165.214965"
"$GPRMC,050927,A,2430.5931,N,08058.4346,W,2.1,246.8,140615,6.1,"
"##MN-00 00 51 1735 02071 5848 465852 208724 191"
"165.215023"
"$GPRMC,050932,A,2430.5911,N,08058.4375,W,2.1,245.4,140615,6.1,"
"##MN-00 00 49 1736 02074 5847 466469 209001 191"
"165.215069"
"$GPRMC,050936,A,2430.5901,N,08058.4400,W,2.1,245.9,140615,6.1,"
"##MN-00 00 51 1737 02075 5847 467138 209135 191"
"165.215116"
"$GPRMC,050940,A,2430.5891,N,08058.4425,W,2.1,245.9,140615,6.1,"
"##MN-00 00 52 1738 02083 5847 467388 209133 191"
"165.215162"
"$GPRMC,050944,A,2430.5880,N,08058.4448,W,2.1,244.8,140615,6.1,"
"##MN-00 00 51 1738 02086 5847 467633 209245 191"
"165.215208"
"$GPRMC,050948,A,2430.5873,N,08058.4473,W,2.1,243.0,140615,6.1,"
"##MN-00 00 51 1739 02091 5846 468668 209545 191"
"165.215255"
"$GPRMC,050952,A,2430.5866,N,08058.4494,W,2.0,242.2,140615,6.1,"
"##MN-00 00 52 1740 02097 5846 469992 209787 191"
"165.215301"
"$GPRMC,050956,A,2430.5859,N,08058.4513,W,2.0,241.7,140615,6.1,"
"##MN-00 00 52 1741 02101 5846 470961 209885 191"
"165.215347"
"$GPRMC,051000,A,2430.5849,N,08058.4535,W,2.1,241.4,140615,6.1,"
"##MN-00 00 51 1742 02109 5846 471517 210008 191"
"165.215394"
"$GPRMC,051004,A,2430.5835,N,08058.4557,W,2.1,241.4,140615,6.1,"
"##MN-00 00 52 1742 02110 5845 472429 210207 191"
"165.21544"
"$GPRMC,051008,A,2430.5821,N,08058.4581,W,2.1,241.6,140615,6.1,"
"##MN-00 00 52 1743 02114 5845 473145 210318 191"
"165.215486"
"$GPRMC,051012,A,2430.5804,N,08058.4604,W,2.2,241.6,140615,6.1,"
"##MN-00 00 50 1744 02120 5844 473957 210475 191"
"165.215532"
"$GPRMC,051016,A,2430.5793,N,08058.4628,W,2.1,241.6,140615,6.1,"
"##MN-00 00 51 1745 02121 5844 474572 210643 191"
"165.215579"
"$GPRMC,051020,A,2430.5781,N,08058.4653,W,2.2,241.1,140615,6.1,"
"##MN-00 00 51 1745 02127 5844 474924 210686 191"
"165.215625"
"$GPRMC,051024,A,2430.5771,N,08058.4675,W,2.2,242.3,140615,6.1,"
"##MN-00 00 52 1746 02129 5843 475251 210758 191"
"165.215671"
"$GPRMC,051028,A,2430.5758,N,08058.4700,W,2.2,242.9,140615,6.1,"
"##MN-00 00 52 1747 02134 5842 475491 210843 191"
"165.215718"
"$GPRMC,051032,A,2430.5750,N,08058.4722,W,2.2,244.1,140615,6.1,"
"##MN-00 00 51 1748 02139 5842 475631 210878 191"
"165.215764"
"$GPRMC,051036,A,2430.5741,N,08058.4745,W,2.2,244.8,140615,6.1,"
"##MN-00 00 50 1748 02143 5841 475706 210886 191"
"165.21581"
"$GPRMC,051040,A,2430.5735,N,08058.4767,W,2.2,245.6,140615,6.1,"
"##MN-00 00 52 1749 02145 5841 475786 210865 191"
"165.215856"
"$GPRMC,051044,A,2430.5725,N,08058.4791,W,2.2,245.7,140615,6.1,"
"##MN-00 00 50 1750 02148 5840 476052 210920 191"
"165.215903"
"$GPRMC,051048,A,2430.5715,N,08058.4812,W,2.1,245.1,140615,6.1,"
"##MN-00 00 51 1751 02150 5840 476430 211051 191"
"165.215949"
"$GPRMC,051052,A,2430.5706,N,08058.4830,W,2.1,245.5,140615,6.1,"
"##MN-00 00 51 1752 02154 5839 476715 211092 191"
"165.215995"
"$GPRMC,051056,A,2430.5692,N,08058.4859,W,2.1,244.9,140615,6.1,"
"##MN-00 00 51 1752 02158 5838 477020 211148 191"
"165.216042"
"$GPRMC,051100,A,2430.5681,N,08058.4884,W,2.1,244.9,140615,6.1,"
"##MN-00 00 50 1753 02160 5837 477360 211188 191"
"165.216088"
"$GPRMC,051104,A,2430.5670,N,08058.4904,W,2.2,246.4,140615,6.1,"
"##MN-00 00 51 1754 02162 5836 477736 211262 191"
"165.216134"
"$GPRMC,051108,A,2430.5656,N,08058.4933,W,2.2,247.8,140615,6.1,"
"##MN-00 00 50 1755 02169 5836 478547 211424 191"
"165.216181"
"$GPRMC,051112,A,2430.5643,N,08058.4960,W,2.2,247.8,140615,6.1,"
"##MN-00 00 50 1756 02168 5835 480386 211833 191"
"165.216227"
"$GPRMC,051116,A,2430.5635,N,08058.4983,W,2.2,247.3,140615,6.1,"
"##MN-00 00 51 1757 02171 5834 481643 212105 191"
"165.216273"
"$GPRMC,051120,A,2430.5621,N,08058.5008,W,2.2,247.2,140615,6.1,"
"##MN-00 00 50 1757 02175 5833 481941 212101 191"
"165.216319"
"$GPRMC,051124,A,2430.5612,N,08058.5032,W,2.2,246.1,140615,6.1,"
"##MN-00 00 51 1758 02177 5832 482362 212101 191"
"165.216366"
"$GPRMC,051128,A,2430.5605,N,08058.5054,W,2.1,244.3,140615,6.1,"
"##MN-00 00 51 1759 02185 5832 484093 212526 191"
"165.216412"
"$GPRMC,051132,A,2430.5597,N,08058.5076,W,2.1,243.2,140615,6.1,"
"##MN-00 00 51 1760 02186 5831 485599 212841 191"
"165.216458"
"$GPRMC,051136,A,2430.5591,N,08058.5099,W,2.1,242.2,140615,6.1,"
"##MN-00 00 50 1760 02189 5830 486872 213261 191"
"165.216505"
"$GPRMC,051140,A,2430.5582,N,08058.5121,W,2.2,241.9,140615,6.1,"
"##MN-00 00 51 1761 02192 5829 487447 213286 191"
"165.216551"
"$GPRMC,051144,A,2430.5564,N,08058.5145,W,2.1,241.8,140615,6.1,"
"##MN-00 00 50 1762 02199 5828 487962 213342 191"
"165.216597"
"$GPRMC,051148,A,2430.5548,N,08058.5168,W,2.2,242.1,140615,6.1,"
"##MN-00 00 50 1763 02198 5826 488991 213650 191"
"165.216644"
"$GPRMC,051152,A,2430.5535,N,08058.5192,W,2.2,242.8,140615,6.1,"
"##MN-00 00 51 1764 02203 5825 489673 213744 191"
"165.21669"
"$GPRMC,051156,A,2430.5524,N,08058.5217,W,2.2,243.5,140615,6.1,"
"##MN-00 00 51 1765 02206 5824 490190 213849 191"
"165.216736"
"$GPRMC,051200,A,2430.5512,N,08058.5242,W,2.2,243.3,140615,6.1,"
"##MN-00 00 50 1765 02208 5823 490455 213950 191"
"165.216782"
"$GPRMC,051204,A,2430.5500,N,08058.5267,W,2.2,242.9,140615,6.1,"
"##MN-00 00 50 1766 02212 5822 490755 214036 191"
"165.216829"
"$GPRMC,051208,A,2430.5492,N,08058.5289,W,2.2,242.9,140615,6.1,"
"##MN-00 00 51 1767 02218 5821 491111 214116 191"
"165.216875"
"$GPRMC,051212,A,2430.5479,N,08058.5312,W,2.2,242.5,140615,6.1,"
"##MN-00 00 50 1768 02222 5819 491657 214329 191"
"165.216921"
"$GPRMC,051216,A,2430.5466,N,08058.5337,W,2.2,242.6,140615,6.1,"
"##MN-00 00 50 1769 02224 5818 492114 214383 191"
"165.216968"
"$GPRMC,051220,A,2430.5458,N,08058.5361,W,2.2,242.6,140615,6.1,"
"##MN-00 00 51 1769 02227 5816 492410 214393 191"
"165.217014"
"$GPRMC,051224,A,2430.5448,N,08058.5384,W,2.2,243.3,140615,6.1,"
"##MN-00 00 51 1770 02232 5815 493079 214436 191"
"165.21706"
"$GPRMC,051228,A,2430.5440,N,08058.5408,W,2.2,245.1,140615,6.1,"
"##MN-00 00 50 1771 02236 5814 493749 214687 191"
"165.217106"
"$GPRMC,051232,A,2430.5432,N,08058.5433,W,2.2,244.9,140615,6.1,"
"##MN-00 00 50 1772 02238 5813 494366 214707 191"
"165.217153"
"$GPRMC,051236,A,2430.5423,N,08058.5456,W,2.2,245.0,140615,6.1,"
"##MN-00 00 51 1772 02240 5811 495468 215085 191"
"165.217199"
"$GPRMC,051240,A,2430.5414,N,08058.5481,W,2.2,244.2,140615,6.1,"
"##MN-00 00 51 1773 02245 5809 496244 215285 191"
"165.217245"
"$GPRMC,051244,A,2430.5398,N,08058.5506,W,2.2,244.4,140615,6.1,"
"##MN-00 00 51 1774 02250 5808 496958 215419 191"
"165.217292"
"$GPRMC,051248,A,2430.5394,N,08058.5529,W,2.1,244.7,140615,6.1,"
"##MN+00 00 50 1775 02254 5807 497551 215560 191"
"165.217338"
"$GPRMC,051252,A,2430.5381,N,08058.5554,W,2.2,244.4,140615,6.1,"
"##MN+00 00 50 1775 02256 5805 497962 215663 191"
"165.217384"
"$GPRMC,051256,A,2430.5365,N,08058.5579,W,2.3,244.3,140615,6.1,"
"##MN+00 00 48 1776 02253 5803 498311 215720 191"
"165.217431"
"$GPRMC,051300,A,2430.5353,N,08058.5603,W,2.3,244.9,140615,6.1,"
"##MN-00 00 51 1777 02257 5801 498553 215787 191"
"165.217477"
"$GPRMC,051304,A,2430.5345,N,08058.5626,W,2.2,245.0,140615,6.1,"
"##MN-00 00 51 1778 02263 5800 498590 215765 191"
"165.217523"
"$GPRMC,051308,A,2430.5331,N,08058.5651,W,2.3,243.8,140615,6.1,"
"##MN-00 00 51 1779 02262 5798 498716 215798 191"
"165.217569"
"$GPRMC,051312,A,2430.5317,N,08058.5676,W,2.2,243.2,140615,6.1,"
"##MN+00 00 51 1779 02267 5796 498804 215828 191"
"165.217616"
"$GPRMC,051316,A,2430.5307,N,08058.5701,W,2.2,243.4,140615,6.1,"
"##MN+00 00 54 1780 02271 5794 499067 215891 191"
"165.217662"
"$GPRMC,051320,A,2430.5300,N,08058.5726,W,2.2,243.9,140615,6.1,"
"##MN+00 00 54 1781 02273 5792 499285 215932 191"
"165.217708"
"$GPRMC,051324,A,2430.5291,N,08058.5749,W,2.1,245.6,140615,6.1,"
"##MN-00 00 50 1782 02270 5791 499341 215953 191"
"165.217755"
"$GPRMC,051328,A,2430.5280,N,08058.5777,W,2.2,245.1,140615,6.1,"
"##MN-00 00 50 1783 02266 5789 499271 215932 191"
"165.217801"
"$GPRMC,051332,A,2430.5267,N,08058.5800,W,2.2,246.2,140615,6.1,"
"##MN-00 00 50 1783 02270 5787 499230 215927 191"
"165.217847"
"$GPRMC,051336,A,2430.5260,N,08058.5824,W,2.2,246.2,140615,6.1,"
"##MN-00 00 50 1784 02267 5785 499243 215936 191"
"165.217894"
"$GPRMC,051340,A,2430.5248,N,08058.5849,W,2.2,245.6,140615,6.1,"
"##MN-00 00 49 1785 02268 5783 499268 215939 191"
"165.21794"
"$GPRMC,051344,A,2430.5237,N,08058.5871,W,2.2,245.9,140615,6.1,"
"##MN-00 00 48 1786 02270 5781 499265 215943 191"
"165.217986"
"$GPRMC,051348,A,2430.5227,N,08058.5896,W,2.2,245.6,140615,6.1,"
"##MN-00 00 52 1787 02262 5779 499241 215936 191"
"165.218032"
"$GPRMC,051352,A,2430.5221,N,08058.5919,W,2.2,245.6,140615,6.1,"
"##MN-00 00 51 1788 02266 5777 499192 215929 191"
"165.218079"
"$GPRMC,051356,A,2430.5209,N,08058.5943,W,2.2,245.8,140615,6.1,"
"##MN-00 00 50 1789 02267 5775 499180 215928 191"
"165.218125"
"#increment_net"
"$GPRMC,051400,A,2430.5197,N,08058.5968,W,2.2,244.4,140615,6.1,"
"##MN-00 00 50 1790 02267 5773 499179 215927 191"
"165.218171"
"$GPRMC,051404,A,2430.5190,N,08058.5988,W,2.1,245.6,140615,6.1,"
"##MN-00 00 51 1790 02269 5771 499141 215922 191"
"165.218218"
"$GPRMC,051409,A,2430.5180,N,08058.6015,W,2.2,244.9,140615,6.1,"
"##MN-00 00 50 1791 02268 5769 499144 215924 191"
"165.218275"
"$GPRMC,051413,A,2430.5169,N,08058.6040,W,2.2,244.9,140615,6.1,"
"##MN-00 00 51 1792 02268 5767 499135 215922 191"
"165.218322"
"$GPRMC,051417,A,2430.5161,N,08058.6064,W,2.1,245.6,140615,6.1,"
"##MN-00 00 50 1793 02267 5765 499124 215918 191"
"165.218368"
"$GPRMC,051421,A,2430.5152,N,08058.6088,W,2.2,247.5,140615,6.1,"
"##MN-00 00 49 1794 02265 5762 499105 215915 191"
"165.218414"
"$GPRMC,051425,A,2430.5140,N,08058.6110,W,2.1,246.7,140615,6.1,"
"##MN-00 00 49 1795 02259 5760 499044 215902 191"
"165.218461"
"$GPRMC,051429,A,2430.5127,N,08058.6132,W,2.1,245.3,140615,6.1,"
"##MN-00 00 50 1796 02258 5758 498962 215888 191"
"165.218507"
"$GPRMC,051433,A,2430.5121,N,08058.6152,W,2.0,244.9,140615,6.1,"
"##MN-00 00 51 1797 02258 5756 498890 215875 191"
"165.218553"
"$GPRMC,051437,A,2430.5114,N,08058.6174,W,2.1,243.8,140615,6.1,"
"##MN-00 00 51 1798 02257 5753 498801 215858 191"
"165.2186"
"$GPRMC,051441,A,2430.5105,N,08058.6197,W,2.1,243.9,140615,6.1,"
"##MN-00 00 50 1799 02254 5752 498704 215845 191"
"165.218646"
"$GPRMC,051445,A,2430.5099,N,08058.6218,W,2.1,244.4,140615,6.1,"
"##MN-00 00 50 1800 02251 5749 498525 215811 191"
"165.218692"
"$GPRMC,051449,A,2430.5090,N,08058.6239,W,2.1,245.2,140615,6.1,"
"##MN-00 00 50 1800 02250 5747 498395 215770 191"
"165.218738"
"$GPRMC,051453,A,2430.5079,N,08058.6262,W,2.1,244.9,140615,6.1,"
"##MN-00 00 50 1801 02244 5745 498254 215742 191"
"165.218785"
"$GPRMC,051457,A,2430.5063,N,08058.6286,W,2.1,245.6,140615,6.1,"
"##MN-00 00 50 1802 02247 5742 498043 215723 191"
"165.218831"
"$GPRMC,051501,A,2430.5051,N,08058.6311,W,2.1,245.8,140615,6.1,"
"##MN-00 00 49 1803 02242 5740 497818 215674 191"
"165.218877"
"$GPRMC,051505,A,2430.5042,N,08058.6334,W,2.1,245.6,140615,6.1,"
"##MN-00 00 50 1804 02241 5738 497628 215606 191"
"165.218924"
"$GPRMC,051509,A,2430.5027,N,08058.6358,W,2.1,246.6,140615,6.1,"
"##MN-00 00 50 1805 02240 5736 497469 215572 191"
"165.21897"
"$GPRMC,051513,A,2430.5020,N,08058.6381,W,2.1,246.0,140615,6.1,"
"##MN-00 00 50 1806 02240 5734 497203 215555 191"
"165.219016"
"$GPRMC,051517,A,2430.5013,N,08058.6405,W,1.9,246.7,140615,6.1,"
"##MN-00 00 49 1807 02240 5732 496974 215497 191"
"165.219063"
"$GPRMC,051521,A,2430.5000,N,08058.6427,W,2.1,246.4,140615,6.1,"
"##MN-00 00 50 1808 02234 5729 496475 215393 191"
"165.219109"
"$GPRMC,051525,A,2430.4988,N,08058.6454,W,2.1,246.5,140615,6.1,"
"##MN-00 00 49 1809 02235 5727 496049 215305 191"
"165.219155"
"$GPRMC,051529,A,2430.4977,N,08058.6477,W,2.1,247.7,140615,6.1,"
"##MN-00 00 49 1810 02232 5724 495842 215252 191"
"165.219201"
"$GPRMC,051533,A,2430.4973,N,08058.6500,W,2.2,246.3,140615,6.1,"
"##MN-00 00 49 1811 02232 5722 495585 215229 191"
"165.219248"
"$GPRMC,051537,A,2430.4959,N,08058.6524,W,2.1,245.7,140615,6.1,"
"##MN-00 00 49 1811 02228 5720 495368 215147 191"
"165.219294"
"$GPRMC,051541,A,2430.4951,N,08058.6546,W,2.1,246.6,140615,6.1,"
"##MN-00 00 51 1812 02225 5718 495104 215092 191"
"165.21934"
"$GPRMC,051545,A,2430.4942,N,08058.6568,W,2.1,245.9,140615,6.1,"
"##MN-00 00 50 1813 02224 5716 494739 215024 191"
"165.219387"
"$GPRMC,051549,A,2430.4933,N,08058.6590,W,2.1,245.8,140615,6.1,"
"##MN-00 00 49 1814 02223 5713 494440 214986 191"
"165.219433"
"$GPRMC,051553,A,2430.4930,N,08058.6611,W,2.1,245.2,140615,6.1,"
"##MN-00 00 50 1815 02221 5711 493945 214907 191"
"165.219479"
"$GPRMC,051557,A,2430.4921,N,08058.6634,W,2.0,244.7,140615,6.1,"
"##MN-00 00 49 1816 02223 5709 493590 214799 191"
"165.219525"
"$GPRMC,051601,A,2430.4912,N,08058.6656,W,2.1,245.1,140615,6.1,"
"##MN-00 00 49 1817 02215 5706 493079 214707 191"
"165.219572"
"$GPRMC,051605,A,2430.4902,N,08058.6681,W,2.2,244.3,140615,6.1,"
"##MN-00 00 50 1818 02210 5705 492410 214590 191"
"165.219618"
"$GPRMC,051609,A,2430.4890,N,08058.6705,W,2.2,244.0,140615,6.1,"
"##MN-00 00 49 1819 02209 5702 492008 214519 191"
"165.219664"
"$GPRMC,051613,A,2430.4881,N,08058.6730,W,2.2,244.3,140615,6.1,"
"##MN-00 00 49 1820 02209 5700 491739 214495 191"
"165.219711"
"$GPRMC,051617,A,2430.4865,N,08058.6753,W,2.1,245.2,140615,6.1,"
"##MN-00 00 49 1821 02205 5698 491487 214345 191"
"165.219757"
"$GPRMC,051621,A,2430.4854,N,08058.6778,W,2.1,247.1,140615,6.1,"
"##MN-00 00 50 1822 02199 5696 491185 214274 191"
"165.219803"
"$GPRMC,051625,A,2430.4846,N,08058.6803,W,2.1,248.5,140615,6.1,"
"##MN-00 00 51 1823 02201 5693 490479 214152 191"
"165.21985"
"$GPRMC,051629,A,2430.4843,N,08058.6828,W,2.1,249.0,140615,6.1,"
"##MN-00 00 48 1824 02197 5691 489559 213955 191"
"165.219896"
"$GPRMC,051633,A,2430.4830,N,08058.6851,W,2.1,247.2,140615,6.1,"
"##MN-00 00 50 1825 02194 5689 488486 213703 191"
"165.219942"
"$GPRMC,051637,A,2430.4818,N,08058.6875,W,2.0,246.9,140615,6.1,"
"##MN-00 00 49 1826 02192 5687 487983 213595 191"
"165.219988"
"$GPRMC,051641,A,2430.4809,N,08058.6897,W,2.1,246.4,140615,6.1,"
"##MN-00 00 49 1827 02187 5685 487558 213550 191"
"165.220035"
"$GPRMC,051645,A,2430.4800,N,08058.6919,W,2.1,245.2,140615,6.1,"
"##MN-00 00 48 1828 02187 5682 487269 213447 191"
"165.220081"
"$GPRMC,051649,A,2430.4789,N,08058.6943,W,2.1,245.5,140615,6.1,"
"##MN-00 00 50 1829 02182 5681 486854 213345 191"
"165.220127"
"$GPRMC,051653,A,2430.4781,N,08058.6965,W,2.1,245.5,140615,6.1,"
"##MN-00 00 50 1830 02181 5678 486173 213214 191"
"165.220174"
"$GPRMC,051657,A,2430.4768,N,08058.6988,W,2.1,246.4,140615,6.1,"
"##MN-00 00 49 1830 02178 5676 485572 213055 191"
"165.22022"
"$GPRMC,051701,A,2430.4762,N,08058.7012,W,2.1,246.6,140615,6.1,"
"##MN-00 00 50 1831 02176 5674 484541 212872 191"
"165.220266"
"$GPRMC,051705,A,2430.4753,N,08058.7034,W,2.1,246.8,140615,6.1,"
"##MN-00 00 50 1832 02174 5672 483614 212745 191"
"165.220312"
"$GPRMC,051709,A,2430.4746,N,08058.7056,W,2.0,246.8,140615,6.1,"
"##MN-00 00 49 1833 02171 5670 482239 212365 191"
"165.220359"
"$GPRMC,051713,A,2430.4734,N,08058.7078,W,2.1,247.2,140615,6.1,"
"##MN-00 00 49 1834 02167 5668 481290 212220 191"
"165.220405"
"$GPRMC,051717,A,2430.4728,N,08058.7102,W,2.1,247.9,140615,6.1,"
"##MN-00 00 50 1835 02166 5666 480511 211943 191"
"165.220451"
"$GPRMC,051721,A,2430.4716,N,08058.7124,W,2.0,246.9,140615,6.1,"
"##MN-00 00 50 1836 02164 5664 479848 211950 191"
"165.220498"
"$GPRMC,051725,A,2430.4706,N,08058.7146,W,2.0,245.1,140615,6.1,"
"##MN-00 00 49 1837 02165 5662 479104 211778 191"
"165.220544"
"$GPRMC,051729,A,2430.4695,N,08058.7168,W,2.0,244.7,140615,6.1,"
"##MN-00 00 50 1838 02159 5661 478698 211633 191"
"165.22059"
"$GPRMC,051733,A,2430.4682,N,08058.7193,W,2.1,245.1,140615,6.1,"
"##MN-00 00 50 1839 02157 5659 478273 211520 191"
"165.220637"
"$GPRMC,051737,A,2430.4673,N,08058.7215,W,2.1,245.7,140615,6.1,"
"##MN-00 00 49 1840 02156 5657 477803 211420 191"
"165.220683"
"$GPRMC,051741,A,2430.4662,N,08058.7238,W,2.1,245.1,140615,6.1,"
"##MN-00 00 49 1841 02151 5655 477477 211346 191"
"165.220729"
"$GPRMC,051745,A,2430.4651,N,08058.7261,W,2.1,245.1,140615,6.1,"
"##MN-00 00 49 1842 02150 5653 477234 211319 191"
"165.220775"
"$GPRMC,051749,A,2430.4642,N,08058.7283,W,2.1,245.4,140615,6.1,"
"##MN-00 00 50 1843 02145 5652 476924 211210 191"
"165.220822"
"$GPRMC,051753,A,2430.4631,N,08058.7306,W,2.1,244.8,140615,6.1,"
"##MN-00 00 49 1844 02145 5650 476446 211183 191"
"165.220868"
"$GPRMC,051757,A,2430.4620,N,08058.7328,W,2.1,243.7,140615,6.1,"
"##MN-00 00 49 1845 02143 5648 476059 211082 191"
"165.220914"
"$GPRMC,051801,A,2430.4609,N,08058.7352,W,2.1,243.3,140615,6.1,"
"##MN-00 00 49 1846 02142 5646 475516 210984 191"
"165.220961"
"$GPRMC,051805,A,2430.4601,N,08058.7371,W,2.0,243.2,140615,6.1,"
"##MN-00 00 49 1847 02138 5645 475168 210847 191"
"165.221007"
"$GPRMC,051809,A,2430.4590,N,08058.7395,W,2.1,243.3,140615,6.1,"
"##MN-00 00 49 1848 02137 5643 474900 210811 191"
"165.221053"
"$GPRMC,051813,A,2430.4584,N,08058.7417,W,2.1,243.6,140615,6.1,"
"##MN-00 00 49 1849 02133 5641 474802 210763 191"
"165.2211"
"$GPRMC,051817,A,2430.4574,N,08058.7439,W,2.0,244.7,140615,6.1,"
"##MN-00 00 49 1850 02131 5640 474764 210765 191"
"165.221146"
"$GPRMC,051821,A,2430.4570,N,08058.7461,W,2.0,245.4,140615,6.1,"
"##MN-00 00 51 1850 02129 5639 474730 210768 191"
"165.221192"
"$GPRMC,051825,A,2430.4562,N,08058.7483,W,2.0,247.2,140615,6.1,"
"##MN-00 00 48 1851 02127 5637 474697 210725 191"
"165.221238"
"$GPRMC,051829,A,2430.4556,N,08058.7501,W,2.1,248.6,140615,6.1,"
"##MN-00 00 50 1852 02124 5636 474689 210717 191"
"165.221285"
"$GPRMC,051834,A,2430.4545,N,08058.7536,W,2.0,248.7,140615,6.1,"
"##MN-00 00 50 1853 02123 5634 474677 210717 191"
"165.221331"
"$GPRMC,051838,A,2430.4536,N,08058.7558,W,2.0,248.5,140615,6.1,"
"##MN-00 00 50 1854 02120 5633 474615 210707 191"
"165.221377"
"$GPRMC,051842,A,2430.4527,N,08058.7581,W,2.0,246.8,140615,6.1,"
"##MN-00 00 50 1855 02118 5631 474567 210701 191"
"165.221424"
"$GPRMC,051845,A,2430.4516,N,08058.7598,W,2.0,246.4,140615,6.1,"
"##MN-00 00 49 1856 02113 5630 474482 210675 191"
"165.22147"
"$GPRMC,051850,A,2430.4512,N,08058.7619,W,2.0,245.9,140615,6.1,"
"##MN-00 00 50 1857 02112 5629 474326 210643 191"
"165.221528"
"$GPRMC,051854,A,2430.4503,N,08058.7648,W,2.0,245.7,140615,6.1,"
"##MN-00 00 48 1858 02112 5627 474037 210601 191"
"165.221574"
"$GPRMC,051858,A,2430.4496,N,08058.7673,W,2.1,246.7,140615,6.1,"
"##MN-00 00 50 1859 02107 5626 473557 210499 191"
"165.22162"
"$GPRMC,051902,A,2430.4484,N,08058.7695,W,2.1,246.0,140615,6.1,"
"##MN-00 00 49 1860 02109 5625 472990 210411 191"
"165.221667"
"$GPRMC,051906,A,2430.4478,N,08058.7718,W,2.0,246.2,140615,6.1,"
"##MN-00 00 48 1861 02103 5624 472649 210341 191"
"165.221713"
"$GPRMC,051910,A,2430.4465,N,08058.7740,W,2.0,246.5,140615,6.1,"
"##MN-00 00 50 1862 02101 5623 472097 210202 191"
"165.221759"
"$GPRMC,051914,A,2430.4453,N,08058.7762,W,2.0,245.5,140615,6.1,"
"##MN+00 00 49 1863 02099 5621 471570 210161 191"
"165.221806"
"$GPRMC,051918,A,2430.4442,N,08058.7782,W,1.9,245.9,140615,6.1,"
"##MN+00 00 50 1864 02098 5620 471128 210025 191"
"165.221852"
"$GPRMC,051922,A,2430.4431,N,08058.7803,W,1.9,245.0,140615,6.1,"
"##MN+00 00 50 1865 02097 5619 470887 209973 191"
"165.221898"
"$GPRMC,051926,A,2430.4419,N,08058.7825,W,1.9,244.3,140615,6.1,"
"##MN-00 00 55 1865 02099 5617 470773 209948 191"
"165.221944"
"$GPRMC,051930,A,2430.4410,N,08058.7844,W,1.9,243.9,140615,6.1,"
"##MN-00 00 51 1866 02097 5616 470759 209946 191"
"165.221991"
"$GPRMC,051934,A,2430.4407,N,08058.7868,W,1.9,244.2,140615,6.1,"
"##MN-00 00 50 1867 02097 5615 470635 209924 191"
"165.222037"
"$GPRMC,051938,A,2430.4401,N,08058.7888,W,1.9,245.6,140615,6.1,"
"##MN-00 00 48 1868 02093 5614 470323 209860 191"
"165.222083"
"$GPRMC,051942,A,2430.4390,N,08058.7910,W,1.9,246.0,140615,6.1,"
"##MN+00 00 47 1869 02090 5613 469843 209761 191"
"165.22213"
"$GPRMC,051946,A,2430.4384,N,08058.7933,W,1.9,245.7,140615,6.1,"
"##MN+00 00 48 1870 02086 5612 469411 209697 191"
"165.222176"
"$GPRMC,051950,A,2430.4377,N,08058.7953,W,1.9,245.9,140615,6.1,"
"##MN+00 00 49 1871 02085 5611 469039 209616 191"
"165.222222"
"$GPRMC,051954,A,2430.4368,N,08058.7975,W,1.9,245.8,140615,6.1,"
"##MN-00 00 48 1872 02080 5609 468734 209551 191"
"165.222269"
"#increment_net"
"$GPRMC,051958,A,2430.4356,N,08058.7996,W,1.9,245.4,140615,6.1,"
"##MN-00 00 48 1873 02079 5609 468547 209542 191"
"165.222315"
"$GPRMC,052002,A,2430.4352,N,08058.8018,W,1.9,245.5,140615,6.1,"
"##MN-00 00 48 1874 02076 5608 468369 209473 191"
"165.222361"
"$GPRMC,052006,A,2430.4344,N,08058.8040,W,2.0,245.8,140615,6.1,"
"##MN-00 00 47 1875 02069 5607 468067 209416 191"
"165.222407"
"$GPRMC,052010,A,2430.4334,N,08058.8064,W,2.1,245.6,140615,6.1,"
"##MN-00 00 49 1876 02071 5606 467550 209328 191"
"165.222454"
"$GPRMC,052014,A,2430.4325,N,08058.8085,W,1.9,246.6,140615,6.1,"
"##MN-00 00 47 1877 02064 5605 466808 209187 191"
"165.2225"
"$GPRMC,052018,A,2430.4310,N,08058.8110,W,2.1,246.7,140615,6.1,"
"##MN-00 00 49 1878 02057 5604 465879 209058 191"
"165.222546"
"$GPRMC,052022,A,2430.4310,N,08058.8130,W,1.9,247.9,140615,6.1,"
"##MN-00 00 47 1879 02059 5603 465390 208996 191"
"165.222593"
"$GPRMC,052026,A,2430.4301,N,08058.8151,W,1.9,248.3,140615,6.1,"
"##MN-00 00 47 1880 02049 5602 464877 208818 191"
"165.222639"
"$GPRMC,052030,A,2430.4294,N,08058.8177,W,2.1,248.7,140615,6.1,"
"##MN-00 00 49 1881 02047 5601 464431 208757 191"
"165.222685"
"$GPRMC,052034,A,2430.4287,N,08058.8198,W,2.0,250.6,140615,6.1,"
"##MN-00 00 48 1882 02044 5601 464153 208720 191"
"165.222731"
"$GPRMC,052038,A,2430.4280,N,08058.8223,W,2.1,250.3,140615,6.1,"
"##MN-00 00 49 1883 02040 5600 463251 208607 191"
"165.222778"
"$GPRMC,052042,A,2430.4272,N,08058.8244,W,2.0,250.0,140615,6.1,"
"##MN-00 00 49 1884 02036 5599 462682 208532 191"
"165.222824"
"$GPRMC,052046,A,2430.4265,N,08058.8266,W,2.0,250.5,140615,6.1,"
"##MN-00 00 49 1885 02032 5598 461797 208205 191"
"165.22287"
"$GPRMC,052050,A,2430.4254,N,08058.8288,W,1.9,249.5,140615,6.1,"
"##MN-00 00 51 1886 02029 5597 460453 207952 191"
"165.222917"
"$GPRMC,052054,A,2430.4242,N,08058.8309,W,1.9,249.0,140615,6.1,"
"##MN-00 00 49 1887 02026 5597 459039 207605 191"
"165.222963"
"$GPRMC,052058,A,2430.4236,N,08058.8329,W,1.8,248.3,140615,6.1,"
"##MN-00 00 49 1888 02024 5596 457674 207371 191"
"165.223009"
"$GPRMC,052102,A,2430.4230,N,08058.8349,W,1.8,247.9,140615,6.1,"
"##MN-00 00 50 1889 02019 5595 456673 207302 191"
"165.223056"
"$GPRMC,052106,A,2430.4225,N,08058.8371,W,1.8,247.9,140615,6.1,"
"##MN-00 00 49 1890 02017 5595 455977 206948 191"
"165.223102"
"$GPRMC,052110,A,2430.4215,N,08058.8392,W,1.8,247.4,140615,6.1,"
"##MN-00 00 49 1891 02015 5594 455583 206898 191"
"165.223148"
"$GPRMC,052114,A,2430.4207,N,08058.8411,W,1.8,247.5,140615,6.1,"
"##MN-00 00 52 1892 02009 5593 454957 206829 191"
"165.223194"
"$GPRMC,052118,A,2430.4197,N,08058.8433,W,1.9,247.2,140615,6.1,"
"##MN-00 00 50 1893 02007 5593 453896 206349 191"
"165.223241"
"$GPRMC,052122,A,2430.4191,N,08058.8454,W,1.8,247.2,140615,6.1,"
"##MN-00 00 50 1894 02005 5593 452967 206211 191"
"165.223287"
"$GPRMC,052126,A,2430.4179,N,08058.8475,W,1.8,247.1,140615,6.1,"
"##MN-00 00 50 1895 02002 5592 452777 206168 191"
"165.223333"
"$GPRMC,052130,A,2430.4168,N,08058.8497,W,1.8,246.4,140615,6.1,"
"##MN-00 00 51 1896 02002 5592 452685 206097 191"
"165.22338"
"$GPRMC,052134,A,2430.4160,N,08058.8517,W,1.8,246.7,140615,6.1,"
"##MN-00 00 50 1897 01997 5592 452610 206087 191"
"165.223426"
"$GPRMC,052138,A,2430.4153,N,08058.8540,W,1.9,246.1,140615,6.1,"
"##MN-00 00 50 1898 01998 5591 452586 206079 191"
"165.223472"
"$GPRMC,052142,A,2430.4143,N,08058.8559,W,1.9,246.2,140615,6.1,"
"##MN-00 00 47 1899 01994 5591 452582 206049 191"
"165.223519"
"$GPRMC,052146,A,2430.4135,N,08058.8582,W,2.0,246.8,140615,6.1,"
"##MN-00 00 49 1900 01988 5591 452639 206074 191"
"165.223565"
"$GPRMC,052150,A,2430.4126,N,08058.8606,W,2.0,247.3,140615,6.1,"
"##MN-00 00 51 1901 01988 5591 452710 206099 191"
"165.223611"
"$GPRMC,052154,A,2430.4119,N,08058.8628,W,1.9,247.4,140615,6.1,"
"##MN-00 00 50 1902 01987 5591 452757 206114 191"
"165.223657"
"$GPRMC,052158,A,2430.4115,N,08058.8652,W,2.0,247.8,140615,6.1,"
"##MN-00 00 51 1903 01984 5590 452806 206133 191"
"165.223704"
"$GPRMC,052202,A,2430.4106,N,08058.8674,W,1.9,246.8,140615,6.1,"
"##MN-00 00 48 1904 01982 5590 452850 206166 191"
"165.22375"
"$GPRMC,052206,A,2430.4099,N,08058.8696,W,1.9,250.2,140615,6.1,"
"##MN-00 00 47 1904 01975 5590 452820 206170 191"
"165.223796"
"$GPRMC,052210,A,2430.4090,N,08058.8719,W,2.0,250.0,140615,6.1,"
"##MN-00 00 52 1905 01970 5590 452625 206145 191"
"165.223843"
"$GPRMC,052214,A,2430.4081,N,08058.8741,W,2.0,249.3,140615,6.1,"
"##MN-00 00 51 1907 01969 5590 452367 206101 191"
"165.223889"
"$GPRMC,052218,A,2430.4072,N,08058.8762,W,2.0,247.9,140615,6.1,"
"##MN-00 00 52 1908 01967 5590 452088 206049 191"
"165.223935"
"$GPRMC,052222,A,2430.4061,N,08058.8784,W,2.0,247.0,140615,6.1,"
"##MN-00 00 53 1909 01963 5590 451991 206018 191"
"165.223981"
"$GPRMC,052226,A,2430.4059,N,08058.8804,W,1.9,248.0,140615,6.1,"
"##MN-00 00 51 1910 01962 5591 451899 206002 191"
"165.224028"
"$GPRMC,052230,A,2430.4049,N,08058.8826,W,1.9,247.8,140615,6.1,"
"##MN-00 00 50 1911 01954 5590 451744 205972 191"
"165.224074"
"$GPRMC,052234,A,2430.4041,N,08058.8849,W,2.0,248.3,140615,6.1,"
"##MN-00 00 53 1912 01953 5591 451604 205941 191"
"165.22412"
"$GPRMC,052238,A,2430.4034,N,08058.8871,W,1.9,249.1,140615,6.1,"
"##MN-00 00 49 1913 01952 5590 451493 205916 191"
"165.224167"
"$GPRMC,052242,A,2430.4025,N,08058.8895,W,2.0,248.4,140615,6.1,"
"##MN-00 00 50 1914 01947 5591 451339 205873 191"
"165.224213"
"$GPRMC,052246,A,2430.4017,N,08058.8916,W,1.9,246.9,140615,6.1,"
"##MN-00 00 51 1915 01944 5591 451239 205858 191"
"165.224259"
"$GPRMC,052250,A,2430.4012,N,08058.8938,W,1.9,247.3,140615,6.1,"
"##MN-00 00 51 1916 01943 5591 451189 205851 190"
"165.224306"
"$GPRMC,052254,A,2430.4005,N,08058.8960,W,1.9,246.7,140615,6.1,"
"##MN-00 00 51 1917 01939 5591 451156 205846 191"
"165.224352"
"$GPRMC,052258,A,2430.3996,N,08058.8981,W,1.9,248.0,140615,6.1,"
"##MN-00 00 50 1918 01937 5592 451139 205835 190"
"165.224398"
"$GPRMC,052303,A,2430.3983,N,08058.9007,W,1.9,247.5,140615,6.1,"
"##MN-00 00 50 1919 01936 5592 451112 205829 191"
"165.224444"
"$GPRMC,052306,A,2430.3977,N,08058.9022,W,1.9,248.3,140615,6.1,"
"##MN-00 00 50 1920 01934 5592 451090 205821 191"
"165.224491"
"$GPRMC,052311,A,2430.3969,N,08058.9050,W,1.9,248.2,140615,6.1,"
"##MN-00 00 52 1921 01927 5592 451041 205811 191"
"165.224537"
"$GPRMC,052314,A,2430.3962,N,08058.9066,W,1.9,248.9,140615,6.1,"
"##MN-00 00 52 1922 01928 5592 451014 205808 191"
"165.224583"
"$GPRMC,052319,A,2430.3954,N,08058.9095,W,1.9,249.1,140615,6.1,"
"##MN-00 00 51 1923 01922 5593 451001 205804 191"
"165.22463"
"$GPRMC,052323,A,2430.3945,N,08058.9118,W,1.9,249.1,140615,6.1,"
"##MN-00 00 50 1924 01921 5593 450993 205801 191"
"165.224676"
"$GPRMC,052326,A,2430.3938,N,08058.9133,W,2.0,250.7,140615,6.1,"
"##MN+00 00 51 1925 01918 5593 450981 205799 191"
"165.224722"
"$GPRMC,052330,A,2430.3932,N,08058.9155,W,2.0,250.1,140615,6.1,"
"##MN+00 00 52 1926 01915 5594 450963 205799 191"
"165.22478"
"$GPRMC,052335,A,2430.3923,N,08058.9181,W,1.9,247.9,140615,6.1,"
"##MN+00 00 52 1927 01912 5594 450935 205792 191"
"165.224826"
"$GPRMC,052339,A,2430.3913,N,08058.9202,W,1.9,247.3,140615,6.1,"
"##MN-00 00 52 1928 01910 5595 450901 205782 191"
"165.224873"
"$GPRMC,052343,A,2430.3902,N,08058.9223,W,1.9,246.7,140615,6.1,"
"##MN-00 00 51 1929 01908 5595 450853 205772 191"
"165.224919"
"$GPRMC,052347,A,2430.3889,N,08058.9243,W,1.9,246.4,140615,6.1,"
"##MN-00 00 52 1930 01906 5595 450811 205765 191"
"165.224965"
"$GPRMC,052351,A,2430.3883,N,08058.9266,W,1.9,246.4,140615,6.1,"
"##MN-00 00 52 1931 01904 5596 450791 205762 191"
"165.225012"
"$GPRMC,052355,A,2430.3880,N,08058.9288,W,1.9,247.3,140615,6.1,"
"##MN+00 00 51 1933 01901 5596 450708 205752 190"
"165.225058"
"$GPRMC,052359,A,2430.3872,N,08058.9310,W,1.9,246.4,140615,6.1,"
"##MN+00 00 60 1933 01903 5597 450408 205690 191"
"165.225104"
"$GPRMC,052403,A,2430.3864,N,08058.9331,W,1.9,245.6,140615,6.1,"
"##MN+00 00 54 1934 01897 5597 450303 205650 191"
"165.22515"
"#increment_net"
"$GPRMC,052407,A,2430.3857,N,08058.9353,W,2.0,246.0,140615,6.1,"
"##MN-00 00 51 1935 01892 5597 450169 205629 191"
"165.225197"
"$GPRMC,052411,A,2430.3849,N,08058.9378,W,2.1,246.3,140615,6.1,"
"##MN-00 00 53 1936 01889 5598 450140 205619 191"
"165.225243"
"$GPRMC,052415,A,2430.3840,N,08058.9397,W,1.9,246.8,140615,6.1,"
"##MN-00 00 51 1937 01889 5599 450096 205608 191"
"165.225289"
"$GPRMC,052419,A,2430.3831,N,08058.9419,W,2.0,247.1,140615,6.1,"
"##MN-00 00 52 1938 01885 5599 449996 205593 191"
"165.225336"
"$GPRMC,052423,A,2430.3824,N,08058.9441,W,1.9,247.9,140615,6.1,"
"##MN-00 00 51 1939 01886 5599 449968 205586 191"
"165.225382"
"$GPRMC,052427,A,2430.3815,N,08058.9462,W,1.9,248.5,140615,6.1,"
"##MN-00 00 50 1940 01883 5600 449930 205578 191"
"165.225428"
"$GPRMC,052431,A,2430.3807,N,08058.9484,W,1.9,248.2,140615,6.1,"
"##MN-00 00 51 1942 01883 5601 449856 205550 191"
"165.225475"
"$GPRMC,052435,A,2430.3800,N,08058.9506,W,1.8,248.4,140615,6.1,"
"##MN-00 00 50 1943 01881 5601 449800 205548 191"
"165.225521"
"$GPRMC,052439,A,2430.3792,N,08058.9527,W,1.9,248.8,140615,6.1,"
"##MN-00 00 50 1944 01876 5602 449720 205524 191"
"165.225567"
"$GPRMC,052443,A,2430.3783,N,08058.9549,W,1.9,249.2,140615,6.1,"
"##MN-00 00 51 1945 01875 5602 449655 205521 191"
"165.225613"
"$GPRMC,052447,A,2430.3775,N,08058.9571,W,1.9,249.6,140615,6.1,"
"##MN-00 00 50 1946 01872 5603 449597 205502 191"
"165.22566"
"$GPRMC,052451,A,2430.3767,N,08058.9595,W,1.9,249.6,140615,6.1,"
"##MN-00 00 52 1947 01868 5603 449463 205468 191"
"165.225706"
"$GPRMC,052455,A,2430.3759,N,08058.9617,W,1.9,249.5,140615,6.1,"
"##MN-00 00 52 1948 01869 5604 449340 205438 191"
"165.225752"
"$GPRMC,052459,A,2430.3749,N,08058.9635,W,1.9,249.4,140615,6.1,"
"##MN-00 00 50 1949 01867 5604 449277 205429 191"
"165.225799"
"$GPRMC,052503,A,2430.3741,N,08058.9657,W,1.9,248.7,140615,6.1,"
"##MN-00 00 51 1950 01865 5605 449253 205419 191"
"165.225845"
"$GPRMC,052507,A,2430.3732,N,08058.9678,W,1.8,248.6,140615,6.1,"
"##MN-00 00 51 1951 01862 5606 449214 205409 191"
"165.225891"
"$GPRMC,052511,A,2430.3724,N,08058.9700,W,1.9,248.8,140615,6.1,"
"##MN-00 00 51 1952 01861 5606 449180 205406 191"
"165.225938"
"$GPRMC,052515,A,2430.3717,N,08058.9722,W,1.9,249.1,140615,6.1,"
"##MN-00 00 51 1954 01860 5607 449178 205399 190"
"165.225984"
"$GPRMC,052519,A,2430.3709,N,08058.9741,W,1.9,250.0,140615,6.1,"
"##MN-00 00 52 1955 01858 5608 449171 205396 190"
"165.22603"
"$GPRMC,052523,A,2430.3700,N,08058.9763,W,1.8,249.7,140615,6.1,"
"##MN-00 00 49 1956 01858 5608 449153 205393 191"
"165.226076"
"$GPRMC,052527,A,2430.3692,N,08058.9784,W,1.8,248.6,140615,6.1,"
"##MN-00 00 50 1957 01856 5609 449125 205388 191"
"165.226123"
"$GPRMC,052531,A,2430.3683,N,08058.9806,W,1.9,248.5,140615,6.1,"
"##MN-00 00 50 1958 01854 5609 449107 205384 190"
"165.226169"
"$GPRMC,052535,A,2430.3680,N,08058.9827,W,1.9,248.5,140615,6.1,"
"##MN-00 00 51 1959 01854 5610 449107 205385 191"
"165.226215"
"$GPRMC,052539,A,2430.3670,N,08058.9848,W,1.8,247.7,140615,6.1,"
"##MN-00 00 51 1960 01852 5611 449095 205384 190"
"165.226262"
"$GPRMC,052543,A,2430.3661,N,08058.9870,W,1.8,246.8,140615,6.1,"
"##MN-00 00 50 1961 01853 5611 449082 205379 190"
"165.226308"
"$GPRMC,052547,A,2430.3655,N,08058.9889,W,1.8,246.2,140615,6.1,"
"##MN-00 00 49 1962 01849 5612 449042 205370 191"
"165.226354"
"$GPRMC,052551,A,2430.3647,N,08058.9910,W,1.8,245.4,140615,6.1,"
"##MN-00 00 51 1963 01845 5613 448999 205360 191"
"165.2264"
"$GPRMC,052555,A,2430.3637,N,08058.9932,W,1.9,245.3,140615,6.1,"
"##MN-00 00 51 1964 01844 5613 448953 205353 190"
"165.226447"
"$GPRMC,052559,A,2430.3630,N,08058.9954,W,1.9,245.6,140615,6.1,"
"##MN-00 00 51 1965 01841 5614 448922 205350 191"
"165.226493"
"$GPRMC,052603,A,2430.3617,N,08058.9975,W,1.9,245.4,140615,6.1,"
"##MN-00 00 51 1967 01840 5615 448885 205342 191"
"165.226539"
"$GPRMC,052607,A,2430.3606,N,08058.9997,W,1.9,244.8,140615,6.1,"
"##MN-00 00 55 1968 01837 5616 448850 205337 190"
"165.226586"
"$GPRMC,052611,A,2430.3595,N,08059.0019,W,1.9,244.1,140615,6.1,"
"##MN-00 00 51 1969 01835 5616 448814 205327 191"
"165.226632"
"$GPRMC,052615,A,2430.3589,N,08059.0040,W,1.9,244.4,140615,6.1,"
"##MN-00 00 52 1970 01832 5617 448784 205320 191"
"165.226678"
"$GPRMC,052619,A,2430.3578,N,08059.0061,W,1.9,244.2,140615,6.1,"
"##MN-00 00 52 1971 01829 5618 448734 205310 191"
"165.226725"
"$GPRMC,052623,A,2430.3570,N,08059.0083,W,1.9,244.7,140615,6.1,"
"##MN-00 00 50 1972 01832 5618 448686 205305 190"
"165.226771"
"$GPRMC,052627,A,2430.3559,N,08059.0105,W,1.9,245.7,140615,6.1,"
"##MN-00 00 50 1973 01828 5619 448675 205303 190"
"165.226817"
"$GPRMC,052631,A,2430.3549,N,08059.0126,W,1.9,245.1,140615,6.1,"
"##MN-00 00 50 1974 01825 5620 448658 205302 191"
"165.226863"
"$GPRMC,052635,A,2430.3543,N,08059.0146,W,1.9,246.0,140615,6.1,"
"##MN-00 00 51 1975 01825 5621 448623 205296 191"
"165.22691"
"$GPRMC,052639,A,2430.3536,N,08059.0168,W,1.9,246.2,140615,6.1,"
"##MN-00 00 54 1976 01822 5621 448579 205290 191"
"165.226956"
"$GPRMC,052643,A,2430.3528,N,08059.0191,W,1.9,246.0,140615,6.1,"
"##MN-00 00 50 1977 01822 5622 448578 205289 190"
"165.227002"
"$GPRMC,052647,A,2430.3521,N,08059.0210,W,1.9,248.4,140615,6.1,"
"##MN-00 00 51 1978 01819 5623 448540 205280 191"
"165.227049"
"$GPRMC,052651,A,2430.3514,N,08059.0235,W,1.9,248.9,140615,6.1,"
"##MN-00 00 52 1979 01815 5624 448474 205273 191"
"165.227095"
"$GPRMC,052655,A,2430.3507,N,08059.0257,W,1.9,250.0,140615,6.1,"
"##MN-00 00 51 1980 01813 5624 448423 205268 191"
"165.227141"
"$GPRMC,052659,A,2430.3500,N,08059.0278,W,2.0,249.5,140615,6.1,"
"##MN-00 00 50 1981 01811 5625 448354 205258 191"
"165.227187"
"$GPRMC,052703,A,2430.3493,N,08059.0303,W,2.0,250.5,140615,6.1,"
"##MN-00 00 50 1982 01811 5626 448335 205250 191"
"165.227234"
"$GPRMC,052707,A,2430.3488,N,08059.0319,W,2.0,251.0,140615,6.1,"
"##MN-00 00 51 1983 01810 5626 448312 205246 190"
"165.22728"
"$GPRMC,052711,A,2430.3479,N,08059.0347,W,1.9,251.1,140615,6.1,"
"##MN-00 00 52 1984 01807 5627 448285 205242 190"
"165.227326"
"$GPRMC,052715,A,2430.3474,N,08059.0369,W,1.8,251.2,140615,6.1,"
"##MN-00 00 50 1986 01808 5628 448254 205239 190"
"165.227373"
"$GPRMC,052719,A,2430.3464,N,08059.0390,W,1.9,250.7,140615,6.1,"
"##MN-00 00 49 1987 01805 5629 448229 205233 191"
"165.227419"
"$GPRMC,052723,A,2430.3453,N,08059.0409,W,1.9,250.0,140615,6.1,"
"##MN-00 00 51 1988 01804 5629 448203 205228 190"
"165.227465"
"$GPRMC,052727,A,2430.3445,N,08059.0430,W,1.9,250.2,140615,6.1,"
"##MN-00 00 51 1989 01802 5630 448187 205226 190"
"165.227512"
"$GPRMC,052731,A,2430.3436,N,08059.0452,W,1.9,248.7,140615,6.1,"
"##MN-00 00 54 1990 01803 5631 448169 205217 191"
"165.227558"
"$GPRMC,052736,A,2430.3427,N,08059.0477,W,1.8,248.0,140615,6.1,"
"##MN-00 00 50 1991 01800 5632 448174 205220 191"
"165.227604"
"$GPRMC,052739,A,2430.3420,N,08059.0491,W,1.9,246.5,140615,6.1,"
"##MN-00 00 52 1992 01799 5633 448155 205217 191"
"165.22765"
"$GPRMC,052743,A,2430.3411,N,08059.0502,W,1.8,246.2,140615,6.1,"
"##MN-00 00 51 1993 01798 5633 448136 205213 191"
"165.227697"
"$GPRMC,052748,A,2430.3400,N,08059.0527,W,1.8,246.2,140615,6.1,"
"##MN-00 00 50 1994 01796 5634 448116 205209 191"
"165.227743"
"$GPRMC,052752,A,2430.3391,N,08059.0546,W,1.8,245.3,140615,6.1,"
"##MN-00 00 51 1995 01795 5635 448099 205206 191"
"165.227789"
