" Tow: 9-ns-n-out   RVWS/WS15161"
" Date: 14/06/2015"
" Temperature Probe #  4762    Conductivity Probe #  710"
" Pressure Probe #  159"
" Flow Meter Calibration  4.71 (m/count)  "
"165.386968"
"$GPRMC,091707,A,2436.9514,N,08049.2035,W,2.0,255.0,140615,6.2,"
"##MN-00 00 11 2811 01538 5681 000012 000302 189"
"165.387014"
"$GPRMC,091712,A,2436.9505,N,08049.2057,W,1.8,251.6,140615,6.2,"
"##MN-00 00 46 2811 01539 5682 447518 230330 190"
"165.38706"
"$GPRMC,091716,A,2436.9498,N,08049.2074,W,1.9,249.1,140615,6.2,"
"##MN-00 00 60 2812 01539 5682 447415 208648 190"
"165.387106"
"$GPRMC,091720,A,2436.9489,N,08049.2095,W,1.9,248.0,140615,6.2,"
"##MN-00 00 55 2812 01539 5682 447436 213060 190"
"165.387153"
"$GPRMC,091724,A,2436.9480,N,08049.2110,W,1.8,245.8,140615,6.2,"
"##MN-00 00 52 2813 01536 5683 447426 205684 190"
"165.387199"
"$GPRMC,091728,A,2436.9471,N,08049.2129,W,1.9,244.7,140615,6.2,"
"##MN-00 00 52 2813 01538 5683 447433 205461 190"
"165.387245"
"$GPRMC,091732,A,2436.9461,N,08049.2150,W,1.8,243.7,140615,6.2,"
"##MN-00 00 54 2814 01545 5684 447406 205444 190"
"165.387292"
"$GPRMC,091736,A,2436.9453,N,08049.2168,W,1.9,242.4,140615,6.2,"
"##MN-00 00 60 2814 01537 5684 447380 205440 190"
"165.387338"
"$GPRMC,091740,A,2436.9442,N,08049.2191,W,1.8,241.6,140615,6.2,"
"##MN-00 00 53 2815 01548 5685 447420 205447 190"
"165.387384"
"$GPRMC,091744,A,2436.9432,N,08049.2209,W,1.8,239.9,140615,6.2,"
"##MN-00 00 51 2815 01540 5685 447430 205440 190"
"165.387431"
"$GPRMC,091748,A,2436.9422,N,08049.2229,W,1.8,240.1,140615,6.2,"
"##MN-00 00 51 2816 01541 5686 447399 205423 190"
"165.387477"
"$GPRMC,091752,A,2436.9415,N,08049.2247,W,1.7,238.9,140615,6.2,"
"##MN-00 00 55 2817 01553 5686 447383 205410 190"
"165.387523"
"$GPRMC,091756,A,2436.9404,N,08049.2265,W,1.8,239.6,140615,6.2,"
"##MN-00 00 54 2818 01548 5687 447363 205402 190"
"165.387569"
"$GPRMC,091800,A,2436.9395,N,08049.2285,W,1.8,240.1,140615,6.2,"
"##MN-00 00 54 2818 01556 5687 447365 205399 190"
"165.387627"
"$GPRMC,091804,A,2436.9385,N,08049.2303,W,1.7,240.4,140615,6.2,"
"##MN-00 00 51 2819 01559 5688 447396 205404 190"
"165.387674"
"$GPRMC,091808,A,2436.9374,N,08049.2330,W,1.8,242.7,140615,6.2,"
"##MN-00 00 51 2820 01561 5688 447397 205406 190"
"165.38772"
"$GPRMC,091812,A,2436.9370,N,08049.2353,W,1.7,243.6,140615,6.2,"
"##MN-00 00 52 2821 01564 5689 447374 205396 190"
"165.387766"
"$GPRMC,091816,A,2436.9366,N,08049.2374,W,1.8,247.1,140615,6.2,"
"##MN-00 00 48 2822 01566 5690 447360 205391 190"
"165.387812"
"$GPRMC,091820,A,2436.9362,N,08049.2395,W,1.8,248.3,140615,6.2,"
"##MN-00 00 54 2823 01573 5690 447360 205386 190"
"165.387859"
"$GPRMC,091824,A,2436.9352,N,08049.2417,W,1.8,250.2,140615,6.2,"
"##MN-00 00 51 2824 01572 5691 447353 205384 190"
"165.387905"
"$GPRMC,091828,A,2436.9341,N,08049.2436,W,1.8,250.1,140615,6.2,"
"##MN-00 00 54 2825 01575 5691 447359 205384 189"
"165.387951"
"$GPRMC,091832,A,2436.9330,N,08049.2457,W,1.8,250.5,140615,6.2,"
"##MN-00 00 53 2826 01579 5692 447377 205386 190"
"165.387998"
"$GPRMC,091836,A,2436.9323,N,08049.2478,W,1.8,249.6,140615,6.2,"
"##MN-00 00 54 2827 01579 5693 447379 205386 190"
"165.388044"
"$GPRMC,091840,A,2436.9319,N,08049.2497,W,1.7,248.6,140615,6.2,"
"##MN-00 00 54 2827 01589 5693 447375 205386 190"
"165.38809"
"$GPRMC,091844,A,2436.9314,N,08049.2515,W,1.8,249.2,140615,6.2,"
"##MN-00 00 50 2828 01585 5694 447380 205379 190"
"165.388137"
"$GPRMC,091848,A,2436.9305,N,08049.2534,W,1.8,250.1,140615,6.2,"
"##MN-00 00 54 2829 01590 5694 447369 205378 190"
"165.388183"
"$GPRMC,091852,A,2436.9298,N,08049.2554,W,1.8,248.9,140615,6.2,"
"##MN-00 00 52 2830 01591 5695 447357 205377 190"
"165.388229"
"$GPRMC,091856,A,2436.9290,N,08049.2576,W,1.9,244.9,140615,6.2,"
"##MN-00 00 53 2831 01593 5696 447349 205375 190"
"165.388275"
"$GPRMC,091900,A,2436.9283,N,08049.2594,W,1.8,242.9,140615,6.2,"
"##MN-00 00 54 2832 01599 5696 447348 205374 190"
"165.388322"
"$GPRMC,091905,A,2436.9273,N,08049.2613,W,1.7,243.1,140615,6.2,"
"##MN-00 00 08 2833 01601 5697 447357 205374 189"
"165.388368"
"$GPRMC,091908,A,2436.9265,N,08049.2626,W,1.7,242.8,140615,6.2,"
"##MN-00 00 54 2834 01605 5698 447349 205368 190"
"165.388414"
"$GPRMC,091913,A,2436.9251,N,08049.2648,W,1.7,242.6,140615,6.2,"
"##MN-00 00 52 2835 01605 5698 447339 205365 190"
"165.388461"
"$GPRMC,091917,A,2436.9240,N,08049.2666,W,1.7,243.0,140615,6.2,"
"##MN-00 00 54 2836 01614 5699 447339 205366 190"
"165.388507"
"$GPRMC,091921,A,2436.9231,N,08049.2681,W,1.7,243.2,140615,6.2,"
"##MN-00 00 51 2837 01615 5700 447343 205368 189"
"165.388553"
"$GPRMC,091925,A,2436.9220,N,08049.2702,W,1.8,243.7,140615,6.2,"
"##MN-00 00 54 2837 01618 5700 447350 205365 190"
"165.3886"
"$GPRMC,091929,A,2436.9211,N,08049.2721,W,1.7,243.5,140615,6.2,"
"##MN-00 00 53 2838 01621 5701 447365 205372 189"
"165.388646"
"$GPRMC,091933,A,2436.9207,N,08049.2742,W,1.7,244.3,140615,6.2,"
"##MN-00 00 54 2839 01623 5701 447357 205367 190"
"165.388692"
"$GPRMC,091937,A,2436.9200,N,08049.2764,W,1.8,246.2,140615,6.2,"
"##MN-00 00 54 2840 01628 5702 447342 205359 190"
"165.388738"
"$GPRMC,091941,A,2436.9186,N,08049.2778,W,1.7,246.0,140615,6.2,"
"##MN-00 00 54 2841 01631 5703 447342 205357 190"
"165.388785"
"$GPRMC,091945,A,2436.9182,N,08049.2800,W,1.8,247.4,140615,6.2,"
"##MN-00 00 54 2842 01634 5703 447346 205354 190"
"165.388831"
"$GPRMC,091949,A,2436.9173,N,08049.2818,W,1.7,248.8,140615,6.2,"
"##MN-00 00 54 2843 01637 5704 447351 205329 190"
"165.388877"
"$GPRMC,091953,A,2436.9165,N,08049.2840,W,1.8,249.5,140615,6.2,"
"##MN-00 00 53 2844 01643 5705 447353 205338 190"
"165.388924"
"$GPRMC,091957,A,2436.9163,N,08049.2861,W,1.7,249.3,140615,6.2,"
"##MN-00 00 52 2845 01646 5705 447361 205315 190"
"165.38897"
"$GPRMC,092001,A,2436.9156,N,08049.2883,W,1.8,249.7,140615,6.2,"
"##MN-00 00 54 2846 01649 5706 447357 205308 190"
"165.389016"
"$GPRMC,092005,A,2436.9149,N,08049.2905,W,1.8,249.5,140615,6.2,"
"##MN-00 00 52 2847 01650 5707 447339 205313 190"
"165.389062"
"$GPRMC,092009,A,2436.9140,N,08049.2926,W,1.8,250.5,140615,6.2,"
"##MN-00 00 54 2848 01653 5707 447337 205331 190"
"165.389109"
"$GPRMC,092013,A,2436.9136,N,08049.2948,W,1.9,249.3,140615,6.2,"
"##MN-00 00 52 2849 01655 5708 447334 205329 190"
"165.389155"
"$GPRMC,092017,A,2436.9131,N,08049.2969,W,1.8,248.2,140615,6.2,"
"##MN-00 00 52 2850 01661 5709 447330 205319 189"
"165.389201"
"$GPRMC,092021,A,2436.9120,N,08049.2986,W,1.8,248.1,140615,6.2,"
"##MN-00 00 50 2850 01658 5709 447328 205308 190"
"165.389248"
"$GPRMC,092025,A,2436.9106,N,08049.3006,W,1.9,248.6,140615,6.2,"
"##MN-00 00 54 2851 01660 5710 447327 205328 190"
"165.389294"
"$GPRMC,092029,A,2436.9099,N,08049.3024,W,1.8,248.4,140615,6.2,"
"##MN-00 00 52 2852 01665 5711 447327 205326 190"
"165.38934"
"$GPRMC,092033,A,2436.9089,N,08049.3046,W,1.9,248.2,140615,6.2,"
"##MN-00 00 54 2853 01663 5712 447328 205330 190"
"165.389387"
"$GPRMC,092037,A,2436.9086,N,08049.3067,W,1.8,246.9,140615,6.2,"
"##MN-00 00 54 2854 01669 5712 447328 205328 190"
"165.389433"
"$GPRMC,092041,A,2436.9079,N,08049.3082,W,1.9,246.7,140615,6.2,"
"##MN-00 00 53 2855 01673 5713 447323 205329 190"
"165.389479"
"$GPRMC,092045,A,2436.9068,N,08049.3103,W,1.8,247.9,140615,6.2,"
"##MN-00 00 52 2856 01675 5714 447318 205326 190"
"165.389525"
"$GPRMC,092049,A,2436.9059,N,08049.3126,W,1.8,246.4,140615,6.2,"
"##MN-00 00 53 2857 01680 5714 447313 205319 190"
"165.389572"
"$GPRMC,092053,A,2436.9052,N,08049.3148,W,1.8,246.9,140615,6.2,"
"##MN-00 00 53 2858 01681 5715 447312 205303 190"
"165.389618"
"$GPRMC,092057,A,2436.9045,N,08049.3165,W,1.8,246.8,140615,6.2,"
"##MN-00 00 52 2859 01684 5716 447318 205286 190"
"165.389664"
"$GPRMC,092101,A,2436.9038,N,08049.3183,W,1.9,247.9,140615,6.2,"
"##MN-00 00 52 2860 01687 5716 447327 205269 190"
"165.389711"
"$GPRMC,092105,A,2436.9028,N,08049.3208,W,1.8,246.8,140615,6.2,"
"##MN-00 00 51 2861 01692 5717 447339 205244 190"
"165.389757"
"$GPRMC,092109,A,2436.9020,N,08049.3230,W,1.8,246.3,140615,6.2,"
"##MN-00 00 06 2862 01696 5718 447352 205234 189"
"165.389803"
"$GPRMC,092113,A,2436.9012,N,08049.3248,W,1.7,245.4,140615,6.2,"
"##MN-00 00 50 2863 01701 5718 447367 205218 190"
"165.38985"
"$GPRMC,092117,A,2436.9001,N,08049.3270,W,1.8,244.9,140615,6.2,"
"##MN-00 00 51 2864 01705 5719 447389 205200 190"
"165.389896"
"$GPRMC,092121,A,2436.8992,N,08049.3288,W,1.8,243.7,140615,6.2,"
"##MN-00 00 52 2865 01714 5720 447403 205192 189"
"165.389942"
"$GPRMC,092125,A,2436.8985,N,08049.3307,W,1.7,245.6,140615,6.2,"
"##MN-00 00 48 2866 01715 5720 447401 205204 189"
"165.389988"
"$GPRMC,092129,A,2436.8980,N,08049.3331,W,1.8,246.2,140615,6.2,"
"##MN-00 00 51 2866 01720 5721 447403 205196 190"
"165.390035"
"$GPRMC,092133,A,2436.8976,N,08049.3350,W,1.7,246.0,140615,6.2,"
"##MN-00 00 51 2867 01727 5722 447399 205200 190"
"165.390081"
"$GPRMC,092137,A,2436.8969,N,08049.3370,W,1.8,245.5,140615,6.2,"
"##MN-00 00 51 2868 01728 5722 447386 205217 190"
"165.390127"
"$GPRMC,092141,A,2436.8960,N,08049.3390,W,1.8,244.3,140615,6.2,"
"##MN-00 00 51 2869 01734 5723 447378 205220 189"
"165.390174"
"$GPRMC,092145,A,2436.8951,N,08049.3414,W,1.8,245.3,140615,6.2,"
"##MN-00 00 48 2870 01736 5724 447403 205200 190"
"165.39022"
"$GPRMC,092149,A,2436.8944,N,08049.3437,W,1.8,246.5,140615,6.2,"
"##MN-00 00 53 2871 01740 5724 447451 205174 190"
"165.390266"
"$GPRMC,092153,A,2436.8936,N,08049.3458,W,1.8,248.7,140615,6.2,"
"##MN-00 00 53 2872 01742 5725 447477 205163 190"
"165.390313"
"$GPRMC,092157,A,2436.8929,N,08049.3484,W,1.9,248.5,140615,6.2,"
"##MN-00 00 08 2873 01746 5726 447479 205162 189"
"165.390359"
"$GPRMC,092201,A,2436.8925,N,08049.3508,W,1.9,247.6,140615,6.2,"
"##MN-00 00 51 2874 01750 5727 447485 205160 190"
"165.390405"
"$GPRMC,092205,A,2436.8915,N,08049.3531,W,2.0,249.5,140615,6.2,"
"##MN-00 00 52 2875 01749 5727 447491 205158 189"
"165.390451"
"$GPRMC,092209,A,2436.8904,N,08049.3555,W,2.0,249.5,140615,6.2,"
"##MN-00 00 54 2875 01755 5728 447486 205158 190"
"165.390498"
"$GPRMC,092213,A,2436.8896,N,08049.3577,W,1.9,249.2,140615,6.2,"
"##MN-00 00 51 2876 01757 5728 447490 205157 190"
"165.390544"
"$GPRMC,092217,A,2436.8885,N,08049.3598,W,2.1,247.8,140615,6.2,"
"##MN-00 00 49 2877 01757 5729 447499 205154 190"
"165.39059"
"$GPRMC,092221,A,2436.8873,N,08049.3621,W,2.0,246.8,140615,6.2,"
"##MN-00 00 52 2878 01759 5730 447503 205153 190"
"165.390637"
"$GPRMC,092225,A,2436.8862,N,08049.3643,W,1.9,246.1,140615,6.2,"
"##MN-00 00 53 2879 01763 5731 447507 205152 190"
"165.390683"
"$GPRMC,092229,A,2436.8859,N,08049.3665,W,2.1,245.6,140615,6.2,"
"##MN-00 00 53 2880 01767 5731 447509 205150 190"
"165.390729"
"$GPRMC,092233,A,2436.8850,N,08049.3686,W,1.9,245.0,140615,6.2,"
"##MN-00 00 52 2881 01770 5732 447526 205148 190"
"165.390787"
"$GPRMC,092237,A,2436.8842,N,08049.3707,W,2.0,244.6,140615,6.2,"
"##MN-00 00 52 2882 01777 5732 447523 205146 190"
"165.390833"
"$GPRMC,092241,A,2436.8831,N,08049.3723,W,1.9,245.4,140615,6.2,"
"##MN-00 00 54 2883 01778 5733 447526 205145 190"
"165.39088"
"$GPRMC,092245,A,2436.8819,N,08049.3744,W,1.9,244.6,140615,6.2,"
"##MN-00 00 54 2883 01785 5734 447544 205141 190"
"165.390926"
"$GPRMC,092249,A,2436.8807,N,08049.3766,W,1.9,244.2,140615,6.2,"
"##MN-00 00 54 2884 01790 5735 447560 205138 190"
"165.390972"
"$GPRMC,092253,A,2436.8796,N,08049.3790,W,1.9,243.6,140615,6.2,"
"##MN-00 00 52 2885 01793 5735 447570 205136 190"
"165.391019"
"$GPRMC,092257,A,2436.8786,N,08049.3808,W,2.0,243.1,140615,6.2,"
"##MN-00 00 53 2886 01798 5736 447577 205134 190"
"165.391065"
"$GPRMC,092301,A,2436.8777,N,08049.3826,W,1.9,242.5,140615,6.2,"
"##MN-00 00 53 2887 01803 5737 447582 205133 190"
"165.391111"
"$GPRMC,092305,A,2436.8766,N,08049.3844,W,1.9,242.7,140615,6.2,"
"##MN-00 00 52 2888 01806 5737 447588 205131 190"
"165.391157"
"$GPRMC,092309,A,2436.8759,N,08049.3863,W,1.9,243.8,140615,6.2,"
"##MN-00 00 54 2888 01810 5737 447603 205128 190"
"165.391204"
"$GPRMC,092313,A,2436.8749,N,08049.3883,W,1.9,243.2,140615,6.2,"
"##MN-00 00 51 2889 01815 5738 447618 205123 190"
"165.39125"
"$GPRMC,092317,A,2436.8741,N,08049.3905,W,1.9,242.4,140615,6.2,"
"##MN-00 00 52 2890 01817 5739 447626 205121 190"
"165.391296"
"$GPRMC,092321,A,2436.8730,N,08049.3924,W,1.9,242.4,140615,6.2,"
"##MN-00 00 53 2891 01823 5739 447631 205120 190"
"165.391343"
"$GPRMC,092326,A,2436.8719,N,08049.3945,W,1.9,241.6,140615,6.2,"
"##MN-00 00 51 2892 01828 5740 447640 205120 190"
"165.391389"
"$GPRMC,092329,A,2436.8707,N,08049.3968,W,1.9,242.1,140615,6.2,"
"##MN-00 00 50 2892 01824 5741 447644 205120 190"
"165.391435"
"$GPRMC,092333,A,2436.8699,N,08049.3990,W,2.0,243.2,140615,6.2,"
"##MN-00 00 52 2893 01833 5742 447641 205119 190"
"165.391481"
"$GPRMC,092338,A,2436.8691,N,08049.4006,W,1.8,243.1,140615,6.2,"
"##MN-00 00 49 2894 01837 5742 447642 205118 190"
"165.391528"
"$GPRMC,092342,A,2436.8683,N,08049.4025,W,2.0,242.6,140615,6.2,"
"##MN-00 00 53 2895 01835 5743 447648 205118 190"
"165.391574"
"$GPRMC,092346,A,2436.8667,N,08049.4051,W,1.9,241.9,140615,6.2,"
"##MN-00 00 51 2896 01845 5744 447646 205117 190"
"165.39162"
"$GPRMC,092350,A,2436.8655,N,08049.4075,W,1.9,240.8,140615,6.2,"
"##MN-00 00 50 2896 01844 5744 447647 205117 190"
"165.391667"
"$GPRMC,092354,A,2436.8644,N,08049.4100,W,2.0,240.8,140615,6.2,"
"##MN-00 00 52 2897 01851 5745 447647 205116 190"
"165.391713"
"$GPRMC,092358,A,2436.8634,N,08049.4120,W,1.9,240.2,140615,6.2,"
"##MN-00 00 52 2898 01852 5746 447648 205116 189"
"165.391759"
"$GPRMC,092402,A,2436.8620,N,08049.4145,W,2.0,242.0,140615,6.2,"
"##MN-00 00 52 2899 01858 5746 447652 205115 190"
"165.391806"
"$GPRMC,092406,A,2436.8611,N,08049.4163,W,1.8,242.0,140615,6.2,"
"##MN-00 00 52 2900 01862 5747 447659 205114 189"
"165.391852"
"$GPRMC,092410,A,2436.8602,N,08049.4183,W,2.0,243.0,140615,6.2,"
"##MN-00 00 52 2901 01866 5748 447666 205113 190"
"165.391898"
"$GPRMC,092414,A,2436.8598,N,08049.4202,W,1.9,243.5,140615,6.2,"
"##MN-00 00 52 2901 01873 5748 447674 205113 190"
"165.391944"
"$GPRMC,092418,A,2436.8587,N,08049.4223,W,1.9,244.1,140615,6.2,"
"##MN-00 00 52 2902 01878 5749 447692 205115 190"
"165.391991"
"$GPRMC,092422,A,2436.8579,N,08049.4245,W,1.9,244.7,140615,6.2,"
"##MN-00 00 53 2903 01880 5749 447710 205117 190"
"165.392037"
"$GPRMC,092426,A,2436.8568,N,08049.4268,W,1.9,244.3,140615,6.2,"
"##MN-00 00 52 2904 01888 5750 447737 205119 189"
"165.392083"
"$GPRMC,092430,A,2436.8553,N,08049.4289,W,1.9,245.3,140615,6.2,"
"##MN-00 00 51 2905 01890 5751 447755 205120 189"
"165.39213"
"$GPRMC,092434,A,2436.8543,N,08049.4314,W,1.9,244.8,140615,6.2,"
"##MN-00 00 52 2906 01895 5751 447777 205120 190"
"165.392176"
"$GPRMC,092438,A,2436.8535,N,08049.4335,W,1.9,246.0,140615,6.2,"
"##MN-00 00 51 2906 01900 5752 447836 205125 190"
"165.392222"
"$GPRMC,092442,A,2436.8530,N,08049.4361,W,2.1,246.7,140615,6.2,"
"##MN-00 00 52 2907 01904 5752 447914 205143 190"
"165.392268"
"$GPRMC,092446,A,2436.8524,N,08049.4382,W,1.9,247.1,140615,6.2,"
"##MN-00 00 50 2908 01910 5753 448125 205175 190"
"165.392315"
"$GPRMC,092450,A,2436.8515,N,08049.4405,W,2.0,248.2,140615,6.2,"
"##MN-00 00 50 2909 01911 5754 448634 205279 189"
"165.392361"
"$GPRMC,092454,A,2436.8504,N,08049.4429,W,2.0,248.2,140615,6.2,"
"##MN-00 00 53 2909 01913 5754 448851 205316 190"
"165.392407"
"$GPRMC,092458,A,2436.8493,N,08049.4451,W,1.9,247.6,140615,6.2,"
"##MN-00 00 51 2910 01922 5755 449349 205420 190"
"165.392454"
"$GPRMC,092502,A,2436.8489,N,08049.4472,W,2.0,247.2,140615,6.2,"
"##MN-00 00 51 2911 01921 5755 449670 205483 190"
"165.3925"
"$GPRMC,092506,A,2436.8478,N,08049.4494,W,1.9,246.0,140615,6.2,"
"##MN-00 00 50 2912 01926 5756 450039 205549 190"
"165.392546"
"$GPRMC,092510,A,2436.8466,N,08049.4514,W,1.9,244.1,140615,6.2,"
"##MN-00 00 50 2913 01932 5757 450310 205605 189"
"165.392593"
"$GPRMC,092514,A,2436.8456,N,08049.4535,W,2.0,243.2,140615,6.2,"
"##MN-00 00 44 2913 01932 5757 450396 205627 190"
"165.392639"
"$GPRMC,092518,A,2436.8445,N,08049.4555,W,1.9,243.2,140615,6.2,"
"##MN-00 00 51 2914 01938 5758 450518 205657 190"
"165.392685"
"$GPRMC,092522,A,2436.8435,N,08049.4571,W,2.0,242.7,140615,6.2,"
"##MN-00 00 51 2915 01941 5759 450750 205696 190"
"165.392731"
"$GPRMC,092526,A,2436.8427,N,08049.4593,W,1.9,242.0,140615,6.2,"
"##MN-00 00 51 2916 01948 5759 451187 205841 190"
"165.392778"
"$GPRMC,092530,A,2436.8417,N,08049.4611,W,1.9,241.5,140615,6.2,"
"##MN-00 00 50 2916 01952 5760 451482 205878 190"
"165.392824"
"$GPRMC,092551,A,2436.8366,N,08049.4718,W,1.9,240.3,140615,6.2,"
"##MN-00 00 50 2920 01973 5763 453002 206228 190"
"165.39287"
"$GPRMC,092555,A,2436.8355,N,08049.4737,W,1.9,240.8,140615,6.2,"
"##MN-00 00 51 2921 01978 5763 454406 206509 190"
"165.392917"
"$GPRMC,092559,A,2436.8344,N,08049.4759,W,1.9,242.8,140615,6.2,"
"##MN-00 00 51 2922 01980 5764 454596 206535 190"
"165.392963"
"$GPRMC,092603,A,2436.8335,N,08049.4783,W,1.9,243.4,140615,6.2,"
"##MN-00 00 51 2922 01983 5764 454911 206612 190"
"165.393009"
"$GPRMC,092606,A,2436.8326,N,08049.4798,W,1.9,245.7,140615,6.2,"
"##MN-00 00 51 2923 01986 5764 455224 206627 190"
"165.393056"
"$GPRMC,092608,A,2436.8322,N,08049.4810,W,2.0,245.8,140615,6.2,"
"##MN-00 00 50 2923 01988 5765 455506 206753 190"
"165.393102"
"$GPRMC,092611,A,2436.8321,N,08049.4827,W,2.0,246.8,140615,6.2,"
"##MN-00 00 50 2924 01988 5765 455675 206786 190"
"165.393148"
"$GPRMC,092613,A,2436.8318,N,08049.4841,W,1.9,246.8,140615,6.2,"
"##MN-00 00 50 2924 01993 5765 455806 206779 189"
"165.393194"
"$GPRMC,092616,A,2436.8317,N,08049.4859,W,2.0,248.2,140615,6.2,"
"##MN-00 00 50 2925 01993 5765 455881 206814 189"
"165.393241"
"$GPRMC,092618,A,2436.8313,N,08049.4870,W,1.9,247.4,140615,6.2,"
"##MN-00 00 50 2926 01990 5766 456194 206899 190"
"165.393287"
"$GPRMC,092621,A,2436.8305,N,08049.4888,W,2.0,247.6,140615,6.2,"
"##MN-00 00 51 2926 01994 5766 456655 207091 190"
"165.393333"
"$GPRMC,092626,A,2436.8297,N,08049.4917,W,1.9,248.4,140615,6.2,"
"##MN-00 00 49 2927 01998 5767 457289 207139 190"
"165.39338"
"$GPRMC,092628,A,2436.8291,N,08049.4931,W,2.0,248.6,140615,6.2,"
"##MN-00 00 50 2928 02000 5767 457596 207224 190"
"165.393426"
"$GPRMC,092633,A,2436.8282,N,08049.4958,W,1.9,248.5,140615,6.2,"
"##MN-00 00 51 2928 02002 5767 458218 207308 190"
"165.393472"
"$GPRMC,092635,A,2436.8276,N,08049.4969,W,2.0,249.8,140615,6.2,"
"##MN-00 00 51 2929 02005 5767 459277 207512 190"
"165.393519"
"$GPRMC,092638,A,2436.8272,N,08049.4982,W,1.8,249.3,140615,6.2,"
"##MN-00 00 50 2929 02003 5768 459820 207696 190"
"165.393565"
"$GPRMC,092640,A,2436.8264,N,08049.4994,W,1.9,249.0,140615,6.2,"
"##MN-00 00 51 2930 02010 5768 460435 207777 190"
"165.393611"
"$GPRMC,092643,A,2436.8260,N,08049.5011,W,1.9,248.8,140615,6.2,"
"##MN-00 00 50 2931 02010 5768 461273 207953 189"
"165.393657"
"$GPRMC,092646,A,2436.8253,N,08049.5025,W,1.9,249.8,140615,6.2,"
"##MN-00 00 51 2931 02018 5768 461682 208029 189"
"165.393704"
"$GPRMC,092650,A,2436.8244,N,08049.5047,W,1.8,250.3,140615,6.2,"
"##MN-00 00 51 2932 02020 5769 462002 208100 190"
"165.39375"
"$GPRMC,092654,A,2436.8235,N,08049.5072,W,1.9,249.7,140615,6.2,"
"##MN-00 00 51 2933 02026 5769 462259 208198 190"
"165.393796"
"$GPRMC,092658,A,2436.8228,N,08049.5090,W,1.8,246.4,140615,6.2,"
"##MN-00 00 50 2934 02033 5769 462390 208211 190"
"165.393843"
"$GPRMC,092702,A,2436.8219,N,08049.5112,W,1.8,245.0,140615,6.2,"
"##MN-00 00 50 2934 02030 5769 463009 208343 190"
"165.393889"
"$GPRMC,092706,A,2436.8208,N,08049.5134,W,1.9,244.4,140615,6.2,"
"##MN-00 00 52 2935 02037 5770 463098 208445 190"
"165.393947"
"$GPRMC,092710,A,2436.8199,N,08049.5155,W,1.9,243.5,140615,6.2,"
"##MN-00 00 51 2936 02042 5769 464575 208648 190"
"165.393993"
"$GPRMC,092714,A,2436.8188,N,08049.5175,W,1.9,242.3,140615,6.2,"
"##MN-00 00 51 2937 02048 5770 465607 208688 189"
"165.394039"
"$GPRMC,092718,A,2436.8176,N,08049.5195,W,1.9,240.9,140615,6.2,"
"##MN-00 00 50 2937 02051 5770 466633 209056 189"
"165.394086"
"$GPRMC,092722,A,2436.8165,N,08049.5217,W,2.0,242.5,140615,6.2,"
"##MN-00 00 50 2938 02055 5770 467178 209166 189"
"165.394132"
"$GPRMC,092726,A,2436.8154,N,08049.5238,W,1.9,243.4,140615,6.2,"
"##MN-00 00 50 2939 02058 5770 467455 209224 190"
"165.394178"
"$GPRMC,092730,A,2436.8145,N,08049.5258,W,2.0,244.4,140615,6.2,"
"##MN-00 00 48 2939 02052 5770 467528 209223 189"
"165.394225"
"$GPRMC,092734,A,2436.8140,N,08049.5279,W,2.0,246.0,140615,6.2,"
"##MN-00 00 51 2940 02061 5770 467617 209275 190"
"165.394271"
"$GPRMC,092738,A,2436.8130,N,08049.5301,W,2.0,246.9,140615,6.2,"
"##MN-00 00 50 2941 02061 5770 467754 209290 190"
"165.394317"
"$GPRMC,092742,A,2436.8123,N,08049.5325,W,2.0,247.8,140615,6.2,"
"##MN-00 00 50 2942 02066 5770 467912 209324 190"
"165.394363"
"$GPRMC,092746,A,2436.8112,N,08049.5347,W,1.9,248.2,140615,6.2,"
"##MN-00 00 50 2943 02066 5770 468341 209411 190"
"165.39441"
"$GPRMC,092750,A,2436.8105,N,08049.5373,W,2.1,249.0,140615,6.2,"
"##MN-00 00 51 2943 02067 5770 468803 209493 190"
"165.394456"
"$GPRMC,092804,A,2436.8073,N,08049.5452,W,2.1,248.7,140615,6.2,"
"##MN-00 00 50 2946 02075 5770 469587 209669 190"
"165.394502"
"$GPRMC,092808,A,2436.8066,N,08049.5473,W,1.9,248.1,140615,6.2,"
"##MN-00 00 50 2947 02080 5769 470371 209819 190"
"165.394549"
"$GPRMC,092812,A,2436.8060,N,08049.5498,W,2.0,248.6,140615,6.2,"
"##MN-00 00 51 2948 02078 5769 471149 209945 190"
"165.394595"
"$GPRMC,092815,A,2436.8051,N,08049.5514,W,1.9,248.8,140615,6.2,"
"##MN-00 00 50 2948 02081 5769 471675 210120 190"
"165.394641"
"$GPRMC,092817,A,2436.8050,N,08049.5527,W,1.9,248.8,140615,6.2,"
"##MN-00 00 50 2949 02082 5769 472420 210274 189"
"165.394687"
"$GPRMC,092820,A,2436.8049,N,08049.5540,W,2.0,248.3,140615,6.2,"
"##MN-00 00 50 2949 02086 5769 473358 210371 190"
"165.394734"
"$GPRMC,092822,A,2436.8042,N,08049.5549,W,1.9,248.3,140615,6.2,"
"##MN-00 00 50 2950 02083 5769 474539 210654 190"
"165.39478"
"$GPRMC,092825,A,2436.8031,N,08049.5568,W,2.1,249.2,140615,6.2,"
"##MN-00 00 48 2950 02090 5769 474981 210791 190"
"165.394826"
"$GPRMC,092827,A,2436.8028,N,08049.5578,W,2.1,247.4,140615,6.2,"
"##MN-00 00 49 2951 02084 5768 475999 210982 190"
"165.394873"
"$GPRMC,092831,A,2436.8017,N,08049.5601,W,2.1,246.7,140615,6.2,"
"##MN-00 00 49 2952 02090 5768 475272 210873 190"
"165.394919"
"$GPRMC,092835,A,2436.8008,N,08049.5621,W,2.1,245.9,140615,6.2,"
"##MN-00 00 48 2953 02086 5768 475792 210922 190"
"165.394965"
"$GPRMC,092839,A,2436.7997,N,08049.5645,W,2.2,245.9,140615,6.2,"
"##MN-00 00 51 2953 02086 5767 476001 211008 190"
"165.395012"
"$GPRMC,092843,A,2436.7986,N,08049.5668,W,2.1,243.8,140615,6.2,"
"##MN-00 00 48 2954 02092 5767 476438 211073 189"
"165.395058"
"$GPRMC,092847,A,2436.7975,N,08049.5690,W,2.1,243.2,140615,6.2,"
"##MN-00 00 47 2955 02088 5766 476967 211173 189"
"165.395104"
"$GPRMC,092851,A,2436.7961,N,08049.5715,W,2.2,240.6,140615,6.2,"
"##MN-00 00 51 2956 02091 5766 476935 211178 190"
"165.39515"
"$GPRMC,092855,A,2436.7950,N,08049.5737,W,2.1,238.8,140615,6.2,"
"##MN-00 00 50 2956 02101 5765 477125 211188 190"
"165.395197"
"$GPRMC,092859,A,2436.7936,N,08049.5758,W,2.1,238.5,140615,6.2,"
"##MN-00 00 51 2957 02099 5765 477581 211225 190"
"165.395243"
"$GPRMC,092903,A,2436.7926,N,08049.5780,W,2.0,237.9,140615,6.2,"
"##MN-00 00 50 2958 02110 5764 478096 211379 190"
"165.395289"
"$GPRMC,092907,A,2436.7914,N,08049.5802,W,2.0,238.8,140615,6.2,"
"##MN-00 00 50 2959 02111 5764 478975 211615 190"
"165.395336"
"$GPRMC,092911,A,2436.7903,N,08049.5824,W,1.9,240.3,140615,6.2,"
"##MN-00 00 52 2959 02116 5763 479857 211768 190"
"165.395382"
"$GPRMC,092915,A,2436.7892,N,08049.5845,W,1.9,240.8,140615,6.2,"
"##MN-00 00 50 2960 02121 5763 480910 211903 189"
"165.395428"
"$GPRMC,092919,A,2436.7882,N,08049.5867,W,2.0,241.8,140615,6.2,"
"##MN-00 00 53 2961 02122 5762 481485 212074 189"
"165.395475"
"$GPRMC,092923,A,2436.7873,N,08049.5889,W,1.9,242.0,140615,6.2,"
"##MN-00 00 51 2962 02131 5761 481770 212106 190"
"165.395521"
"$GPRMC,092927,A,2436.7863,N,08049.5910,W,2.0,244.4,140615,6.2,"
"##MN-00 00 48 2962 02131 5761 481925 212120 190"
"165.395567"
"$GPRMC,092931,A,2436.7854,N,08049.5936,W,2.0,245.7,140615,6.2,"
"##MN-00 00 51 2963 02136 5760 482065 212178 190"
"165.395613"
"$GPRMC,092935,A,2436.7849,N,08049.5954,W,1.9,244.9,140615,6.2,"
"##MN-00 00 51 2964 02143 5759 482225 212194 189"
"165.39566"
"$GPRMC,092939,A,2436.7838,N,08049.5976,W,2.0,245.2,140615,6.2,"
"##MN-00 00 50 2965 02145 5758 482434 212208 189"
"165.395706"
"$GPRMC,092943,A,2436.7831,N,08049.5999,W,2.0,244.8,140615,6.2,"
"##MN-00 00 51 2966 02152 5758 482659 212256 190"
"165.395752"
"$GPRMC,092947,A,2436.7821,N,08049.6023,W,1.9,245.7,140615,6.2,"
"##MN-00 00 51 2966 02154 5757 483057 212329 190"
"165.395799"
"$GPRMC,092951,A,2436.7813,N,08049.6048,W,1.9,245.8,140615,6.2,"
"##MN-00 00 50 2967 02160 5756 483531 212461 190"
"165.395845"
"$GPRMC,092955,A,2436.7804,N,08049.6070,W,1.9,246.5,140615,6.2,"
"##MN-00 00 51 2968 02165 5755 484110 212591 190"
"165.395891"
"$GPRMC,092959,A,2436.7798,N,08049.6095,W,2.1,247.5,140615,6.2,"
"##MN-00 00 50 2969 02165 5754 484632 212661 189"
"165.395937"
"$GPRMC,093003,A,2436.7785,N,08049.6118,W,2.1,248.4,140615,6.2,"
"##MN-00 00 52 2970 02167 5753 485148 212762 190"
"165.395984"
"$GPRMC,093007,A,2436.7776,N,08049.6142,W,2.1,248.3,140615,6.2,"
"##MN-00 00 51 2970 02174 5752 485724 212870 189"
"165.39603"
"$GPRMC,093011,A,2436.7770,N,08049.6167,W,2.1,248.9,140615,6.2,"
"##MN-00 00 51 2971 02179 5751 486298 212941 190"
"165.396076"
"$GPRMC,093015,A,2436.7762,N,08049.6189,W,2.1,248.3,140615,6.2,"
"##MN-00 00 51 2972 02183 5750 487069 213130 190"
"165.396123"
"$GPRMC,093019,A,2436.7753,N,08049.6210,W,2.0,247.0,140615,6.2,"
"##MN-00 00 50 2973 02187 5749 487345 213128 190"
"165.396169"
"$GPRMC,093023,A,2436.7744,N,08049.6233,W,2.1,247.3,140615,6.2,"
"##MN-00 00 52 2974 02189 5748 488105 213357 190"
"165.396215"
"$GPRMC,093027,A,2436.7737,N,08049.6251,W,2.0,245.8,140615,6.2,"
"##MN-00 00 51 2974 02194 5747 490197 213814 189"
"165.396262"
"$GPRMC,093031,A,2436.7727,N,08049.6272,W,2.0,244.7,140615,6.2,"
"##MN-00 00 49 2975 02197 5746 490938 213950 190"
"165.396308"
"$GPRMC,093037,A,2436.7713,N,08049.6298,W,2.1,244.5,140615,6.2,"
"##MN-00 00 50 2976 02204 5744 491762 214026 189"
"165.396354"
"$GPRMC,093042,A,2436.7699,N,08049.6327,W,2.1,243.4,140615,6.2,"
"##MN-00 00 51 2977 02206 5744 492505 214201 189"
"165.3964"
"$GPRMC,093044,A,2436.7692,N,08049.6340,W,2.1,243.2,140615,6.2,"
"##MN-00 00 51 2977 02208 5743 493411 214271 190"
"165.396447"
"$GPRMC,093047,A,2436.7683,N,08049.6356,W,2.0,243.5,140615,6.2,"
"##MN-00 00 50 2978 02211 5741 494378 214483 190"
"165.396493"
"$GPRMC,093051,A,2436.7668,N,08049.6380,W,2.0,242.7,140615,6.2,"
"##MN-00 00 51 2979 02217 5740 495767 214832 189"
"165.396539"
"$GPRMC,093055,A,2436.7654,N,08049.6402,W,2.0,241.9,140615,6.2,"
"##MN-00 00 49 2980 02220 5739 496708 215099 189"
"165.396586"
"$GPRMC,093059,A,2436.7639,N,08049.6423,W,2.1,241.5,140615,6.2,"
"##MN-00 00 50 2981 02224 5738 497391 215324 190"
"165.396632"
"$GPRMC,093103,A,2436.7628,N,08049.6445,W,2.1,241.6,140615,6.2,"
"##MN-00 00 49 2982 02227 5737 498115 215479 190"
"165.396678"
"$GPRMC,093107,A,2436.7616,N,08049.6467,W,2.1,241.1,140615,6.2,"
"##MN-00 00 51 2982 02234 5735 499689 215894 189"
"165.396725"
"$GPRMC,093111,A,2436.7607,N,08049.6489,W,2.1,241.1,140615,6.2,"
"##MN-00 00 50 2983 02237 5734 501224 216141 189"
"165.396771"
"$GPRMC,093115,A,2436.7598,N,08049.6512,W,2.0,241.8,140615,6.2,"
"##MN-00 00 50 2984 02240 5732 502644 216425 189"
"165.396817"
"$GPRMC,093119,A,2436.7585,N,08049.6540,W,2.1,242.7,140615,6.2,"
"##MN-00 00 52 2985 02242 5730 503757 216538 189"
"165.396863"
"$GPRMC,093123,A,2436.7578,N,08049.6557,W,2.0,243.0,140615,6.2,"
"##MN-00 00 50 2985 02253 5729 504713 216828 189"
"165.39691"
"$GPRMC,093127,A,2436.7568,N,08049.6586,W,2.1,244.7,140615,6.2,"
"##MN-00 00 50 2986 02255 5728 505551 216969 189"
"165.396956"
"$GPRMC,093131,A,2436.7556,N,08049.6611,W,2.2,243.9,140615,6.2,"
"##MN-00 00 50 2987 02258 5726 506082 216993 189"
"165.397002"
"$GPRMC,093135,A,2436.7546,N,08049.6631,W,2.1,243.8,140615,6.2,"
"##MN-00 00 51 2988 02268 5724 507362 217251 189"
"165.397049"
"$GPRMC,093139,A,2436.7535,N,08049.6655,W,2.2,243.8,140615,6.2,"
"##MN+00 00 46 2988 02267 5723 508557 217528 189"
"165.397095"
"$GPRMC,093143,A,2436.7524,N,08049.6677,W,2.1,243.8,140615,6.2,"
"##MN+00 00 51 2989 02272 5721 508904 217596 189"
"165.397141"
"$GPRMC,093147,A,2436.7515,N,08049.6694,W,2.1,243.2,140615,6.2,"
"##MN+00 00 50 2989 02277 5719 509389 217772 190"
"165.397199"
"$GPRMC,093151,A,2436.7506,N,08049.6723,W,2.1,242.1,140615,6.2,"
"##MN-00 00 50 2990 02283 5718 511033 218090 190"
"165.397245"
"$GPRMC,093155,A,2436.7495,N,08049.6745,W,2.0,242.2,140615,6.2,"
"##MN-00 00 49 2991 02286 5716 511297 218102 190"
"165.397292"
"$GPRMC,093159,A,2436.7478,N,08049.6767,W,2.0,241.6,140615,6.2,"
"##MN+00 00 49 2992 02288 5714 511560 218135 190"
"165.397338"
"$GPRMC,093203,A,2436.7466,N,08049.6789,W,2.0,241.9,140615,6.2,"
"##MN+00 00 50 2993 02286 5712 511652 218151 190"
"165.397384"
"$GPRMC,093207,A,2436.7458,N,08049.6810,W,1.9,240.8,140615,6.2,"
"##MN+00 00 53 2993 02296 5710 511761 218212 190"
"165.397431"
"$GPRMC,093211,A,2436.7448,N,08049.6832,W,2.1,242.4,140615,6.2,"
"##MN-00 00 53 2994 02291 5708 511883 218208 190"
"165.397477"
"$GPRMC,093215,A,2436.7439,N,08049.6854,W,2.1,243.5,140615,6.2,"
"##MN-00 00 52 2995 02296 5706 511951 218240 189"
"165.397523"
"$GPRMC,093219,A,2436.7430,N,08049.6875,W,2.1,244.2,140615,6.2,"
"##MN-00 00 52 2996 02300 5704 512038 218254 189"
"165.397569"
"$GPRMC,093223,A,2436.7415,N,08049.6897,W,2.1,242.6,140615,6.2,"
"##MN-00 00 50 2996 02301 5702 512081 218264 189"
"165.397616"
"$GPRMC,093227,A,2436.7406,N,08049.6919,W,2.1,240.7,140615,6.2,"
"##MN-00 00 51 2997 02303 5700 512154 218282 189"
"165.397662"
"$GPRMC,093231,A,2436.7397,N,08049.6941,W,2.1,240.2,140615,6.2,"
"##MN-00 00 49 2998 02304 5698 512233 218302 189"
"165.397708"
"$GPRMC,093235,A,2436.7385,N,08049.6965,W,2.1,239.6,140615,6.2,"
"##MN-00 00 49 2999 02306 5696 512259 218306 189"
"165.397755"
"$GPRMC,093240,A,2436.7370,N,08049.6992,W,2.1,238.9,140615,6.2,"
"##MN-00 00 50 2999 02309 5693 512271 218303 189"
"165.397801"
"$GPRMC,093243,A,2436.7359,N,08049.7009,W,2.1,240.1,140615,6.2,"
"##MN-00 00 50 3000 02309 5691 512291 218314 189"
"165.397847"
"$GPRMC,093247,A,2436.7347,N,08049.7030,W,2.1,240.2,140615,6.2,"
"##MN-00 00 50 3001 02309 5688 512306 218320 189"
"165.397894"
"$GPRMC,093252,A,2436.7333,N,08049.7060,W,2.1,240.5,140615,6.2,"
"##MN-00 00 50 3002 02310 5686 512313 218322 189"
"165.39794"
"$GPRMC,093256,A,2436.7325,N,08049.7081,W,2.1,241.3,140615,6.2,"
"##MN-00 00 50 3003 02307 5684 512322 218324 189"
"165.397986"
"$GPRMC,093300,A,2436.7314,N,08049.7103,W,2.2,241.6,140615,6.2,"
"##MN-00 00 50 3003 02305 5682 512321 218323 189"
"165.398032"
"$GPRMC,093303,A,2436.7305,N,08049.7121,W,2.1,242.6,140615,6.2,"
"##MN-00 00 48 3004 02302 5679 512311 218324 189"
"165.398079"
"$GPRMC,093308,A,2436.7292,N,08049.7151,W,2.2,245.1,140615,6.2,"
"##MN-00 00 51 3005 02295 5677 512260 218317 189"
"165.398125"
"#increment_net"
"$GPRMC,093312,A,2436.7281,N,08049.7178,W,2.2,247.0,140615,6.2,"
"##MN-00 00 49 3006 02293 5674 512141 218298 189"
"165.398171"
"$GPRMC,093316,A,2436.7271,N,08049.7201,W,2.2,247.5,140615,6.2,"
"##MN-00 00 48 3007 02289 5672 512022 218285 189"
"165.398218"
"$GPRMC,093320,A,2436.7261,N,08049.7226,W,2.2,247.1,140615,6.2,"
"##MN-00 00 49 3008 02287 5670 511907 218278 189"
"165.398264"
"$GPRMC,093324,A,2436.7253,N,08049.7249,W,2.2,245.7,140615,6.2,"
"##MN-00 00 49 3009 02287 5667 511749 218248 189"
"165.39831"
"$GPRMC,093328,A,2436.7244,N,08049.7272,W,2.1,245.3,140615,6.2,"
"##MN-00 00 49 3010 02282 5664 511543 218210 189"
"165.398356"
"$GPRMC,093332,A,2436.7234,N,08049.7296,W,2.1,244.7,140615,6.2,"
"##MN-00 00 49 3011 02281 5662 511391 218215 189"
"165.398403"
"$GPRMC,093336,A,2436.7227,N,08049.7314,W,2.1,244.4,140615,6.2,"
"##MN-00 00 49 3012 02280 5659 510961 218173 189"
"165.398449"
"$GPRMC,093340,A,2436.7217,N,08049.7332,W,2.1,245.0,140615,6.2,"
"##MN-00 00 50 3012 02276 5657 510156 217968 189"
"165.398495"
"$GPRMC,093344,A,2436.7206,N,08049.7352,W,2.1,243.5,140615,6.2,"
"##MN-00 00 49 3013 02274 5655 509453 217886 189"
"165.398542"
"$GPRMC,093348,A,2436.7196,N,08049.7377,W,2.1,243.9,140615,6.2,"
"##MN-00 00 49 3014 02272 5652 509036 217739 189"
"165.398588"
"$GPRMC,093352,A,2436.7186,N,08049.7400,W,2.1,244.0,140615,6.2,"
"##MN-00 00 50 3015 02273 5649 508919 217722 189"
"165.398634"
"$GPRMC,093356,A,2436.7174,N,08049.7425,W,2.1,244.1,140615,6.2,"
"##MN-00 00 50 3016 02268 5647 508598 217653 189"
"165.398681"
"$GPRMC,093400,A,2436.7164,N,08049.7450,W,2.1,243.9,140615,6.2,"
"##MN-00 00 50 3017 02261 5644 507931 217574 189"
"165.398727"
"$GPRMC,093404,A,2436.7152,N,08049.7473,W,2.1,243.6,140615,6.2,"
"##MN-00 00 50 3018 02261 5641 507284 217445 189"
"165.398773"
"$GPRMC,093408,A,2436.7142,N,08049.7496,W,2.1,244.3,140615,6.2,"
"##MN-00 00 50 3018 02259 5639 506463 217237 189"
"165.398819"
"$GPRMC,093412,A,2436.7132,N,08049.7519,W,2.1,244.3,140615,6.2,"
"##MN-00 00 49 3019 02255 5637 505696 217136 189"
"165.398866"
"$GPRMC,093416,A,2436.7121,N,08049.7543,W,2.1,244.5,140615,6.2,"
"##MN-00 00 49 3020 02255 5634 505246 217027 189"
"165.398912"
"$GPRMC,093420,A,2436.7112,N,08049.7568,W,2.1,243.7,140615,6.2,"
"##MN-00 00 46 3021 02250 5631 504855 216977 189"
"165.398958"
"$GPRMC,093424,A,2436.7099,N,08049.7590,W,2.1,242.0,140615,6.2,"
"##MN-00 00 46 3022 02245 5629 504396 216854 189"
"165.399005"
"$GPRMC,093428,A,2436.7086,N,08049.7612,W,2.1,241.7,140615,6.2,"
"##MN-00 00 52 3023 02239 5626 503696 216738 189"
"165.399051"
"$GPRMC,093432,A,2436.7074,N,08049.7637,W,2.1,240.2,140615,6.2,"
"##MN-00 00 49 3024 02241 5624 502428 216485 189"
"165.399097"
"$GPRMC,093436,A,2436.7062,N,08049.7657,W,2.1,239.3,140615,6.2,"
"##MN-00 00 50 3024 02236 5621 500776 216223 189"
"165.399144"
"$GPRMC,093440,A,2436.7049,N,08049.7681,W,2.1,237.8,140615,6.2,"
"##MN-00 00 49 3025 02232 5618 499007 215847 189"
"165.39919"
"$GPRMC,093444,A,2436.7037,N,08049.7700,W,2.0,237.7,140615,6.2,"
"##MN-00 00 50 3026 02228 5616 498158 215673 189"
"165.399236"
"$GPRMC,093448,A,2436.7028,N,08049.7722,W,2.0,238.8,140615,6.2,"
"##MN-00 00 51 3027 02224 5613 497556 215448 189"
"165.399282"
"$GPRMC,093452,A,2436.7016,N,08049.7745,W,1.9,239.6,140615,6.2,"
"##MN-00 00 51 3028 02224 5611 497230 215372 189"
"165.399329"
"$GPRMC,093456,A,2436.7005,N,08049.7767,W,2.1,241.9,140615,6.2,"
"##MN-00 00 49 3029 02222 5608 496974 215358 189"
"165.399375"
"$GPRMC,093500,A,2436.6999,N,08049.7789,W,2.1,244.0,140615,6.2,"
"##MN-00 00 49 3030 02221 5606 496155 215142 189"
"165.399421"
"$GPRMC,093504,A,2436.6991,N,08049.7808,W,2.1,244.0,140615,6.2,"
"##MN-00 00 50 3031 02215 5603 494937 214865 189"
"165.399468"
"$GPRMC,093508,A,2436.6982,N,08049.7829,W,1.9,244.7,140615,6.2,"
"##MN-00 00 50 3031 02212 5601 493164 214532 189"
"165.399514"
"$GPRMC,093512,A,2436.6973,N,08049.7848,W,1.9,245.2,140615,6.2,"
"##MN-00 00 51 3032 02211 5598 492414 214356 189"
"165.39956"
"$GPRMC,093516,A,2436.6964,N,08049.7868,W,1.9,245.0,140615,6.2,"
"##MN-00 00 49 3033 02208 5596 491927 214223 189"
"165.399606"
"$GPRMC,093520,A,2436.6956,N,08049.7890,W,1.9,246.3,140615,6.2,"
"##MN-00 00 52 3034 02200 5593 491460 214111 189"
"165.399653"
"$GPRMC,093524,A,2436.6947,N,08049.7913,W,2.0,247.1,140615,6.2,"
"##MN-00 00 49 3035 02201 5591 491070 214006 189"
"165.399699"
"$GPRMC,093528,A,2436.6938,N,08049.7934,W,1.9,246.5,140615,6.2,"
"##MN-00 00 49 3036 02198 5589 490846 214003 189"
"165.399745"
"$GPRMC,093532,A,2436.6928,N,08049.7956,W,2.0,246.6,140615,6.2,"
"##MN-00 00 50 3036 02194 5586 490613 213918 189"
"165.399792"
"$GPRMC,093536,A,2436.6920,N,08049.7973,W,1.9,245.4,140615,6.2,"
"##MN-00 00 50 3037 02193 5585 490411 213908 189"
"165.399838"
"$GPRMC,093540,A,2436.6909,N,08049.7999,W,2.0,245.0,140615,6.2,"
"##MN-00 00 49 3038 02186 5582 490171 213840 189"
"165.399884"
"$GPRMC,093544,A,2436.6902,N,08049.8018,W,1.9,245.2,140615,6.2,"
"##MN-00 00 50 3039 02186 5580 489800 213777 189"
"165.399931"
"$GPRMC,093548,A,2436.6895,N,08049.8035,W,1.9,245.2,140615,6.2,"
"##MN-00 00 51 3040 02182 5578 489498 213753 189"
"165.399977"
"$GPRMC,093552,A,2436.6886,N,08049.8057,W,1.9,245.8,140615,6.2,"
"##MN-00 00 50 3041 02186 5576 489252 213706 189"
"165.400023"
"$GPRMC,093556,A,2436.6877,N,08049.8079,W,1.9,245.4,140615,6.2,"
"##MN-00 00 49 3042 02178 5574 488892 213614 189"
"165.400069"
"$GPRMC,093600,A,2436.6867,N,08049.8103,W,1.9,245.9,140615,6.2,"
"##MN-00 00 51 3043 02176 5572 488406 213519 189"
"165.400116"
"$GPRMC,093604,A,2436.6857,N,08049.8122,W,1.9,246.2,140615,6.2,"
"##MN-00 00 50 3043 02175 5570 487838 213426 189"
"165.400162"
"$GPRMC,093608,A,2436.6848,N,08049.8145,W,1.9,246.0,140615,6.2,"
"##MN-00 00 50 3044 02173 5568 487451 213361 189"
"165.400208"
"$GPRMC,093612,A,2436.6838,N,08049.8168,W,1.9,246.0,140615,6.2,"
"##MN-00 00 52 3045 02169 5565 487023 213263 189"
"165.400255"
"$GPRMC,093616,A,2436.6828,N,08049.8190,W,1.9,245.8,140615,6.2,"
"##MN-00 00 49 3046 02169 5563 486638 213159 189"
"165.400301"
"$GPRMC,093620,A,2436.6819,N,08049.8209,W,1.9,245.7,140615,6.2,"
"##MN-00 00 51 3047 02162 5561 486343 213079 189"
"165.400347"
"$GPRMC,093624,A,2436.6808,N,08049.8233,W,1.9,245.2,140615,6.2,"
"##MN-00 00 50 3048 02161 5559 485841 212977 189"
"165.400394"
"$GPRMC,093628,A,2436.6798,N,08049.8255,W,1.9,244.6,140615,6.2,"
"##MN-00 00 50 3048 02160 5558 485344 212903 189"
"165.400451"
"$GPRMC,093632,A,2436.6787,N,08049.8277,W,1.9,244.5,140615,6.2,"
"##MN-00 00 51 3049 02157 5556 484919 212787 189"
"165.400498"
"$GPRMC,093636,A,2436.6779,N,08049.8296,W,1.9,242.3,140615,6.2,"
"##MN-00 00 49 3050 02159 5554 484649 212768 189"
"165.400544"
"$GPRMC,093640,A,2436.6771,N,08049.8314,W,1.9,242.0,140615,6.2,"
"##MN-00 00 49 3051 02152 5552 483993 212651 189"
"165.40059"
"$GPRMC,093644,A,2436.6758,N,08049.8339,W,2.0,241.1,140615,6.2,"
"##MN-00 00 52 3052 02150 5550 483443 212577 189"
"165.400637"
"$GPRMC,093648,A,2436.6747,N,08049.8358,W,1.9,240.5,140615,6.2,"
"##MN-00 00 49 3053 02149 5548 483055 212447 189"
"165.400683"
"$GPRMC,093652,A,2436.6736,N,08049.8381,W,2.0,240.2,140615,6.3,"
"##MN-00 00 50 3054 02145 5547 482719 212361 189"
"165.400729"
"$GPRMC,093656,A,2436.6725,N,08049.8401,W,1.9,238.9,140615,6.3,"
"##MN-00 00 51 3055 02144 5545 482355 212270 189"
"165.400775"
"$GPRMC,093700,A,2436.6713,N,08049.8422,W,1.9,239.6,140615,6.3,"
"##MN-00 00 50 3055 02142 5544 481984 212203 189"
"165.400822"
"$GPRMC,093704,A,2436.6705,N,08049.8437,W,1.9,240.1,140615,6.3,"
"##MN-00 00 50 3056 02136 5542 481768 212185 189"
"165.400868"
"$GPRMC,093708,A,2436.6695,N,08049.8459,W,2.0,241.6,140615,6.3,"
"##MN-00 00 51 3057 02132 5540 481654 212143 189"
"165.400914"
"$GPRMC,093712,A,2436.6684,N,08049.8479,W,1.9,242.6,140615,6.3,"
"##MN-00 00 50 3058 02131 5538 481510 212101 189"
"165.400961"
"$GPRMC,093716,A,2436.6672,N,08049.8504,W,2.0,243.1,140615,6.3,"
"##MN-00 00 51 3059 02125 5536 481415 212071 189"
"165.401007"
"$GPRMC,093720,A,2436.6661,N,08049.8527,W,2.0,242.9,140615,6.3,"
"##MN-00 00 50 3060 02124 5535 481133 212022 189"
"165.401053"
"$GPRMC,093724,A,2436.6651,N,08049.8546,W,2.0,242.8,140615,6.3,"
"##MN-00 00 51 3061 02118 5533 480820 211962 189"
"165.4011"
"$GPRMC,093728,A,2436.6639,N,08049.8562,W,2.0,242.0,140615,6.3,"
"##MN-00 00 50 3062 02116 5532 480422 211882 189"
"165.401146"
"$GPRMC,093732,A,2436.6628,N,08049.8580,W,1.9,242.5,140615,6.3,"
"##MN-00 00 51 3062 02113 5530 480120 211832 189"
"165.401192"
"$GPRMC,093736,A,2436.6617,N,08049.8602,W,2.0,243.6,140615,6.3,"
"##MN+00 00 50 3063 02111 5529 479789 211778 189"
"165.401238"
"$GPRMC,093740,A,2436.6607,N,08049.8620,W,1.9,245.3,140615,6.3,"
"##MN+00 00 51 3064 02106 5528 479471 211748 189"
"165.401285"
"$GPRMC,093744,A,2436.6602,N,08049.8638,W,1.9,245.9,140615,6.3,"
"##MN+00 00 51 3065 02107 5526 479085 211680 189"
"165.401331"
"$GPRMC,093748,A,2436.6592,N,08049.8663,W,1.9,245.9,140615,6.3,"
"##MN-00 00 51 3066 02100 5524 478659 211559 189"
"165.401377"
"$GPRMC,093753,A,2436.6581,N,08049.8693,W,1.9,246.3,140615,6.3,"
"##MN-00 00 53 3067 02096 5523 478337 211503 189"
"165.401424"
"$GPRMC,093757,A,2436.6574,N,08049.8710,W,1.8,246.5,140615,6.3,"
"##MN+00 00 50 3068 02097 5522 477721 211379 189"
"165.40147"
"$GPRMC,093800,A,2436.6570,N,08049.8725,W,1.8,245.7,140615,6.3,"
"##MN+00 00 51 3069 02089 5520 477206 211305 189"
"165.401516"
"$GPRMC,093804,A,2436.6566,N,08049.8744,W,1.8,245.7,140615,6.3,"
"##MN+00 00 54 3070 02090 5519 476785 211223 189"
"165.401562"
"#increment_net"
"$GPRMC,093808,A,2436.6555,N,08049.8768,W,1.8,246.1,140615,6.3,"
"##MN-00 00 50 3071 02087 5517 476606 211172 189"
"165.401609"
"$GPRMC,093813,A,2436.6543,N,08049.8797,W,1.8,246.8,140615,6.3,"
"##MN-00 00 49 3072 02082 5516 476403 211140 189"
"165.401655"
"$GPRMC,093817,A,2436.6532,N,08049.8820,W,1.8,247.1,140615,6.3,"
"##MN-00 00 50 3073 02077 5515 475404 210999 189"
"165.401701"
"$GPRMC,093821,A,2436.6523,N,08049.8844,W,1.9,247.3,140615,6.3,"
"##MN-00 00 48 3074 02074 5514 473276 210413 189"
"165.401748"
"$GPRMC,093825,A,2436.6516,N,08049.8862,W,1.9,246.6,140615,6.3,"
"##MN-00 00 46 3075 02065 5512 470905 210033 189"
"165.401794"
"$GPRMC,093829,A,2436.6505,N,08049.8885,W,1.9,247.4,140615,6.3,"
"##MN-00 00 49 3076 02059 5511 470049 209848 189"
"165.40184"
"$GPRMC,093833,A,2436.6495,N,08049.8907,W,1.9,246.9,140615,6.3,"
"##MN-00 00 48 3077 02057 5510 469459 209759 189"
"165.401887"
"$GPRMC,093837,A,2436.6485,N,08049.8928,W,1.8,245.4,140615,6.3,"
"##MN-00 00 51 3078 02048 5509 468801 209597 189"
"165.401933"
"$GPRMC,093841,A,2436.6476,N,08049.8949,W,1.9,243.3,140615,6.3,"
"##MN-00 00 51 3079 02047 5508 467993 209429 189"
"165.401979"
"$GPRMC,093845,A,2436.6467,N,08049.8968,W,1.8,242.0,140615,6.3,"
"##MN-00 00 49 3080 02041 5507 467414 209380 189"
"165.402025"
"$GPRMC,093849,A,2436.6458,N,08049.8990,W,1.9,241.6,140615,6.3,"
"##MN-00 00 50 3080 02041 5505 467232 209341 189"
"165.402072"
"$GPRMC,093853,A,2436.6448,N,08049.9007,W,1.8,241.3,140615,6.3,"
"##MN-00 00 48 3081 02038 5505 467030 209244 189"
"165.402118"
"$GPRMC,093857,A,2436.6437,N,08049.9030,W,1.9,241.4,140615,6.3,"
"##MN-00 00 50 3082 02033 5504 466612 209165 189"
"165.402164"
"$GPRMC,093901,A,2436.6424,N,08049.9050,W,1.9,240.4,140615,6.3,"
"##MN-00 00 48 3083 02035 5502 465915 209023 189"
"165.402211"
"$GPRMC,093905,A,2436.6413,N,08049.9071,W,1.9,240.7,140615,6.3,"
"##MN-00 00 48 3084 02027 5502 464010 208580 189"
"165.402257"
"$GPRMC,093909,A,2436.6401,N,08049.9091,W,1.9,240.0,140615,6.3,"
"##MN-00 00 50 3085 02029 5501 463100 208443 189"
"165.402303"
"$GPRMC,093913,A,2436.6393,N,08049.9111,W,1.8,240.7,140615,6.3,"
"##MN-00 00 49 3086 02026 5500 462811 208417 189"
"165.40235"
"$GPRMC,093917,A,2436.6383,N,08049.9131,W,1.8,241.8,140615,6.3,"
"##MN-00 00 51 3087 02023 5499 462716 208425 189"
"165.402396"
"$GPRMC,093921,A,2436.6375,N,08049.9149,W,1.8,243.5,140615,6.3,"
"##MN-00 00 49 3088 02027 5498 462668 208371 189"
"165.402442"
"$GPRMC,093925,A,2436.6367,N,08049.9169,W,1.8,244.1,140615,6.3,"
"##MN-00 00 49 3088 02018 5497 462653 208325 189"
"165.402488"
"$GPRMC,093929,A,2436.6357,N,08049.9191,W,1.9,243.5,140615,6.3,"
"##MN-00 00 52 3089 02020 5497 462613 208312 189"
"165.402535"
"$GPRMC,093933,A,2436.6350,N,08049.9203,W,1.7,243.9,140615,6.3,"
"##MN-00 00 47 3090 02013 5496 462577 208297 189"
"165.402581"
"$GPRMC,093937,A,2436.6342,N,08049.9232,W,1.9,243.2,140615,6.3,"
"##MN-00 00 51 3091 02012 5496 462487 208271 189"
"165.402627"
"$GPRMC,093941,A,2436.6333,N,08049.9250,W,1.8,244.2,140615,6.3,"
"##MN-00 00 49 3092 02013 5495 462435 208267 189"
"165.402674"
"$GPRMC,093945,A,2436.6328,N,08049.9267,W,1.9,244.5,140615,6.3,"
"##MN-00 00 48 3093 02005 5494 462322 208251 189"
"165.40272"
"$GPRMC,093949,A,2436.6318,N,08049.9288,W,1.9,244.3,140615,6.3,"
"##MN-00 00 51 3094 02005 5494 462070 208188 189"
"165.402766"
"$GPRMC,093953,A,2436.6308,N,08049.9310,W,1.9,245.3,140615,6.3,"
"##MN-00 00 51 3095 02003 5493 461722 208132 189"
"165.402812"
"$GPRMC,093957,A,2436.6300,N,08049.9328,W,1.9,245.5,140615,6.3,"
"##MN-00 00 49 3096 02002 5493 461490 208064 189"
"165.402859"
"$GPRMC,094001,A,2436.6292,N,08049.9348,W,1.9,246.3,140615,6.3,"
"##MN-00 00 50 3097 01997 5493 461317 208039 189"
"165.402905"
"$GPRMC,094005,A,2436.6284,N,08049.9372,W,1.9,247.2,140615,6.3,"
"##MN-00 00 50 3098 01997 5492 461202 208053 189"
"165.402951"
"$GPRMC,094009,A,2436.6277,N,08049.9393,W,1.9,247.6,140615,6.3,"
"##MN-00 00 50 3099 01993 5492 461147 208027 189"
"165.402998"
"$GPRMC,094013,A,2436.6270,N,08049.9416,W,1.9,248.1,140615,6.3,"
"##MN-00 00 51 3100 01989 5491 461099 207993 189"
"165.403044"
"$GPRMC,094017,A,2436.6260,N,08049.9440,W,1.9,247.8,140615,6.3,"
"##MN-00 00 49 3101 01987 5491 460965 207960 189"
"165.40309"
"$GPRMC,094021,A,2436.6249,N,08049.9465,W,2.0,247.6,140615,6.3,"
"##MN-00 00 52 3102 01984 5491 460696 207921 189"
"165.403137"
"$GPRMC,094025,A,2436.6241,N,08049.9485,W,1.8,246.7,140615,6.3,"
"##MN-00 00 49 3103 01984 5491 460130 207792 189"
"165.403183"
"$GPRMC,094029,A,2436.6233,N,08049.9508,W,2.0,245.5,140615,6.3,"
"##MN-00 00 49 3104 01975 5490 457879 207449 189"
"165.403229"
"$GPRMC,094033,A,2436.6221,N,08049.9528,W,1.9,245.3,140615,6.3,"
"##MN-00 00 50 3105 01977 5490 456026 207182 189"
"165.403275"
"$GPRMC,094037,A,2436.6212,N,08049.9548,W,1.8,244.9,140615,6.3,"
"##MN-00 00 49 3106 01969 5490 455206 206782 189"
"165.403322"
"$GPRMC,094041,A,2436.6199,N,08049.9572,W,2.0,244.4,140615,6.3,"
"##MN-00 00 54 3107 01962 5490 454552 206650 189"
"165.403368"
"$GPRMC,094045,A,2436.6188,N,08049.9592,W,1.9,244.9,140615,6.3,"
"##MN-00 00 49 3108 01964 5489 454111 206549 189"
"165.403414"
"$GPRMC,094049,A,2436.6176,N,08049.9615,W,2.1,243.7,140615,6.3,"
"##MN-00 00 50 3109 01958 5490 453785 206485 189"
"165.403461"
"$GPRMC,094053,A,2436.6163,N,08049.9639,W,2.0,242.9,140615,6.3,"
"##MN-00 00 52 3110 01955 5489 453555 206396 189"
"165.403507"
"$GPRMC,094057,A,2436.6153,N,08049.9660,W,1.9,244.1,140615,6.3,"
"##MN-00 00 51 3111 01956 5489 453436 206379 189"
"165.403553"
"$GPRMC,094101,A,2436.6143,N,08049.9682,W,1.9,245.0,140615,6.3,"
"##MN-00 00 52 3112 01951 5489 453262 206355 189"
"165.4036"
"$GPRMC,094105,A,2436.6135,N,08049.9704,W,1.9,245.5,140615,6.3,"
"##MN-00 00 54 3112 01953 5489 453127 206265 189"
"165.403646"
"$GPRMC,094109,A,2436.6131,N,08049.9725,W,1.8,245.7,140615,6.3,"
"##MN-00 00 49 3113 01950 5489 453061 206264 189"
"165.403704"
"$GPRMC,094113,A,2436.6122,N,08049.9744,W,1.9,245.4,140615,6.3,"
"##MN-00 00 50 3114 01947 5490 452881 206221 189"
"165.40375"
"$GPRMC,094117,A,2436.6111,N,08049.9765,W,1.9,244.9,140615,6.3,"
"##MN-00 00 50 3115 01947 5490 452838 206198 189"
"165.403796"
"$GPRMC,094121,A,2436.6100,N,08049.9784,W,1.8,243.5,140615,6.3,"
"##MN-00 00 52 3116 01947 5490 452824 206198 189"
"165.403843"
"$GPRMC,094125,A,2436.6090,N,08049.9805,W,1.8,242.6,140615,6.3,"
"##MN-00 00 50 3117 01948 5490 452806 206169 189"
"165.403889"
"$GPRMC,094129,A,2436.6082,N,08049.9824,W,1.8,241.8,140615,6.3,"
"##MN-00 00 51 3118 01947 5490 452730 206150 189"
"165.403935"
"$GPRMC,094133,A,2436.6075,N,08049.9842,W,1.7,242.0,140615,6.3,"
"##MN-00 00 50 3119 01950 5490 452672 206149 189"
"165.403981"
"$GPRMC,094137,A,2436.6065,N,08049.9863,W,1.8,242.2,140615,6.3,"
"##MN-00 00 50 3119 01945 5491 452596 206142 189"
"165.404028"
"$GPRMC,094141,A,2436.6057,N,08049.9882,W,1.8,240.8,140615,6.3,"
"##MN-00 00 51 3120 01946 5491 452475 206105 189"
"165.404074"
"$GPRMC,094145,A,2436.6046,N,08049.9902,W,1.8,241.3,140615,6.3,"
"##MN-00 00 50 3121 01947 5491 452436 206083 189"
"165.40412"
"$GPRMC,094149,A,2436.6037,N,08049.9922,W,1.8,240.3,140615,6.3,"
"##MN-00 00 49 3122 01945 5491 452299 206060 189"
"165.404167"
"$GPRMC,094153,A,2436.6028,N,08049.9940,W,1.8,241.0,140615,6.3,"
"##MN-00 00 50 3123 01944 5492 452291 206053 189"
"165.404213"
"$GPRMC,094157,A,2436.6022,N,08049.9957,W,1.8,241.4,140615,6.3,"
"##MN-00 00 49 3124 01942 5493 452249 206048 189"
"165.404259"
"$GPRMC,094201,A,2436.6011,N,08049.9976,W,1.7,242.2,140615,6.3,"
"##MN-00 00 49 3125 01941 5493 452207 206038 189"
"165.404306"
"$GPRMC,094205,A,2436.6001,N,08049.9996,W,1.8,242.8,140615,6.3,"
"##MN-00 00 50 3125 01938 5493 452095 206014 189"
"165.404352"
"$GPRMC,094210,A,2436.5989,N,08050.0020,W,1.8,242.8,140615,6.3,"
"##MN-00 00 49 3126 01939 5494 451918 205979 189"
"165.404398"
"$GPRMC,094214,A,2436.5986,N,08050.0036,W,1.8,245.1,140615,6.3,"
"##MN-00 00 49 3127 01935 5494 451771 205953 189"
"165.404444"
"$GPRMC,094218,A,2436.5978,N,08050.0058,W,1.9,247.8,140615,6.3,"
"##MN-00 00 50 3128 01929 5494 451666 205937 189"
"165.404491"
"$GPRMC,094222,A,2436.5970,N,08050.0083,W,1.9,251.1,140615,6.3,"
"##MN-00 00 51 3129 01932 5495 451538 205913 189"
"165.404537"
"$GPRMC,094226,A,2436.5961,N,08050.0105,W,1.9,251.9,140615,6.3,"
"##MN-00 00 49 3130 01929 5495 451420 205898 189"
"165.404583"
"$GPRMC,094230,A,2436.5954,N,08050.0126,W,1.9,252.2,140615,6.3,"
"##MN-00 00 50 3131 01921 5496 451253 205864 189"
"165.40463"
"$GPRMC,094234,A,2436.5947,N,08050.0146,W,1.8,252.5,140615,6.3,"
"##MN-00 00 49 3132 01924 5496 451014 205816 189"
"165.404676"
"$GPRMC,094238,A,2436.5939,N,08050.0168,W,1.9,251.9,140615,6.3,"
"##MN+00 00 50 3133 01925 5496 450812 205784 189"
"165.404722"
"$GPRMC,094242,A,2436.5932,N,08050.0191,W,1.8,251.4,140615,6.3,"
"##MN+00 00 49 3134 01923 5497 450761 205768 189"
"165.404769"
"$GPRMC,094246,A,2436.5925,N,08050.0210,W,1.8,249.5,140615,6.3,"
"##MN+00 00 49 3135 01922 5498 450720 205744 189"
"165.404815"
"$GPRMC,094250,A,2436.5917,N,08050.0229,W,1.8,247.4,140615,6.3,"
"##MN-00 00 49 3135 01922 5498 450744 205750 189"
"165.404861"
"$GPRMC,094254,A,2436.5909,N,08050.0249,W,1.7,245.3,140615,6.3,"
"##MN-00 00 49 3136 01918 5499 450825 205771 189"
"165.404907"
"$GPRMC,094258,A,2436.5899,N,08050.0267,W,1.7,243.8,140615,6.3,"
"##MN-00 00 50 3137 01915 5500 450980 205794 189"
"165.404954"
"$GPRMC,094302,A,2436.5888,N,08050.0287,W,1.8,242.4,140615,6.3,"
"##MN-00 00 50 3138 01918 5500 451129 205820 189"
"165.405"
"$GPRMC,094306,A,2436.5880,N,08050.0305,W,1.7,241.6,140615,6.3,"
"##MN-00 00 49 3139 01916 5501 451240 205834 189"
"165.405046"
"$GPRMC,094310,A,2436.5867,N,08050.0325,W,1.8,240.5,140615,6.3,"
"##MN-00 00 50 3140 01911 5502 451204 205832 189"
"165.405093"
"$GPRMC,094314,A,2436.5856,N,08050.0343,W,1.8,239.6,140615,6.3,"
"##MN-00 00 50 3141 01912 5503 451095 205812 189"
"165.405139"
"$GPRMC,094318,A,2436.5846,N,08050.0363,W,1.8,240.1,140615,6.3,"
"##MN-00 00 49 3142 01912 5503 450960 205796 189"
"165.405185"
"$GPRMC,094322,A,2436.5836,N,08050.0383,W,1.8,240.8,140615,6.3,"
"##MN-00 00 48 3143 01907 5504 450790 205752 189"
"165.405231"
"$GPRMC,094326,A,2436.5826,N,08050.0402,W,1.8,241.8,140615,6.3,"
"##MN+00 00 48 3144 01905 5505 450694 205731 189"
"165.405278"
"$GPRMC,094330,A,2436.5816,N,08050.0423,W,1.8,241.7,140615,6.3,"
"##MN+00 00 50 3144 01904 5505 450655 205727 189"
"165.405324"
"$GPRMC,094334,A,2436.5805,N,08050.0441,W,1.8,241.8,140615,6.3,"
"##MN+00 00 55 3145 01905 5506 450634 205725 189"
"165.40537"
"$GPRMC,094338,A,2436.5797,N,08050.0462,W,1.8,243.4,140615,6.3,"
"##MN-00 00 52 3146 01902 5507 450630 205724 189"
"165.405417"
"#increment_net"
"$GPRMC,094342,A,2436.5788,N,08050.0481,W,1.8,244.6,140615,6.3,"
"##MN-00 00 50 3147 01900 5508 450626 205720 189"
"165.405463"
"$GPRMC,094346,A,2436.5779,N,08050.0502,W,1.8,244.7,140615,6.3,"
"##MN-00 00 50 3148 01897 5508 450617 205720 189"
"165.405509"
"$GPRMC,094350,A,2436.5773,N,08050.0522,W,1.8,245.9,140615,6.3,"
"##MN-00 00 47 3149 01892 5509 450606 205717 189"
"165.405556"
"$GPRMC,094354,A,2436.5771,N,08050.0540,W,1.8,246.4,140615,6.3,"
"##MN-00 00 47 3150 01889 5510 450593 205714 189"
"165.405602"
"$GPRMC,094358,A,2436.5761,N,08050.0564,W,1.8,247.0,140615,6.3,"
"##MN-00 00 48 3151 01888 5511 450547 205706 189"
"165.405648"
"$GPRMC,094402,A,2436.5752,N,08050.0583,W,1.8,246.8,140615,6.3,"
"##MN-00 00 46 3152 01885 5511 450287 205666 189"
"165.405694"
"$GPRMC,094406,A,2436.5744,N,08050.0603,W,1.9,246.6,140615,6.3,"
"##MN-00 00 51 3153 01879 5512 449977 205596 189"
"165.405741"
"$GPRMC,094410,A,2436.5739,N,08050.0622,W,1.9,245.5,140615,6.3,"
"##MN-00 00 47 3154 01880 5513 449569 205514 189"
"165.405787"
"$GPRMC,094414,A,2436.5729,N,08050.0643,W,1.8,244.7,140615,6.3,"
"##MN-00 00 47 3155 01876 5514 449315 205454 189"
"165.405833"
"$GPRMC,094418,A,2436.5717,N,08050.0665,W,1.9,244.1,140615,6.3,"
"##MN-00 00 51 3156 01870 5514 448990 205396 189"
"165.40588"
"$GPRMC,094422,A,2436.5705,N,08050.0684,W,1.8,243.9,140615,6.3,"
"##MN-00 00 48 3157 01870 5515 448814 205354 189"
"165.405926"
"$GPRMC,094426,A,2436.5695,N,08050.0708,W,1.9,243.6,140615,6.3,"
"##MN-00 00 48 3157 01866 5516 448607 205322 189"
"165.405972"
"$GPRMC,094430,A,2436.5685,N,08050.0727,W,1.8,242.8,140615,6.3,"
"##MN-00 00 48 3158 01868 5517 448401 205279 189"
"165.406019"
"$GPRMC,094434,A,2436.5674,N,08050.0748,W,1.8,243.7,140615,6.3,"
"##MN-00 00 47 3160 01860 5518 448150 205218 189"
"165.406065"
"$GPRMC,094438,A,2436.5663,N,08050.0770,W,1.9,243.1,140615,6.3,"
"##MN-00 00 48 3161 01858 5519 447993 205199 189"
"165.406111"
"$GPRMC,094442,A,2436.5653,N,08050.0791,W,1.8,244.0,140615,6.3,"
"##MN-00 00 48 3161 01855 5519 447857 205156 189"
"165.406157"
"$GPRMC,094446,A,2436.5645,N,08050.0813,W,1.9,244.7,140615,6.3,"
"##MN-00 00 47 3162 01856 5520 447770 205153 189"
"165.406204"
"$GPRMC,094450,A,2436.5635,N,08050.0834,W,1.8,246.0,140615,6.3,"
"##MN-00 00 46 3163 01852 5521 447737 205139 189"
"165.40625"
"$GPRMC,094454,A,2436.5627,N,08050.0854,W,1.9,246.0,140615,6.3,"
"##MN-00 00 46 3164 01849 5522 447701 205130 189"
"165.406296"
"$GPRMC,094458,A,2436.5617,N,08050.0872,W,1.8,245.1,140615,6.3,"
"##MN-00 00 47 3165 01846 5523 447677 205124 189"
"165.406343"
"$GPRMC,094502,A,2436.5607,N,08050.0893,W,1.9,244.0,140615,6.3,"
"##MN-00 00 50 3166 01841 5524 447663 205122 189"
"165.406389"
"$GPRMC,094506,A,2436.5596,N,08050.0914,W,1.8,242.8,140615,6.3,"
"##MN-00 00 46 3167 01843 5525 447658 205121 189"
"165.406435"
"$GPRMC,094510,A,2436.5587,N,08050.0934,W,1.9,243.2,140615,6.3,"
"##MN-00 00 49 3168 01834 5526 447651 205120 189"
"165.406481"
"$GPRMC,094514,A,2436.5577,N,08050.0957,W,1.8,243.3,140615,6.3,"
"##MN-00 00 47 3169 01831 5527 447634 205119 189"
"165.406528"
"$GPRMC,094518,A,2436.5571,N,08050.0977,W,1.9,244.5,140615,6.3,"
"##MN-00 00 49 3170 01830 5528 447621 205120 189"
"165.406574"
"$GPRMC,094522,A,2436.5562,N,08050.0999,W,1.9,245.3,140615,6.3,"
"##MN-00 00 48 3171 01828 5529 447609 205118 189"
"165.40662"
"$GPRMC,094526,A,2436.5552,N,08050.1017,W,1.8,245.9,140615,6.3,"
"##MN-00 00 47 3172 01826 5529 447601 205118 189"
"165.406667"
"$GPRMC,094530,A,2436.5542,N,08050.1038,W,1.8,245.7,140615,6.3,"
"##MN-00 00 47 3173 01824 5530 447589 205116 189"
"165.406713"
"$GPRMC,094534,A,2436.5533,N,08050.1058,W,1.8,245.1,140615,6.3,"
"##MN-00 00 48 3174 01821 5531 447573 205117 189"
"165.406759"
"$GPRMC,094538,A,2436.5522,N,08050.1078,W,1.8,246.1,140615,6.3,"
"##MN-00 00 47 3175 01814 5533 447559 205116 189"
"165.406806"
"$GPRMC,094542,A,2436.5516,N,08050.1100,W,1.8,246.4,140615,6.3,"
"##MN-00 00 50 3176 01814 5534 447548 205116 189"
"165.406852"
"$GPRMC,094546,A,2436.5508,N,08050.1120,W,1.8,246.2,140615,6.3,"
"##MN-00 00 47 3177 01809 5535 447542 205116 189"
"165.40691"
"$GPRMC,094550,A,2436.5501,N,08050.1142,W,1.9,245.8,140615,6.3,"
"##MN-00 00 49 3178 01806 5536 447533 205117 189"
"165.406956"
"$GPRMC,094554,A,2436.5494,N,08050.1160,W,1.8,243.6,140615,6.3,"
"##MN-00 00 47 3179 01806 5537 447529 205116 189"
"165.407002"
"$GPRMC,094558,A,2436.5482,N,08050.1178,W,1.8,243.0,140615,6.3,"
"##MN-00 00 47 3180 01799 5538 447516 205115 189"
"165.407049"
"$GPRMC,094602,A,2436.5471,N,08050.1197,W,1.8,242.9,140615,6.3,"
"##MN-00 00 49 3181 01796 5539 447508 205115 189"
"165.407095"
"$GPRMC,094606,A,2436.5461,N,08050.1214,W,1.8,242.6,140615,6.3,"
"##MN-00 00 48 3182 01794 5540 447500 205115 189"
"165.407141"
"$GPRMC,094610,A,2436.5450,N,08050.1233,W,1.8,241.9,140615,6.3,"
"##MN-00 00 47 3183 01794 5541 447492 205115 189"
"165.407188"
"$GPRMC,094614,A,2436.5439,N,08050.1253,W,1.8,242.5,140615,6.3,"
"##MN-00 00 47 3184 01788 5542 447481 205114 189"
"165.407234"
"$GPRMC,094618,A,2436.5429,N,08050.1273,W,1.8,242.9,140615,6.3,"
"##MN-00 00 48 3185 01784 5543 447475 205114 189"
"165.40728"
"$GPRMC,094622,A,2436.5421,N,08050.1294,W,1.8,243.3,140615,6.3,"
"##MN-00 00 48 3186 01783 5544 447465 205114 189"
"165.407326"
"$GPRMC,094626,A,2436.5411,N,08050.1315,W,1.8,243.8,140615,6.3,"
"##MN-00 00 48 3187 01782 5545 447445 205116 189"
"165.407373"
"$GPRMC,094630,A,2436.5404,N,08050.1334,W,1.8,244.1,140615,6.3,"
"##MN-00 00 48 3188 01778 5546 447395 205124 189"
"165.407419"
"$GPRMC,094634,A,2436.5396,N,08050.1356,W,1.8,246.1,140615,6.3,"
"##MN-00 00 49 3189 01775 5547 447388 205126 189"
"165.407465"
"$GPRMC,094638,A,2436.5389,N,08050.1376,W,1.7,247.3,140615,6.3,"
"##MN-00 00 47 3190 01772 5548 447388 205120 189"
"165.407512"
"$GPRMC,094643,A,2436.5385,N,08050.1409,W,1.8,248.8,140615,6.3,"
"##MN-00 00 48 3191 01769 5549 447374 205125 189"
"165.407558"
"$GPRMC,094646,A,2436.5381,N,08050.1424,W,1.8,249.9,140615,6.3,"
"##MN-00 00 46 3192 01765 5550 447340 205138 189"
"165.407604"
"$GPRMC,094650,A,2436.5372,N,08050.1441,W,1.8,251.6,140615,6.3,"
"##MN-00 00 48 3193 01760 5551 447329 205140 189"
"165.40765"
"$GPRMC,094655,A,2436.5363,N,08050.1464,W,1.8,253.6,140615,6.3,"
"##MN-00 00 50 3194 01759 5553 447333 205138 189"
"165.407697"
"$GPRMC,094658,A,2436.5362,N,08050.1481,W,1.8,255.5,140615,6.3,"
"##MN-00 00 49 3195 01760 5554 447332 205138 189"
"165.407743"
"$GPRMC,094703,A,2436.5356,N,08050.1507,W,1.8,255.8,140615,6.3,"
"##MN-00 00 48 3196 01752 5555 447325 205141 189"
"165.407789"
"$GPRMC,094707,A,2436.5352,N,08050.1532,W,1.9,256.1,140615,6.3,"
"##MN-00 00 51 3197 01752 5556 447319 205143 189"
"165.407836"
"$GPRMC,094711,A,2436.5349,N,08050.1551,W,1.8,256.8,140615,6.3,"
"##MN-00 00 47 3198 01747 5557 447311 205150 189"
"165.407882"
"$GPRMC,094715,A,2436.5343,N,08050.1575,W,1.8,257.2,140615,6.3,"
"##MN-00 00 50 3199 01743 5558 447304 205151 189"
"165.407928"
"$GPRMC,094719,A,2436.5340,N,08050.1590,W,1.8,257.1,140615,6.3,"
"##MN-00 00 48 3200 01744 5559 447305 205151 189"
"165.407975"
"$GPRMC,094723,A,2436.5335,N,08050.1618,W,1.8,256.4,140615,6.3,"
"##MN-00 00 49 3201 01741 5560 447305 205151 189"
"165.408021"
"$GPRMC,094727,A,2436.5331,N,08050.1634,W,1.8,256.1,140615,6.3,"
"##MN-00 00 49 3202 01741 5561 447295 205155 189"
"165.408067"
"$GPRMC,094731,A,2436.5324,N,08050.1659,W,1.7,255.5,140615,6.3,"
"##MN-00 00 47 3203 01740 5562 447289 205161 189"
"165.408113"
"$GPRMC,094735,A,2436.5317,N,08050.1680,W,1.8,255.5,140615,6.3,"
"##MN-00 00 50 3204 01735 5563 447289 205162 189"
"165.40816"
"$GPRMC,094739,A,2436.5313,N,08050.1699,W,1.7,254.2,140615,6.3,"
"##MN-00 00 49 3205 01736 5565 447290 205162 189"
"165.408206"
"$GPRMC,094743,A,2436.5305,N,08050.1716,W,1.8,254.5,140615,6.3,"
"##MN-00 00 49 3206 01731 5566 447290 205161 189"
"165.408252"
"$GPRMC,094747,A,2436.5301,N,08050.1736,W,1.8,252.9,140615,6.3,"
"##MN+00 00 51 3207 01728 5567 447292 205158 189"
"165.408299"
"$GPRMC,094751,A,2436.5298,N,08050.1749,W,1.7,251.8,140615,6.3,"
"##MN+00 00 49 3208 01729 5568 447296 205158 189"
"165.408345"
"$GPRMC,094755,A,2436.5294,N,08050.1767,W,1.8,249.9,140615,6.3,"
"##MN+00 00 48 3209 01730 5569 447294 205158 189"
"165.408391"
"$GPRMC,094759,A,2436.5289,N,08050.1785,W,1.7,249.2,140615,6.3,"
"##MN-00 00 54 3210 01724 5570 447294 205161 189"
"165.408437"
"$GPRMC,094803,A,2436.5284,N,08050.1803,W,1.7,247.8,140615,6.3,"
"##MN-00 00 50 3211 01725 5571 447285 205167 189"
"165.408484"
"$GPRMC,094807,A,2436.5278,N,08050.1824,W,1.8,247.2,140615,6.3,"
"##MN-00 00 50 3212 01722 5572 447271 205176 189"
"165.40853"
"$GPRMC,094811,A,2436.5273,N,08050.1842,W,1.7,247.3,140615,6.3,"
"##MN-00 00 50 3213 01723 5574 447257 205185 189"
"165.408576"
"$GPRMC,094815,A,2436.5263,N,08050.1862,W,1.7,246.7,140615,6.3,"
"##MN-00 00 49 3214 01720 5575 447250 205192 189"
"165.408623"
"$GPRMC,094819,A,2436.5255,N,08050.1883,W,1.7,247.0,140615,6.3,"
"##MN-00 00 49 3215 01721 5576 447247 205199 189"
"165.408669"
