" Tow: 9WGELZO   RVWS/WS15161"
" Date: 21/06/2015"
" Temperature Probe #  4762    Conductivity Probe #  710"
" Pressure Probe #  159"
" Flow Meter Calibration  4.71 (m/count)  "
"172.968484"
"$GPRMC,231433,A,2426.5667,N,08130.7475,W,1.6,267.6,210615,5.8,"
"##MN-00 00 87 0000 01517 7051 438050 827225 198"
"172.96853"
"$GPRMC,231438,A,2426.5667,N,08130.7498,W,1.6,268.1,210615,5.8,"
"##MN-00 00 87 0000 01516 7051 436784 827034 198"
"172.968576"
"$GPRMC,231442,A,2426.5665,N,08130.7516,W,1.5,268.3,210615,5.8,"
"##MN-00 00 87 0000 01517 7050 436907 827305 198"
"172.968623"
"$GPRMC,231446,A,2426.5665,N,08130.7534,W,1.5,267.7,210615,5.8,"
"##MN-00 00 87 0000 01518 7050 437184 827383 198"
"172.968669"
"$GPRMC,231450,A,2426.5663,N,08130.7551,W,1.5,267.9,210615,5.8,"
"##MN-00 00 87 0000 01517 7049 437349 827033 198"
"172.968715"
"$GPRMC,231454,A,2426.5663,N,08130.7570,W,1.4,267.5,210615,5.8,"
"##MN-00 00 87 0000 01518 7048 437621 827032 198"
"172.968762"
"$GPRMC,231458,A,2426.5660,N,08130.7588,W,1.5,266.3,210615,5.8,"
"##MN-00 00 87 0000 01516 7048 437827 826973 198"
"172.968808"
"$GPRMC,231502,A,2426.5658,N,08130.7609,W,1.6,264.3,210615,5.8,"
"##MN-00 00 87 0000 01518 7047 437835 827440 198"
"172.968854"
"$GPRMC,231506,A,2426.5654,N,08130.7634,W,1.7,263.2,210615,5.8,"
"##MN-00 00 87 0000 01518 7047 438026 827170 198"
"172.9689"
"$GPRMC,231510,A,2426.5650,N,08130.7657,W,1.8,261.4,210615,5.8,"
"##MN-00 00 87 0000 01518 7047 438324 827311 198"
"172.968947"
"$GPRMC,231514,A,2426.5645,N,08130.7681,W,1.9,260.0,210615,5.8,"
"##MN-00 00 87 0000 01520 7046 438385 827237 198"
"172.969005"
"$GPRMC,231518,A,2426.5639,N,08130.7703,W,1.9,258.3,210615,5.8,"
"##MN-00 00 87 0000 01520 7046 438385 827237 198"
"172.970174"
"$GPRMC,231658,A,2426.5461,N,08130.8418,W,2.6,255.7,210615,5.8,"
"##MN-00 00 87 0000 01520 7046 438385 827237 198"
"172.970914"
""
"##MN-00 00 12 0009 01520 7017 439181 518279 197"
"172.970961"
"$GPRMC,231808,A,2426.5367,N,08130.8891,W,1.8,261.4,210615,5.8,"
"##MN-00 00 11 0010 01520 7016 439438 204176 197"
"172.971007"
"$GPRMC,231812,A,2426.5365,N,08130.8912,W,1.7,261.8,210615,5.8,"
"##MN-00 00 11 0011 01523 7015 439447 204177 198"
"172.971053"
"$GPRMC,231816,A,2426.5363,N,08130.8932,W,1.7,262.2,210615,5.8,"
"##MN-00 00 11 0012 01525 7014 439433 204180 197"
"172.9711"
"$GPRMC,231820,A,2426.5359,N,08130.8953,W,1.7,262.6,210615,5.8,"
"##MN-00 00 11 0014 01525 7013 439426 204173 197"
"172.971146"
"$GPRMC,231824,A,2426.5357,N,08130.8974,W,1.7,263.2,210615,5.8,"
"##MN-00 00 10 0015 01522 7011 439419 204181 198"
"172.971192"
"$GPRMC,231828,A,2426.5356,N,08130.8993,W,1.6,263.3,210615,5.8,"
"##MN-00 00 10 0016 01523 7010 439422 204198 197"
"172.971238"
"$GPRMC,231832,A,2426.5353,N,08130.9014,W,1.6,263.7,210615,5.8,"
"##MN-00 00 10 0017 01525 7009 439419 204181 198"
"172.971285"
"$GPRMC,231836,A,2426.5350,N,08130.9032,W,1.6,263.7,210615,5.8,"
"##MN-00 00 10 0018 01527 7007 439410 204180 197"
"172.971331"
"$GPRMC,231840,A,2426.5349,N,08130.9053,W,1.6,263.9,210615,5.8,"
"##MN-00 00 10 0019 01526 7006 439420 204181 197"
"172.971377"
"$GPRMC,231844,A,2426.5347,N,08130.9073,W,1.6,263.9,210615,5.8,"
"##MN-00 00 09 0020 01524 7004 439432 204183 198"
"172.971424"
"$GPRMC,231848,A,2426.5346,N,08130.9093,W,1.6,264.1,210615,5.8,"
"##MN-00 00 08 0021 01531 7002 439445 204239 198"
"172.97147"
"$GPRMC,231852,A,2426.5346,N,08130.9112,W,1.6,264.6,210615,5.8,"
"##MN-00 00 08 0022 01536 7001 439416 204183 197"
"172.971516"
"$GPRMC,231856,A,2426.5345,N,08130.9133,W,1.6,264.5,210615,5.8,"
"##MN-00 00 08 0023 01538 6999 439414 204182 197"
"172.971562"
"$GPRMC,231900,A,2426.5342,N,08130.9152,W,1.6,264.2,210615,5.8,"
"##MN-00 00 08 0024 01540 6998 439400 204179 197"
"172.971609"
"$GPRMC,231904,A,2426.5340,N,08130.9173,W,1.6,264.2,210615,5.8,"
"##MN-00 00 08 0025 01543 6996 439422 204177 197"
"172.971655"
"$GPRMC,231908,A,2426.5338,N,08130.9192,W,1.6,263.8,210615,5.8,"
"##MN-00 00 08 0026 01549 6994 439487 204182 197"
"172.971701"
"$GPRMC,231912,A,2426.5338,N,08130.9212,W,1.7,263.6,210615,5.8,"
"##MN-00 00 07 0027 01553 6992 439659 204212 197"
"172.971748"
"$GPRMC,231916,A,2426.5334,N,08130.9234,W,1.7,263.1,210615,5.8,"
"##MN-00 00 07 0027 01558 6990 439883 204254 197"
"172.971806"
"$GPRMC,231920,A,2426.5333,N,08130.9254,W,1.7,262.8,210615,5.8,"
"##MN-00 00 07 0028 01560 6988 440210 204319 197"
"172.971852"
"$GPRMC,231924,A,2426.5331,N,08130.9275,W,1.6,262.9,210615,5.8,"
"##MN-00 00 07 0030 01565 6986 440697 204378 197"
"172.971898"
"$GPRMC,231928,A,2426.5327,N,08130.9297,W,1.7,262.7,210615,5.8,"
"##MN-00 00 07 0031 01567 6984 440947 204398 197"
"172.971944"
"$GPRMC,231932,A,2426.5325,N,08130.9318,W,1.7,262.9,210615,5.8,"
"##MN-00 00 07 0032 01570 6983 441464 204507 197"
"172.971991"
"$GPRMC,231936,A,2426.5323,N,08130.9339,W,1.7,262.4,210615,5.8,"
"##MN-00 00 07 0033 01573 6981 442019 204613 197"
"172.972037"
"$GPRMC,231940,A,2426.5320,N,08130.9361,W,1.7,262.2,210615,5.8,"
"##MN-00 00 07 0034 01576 6979 442365 204604 197"
"172.972083"
"$GPRMC,231944,A,2426.5316,N,08130.9380,W,1.7,261.5,210615,5.8,"
"##MN-00 00 07 0035 01581 6977 442598 204653 197"
"172.97213"
"$GPRMC,231948,A,2426.5313,N,08130.9400,W,1.7,261.1,210615,5.8,"
"##MN-00 00 07 0036 01585 6974 442786 204713 197"
"172.972176"
"$GPRMC,231952,A,2426.5311,N,08130.9422,W,1.7,261.3,210615,5.8,"
"##MN-00 00 06 0037 01587 6972 442922 204745 197"
"172.972222"
"$GPRMC,231956,A,2426.5308,N,08130.9443,W,1.7,261.5,210615,5.8,"
"##MN-00 00 06 0038 01590 6970 443030 204792 197"
"172.972269"
"$GPRMC,232000,A,2426.5305,N,08130.9465,W,1.7,262.6,210615,5.8,"
"##MN-00 00 06 0039 01593 6968 443134 204812 197"
"172.972315"
"$GPRMC,232004,A,2426.5303,N,08130.9485,W,1.7,262.9,210615,5.8,"
"##MN-00 00 06 0040 01596 6966 443240 204837 197"
"172.972361"
"$GPRMC,232008,A,2426.5300,N,08130.9506,W,1.7,262.8,210615,5.8,"
"##MN-00 00 06 0041 01600 6964 443308 204877 197"
"172.972407"
"$GPRMC,232012,A,2426.5298,N,08130.9525,W,1.7,262.7,210615,5.8,"
"##MN-00 00 06 0042 01606 6961 443350 204895 197"
"172.972454"
"$GPRMC,232016,A,2426.5297,N,08130.9545,W,1.7,262.5,210615,5.8,"
"##MN-00 00 06 0043 01604 6960 443372 204889 197"
"172.9725"
"$GPRMC,232020,A,2426.5295,N,08130.9571,W,1.7,262.8,210615,5.8,"
"##MN-00 00 06 0044 01607 6957 443393 204918 197"
"172.972546"
"$GPRMC,232024,A,2426.5294,N,08130.9592,W,1.7,262.9,210615,5.8,"
"##MN-00 00 06 0045 01610 6955 443403 204923 197"
"172.972593"
"$GPRMC,232028,A,2426.5291,N,08130.9615,W,1.7,263.4,210615,5.8,"
"##MN-00 00 06 0046 01614 6953 443420 204936 197"
"172.972639"
"$GPRMC,232032,A,2426.5291,N,08130.9639,W,1.7,263.3,210615,5.8,"
"##MN-00 00 06 0047 01619 6951 443423 204956 197"
"172.972685"
"$GPRMC,232037,A,2426.5289,N,08130.9667,W,1.7,263.8,210615,5.8,"
"##MN-00 00 06 0049 01622 6949 443424 204951 197"
"172.972732"
"$GPRMC,232041,A,2426.5284,N,08130.9684,W,1.7,263.9,210615,5.8,"
"##MN-00 00 06 0050 01625 6946 443422 204950 197"
"172.972778"
"$GPRMC,232045,A,2426.5283,N,08130.9702,W,1.7,263.7,210615,5.8,"
"##MN-00 00 06 0051 01628 6944 443427 204949 197"
"172.972824"
"$GPRMC,232049,A,2426.5280,N,08130.9723,W,1.7,263.5,210615,5.8,"
"##MN-00 00 06 0052 01632 6941 443434 204959 197"
"172.97287"
"$GPRMC,232053,A,2426.5278,N,08130.9743,W,1.6,263.5,210615,5.8,"
"##MN-00 00 06 0053 01637 6939 443450 204974 197"
"172.972917"
"$GPRMC,232057,A,2426.5275,N,08130.9762,W,1.6,263.6,210615,5.8,"
"##MN+00 00 06 0054 01637 6937 443463 204975 197"
"172.972963"
"$GPRMC,232101,A,2426.5273,N,08130.9783,W,1.7,263.7,210615,5.8,"
"##MN+00 00 06 0055 01638 6935 443486 204973 197"
"172.973009"
"$GPRMC,232105,A,2426.5271,N,08130.9802,W,1.7,263.6,210615,5.8,"
"##MN+00 00 05 0056 01644 6932 443498 204971 197"
"172.973056"
"$GPRMC,232109,A,2426.5270,N,08130.9824,W,1.7,263.8,210615,5.8,"
"##MN-00 00 06 0057 01647 6930 443517 204981 198"
"172.973102"
"$GPRMC,232113,A,2426.5269,N,08130.9846,W,1.7,263.8,210615,5.8,"
"##MN-00 00 05 0058 01651 6927 443539 204987 197"
"172.973148"
"$GPRMC,232117,A,2426.5268,N,08130.9867,W,1.7,263.6,210615,5.8,"
"##MN-00 00 05 0059 01654 6925 443559 204989 197"
"172.973194"
"$GPRMC,232121,A,2426.5266,N,08130.9889,W,1.7,263.9,210615,5.8,"
"##MN-00 00 05 0060 01657 6923 443589 204987 197"
"172.973241"
"$GPRMC,232125,A,2426.5266,N,08130.9910,W,1.6,264.0,210615,5.8,"
"##MN-00 00 05 0061 01662 6920 443641 204990 197"
"172.973287"
"$GPRMC,232129,A,2426.5263,N,08130.9928,W,1.6,264.0,210615,5.8,"
"##MN+00 00 05 0063 01665 6918 443719 204990 197"
"172.973333"
"$GPRMC,232133,A,2426.5262,N,08130.9946,W,1.6,264.3,210615,5.8,"
"##MN+00 00 05 0064 01669 6915 443947 204992 197"
"172.97338"
"$GPRMC,232137,A,2426.5260,N,08130.9967,W,1.6,265.0,210615,5.8,"
"##MN+00 00 06 0065 01675 6913 444456 205016 197"
"172.973426"
"$GPRMC,232141,A,2426.5260,N,08130.9986,W,1.6,264.8,210615,5.8,"
"##MN-00 00 05 0066 01678 6911 444772 205041 197"
"172.973472"
"$GPRMC,232145,A,2426.5258,N,08131.0004,W,1.6,265.0,210615,5.8,"
"##MN-00 00 05 0067 01683 6908 444936 205041 197"
"172.973519"
"#increment_net"
"$GPRMC,232149,A,2426.5256,N,08131.0023,W,1.6,264.6,210615,5.8,"
"##MN-00 00 05 0068 01687 6906 444993 205051 198"
"172.973565"
"$GPRMC,232153,A,2426.5255,N,08131.0043,W,1.6,264.3,210615,5.8,"
"##MN-00 00 06 0069 01688 6904 445025 205046 197"
"172.973611"
"$GPRMC,232157,A,2426.5252,N,08131.0061,W,1.6,264.5,210615,5.8,"
"##MN-00 00 06 0070 01688 6901 445082 205060 197"
"172.973657"
"$GPRMC,232201,A,2426.5251,N,08131.0080,W,1.6,264.9,210615,5.8,"
"##MN-00 00 06 0071 01687 6899 445114 205062 197"
"172.973704"
"$GPRMC,232205,A,2426.5248,N,08131.0099,W,1.6,264.6,210615,5.8,"
"##MN-00 00 06 0073 01684 6896 445119 205072 197"
"172.97375"
"$GPRMC,232209,A,2426.5247,N,08131.0119,W,1.6,264.2,210615,5.8,"
"##MN-00 00 06 0074 01687 6894 445112 205074 197"
"172.973796"
"$GPRMC,232213,A,2426.5244,N,08131.0137,W,1.6,264.1,210615,5.8,"
"##MN-00 00 06 0075 01685 6892 445102 205076 197"
"172.973843"
"$GPRMC,232217,A,2426.5243,N,08131.0155,W,1.5,264.5,210615,5.8,"
"##MN-00 00 06 0076 01681 6889 445090 205080 197"
"172.973889"
"$GPRMC,232221,A,2426.5240,N,08131.0174,W,1.5,265.0,210615,5.8,"
"##MN-00 00 06 0078 01679 6887 445079 205081 197"
"172.973935"
"$GPRMC,232225,A,2426.5240,N,08131.0192,W,1.5,265.2,210615,5.8,"
"##MN-00 00 06 0079 01680 6884 445066 205083 197"
"172.973981"
"$GPRMC,232229,A,2426.5238,N,08131.0210,W,1.5,265.5,210615,5.8,"
"##MN-00 00 06 0080 01681 6882 445052 205085 197"
"172.974028"
"$GPRMC,232233,A,2426.5237,N,08131.0228,W,1.5,265.7,210615,5.8,"
"##MN-00 00 06 0081 01680 6879 445046 205085 197"
"172.974074"
"$GPRMC,232237,A,2426.5235,N,08131.0245,W,1.5,266.1,210615,5.8,"
"##MN-00 00 06 0082 01677 6877 445047 205086 197"
"172.97412"
"$GPRMC,232241,A,2426.5235,N,08131.0264,W,1.5,266.3,210615,5.8,"
"##MN-00 00 06 0084 01677 6874 445052 205086 197"
"172.974167"
"$GPRMC,232245,A,2426.5233,N,08131.0282,W,1.5,266.1,210615,5.8,"
"##MN-00 00 06 0085 01675 6872 445053 205087 197"
"172.974213"
"$GPRMC,232249,A,2426.5231,N,08131.0300,W,1.5,266.6,210615,5.8,"
"##MN-00 00 06 0086 01673 6870 445052 205087 197"
"172.974259"
"$GPRMC,232253,A,2426.5230,N,08131.0318,W,1.5,266.8,210615,5.8,"
"##MN-00 00 06 0087 01675 6867 445052 205086 197"
"172.974306"
"$GPRMC,232257,A,2426.5230,N,08131.0336,W,1.5,267.1,210615,5.8,"
"##MN-00 00 06 0089 01671 6865 445048 205088 197"
"172.974352"
"$GPRMC,232301,A,2426.5229,N,08131.0354,W,1.5,266.6,210615,5.8,"
"##MN-00 00 06 0090 01671 6862 445039 205088 197"
"172.974398"
"$GPRMC,232305,A,2426.5228,N,08131.0372,W,1.5,266.4,210615,5.8,"
"##MN-00 00 06 0091 01669 6859 445025 205090 197"
"172.974444"
"$GPRMC,232309,A,2426.5226,N,08131.0392,W,1.5,266.0,210615,5.8,"
"##MN-00 00 06 0092 01669 6857 445019 205092 197"
"172.974491"
"$GPRMC,232313,A,2426.5224,N,08131.0410,W,1.5,265.6,210615,5.8,"
"##MN-00 00 06 0093 01668 6855 445018 205092 197"
"172.974537"
"$GPRMC,232317,A,2426.5224,N,08131.0430,W,1.5,265.2,210615,5.8,"
"##MN-00 00 06 0095 01664 6852 445019 205092 197"
"172.974583"
"$GPRMC,232321,A,2426.5222,N,08131.0448,W,1.5,265.7,210615,5.8,"
"##MN-00 00 06 0096 01664 6849 445021 205092 197"
"172.97463"
"$GPRMC,232325,A,2426.5221,N,08131.0464,W,1.5,266.0,210615,5.8,"
"##MN-00 00 06 0097 01664 6847 445022 205092 197"
"172.974676"
"$GPRMC,232329,A,2426.5221,N,08131.0482,W,1.5,265.7,210615,5.8,"
"##MN-00 00 06 0098 01663 6845 445024 205092 197"
"172.974722"
"$GPRMC,232333,A,2426.5221,N,08131.0500,W,1.5,265.2,210615,5.8,"
"##MN-00 00 06 0099 01662 6842 445025 205090 197"
"172.974768"
"$GPRMC,232337,A,2426.5219,N,08131.0517,W,1.5,265.3,210615,5.8,"
"##MN-00 00 06 0101 01661 6840 445027 205089 197"
"172.974815"
"$GPRMC,232341,A,2426.5217,N,08131.0535,W,1.5,265.4,210615,5.8,"
"##MN-00 00 06 0102 01661 6837 445047 205089 197"
"172.974861"
"$GPRMC,232345,A,2426.5217,N,08131.0551,W,1.5,265.4,210615,5.8,"
"##MN-00 00 06 0103 01659 6835 445068 205088 197"
"172.974907"
"$GPRMC,232349,A,2426.5215,N,08131.0564,W,1.5,265.3,210615,5.8,"
"##MN-00 00 06 0104 01657 6832 445084 205086 197"
"172.974954"
"$GPRMC,232353,A,2426.5213,N,08131.0586,W,1.5,265.2,210615,5.8,"
"##MN-00 00 06 0105 01656 6829 445094 205084 197"
"172.975"
"$GPRMC,232357,A,2426.5212,N,08131.0600,W,1.5,265.0,210615,5.8,"
"##MN-00 00 06 0107 01656 6827 445108 205084 197"
"172.975058"
"$GPRMC,232401,A,2426.5211,N,08131.0616,W,1.4,264.3,210615,5.8,"
"##MN-00 00 06 0108 01655 6825 445124 205083 197"
"172.975104"
"$GPRMC,232405,A,2426.5210,N,08131.0634,W,1.4,263.5,210615,5.8,"
"##MN-00 00 06 0109 01653 6822 445131 205084 197"
"172.97515"
"$GPRMC,232409,A,2426.5208,N,08131.0651,W,1.4,262.9,210615,5.8,"
"##MN-00 00 06 0110 01652 6820 445140 205084 197"
"172.975197"
"$GPRMC,232413,A,2426.5204,N,08131.0673,W,1.4,262.5,210615,5.8,"
"##MN-00 00 06 0111 01652 6817 445147 205084 197"
"172.975243"
"$GPRMC,232417,A,2426.5202,N,08131.0690,W,1.4,262.6,210615,5.8,"
"##MN-00 00 05 0113 01651 6815 445161 205084 197"
"172.975289"
"$GPRMC,232421,A,2426.5201,N,08131.0708,W,1.4,262.2,210615,5.8,"
"##MN-00 00 06 0114 01649 6812 445170 205084 197"
"172.975336"
"$GPRMC,232425,A,2426.5197,N,08131.0724,W,1.4,261.9,210615,5.8,"
"##MN-00 00 06 0115 01648 6810 445178 205083 197"
"172.975382"
"$GPRMC,232429,A,2426.5196,N,08131.0741,W,1.4,261.7,210615,5.8,"
"##MN-00 00 05 0116 01645 6807 445182 205083 197"
"172.975428"
"$GPRMC,232433,A,2426.5192,N,08131.0758,W,1.4,261.4,210615,5.8,"
"##MN-00 00 05 0117 01645 6805 445180 205085 197"
"172.975475"
"$GPRMC,232437,A,2426.5191,N,08131.0775,W,1.3,261.2,210615,5.8,"
"##MN-00 00 05 0118 01640 6802 445163 205086 197"
"172.975521"
"$GPRMC,232441,A,2426.5188,N,08131.0792,W,1.3,261.1,210615,5.8,"
"##MN-00 00 05 0120 01641 6800 445138 205088 197"
"172.975567"
"$GPRMC,232445,A,2426.5186,N,08131.0809,W,1.3,260.4,210615,5.8,"
"##MN-00 00 05 0121 01638 6797 445117 205089 197"
"172.975613"
"$GPRMC,232449,A,2426.5182,N,08131.0825,W,1.3,260.6,210615,5.8,"
"##MN-00 00 05 0122 01634 6795 445099 205091 197"
"172.97566"
"$GPRMC,232453,A,2426.5180,N,08131.0842,W,1.3,260.9,210615,5.8,"
"##MN-00 00 05 0123 01630 6793 445086 205092 197"
"172.975706"
"$GPRMC,232457,A,2426.5179,N,08131.0858,W,1.3,260.9,210615,5.8,"
"##MN-00 00 06 0124 01631 6790 445074 205093 197"
"172.975752"
"$GPRMC,232502,A,2426.5174,N,08131.0878,W,1.3,261.4,210615,5.8,"
"##MN+00 00 06 0126 01628 6788 445065 205094 197"
"172.975799"
"$GPRMC,232505,A,2426.5173,N,08131.0890,W,1.3,261.2,210615,5.8,"
"##MN+00 00 05 0127 01626 6785 445052 205095 197"
"172.975845"
"$GPRMC,232510,A,2426.5171,N,08131.0910,W,1.3,261.2,210615,5.8,"
"##MN+00 00 05 0128 01624 6783 445038 205096 197"
"172.975891"
"$GPRMC,232514,A,2426.5168,N,08131.0926,W,1.3,261.2,210615,5.8,"
"##MN-00 00 05 0129 01622 6780 445022 205097 197"
"172.975938"
"$GPRMC,232518,A,2426.5164,N,08131.0943,W,1.3,260.7,210615,5.8,"
"##MN-00 00 06 0130 01618 6778 445004 205099 197"
"172.975984"
"$GPRMC,232522,A,2426.5161,N,08131.0958,W,1.3,260.4,210615,5.8,"
"##MN-00 00 06 0132 01616 6776 444986 205099 197"
"172.97603"
"$GPRMC,232526,A,2426.5157,N,08131.0975,W,1.3,260.2,210615,5.8,"
"##MN-00 00 05 0133 01615 6773 444962 205099 197"
"172.976076"
"$GPRMC,232530,A,2426.5155,N,08131.0990,W,1.3,260.5,210615,5.8,"
"##MN-00 00 05 0134 01612 6771 444945 205101 197"
"172.976123"
"$GPRMC,232534,A,2426.5154,N,08131.1006,W,1.3,260.7,210615,5.8,"
"##MN-00 00 05 0135 01606 6768 444903 205095 197"
"172.976169"
"$GPRMC,232538,A,2426.5150,N,08131.1022,W,1.3,260.7,210615,5.8,"
"##MN-00 00 05 0136 01606 6766 444830 205093 197"
"172.976215"
"$GPRMC,232542,A,2426.5148,N,08131.1038,W,1.3,260.5,210615,5.8,"
"##MN-00 00 06 0138 01603 6764 444683 205088 197"
"172.976262"
"$GPRMC,232546,A,2426.5146,N,08131.1055,W,1.3,260.4,210615,5.8,"
"##MN+00 00 06 0139 01602 6761 444411 205091 197"
"172.976308"
"$GPRMC,232550,A,2426.5143,N,08131.1070,W,1.3,260.3,210615,5.8,"
"##MN+00 00 05 0140 01601 6759 444090 205067 197"
"172.976354"
"$GPRMC,232554,A,2426.5141,N,08131.1087,W,1.3,260.3,210615,5.8,"
"##MN+00 00 05 0141 01598 6756 443939 205050 197"
"172.9764"
"$GPRMC,232558,A,2426.5139,N,08131.1102,W,1.3,260.0,210615,5.8,"
"##MN-00 00 06 0142 01597 6754 443864 205043 197"
"172.976447"
"$GPRMC,232602,A,2426.5135,N,08131.1120,W,1.3,260.0,210615,5.8,"
"##MN-00 00 06 0143 01591 6751 443796 205039 197"
"172.976493"
"#increment_net"
"$GPRMC,232606,A,2426.5133,N,08131.1136,W,1.3,260.1,210615,5.8,"
"##MN-00 00 06 0145 01586 6749 443707 205035 197"
"172.976539"
"$GPRMC,232610,A,2426.5131,N,08131.1152,W,1.3,260.2,210615,5.8,"
"##MN-00 00 06 0146 01582 6747 443636 205041 197"
"172.976586"
"$GPRMC,232614,A,2426.5127,N,08131.1168,W,1.3,260.3,210615,5.8,"
"##MN-00 00 05 0147 01582 6745 443593 205040 197"
"172.976632"
"$GPRMC,232618,A,2426.5125,N,08131.1185,W,1.3,260.0,210615,5.8,"
"##MN-00 00 06 0148 01579 6742 443572 205032 197"
"172.976678"
"$GPRMC,232622,A,2426.5124,N,08131.1199,W,1.3,260.4,210615,5.8,"
"##MN-00 00 06 0149 01575 6740 443556 205030 197"
"172.976725"
"$GPRMC,232626,A,2426.5121,N,08131.1214,W,1.3,260.6,210615,5.8,"
"##MN-00 00 06 0150 01574 6738 443544 205036 197"
"172.976771"
"$GPRMC,232630,A,2426.5121,N,08131.1229,W,1.3,260.9,210615,5.8,"
"##MN-00 00 05 0152 01574 6735 443515 205024 197"
"172.976817"
"$GPRMC,232634,A,2426.5119,N,08131.1246,W,1.3,261.5,210615,5.8,"
"##MN-00 00 06 0153 01569 6733 443464 205016 197"
"172.976863"
"$GPRMC,232638,A,2426.5117,N,08131.1261,W,1.3,261.6,210615,5.8,"
"##MN-00 00 06 0154 01567 6731 443429 205006 197"
"172.97691"
"$GPRMC,232642,A,2426.5115,N,08131.1277,W,1.3,261.1,210615,5.8,"
"##MN-00 00 06 0155 01565 6729 443407 205000 197"
"172.976956"
"$GPRMC,232646,A,2426.5112,N,08131.1293,W,1.3,260.7,210615,5.8,"
"##MN-00 00 06 0156 01562 6726 443390 204990 197"
"172.977002"
"$GPRMC,232650,A,2426.5109,N,08131.1311,W,1.3,260.4,210615,5.8,"
"##MN-00 00 06 0157 01558 6724 443364 204983 197"
"172.977049"
"$GPRMC,232654,A,2426.5107,N,08131.1327,W,1.3,261.2,210615,5.8,"
"##MN-00 00 06 0159 01557 6722 443338 204983 197"
"172.977095"
"$GPRMC,232658,A,2426.5105,N,08131.1344,W,1.3,261.9,210615,5.8,"
"##MN-00 00 06 0160 01556 6720 443246 204980 197"
"172.977141"
"$GPRMC,232702,A,2426.5103,N,08131.1360,W,1.3,262.0,210615,5.8,"
"##MN-00 00 06 0161 01552 6717 443165 204961 197"
"172.977187"
"$GPRMC,232706,A,2426.5102,N,08131.1376,W,1.3,261.7,210615,5.8,"
"##MN-00 00 06 0162 01551 6715 443031 204937 197"
"172.977234"
"$GPRMC,232710,A,2426.5099,N,08131.1394,W,1.3,261.9,210615,5.8,"
"##MN-00 00 06 0163 01545 6713 442945 204918 197"
"172.97728"
"$GPRMC,232714,A,2426.5097,N,08131.1410,W,1.3,262.3,210615,5.8,"
"##MN-00 00 06 0164 01544 6711 442356 204851 197"
"172.977326"
"$GPRMC,232718,A,2426.5096,N,08131.1427,W,1.3,262.4,210615,5.8,"
"##MN-00 00 06 0166 01544 6708 442269 204811 197"
"172.977373"
"$GPRMC,232722,A,2426.5095,N,08131.1445,W,1.3,262.4,210615,5.8,"
"##MN-00 00 06 0167 01544 6706 441942 204745 197"
"172.977419"
"$GPRMC,232726,A,2426.5092,N,08131.1460,W,1.3,262.6,210615,5.8,"
"##MN-00 00 06 0168 01544 6704 441342 204657 197"
"172.977465"
"$GPRMC,232730,A,2426.5089,N,08131.1477,W,1.3,262.6,210615,5.8,"
"##MN-00 00 06 0169 01539 6701 441093 204571 197"
"172.977512"
"$GPRMC,232734,A,2426.5087,N,08131.1492,W,1.3,263.4,210615,5.8,"
"##MN-00 00 06 0170 01535 6699 440702 204578 197"
"172.977558"
"$GPRMC,232738,A,2426.5087,N,08131.1508,W,1.3,263.6,210615,5.8,"
"##MN-00 00 06 0171 01535 6697 440376 204436 197"
"172.977604"
"$GPRMC,232742,A,2426.5085,N,08131.1525,W,1.3,263.9,210615,5.8,"
"##MN-00 00 06 0172 01536 6695 440070 204377 197"
"172.97765"
"$GPRMC,232746,A,2426.5083,N,08131.1539,W,1.3,264.2,210615,5.8,"
"##MN-00 00 07 0173 01534 6693 440031 204350 197"
"172.977697"
"$GPRMC,232750,A,2426.5081,N,08131.1553,W,1.3,263.9,210615,5.8,"
"##MN-00 00 07 0174 01532 6691 440117 204345 197"
"172.977743"
"$GPRMC,232754,A,2426.5078,N,08131.1569,W,1.3,263.2,210615,5.8,"
"##MN-00 00 07 0175 01528 6689 439928 204299 197"
"172.977789"
"$GPRMC,232758,A,2426.5075,N,08131.1586,W,1.3,262.7,210615,5.8,"
"##MN-00 00 07 0176 01531 6687 439748 204266 197"
"172.977836"
"$GPRMC,232802,A,2426.5074,N,08131.1602,W,1.3,262.6,210615,5.8,"
"##MN+00 00 07 0178 01528 6685 439679 204243 197"
"172.977882"
"$GPRMC,232806,A,2426.5071,N,08131.1618,W,1.4,262.9,210615,5.8,"
"##MN+00 00 07 0178 01528 6683 439659 204246 197"
"172.977928"
"$GPRMC,232810,A,2426.5070,N,08131.1638,W,1.4,263.1,210615,5.8,"
"##MN+00 00 07 0179 01527 6680 439578 204216 197"
"172.977975"
"$GPRMC,232814,A,2426.5068,N,08131.1655,W,1.5,263.3,210615,5.8,"
"##MN+00 00 07 0180 01528 6679 439538 204204 197"
"172.978021"
"$GPRMC,232818,A,2426.5067,N,08131.1673,W,1.5,263.3,210615,5.8,"
"##MN+00 00 07 0181 01532 6677 439527 204203 197"
"172.978067"
"$GPRMC,232822,A,2426.5065,N,08131.1691,W,1.5,263.2,210615,5.8,"
"##MN+00 00 07 0183 01532 6674 439520 204200 197"
"172.978113"
"$GPRMC,232826,A,2426.5062,N,08131.1710,W,1.5,263.1,210615,5.8,"
"##MN-00 00 07 0183 01528 6672 439599 204216 197"
"172.97816"
"$GPRMC,232830,A,2426.5060,N,08131.1727,W,1.5,263.1,210615,5.8,"
"##MN-00 00 07 0184 01530 6670 439617 204221 197"
"172.978206"
"$GPRMC,232834,A,2426.5060,N,08131.1749,W,1.5,263.4,210615,5.8,"
"##MN-00 00 07 0185 01529 6668 439613 204219 197"
"172.978252"
"$GPRMC,232838,A,2426.5058,N,08131.1766,W,1.5,263.5,210615,5.8,"
"##MN-00 00 07 0187 01528 6666 439595 204209 197"
"172.97831"
"#increment_net"
"$GPRMC,232842,A,2426.5056,N,08131.1785,W,1.5,263.5,210615,5.8,"
"##MN-00 00 07 0188 01529 6665 439546 204192 197"
"172.978357"
"$GPRMC,232846,A,2426.5053,N,08131.1803,W,1.5,263.7,210615,5.8,"
"##MN+00 00 07 0189 01528 6663 439550 204193 197"
"172.978403"
"$GPRMC,232850,A,2426.5050,N,08131.1821,W,1.5,263.2,210615,5.8,"
"##MN+00 00 07 0190 01529 6661 439561 204195 197"
"172.978449"
"$GPRMC,232854,A,2426.5048,N,08131.1837,W,1.5,262.3,210615,5.8,"
"##MN+00 00 07 0191 01529 6659 439563 204194 197"
"172.978495"
"$GPRMC,232858,A,2426.5045,N,08131.1855,W,1.5,262.3,210615,5.8,"
"##MN+00 00 07 0192 01529 6657 439549 204193 197"
"172.978542"
"$GPRMC,232902,A,2426.5042,N,08131.1872,W,1.5,262.5,210615,5.8,"
"##MN+00 00 07 0193 01530 6655 439569 204196 197"
"172.978588"
"$GPRMC,232906,A,2426.5039,N,08131.1890,W,1.5,262.2,210615,5.8,"
"##MN+00 00 06 0194 01530 6653 439562 204195 197"
"172.978634"
"$GPRMC,232910,A,2426.5037,N,08131.1911,W,1.6,261.7,210615,5.8,"
"##MN+00 00 07 0195 01527 6651 439541 204192 197"
"172.978681"
"#increment_net"
"$GPRMC,232914,A,2426.5033,N,08131.1930,W,1.5,261.9,210615,5.8,"
"##MN+00 00 08 0196 01525 6650 439565 204199 197"
"172.978727"
"$GPRMC,232918,A,2426.5033,N,08131.1948,W,1.6,262.3,210615,5.8,"
"##MN+00 00 08 0197 01525 6648 439565 204193 197"
"172.978773"
"$GPRMC,232922,A,2426.5029,N,08131.1965,W,1.6,262.8,210615,5.8,"
"##MN-00 00 08 0198 01527 6646 439569 204286 197"
"172.978819"
"$GPRMC,232926,A,2426.5028,N,08131.1985,W,1.6,262.9,210615,5.8,"
"##MN-00 00 13 0199 01525 6644 439571 204244 197"
"172.978866"
"$GPRMC,232930,A,2426.5025,N,08131.2003,W,1.6,262.3,210615,5.8,"
"##MN+00 00 21 0200 01525 6642 439573 204214 197"
"172.978912"
"$GPRMC,232934,A,2426.5022,N,08131.2021,W,1.6,261.4,210615,5.8,"
"##MN+00 00 08 0201 01524 6641 439608 204280 197"
"172.978958"
"$GPRMC,232939,A,2426.5020,N,08131.2048,W,1.6,261.1,210615,5.8,"
"##MN+00 00 09 0203 01527 6639 439687 208671 197"
"172.979005"
"$GPRMC,232943,A,2426.5017,N,08131.2068,W,1.6,260.9,210615,5.8,"
"##MN-00 00 07 0204 01527 6637 439661 204310 197"
"172.979051"
"$GPRMC,232947,A,2426.5013,N,08131.2089,W,1.6,260.1,210615,5.8,"
"##MN-00 00 07 0205 01531 6635 439614 204257 197"
"172.979097"
"$GPRMC,232950,A,2426.5011,N,08131.2103,W,1.6,259.6,210615,5.8,"
"##MN+00 00 07 0207 01533 6633 439625 204285 197"
"172.979144"
"$GPRMC,232955,A,2426.5006,N,08131.2128,W,1.6,258.5,210615,5.8,"
"##MN+00 00 07 0208 01533 6632 439645 204295 197"
"172.97919"
"$GPRMC,232959,A,2426.5002,N,08131.2149,W,1.7,258.0,210615,5.8,"
"##MN+00 00 07 0210 01533 6630 439861 204424 197"
"172.979236"
"$GPRMC,233002,A,2426.4998,N,08131.2164,W,1.7,257.6,210615,5.8,"
"##MN-00 00 07 0211 01535 6628 440010 204387 197"
"172.979282"
"#increment_net"
"$GPRMC,233006,A,2426.4992,N,08131.2184,W,1.7,256.8,210615,5.8,"
"##MN-00 00 07 0212 01534 6627 439965 204374 197"
