" Tow: 9WM-B   RVWS/WS15161"
" Date: 21/06/2015"
" Temperature Probe #  4762    Conductivity Probe #  710"
" Pressure Probe #  159"
" Flow Meter Calibration  4.71 (m/count)  "
"172.625521"
"$GPRMC,150041,A,2424.0382,N,08135.4062,W,3.8,130.5,210615,5.7,"
"##MN-00 00 80 0000 01541 4861 420150 827476 198"
"172.625567"
"$GPRMC,150045,A,2424.0354,N,08135.4026,W,3.8,130.8,210615,5.7,"
"##MN-00 00 80 0000 01543 4863 419405 827860 197"
"172.625613"
"$GPRMC,150049,A,2424.0327,N,08135.3990,W,3.8,130.5,210615,5.7,"
"##MN-00 00 79 0000 01540 4864 419762 827860 197"
"172.62566"
"$GPRMC,150053,A,2424.0298,N,08135.3954,W,3.8,129.7,210615,5.7,"
"##MN-00 00 79 0000 01542 4865 419677 827860 197"
"172.625706"
"$GPRMC,150057,A,2424.0271,N,08135.3916,W,3.9,129.3,210615,5.7,"
"##MN-00 00 73 0000 01541 4867 420136 827860 197"
"172.625752"
"$GPRMC,150101,A,2424.0244,N,08135.3878,W,3.8,128.4,210615,5.7,"
"##MN-00 00 71 0000 01541 4868 419907 827860 197"
"172.625799"
"$GPRMC,150105,A,2424.0219,N,08135.3840,W,3.8,127.8,210615,5.7,"
"##MN-00 00 71 0000 01543 4869 419646 827860 197"
"172.625845"
"$GPRMC,150109,A,2424.0194,N,08135.3801,W,3.8,126.6,210615,5.7,"
"##MN-00 00 71 0000 01540 4870 419893 827859 197"
"172.625891"
"$GPRMC,150113,A,2424.0170,N,08135.3761,W,3.8,125.3,210615,5.7,"
"##MN-00 00 71 0000 01543 4871 421441 827726 197"
"172.625938"
"$GPRMC,150118,A,2424.0143,N,08135.3711,W,3.8,124.3,210615,5.7,"
"##MN-00 00 71 0000 01542 4872 423964 827792 197"
"172.625984"
"$GPRMC,150122,A,2424.0121,N,08135.3671,W,3.8,123.2,210615,5.7,"
"##MN-00 00 71 0000 01540 4873 425521 827859 197"
"172.62603"
"$GPRMC,150126,A,2424.0098,N,08135.3630,W,3.8,121.4,210615,5.7,"
"##MN-00 00 71 0000 01540 4874 426516 827860 197"
"172.626076"
"$GPRMC,150129,A,2424.0081,N,08135.3601,W,3.8,121.7,210615,5.7,"
"##MN-00 00 70 0000 01542 4875 434400 282501 197"
"172.626123"
"$GPRMC,150134,A,2424.0056,N,08135.3550,W,3.8,120.2,210615,5.7,"
"##MN-00 00 06 0001 01541 4876 440647 226567 197"
"172.626169"
"$GPRMC,150138,A,2424.0035,N,08135.3512,W,3.7,120.3,210615,5.7,"
"##MN-00 00 07 0002 01543 4877 441316 204609 197"
"172.626215"
"$GPRMC,150142,A,2424.0015,N,08135.3475,W,3.6,120.4,210615,5.7,"
"##MN-00 00 08 0003 01543 4878 441831 204615 197"
"172.626262"
"$GPRMC,150146,A,2423.9995,N,08135.3438,W,3.5,120.5,210615,5.7,"
"##MN-00 00 08 0004 01543 4880 441722 204604 197"
"172.626308"
"$GPRMC,150150,A,2423.9977,N,08135.3403,W,3.5,121.0,210615,5.7,"
"##MN-00 00 08 0005 01543 4881 441573 204623 197"
"172.626354"
"$GPRMC,150154,A,2423.9956,N,08135.3367,W,3.4,121.2,210615,5.7,"
"##MN-00 00 08 0006 01544 4882 441531 204584 197"
"172.6264"
"$GPRMC,150158,A,2423.9937,N,08135.3333,W,3.3,121.8,210615,5.7,"
"##MN-00 00 08 0007 01544 4883 441461 204577 197"
"172.626447"
"$GPRMC,150202,A,2423.9915,N,08135.3300,W,3.3,123.0,210615,5.7,"
"##MN-00 00 06 0008 01545 4885 441544 204605 197"
"172.626493"
"$GPRMC,150206,A,2423.9895,N,08135.3267,W,3.2,123.6,210615,5.7,"
"##MN-00 00 06 0009 01549 4886 441945 204677 197"
"172.626539"
"$GPRMC,150210,A,2423.9873,N,08135.3234,W,3.3,124.5,210615,5.7,"
"##MN-00 00 06 0010 01553 4888 442433 204768 197"
"172.626586"
"$GPRMC,150214,A,2423.9852,N,08135.3202,W,3.2,125.3,210615,5.7,"
"##MN-00 00 06 0011 01555 4889 442685 204841 197"
"172.626632"
"$GPRMC,150218,A,2423.9836,N,08135.3178,W,3.3,126.0,210615,5.7,"
"##MN-00 00 06 0012 01559 4891 443182 204950 197"
"172.626678"
"$GPRMC,150222,A,2423.9807,N,08135.3138,W,3.3,126.4,210615,5.7,"
"##MN-00 00 06 0013 01561 4893 443298 204981 197"
"172.626725"
"$GPRMC,150226,A,2423.9786,N,08135.3107,W,3.3,126.7,210615,5.7,"
"##MN-00 00 06 0013 01564 4895 443420 205014 197"
"172.626771"
"$GPRMC,150230,A,2423.9764,N,08135.3075,W,3.2,126.7,210615,5.7,"
"##MN-00 00 06 0014 01566 4898 443517 205017 197"
"172.626817"
"$GPRMC,150234,A,2423.9743,N,08135.3043,W,3.2,126.4,210615,5.7,"
"##MN-00 00 06 0015 01572 4900 443603 205053 197"
"172.626863"
"$GPRMC,150238,A,2423.9722,N,08135.3011,W,3.2,125.9,210615,5.7,"
"##MN-00 00 06 0016 01573 4903 443724 205079 197"
"172.62691"
"$GPRMC,150242,A,2423.9703,N,08135.2979,W,3.2,125.2,210615,5.7,"
"##MN-00 00 06 0017 01578 4905 443779 205067 197"
"172.626956"
"$GPRMC,150246,A,2423.9684,N,08135.2947,W,3.2,124.8,210615,5.7,"
"##MN-00 00 06 0018 01580 4907 443805 205094 197"
"172.627002"
"$GPRMC,150250,A,2423.9663,N,08135.2914,W,3.1,124.2,210615,5.7,"
"##MN-00 00 06 0019 01586 4910 443847 205107 197"
"172.627049"
"$GPRMC,150254,A,2423.9643,N,08135.2882,W,3.2,123.5,210615,5.7,"
"##MN-00 00 06 0020 01590 4912 443902 205129 197"
"172.627095"
"$GPRMC,150258,A,2423.9624,N,08135.2851,W,3.1,123.1,210615,5.7,"
"##MN-00 00 06 0021 01595 4915 443930 205129 197"
"172.627141"
"$GPRMC,150302,A,2423.9605,N,08135.2818,W,3.1,122.8,210615,5.7,"
"##MN-00 00 06 0021 01597 4918 443952 205138 197"
"172.627187"
"$GPRMC,150306,A,2423.9584,N,08135.2789,W,3.1,122.0,210615,5.7,"
"##MN-00 00 06 0022 01603 4920 443985 205145 197"
"172.627234"
"$GPRMC,150310,A,2423.9565,N,08135.2757,W,3.1,121.9,210615,5.7,"
"##MN-00 00 06 0023 01603 4923 444007 205148 197"
"172.62728"
"$GPRMC,150314,A,2423.9547,N,08135.2721,W,3.1,121.4,210615,5.7,"
"##MN-00 00 06 0024 01607 4926 444021 205152 197"
"172.627326"
"$GPRMC,150318,A,2423.9529,N,08135.2686,W,3.1,120.9,210615,5.7,"
"##MN-00 00 06 0025 01610 4928 444038 205151 197"
"172.627373"
"$GPRMC,150322,A,2423.9510,N,08135.2651,W,3.1,120.9,210615,5.7,"
"##MN-00 00 06 0026 01613 4931 444050 205151 197"
"172.627419"
"$GPRMC,150326,A,2423.9492,N,08135.2618,W,3.1,120.7,210615,5.7,"
"##MN-00 00 06 0026 01619 4934 444068 205159 197"
"172.627465"
"$GPRMC,150330,A,2423.9475,N,08135.2583,W,3.2,120.9,210615,5.7,"
"##MN-00 00 06 0027 01620 4937 444090 205163 197"
"172.627512"
"$GPRMC,150334,A,2423.9455,N,08135.2548,W,3.2,120.7,210615,5.7,"
"##MN-00 00 06 0028 01623 4940 444114 205167 197"
"172.627558"
"$GPRMC,150338,A,2423.9437,N,08135.2515,W,3.2,121.4,210615,5.7,"
"##MN-00 00 06 0029 01624 4943 444126 205167 197"
"172.627604"
"$GPRMC,150342,A,2423.9417,N,08135.2481,W,3.2,121.5,210615,5.7,"
"##MN-00 00 06 0030 01627 4946 444141 205173 197"
"172.62765"
"$GPRMC,150346,A,2423.9399,N,08135.2448,W,3.2,121.4,210615,5.7,"
"##MN-00 00 06 0031 01630 4949 444159 205174 197"
"172.627697"
"$GPRMC,150350,A,2423.9379,N,08135.2415,W,3.2,121.8,210615,5.7,"
"##MN-00 00 06 0032 01634 4952 444182 205183 197"
"172.627743"
"$GPRMC,150354,A,2423.9360,N,08135.2383,W,3.2,122.6,210615,5.7,"
"##MN-00 00 06 0033 01635 4955 444205 205186 197"
"172.627789"
"$GPRMC,150358,A,2423.9339,N,08135.2351,W,3.1,123.1,210615,5.7,"
"##MN-00 00 06 0033 01640 4958 444232 205192 197"
"172.627836"
"$GPRMC,150402,A,2423.9319,N,08135.2318,W,3.2,123.6,210615,5.7,"
"##MN-00 00 06 0034 01642 4961 444257 205195 197"
"172.627882"
"$GPRMC,150406,A,2423.9299,N,08135.2286,W,3.2,123.9,210615,5.7,"
"##MN-00 00 06 0035 01645 4965 444271 205199 197"
"172.627928"
"$GPRMC,150410,A,2423.9280,N,08135.2255,W,3.2,124.0,210615,5.7,"
"##MN-00 00 06 0036 01651 4967 444284 205198 197"
"172.627975"
"$GPRMC,150414,A,2423.9260,N,08135.2222,W,3.1,125.2,210615,5.7,"
"##MN-00 00 06 0037 01654 4970 444297 205201 197"
"172.628021"
"$GPRMC,150418,A,2423.9240,N,08135.2191,W,3.1,125.9,210615,5.7,"
"##MN-00 00 06 0038 01655 4973 444318 205208 197"
"172.628067"
"$GPRMC,150422,A,2423.9220,N,08135.2160,W,3.2,125.5,210615,5.7,"
"##MN-00 00 06 0039 01658 4976 444339 205213 197"
"172.628113"
"$GPRMC,150426,A,2423.9200,N,08135.2127,W,3.1,125.3,210615,5.7,"
"##MN-00 00 06 0040 01661 4980 444361 205219 197"
"172.62816"
"$GPRMC,150430,A,2423.9179,N,08135.2097,W,3.1,124.9,210615,5.7,"
"##MN-00 00 06 0041 01666 4983 444369 205219 197"
"172.628206"
"$GPRMC,150434,A,2423.9160,N,08135.2065,W,3.1,124.9,210615,5.7,"
"##MN-00 00 06 0042 01672 4986 444379 205220 197"
"172.628252"
"$GPRMC,150438,A,2423.9139,N,08135.2034,W,3.1,124.8,210615,5.7,"
"##MN-00 00 06 0043 01673 4989 444384 205222 197"
"172.628299"
"$GPRMC,150442,A,2423.9121,N,08135.2002,W,3.1,124.8,210615,5.7,"
"##MN-00 00 05 0044 01677 4992 444393 205221 197"
"172.628345"
"$GPRMC,150446,A,2423.9101,N,08135.1970,W,3.1,124.5,210615,5.7,"
"##MN-00 00 06 0045 01681 4995 444395 205219 197"
"172.628391"
"$GPRMC,150450,A,2423.9081,N,08135.1937,W,3.1,124.2,210615,5.7,"
"##MN-00 00 06 0045 01683 4998 444396 205217 197"
"172.628438"
"$GPRMC,150454,A,2423.9063,N,08135.1904,W,3.1,123.9,210615,5.7,"
"##MN-00 00 06 0046 01687 5001 444396 205213 197"
"172.628484"
"$GPRMC,150458,A,2423.9042,N,08135.1873,W,3.1,123.6,210615,5.7,"
"##MN-00 00 05 0047 01689 5005 444401 205211 197"
"172.62853"
"$GPRMC,150502,A,2423.9024,N,08135.1844,W,3.2,123.1,210615,5.7,"
"##MN-00 00 06 0048 01694 5008 444406 205210 197"
"172.628588"
"$GPRMC,150506,A,2423.9006,N,08135.1814,W,3.1,122.7,210615,5.7,"
"##MN-00 00 05 0049 01696 5011 444420 205207 197"
"172.628634"
"$GPRMC,150510,A,2423.8987,N,08135.1779,W,3.1,122.0,210615,5.7,"
"##MN-00 00 05 0050 01700 5014 444424 205204 197"
"172.628681"
"$GPRMC,150514,A,2423.8969,N,08135.1746,W,3.1,121.4,210615,5.7,"
"##MN-00 00 05 0051 01706 5017 444460 205202 197"
"172.628727"
"$GPRMC,150518,A,2423.8951,N,08135.1714,W,3.1,121.1,210615,5.7,"
"##MN-00 00 06 0052 01704 5020 444528 205203 197"
"172.628773"
"$GPRMC,150522,A,2423.8933,N,08135.1681,W,3.1,121.2,210615,5.7,"
"##MN-00 00 06 0052 01709 5023 444589 205206 197"
"172.628819"
"$GPRMC,150526,A,2423.8916,N,08135.1649,W,3.1,121.0,210615,5.7,"
"##MN-00 00 06 0053 01712 5026 444632 205206 197"
"172.628866"
"$GPRMC,150530,A,2423.8900,N,08135.1619,W,3.0,120.8,210615,5.7,"
"##MN-00 00 06 0054 01716 5030 444685 205203 197"
"172.628912"
"$GPRMC,150534,A,2423.8882,N,08135.1587,W,3.1,120.8,210615,5.7,"
"##MN-00 00 06 0055 01718 5032 444735 205202 197"
"172.628958"
"$GPRMC,150538,A,2423.8864,N,08135.1555,W,3.1,120.6,210615,5.7,"
"##MN-00 00 05 0056 01723 5035 444876 205204 197"
"172.629005"
"$GPRMC,150542,A,2423.8848,N,08135.1523,W,3.1,119.8,210615,5.7,"
"##MN-00 00 05 0057 01724 5039 445112 205209 197"
"172.629051"
"$GPRMC,150546,A,2423.8831,N,08135.1491,W,3.1,119.8,210615,5.7,"
"##MN-00 00 05 0058 01729 5042 445377 205226 197"
"172.629097"
"$GPRMC,150551,A,2423.8808,N,08135.1449,W,3.1,119.9,210615,5.7,"
"##MN-00 00 05 0059 01730 5045 445656 205247 197"
"172.629144"
"$GPRMC,150555,A,2423.8792,N,08135.1416,W,3.1,119.9,210615,5.7,"
"##MN-00 00 05 0060 01734 5048 445873 205255 197"
"172.62919"
"$GPRMC,150559,A,2423.8774,N,08135.1383,W,3.1,120.0,210615,5.7,"
"##MN-00 00 06 0060 01737 5051 446049 205265 197"
"172.629236"
"$GPRMC,150602,A,2423.8760,N,08135.1358,W,3.1,120.0,210615,5.7,"
"##MN-00 00 05 0061 01738 5054 446153 205283 197"
"172.629282"
"$GPRMC,150606,A,2423.8743,N,08135.1324,W,3.1,119.8,210615,5.7,"
"##MN-00 00 05 0062 01743 5058 446244 205304 197"
"172.629329"
"$GPRMC,150610,A,2423.8724,N,08135.1296,W,3.1,120.2,210615,5.7,"
"##MN-00 00 06 0063 01745 5061 446336 205306 197"
"172.629375"
"$GPRMC,150614,A,2423.8705,N,08135.1265,W,3.1,120.9,210615,5.7,"
"##MN-00 00 06 0064 01749 5064 446401 205307 197"
"172.629421"
"$GPRMC,150618,A,2423.8687,N,08135.1233,W,3.1,120.9,210615,5.7,"
"##MN-00 00 06 0065 01750 5067 446482 205328 197"
"172.629468"
"$GPRMC,150623,A,2423.8665,N,08135.1190,W,3.1,120.5,210615,5.7,"
"##MN-00 00 06 0066 01755 5070 446595 205362 197"
"172.629514"
"$GPRMC,150627,A,2423.8648,N,08135.1157,W,3.1,120.5,210615,5.7,"
"##MN-00 00 05 0067 01756 5073 446661 205373 197"
"172.62956"
"$GPRMC,150631,A,2423.8631,N,08135.1124,W,3.1,120.1,210615,5.7,"
"##MN-00 00 06 0068 01759 5076 446689 205372 197"
"172.629606"
"$GPRMC,150635,A,2423.8615,N,08135.1091,W,3.1,120.3,210615,5.7,"
"##MN-00 00 05 0069 01762 5079 446726 205380 197"
"172.629653"
"$GPRMC,150639,A,2423.8597,N,08135.1058,W,3.1,120.1,210615,5.7,"
"##MN-00 00 05 0070 01767 5082 446781 205392 197"
"172.629699"
"$GPRMC,150643,A,2423.8579,N,08135.1026,W,3.1,120.7,210615,5.7,"
"##MN-00 00 05 0071 01769 5085 447014 205432 197"
"172.629745"
"$GPRMC,150647,A,2423.8561,N,08135.0993,W,3.1,121.4,210615,5.7,"
"##MN-00 00 05 0072 01771 5088 447524 205522 197"
"172.629792"
"$GPRMC,150651,A,2423.8543,N,08135.0960,W,3.1,121.4,210615,5.7,"
"##MN-00 00 05 0073 01777 5091 447981 205563 197"
"172.629838"
"$GPRMC,150655,A,2423.8525,N,08135.0927,W,3.1,121.7,210615,5.7,"
"##MN-00 00 05 0073 01781 5094 448397 205617 197"
"172.629884"
"$GPRMC,150659,A,2423.8506,N,08135.0894,W,3.1,121.6,210615,5.7,"
"##MN-00 00 05 0074 01783 5097 448822 205734 197"
"172.629931"
"$GPRMC,150703,A,2423.8488,N,08135.0861,W,3.1,121.1,210615,5.7,"
"##MN-00 00 05 0075 01787 5100 449233 205808 197"
"172.629977"
"$GPRMC,150707,A,2423.8470,N,08135.0828,W,3.1,120.7,210615,5.7,"
"##MN-00 00 05 0076 01790 5103 449437 205832 197"
"172.630023"
"$GPRMC,150711,A,2423.8452,N,08135.0796,W,3.1,120.3,210615,5.7,"
"##MN-00 00 05 0077 01791 5106 449678 205873 197"
"172.630069"
"$GPRMC,150715,A,2423.8435,N,08135.0763,W,3.1,119.9,210615,5.7,"
"##MN-00 00 05 0078 01797 5109 449922 205914 197"
"172.630116"
"$GPRMC,150719,A,2423.8416,N,08135.0733,W,3.1,119.9,210615,5.7,"
"##MN-00 00 05 0079 01799 5111 450211 205971 197"
"172.630162"
"$GPRMC,150723,A,2423.8398,N,08135.0700,W,3.1,119.8,210615,5.7,"
"##MN-00 00 05 0080 01801 5114 450380 205975 197"
"172.630208"
"$GPRMC,150727,A,2423.8380,N,08135.0668,W,3.1,119.6,210615,5.7,"
"##MN-00 00 05 0081 01806 5117 450512 206001 197"
"172.630255"
"$GPRMC,150731,A,2423.8363,N,08135.0634,W,3.1,119.3,210615,5.7,"
"##MN-00 00 06 0081 01808 5120 450802 206028 197"
"172.630301"
"$GPRMC,150735,A,2423.8346,N,08135.0599,W,3.1,119.2,210615,5.7,"
"##MN-00 00 06 0083 01807 5123 450963 206050 197"
"172.630347"
"$GPRMC,150739,A,2423.8329,N,08135.0564,W,3.1,119.0,210615,5.7,"
"##MN-00 00 06 0084 01806 5126 450952 206040 197"
"172.630394"
"$GPRMC,150743,A,2423.8311,N,08135.0529,W,3.1,118.8,210615,5.7,"
"##MN-00 00 06 0085 01806 5128 450885 206046 197"
"172.63044"
"$GPRMC,150747,A,2423.8294,N,08135.0494,W,3.1,119.0,210615,5.7,"
"##MN-00 00 06 0086 01803 5131 450858 206048 197"
"172.630486"
"$GPRMC,150751,A,2423.8279,N,08135.0461,W,3.1,119.0,210615,5.7,"
"##MN-00 00 06 0087 01804 5134 450723 206040 197"
"172.630532"
"$GPRMC,150755,A,2423.8262,N,08135.0428,W,3.1,119.2,210615,5.7,"
"##MN-00 00 06 0088 01803 5136 450629 206039 197"
"172.630579"
"$GPRMC,150759,A,2423.8246,N,08135.0397,W,3.1,119.3,210615,5.7,"
"##MN-00 00 06 0089 01803 5139 450688 206050 197"
"172.630625"
"$GPRMC,150803,A,2423.8228,N,08135.0363,W,3.1,120.2,210615,5.7,"
"##MN-00 00 06 0090 01803 5142 450752 206055 197"
"172.630671"
"$GPRMC,150807,A,2423.8210,N,08135.0329,W,3.1,120.3,210615,5.7,"
"##MN-00 00 06 0091 01802 5144 450685 206053 197"
"172.630718"
"$GPRMC,150811,A,2423.8192,N,08135.0295,W,3.1,120.6,210615,5.7,"
"##MN-00 00 06 0092 01802 5147 450630 206047 197"
"172.630764"
"$GPRMC,150815,A,2423.8174,N,08135.0261,W,3.1,120.7,210615,5.7,"
"##MN-00 00 06 0093 01803 5150 450599 206039 197"
"172.63081"
"$GPRMC,150819,A,2423.8156,N,08135.0228,W,3.1,120.8,210615,5.7,"
"##MN-00 00 06 0094 01800 5152 450560 206035 197"
"172.630856"
"$GPRMC,150823,A,2423.8138,N,08135.0194,W,3.1,120.9,210615,5.7,"
"##MN-00 00 06 0095 01799 5155 450544 206033 197"
"172.630903"
"$GPRMC,150827,A,2423.8121,N,08135.0162,W,3.1,121.0,210615,5.7,"
"##MN-00 00 06 0096 01801 5157 450537 206033 197"
"172.630949"
"$GPRMC,150831,A,2423.8103,N,08135.0129,W,3.1,121.0,210615,5.7,"
"##MN-00 00 06 0097 01801 5160 450553 206034 197"
"172.630995"
"$GPRMC,150835,A,2423.8087,N,08135.0096,W,3.1,121.1,210615,5.7,"
"##MN-00 00 06 0098 01804 5162 450583 206036 197"
"172.631042"
"$GPRMC,150839,A,2423.8069,N,08135.0065,W,3.0,120.7,210615,5.7,"
"##MN-00 00 06 0099 01807 5165 450605 206037 197"
"172.631088"
"$GPRMC,150843,A,2423.8052,N,08135.0033,W,3.0,120.5,210615,5.7,"
"##MN-00 00 06 0100 01808 5167 450660 206041 197"
"172.631134"
"$GPRMC,150847,A,2423.8035,N,08135.0001,W,3.0,120.4,210615,5.7,"
"##MN-00 00 06 0101 01812 5170 450775 206050 197"
"172.631181"
"$GPRMC,150851,A,2423.8019,N,08134.9968,W,3.0,119.8,210615,5.7,"
"##MN-00 00 06 0102 01810 5173 450966 206071 197"
"172.631227"
"$GPRMC,150855,A,2423.8002,N,08134.9935,W,3.0,119.4,210615,5.7,"
"##MN-00 00 06 0103 01814 5175 451164 206092 197"
"172.631273"
"$GPRMC,150859,A,2423.7986,N,08134.9902,W,3.0,119.3,210615,5.7,"
"##MN-00 00 06 0105 01812 5178 451225 206111 197"
"172.631319"
"$GPRMC,150903,A,2423.7969,N,08134.9869,W,3.0,118.8,210615,5.7,"
"##MN-00 00 06 0106 01814 5180 451304 206128 197"
"172.631366"
"$GPRMC,150907,A,2423.7953,N,08134.9837,W,3.0,118.5,210615,5.7,"
"##MN-00 00 06 0107 01815 5182 451361 206140 197"
"172.631412"
"$GPRMC,150911,A,2423.7937,N,08134.9805,W,3.0,118.1,210615,5.7,"
"##MN-00 00 06 0108 01815 5185 451419 206149 197"
"172.631458"
"$GPRMC,150915,A,2423.7921,N,08134.9772,W,3.0,118.6,210615,5.7,"
"##MN-00 00 06 0109 01815 5188 451460 206162 197"
"172.631505"
"$GPRMC,150919,A,2423.7904,N,08134.9739,W,3.0,118.8,210615,5.7,"
"##MN-00 00 06 0110 01814 5190 451496 206169 197"
"172.631551"
"$GPRMC,150923,A,2423.7888,N,08134.9707,W,3.0,119.1,210615,5.7,"
"##MN-00 00 06 0111 01816 5192 451520 206183 197"
"172.631597"
"$GPRMC,150927,A,2423.7870,N,08134.9678,W,3.0,119.0,210615,5.7,"
"##MN-00 00 06 0112 01816 5195 451530 206179 197"
"172.631644"
"$GPRMC,150931,A,2423.7854,N,08134.9648,W,3.0,119.2,210615,5.7,"
"##MN-00 00 06 0113 01818 5197 451490 206174 197"
"172.63169"
"$GPRMC,150935,A,2423.7842,N,08134.9624,W,3.0,119.5,210615,5.7,"
"##MN-00 00 06 0114 01816 5199 451425 206167 197"
"172.631736"
"$GPRMC,150939,A,2423.7825,N,08134.9592,W,3.0,120.1,210615,5.7,"
"##MN+00 00 06 0115 01818 5202 451385 206162 197"
"172.631782"
"$GPRMC,150943,A,2423.7804,N,08134.9552,W,3.1,120.3,210615,5.7,"
"##MN+00 00 06 0116 01819 5204 451319 206146 197"
"172.63184"
"$GPRMC,150947,A,2423.7787,N,08134.9519,W,3.0,120.3,210615,5.7,"
"##MN+00 00 06 0117 01816 5207 451233 206137 197"
"172.631887"
"$GPRMC,150951,A,2423.7769,N,08134.9487,W,3.0,120.3,210615,5.7,"
"##MN-00 00 06 0118 01817 5208 451115 206122 197"
"172.631933"
"$GPRMC,150955,A,2423.7752,N,08134.9456,W,3.0,120.7,210615,5.7,"
"##MN-00 00 06 0119 01816 5211 451004 206099 197"
"172.631979"
"$GPRMC,150959,A,2423.7735,N,08134.9424,W,3.0,121.0,210615,5.7,"
"##MN+00 00 06 0120 01815 5213 450938 206088 197"
"172.632025"
"$GPRMC,151003,A,2423.7716,N,08134.9390,W,3.0,121.0,210615,5.7,"
"##MN+00 00 06 0121 01815 5216 450898 206086 197"
"172.632072"
"$GPRMC,151007,A,2423.7698,N,08134.9355,W,3.0,121.2,210615,5.7,"
"##MN+00 00 06 0122 01819 5218 450831 206072 197"
"172.632118"
"#increment_net"
"$GPRMC,151011,A,2423.7680,N,08134.9323,W,3.0,121.1,210615,5.7,"
"##MN-00 00 06 0123 01816 5220 450806 206066 197"
"172.632164"
"$GPRMC,151015,A,2423.7664,N,08134.9291,W,3.0,121.1,210615,5.7,"
"##MN-00 00 06 0124 01817 5223 450814 206065 197"
"172.632211"
"$GPRMC,151019,A,2423.7646,N,08134.9257,W,3.1,120.7,210615,5.7,"
"##MN-00 00 06 0125 01816 5224 450778 206063 197"
"172.632257"
"$GPRMC,151024,A,2423.7623,N,08134.9214,W,3.0,120.1,210615,5.7,"
"##MN-00 00 06 0126 01818 5227 450756 206063 197"
"172.632303"
"$GPRMC,151028,A,2423.7607,N,08134.9181,W,3.1,120.3,210615,5.7,"
"##MN-00 00 06 0128 01819 5229 450746 206069 197"
"172.63235"
"$GPRMC,151031,A,2423.7594,N,08134.9158,W,3.1,119.4,210615,5.7,"
"##MN-00 00 06 0128 01819 5231 450698 206063 197"
"172.632396"
"$GPRMC,151035,A,2423.7579,N,08134.9127,W,3.0,119.2,210615,5.7,"
"##MN-00 00 06 0130 01817 5234 450605 206052 197"
"172.632442"
"$GPRMC,151039,A,2423.7563,N,08134.9095,W,3.0,119.0,210615,5.7,"
"##MN-00 00 06 0131 01817 5236 450363 206020 197"
"172.632488"
"$GPRMC,151044,A,2423.7543,N,08134.9056,W,3.0,119.7,210615,5.7,"
"##MN-00 00 06 0132 01818 5238 449838 205907 197"
"172.632535"
"$GPRMC,151048,A,2423.7525,N,08134.9025,W,3.0,119.9,210615,5.7,"
"##MN-00 00 06 0133 01815 5240 448969 205803 197"
"172.632581"
"$GPRMC,151052,A,2423.7509,N,08134.8993,W,3.0,120.1,210615,5.7,"
"##MN+00 00 06 0134 01814 5242 448766 205753 197"
"172.632627"
"$GPRMC,151056,A,2423.7492,N,08134.8962,W,3.0,120.4,210615,5.7,"
"##MN+00 00 06 0135 01813 5244 448520 205721 197"
"172.632674"
"$GPRMC,151100,A,2423.7475,N,08134.8929,W,3.0,120.4,210615,5.7,"
"##MN+00 00 06 0136 01812 5247 448315 205701 197"
"172.63272"
"$GPRMC,151104,A,2423.7459,N,08134.8898,W,3.0,120.3,210615,5.7,"
"##MN+00 00 06 0137 01810 5249 448346 205693 197"
"172.632766"
"$GPRMC,151108,A,2423.7441,N,08134.8866,W,3.0,119.9,210615,5.7,"
"##MN+00 00 06 0138 01810 5251 448614 205755 197"
"172.632813"
"$GPRMC,151112,A,2423.7423,N,08134.8834,W,3.1,120.4,210615,5.7,"
"##MN+00 00 06 0139 01814 5253 449567 205859 197"
"172.632859"
"$GPRMC,151116,A,2423.7405,N,08134.8802,W,3.1,120.8,210615,5.7,"
"##MN-00 00 06 0140 01812 5256 450169 205947 197"
"172.632905"
"#increment_net"
"$GPRMC,151120,A,2423.7387,N,08134.8769,W,3.1,121.3,210615,5.7,"
"##MN-00 00 06 0142 01811 5257 450567 206020 197"
"172.632951"
"$GPRMC,151124,A,2423.7369,N,08134.8736,W,3.1,121.4,210615,5.7,"
"##MN-00 00 06 0143 01812 5260 450728 206025 197"
"172.632998"
"$GPRMC,151128,A,2423.7352,N,08134.8703,W,3.1,121.5,210615,5.7,"
"##MN-00 00 06 0144 01807 5262 450745 206045 197"
"172.633044"
"$GPRMC,151132,A,2423.7334,N,08134.8671,W,3.1,121.4,210615,5.7,"
"##MN-00 00 06 0145 01805 5264 450600 206033 197"
"172.63309"
"$GPRMC,151136,A,2423.7316,N,08134.8639,W,3.0,121.5,210615,5.7,"
"##MN-00 00 06 0146 01806 5266 450222 205976 197"
"172.633137"
"$GPRMC,151140,A,2423.7298,N,08134.8608,W,3.0,121.2,210615,5.7,"
"##MN-00 00 06 0147 01807 5268 449608 205883 197"
"172.633183"
"$GPRMC,151144,A,2423.7281,N,08134.8577,W,3.0,121.1,210615,5.7,"
"##MN-00 00 06 0148 01808 5271 449037 205802 197"
"172.633229"
"$GPRMC,151148,A,2423.7264,N,08134.8545,W,3.0,120.9,210615,5.7,"
"##MN-00 00 06 0149 01806 5272 448583 205730 197"
"172.633275"
"$GPRMC,151152,A,2423.7247,N,08134.8514,W,3.0,120.6,210615,5.7,"
"##MN-00 00 06 0150 01804 5275 448291 205672 197"
"172.633322"
"$GPRMC,151156,A,2423.7231,N,08134.8482,W,3.0,120.4,210615,5.7,"
"##MN-00 00 06 0152 01803 5277 448071 205623 197"
"172.633368"
"$GPRMC,151200,A,2423.7213,N,08134.8450,W,3.0,120.2,210615,5.7,"
"##MN-00 00 06 0153 01804 5279 447817 205602 197"
"172.633414"
"$GPRMC,151204,A,2423.7197,N,08134.8417,W,3.0,120.1,210615,5.7,"
"##MN+00 00 06 0154 01803 5281 447693 205568 197"
"172.633461"
"$GPRMC,151208,A,2423.7180,N,08134.8385,W,3.0,120.0,210615,5.7,"
"##MN+00 00 06 0155 01802 5283 447581 205543 197"
"172.633507"
"$GPRMC,151212,A,2423.7163,N,08134.8353,W,3.0,120.0,210615,5.7,"
"##MN+00 00 06 0156 01802 5286 447498 205524 197"
"172.633553"
"$GPRMC,151216,A,2423.7148,N,08134.8321,W,3.0,120.1,210615,5.7,"
"##MN+00 00 06 0157 01803 5288 447453 205512 197"
"172.6336"
"$GPRMC,151220,A,2423.7131,N,08134.8290,W,2.9,119.9,210615,5.7,"
"##MN+00 00 06 0158 01798 5290 447415 205506 197"
"172.633646"
"$GPRMC,151224,A,2423.7114,N,08134.8259,W,2.9,119.8,210615,5.7,"
"##MN+00 00 06 0159 01802 5292 447410 205502 197"
"172.633692"
"#increment_net"
"$GPRMC,151228,A,2423.7098,N,08134.8227,W,3.0,119.8,210615,5.7,"
"##MN-00 00 06 0160 01800 5294 447459 205510 197"
"172.633738"
"$GPRMC,151232,A,2423.7083,N,08134.8195,W,3.0,119.5,210615,5.7,"
"##MN-00 00 06 0161 01800 5296 447482 205515 197"
"172.633785"
"$GPRMC,151236,A,2423.7066,N,08134.8163,W,3.0,119.6,210615,5.7,"
"##MN-00 00 06 0162 01799 5298 447526 205519 197"
"172.633831"
"$GPRMC,151240,A,2423.7050,N,08134.8131,W,3.0,119.3,210615,5.7,"
"##MN-00 00 06 0164 01797 5300 447610 205532 197"
"172.633877"
"$GPRMC,151244,A,2423.7034,N,08134.8097,W,3.0,119.1,210615,5.7,"
"##MN-00 00 06 0165 01798 5302 447695 205543 197"
"172.633924"
"$GPRMC,151248,A,2423.7018,N,08134.8065,W,3.0,119.1,210615,5.7,"
"##MN-00 00 06 0166 01797 5304 447775 205560 197"
"172.63397"
"$GPRMC,151252,A,2423.7001,N,08134.8034,W,3.0,118.8,210615,5.7,"
"##MN-00 00 06 0167 01796 5306 447914 205573 197"
"172.634016"
"$GPRMC,151256,A,2423.6985,N,08134.8003,W,3.0,118.9,210615,5.7,"
"##MN-00 00 06 0168 01798 5308 447977 205585 197"
"172.634062"
"$GPRMC,151300,A,2423.6971,N,08134.7972,W,2.9,119.0,210615,5.7,"
"##MN-00 00 06 0169 01798 5310 447978 205588 197"
"172.634109"
"$GPRMC,151304,A,2423.6954,N,08134.7941,W,3.0,118.8,210615,5.7,"
"##MN+00 00 06 0170 01798 5313 447961 205587 197"
"172.634155"
"$GPRMC,151308,A,2423.6936,N,08134.7905,W,3.0,119.2,210615,5.7,"
"##MN+00 00 06 0171 01798 5315 447976 205590 197"
"172.634201"
"$GPRMC,151312,A,2423.6919,N,08134.7873,W,3.0,119.2,210615,5.7,"
"##MN+00 00 06 0172 01799 5317 447973 205593 197"
"172.634248"
"$GPRMC,151316,A,2423.6902,N,08134.7841,W,3.0,119.7,210615,5.7,"
"##MN-00 00 06 0173 01799 5319 447992 205593 197"
"172.634294"
"$GPRMC,151320,A,2423.6886,N,08134.7810,W,3.0,119.2,210615,5.7,"
"##MN+00 00 06 0175 01799 5321 448037 205600 197"
"172.63434"
"$GPRMC,151324,A,2423.6870,N,08134.7779,W,3.0,119.0,210615,5.7,"
"##MN+00 00 06 0176 01798 5323 448127 205622 197"
"172.634387"
"$GPRMC,151328,A,2423.6853,N,08134.7746,W,3.0,118.8,210615,5.7,"
"##MN+00 00 06 0177 01804 5325 448310 205653 197"
"172.634433"
"#increment_net"
"$GPRMC,151332,A,2423.6837,N,08134.7711,W,3.0,119.1,210615,5.7,"
"##MN-00 00 06 0178 01800 5327 448713 205732 197"
"172.634479"
"$GPRMC,151336,A,2423.6819,N,08134.7678,W,3.0,119.0,210615,5.7,"
"##MN-00 00 06 0179 01798 5329 449208 205776 197"
"172.634525"
"$GPRMC,151340,A,2423.6802,N,08134.7645,W,3.0,118.9,210615,5.7,"
"##MN-00 00 06 0180 01797 5331 449305 205794 197"
"172.634572"
"$GPRMC,151344,A,2423.6785,N,08134.7612,W,3.1,118.8,210615,5.7,"
"##MN-00 00 06 0181 01798 5333 449446 205793 197"
"172.634618"
"$GPRMC,151348,A,2423.6769,N,08134.7579,W,3.1,118.7,210615,5.7,"
"##MN-00 00 06 0183 01796 5336 449539 205848 197"
"172.634664"
"$GPRMC,151352,A,2423.6752,N,08134.7545,W,3.1,118.4,210615,5.7,"
"##MN-00 00 06 0184 01798 5337 449585 205845 197"
"172.634711"
"$GPRMC,151356,A,2423.6736,N,08134.7513,W,3.1,118.1,210615,5.7,"
"##MN-00 00 06 0185 01793 5340 449519 205843 197"
"172.634757"
"$GPRMC,151400,A,2423.6719,N,08134.7479,W,3.1,118.1,210615,5.7,"
"##MN-00 00 06 0186 01794 5342 449598 205871 197"
"172.634803"
"$GPRMC,151404,A,2423.6702,N,08134.7446,W,3.1,118.2,210615,5.7,"
"##MN+00 00 06 0187 01792 5344 449849 205906 197"
"172.63485"
"$GPRMC,151408,A,2423.6686,N,08134.7412,W,3.1,118.1,210615,5.7,"
"##MN+00 00 06 0188 01793 5346 450009 205925 197"
"172.634896"
"$GPRMC,151412,A,2423.6671,N,08134.7378,W,3.1,118.3,210615,5.7,"
"##MN+00 00 06 0190 01791 5348 450135 205947 197"
"172.634942"
"$GPRMC,151416,A,2423.6655,N,08134.7345,W,3.1,118.4,210615,5.7,"
"##MN+00 00 06 0191 01793 5349 450194 205957 197"
"172.634988"
"$GPRMC,151420,A,2423.6638,N,08134.7311,W,3.1,118.5,210615,5.7,"
"##MN+00 00 06 0192 01791 5351 450252 205964 197"
"172.635035"
"$GPRMC,151424,A,2423.6624,N,08134.7278,W,3.1,118.3,210615,5.7,"
"##MN+00 00 06 0193 01795 5353 450352 205990 197"
"172.635093"
"#increment_net"
"$GPRMC,151428,A,2423.6607,N,08134.7245,W,3.1,118.3,210615,5.7,"
"##MN-00 00 06 0194 01799 5355 450522 206022 197"
"172.635139"
"$GPRMC,151432,A,2423.6590,N,08134.7212,W,3.1,118.2,210615,5.7,"
"##MN-00 00 06 0196 01806 5357 450909 206079 197"
"172.635185"
"$GPRMC,151436,A,2423.6574,N,08134.7178,W,3.1,118.3,210615,5.7,"
"##MN-00 00 06 0197 01812 5359 451590 206191 197"
"172.635231"
"$GPRMC,151440,A,2423.6557,N,08134.7144,W,3.1,118.7,210615,5.7,"
"##MN-00 00 06 0199 01817 5361 451962 206237 197"
"172.635278"
"$GPRMC,151444,A,2423.6541,N,08134.7111,W,3.2,118.9,210615,5.7,"
"##MN-00 00 06 0200 01823 5363 452597 206415 197"
"172.635324"
"$GPRMC,151448,A,2423.6523,N,08134.7076,W,3.2,118.6,210615,5.7,"
"##MN-00 00 06 0202 01826 5365 454519 206786 197"
"172.63537"
"$GPRMC,151452,A,2423.6505,N,08134.7041,W,3.2,118.6,210615,5.7,"
"##MN-00 00 06 0203 01828 5367 455947 207059 197"
"172.635417"
"$GPRMC,151456,A,2423.6487,N,08134.7007,W,3.2,118.5,210615,5.7,"
"##MN-00 00 06 0205 01830 5368 456296 207128 197"
"172.635463"
"$GPRMC,151500,A,2423.6470,N,08134.6971,W,3.2,118.5,210615,5.7,"
"##MN-00 00 06 0206 01830 5370 456374 207158 197"
"172.635509"
"$GPRMC,151504,A,2423.6454,N,08134.6937,W,3.2,118.9,210615,5.7,"
"##MN-00 00 06 0208 01829 5372 456254 207116 197"
"172.635556"
"$GPRMC,151508,A,2423.6436,N,08134.6902,W,3.2,119.1,210615,5.7,"
"##MN-00 00 06 0209 01830 5374 455742 207056 197"
"172.635602"
"$GPRMC,151512,A,2423.6416,N,08134.6866,W,3.2,119.4,210615,5.7,"
"##MN-00 00 06 0211 01828 5376 454506 206790 197"
"172.635648"
"$GPRMC,151516,A,2423.6398,N,08134.6831,W,3.3,119.6,210615,5.7,"
"##MN-00 00 06 0212 01826 5377 453952 206704 197"
"172.635694"
"$GPRMC,151520,A,2423.6380,N,08134.6796,W,3.3,119.6,210615,5.7,"
"##MN-00 00 06 0214 01824 5379 453505 206596 197"
"172.635741"
"$GPRMC,151524,A,2423.6361,N,08134.6761,W,3.3,119.7,210615,5.7,"
"##MN-00 00 06 0215 01822 5381 453080 206541 197"
"172.635787"
"$GPRMC,151528,A,2423.6343,N,08134.6726,W,3.3,119.9,210615,5.7,"
"##MN-00 00 06 0216 01822 5382 452652 206408 197"
"172.635833"
"$GPRMC,151532,A,2423.6325,N,08134.6691,W,3.2,119.9,210615,5.7,"
"##MN-00 00 06 0218 01820 5384 452362 206365 197"
"172.63588"
"$GPRMC,151537,A,2423.6303,N,08134.6648,W,3.2,119.5,210615,5.7,"
"##MN-00 00 06 0219 01815 5385 452165 206338 197"
"172.635926"
"$GPRMC,151541,A,2423.6284,N,08134.6613,W,3.2,119.8,210615,5.7,"
"##MN-00 00 06 0221 01813 5387 452055 206318 197"
"172.635972"
"$GPRMC,151545,A,2423.6266,N,08134.6577,W,3.3,120.0,210615,5.7,"
"##MN-00 00 06 0222 01812 5389 451977 206300 197"
"172.636019"
"$GPRMC,151549,A,2423.6248,N,08134.6543,W,3.3,119.8,210615,5.7,"
"##MN-00 00 06 0224 01808 5391 451922 206279 197"
"172.636065"
"$GPRMC,151552,A,2423.6235,N,08134.6518,W,3.2,120.0,210615,5.7,"
"##MN-00 00 06 0225 01806 5392 451763 206254 197"
"172.636111"
"$GPRMC,151556,A,2423.6217,N,08134.6484,W,3.2,119.9,210615,5.7,"
"##MN-00 00 07 0227 01803 5393 451636 206248 197"
"172.636157"
"$GPRMC,151600,A,2423.6200,N,08134.6449,W,3.2,119.5,210615,5.7,"
"##MN-00 00 08 0228 01800 5395 451488 206220 197"
"172.636204"
"$GPRMC,151604,A,2423.6182,N,08134.6415,W,3.2,119.4,210615,5.7,"
"##MN-00 00 06 0230 01797 5397 451322 206191 197"
"172.63625"
"$GPRMC,151609,A,2423.6160,N,08134.6371,W,3.2,119.1,210615,5.7,"
"##MN-00 00 07 0231 01795 5398 451119 206148 197"
"172.636296"
"$GPRMC,151613,A,2423.6142,N,08134.6336,W,3.2,119.1,210615,5.7,"
"##MN-00 00 07 0233 01792 5400 451032 206131 197"
"172.636343"
"$GPRMC,151617,A,2423.6125,N,08134.6302,W,3.3,119.3,210615,5.7,"
"##MN-00 00 07 0234 01787 5401 450728 206061 197"
"172.636389"
"$GPRMC,151621,A,2423.6107,N,08134.6268,W,3.3,119.4,210615,5.7,"
"##MN-00 00 07 0236 01785 5403 450321 205988 197"
"172.636435"
"$GPRMC,151625,A,2423.6089,N,08134.6234,W,3.2,119.4,210615,5.7,"
"##MN-00 00 07 0237 01783 5404 450001 205953 197"
"172.636481"
"$GPRMC,151629,A,2423.6071,N,08134.6200,W,3.2,119.9,210615,5.7,"
"##MN-00 00 06 0238 01780 5406 449715 205911 197"
"172.636528"
"$GPRMC,151633,A,2423.6053,N,08134.6165,W,3.2,120.0,210615,5.7,"
"##MN-00 00 06 0240 01776 5407 448922 205778 197"
"172.636574"
"$GPRMC,151637,A,2423.6035,N,08134.6131,W,3.2,120.2,210615,5.7,"
"##MN-00 00 06 0241 01771 5409 448436 205678 197"
"172.63662"
"$GPRMC,151641,A,2423.6015,N,08134.6097,W,3.2,120.6,210615,5.7,"
"##MN-00 00 06 0243 01767 5411 448061 205622 197"
"172.636667"
"$GPRMC,151645,A,2423.5996,N,08134.6063,W,3.2,121.2,210615,5.7,"
"##MN-00 00 04 0244 01765 5413 447743 205563 196"
"172.636713"
"$GPRMC,151649,A,2423.5977,N,08134.6030,W,3.2,121.6,210615,5.7,"
"##MN-00 00 06 0246 01761 5414 447435 205518 197"
"172.636759"
"$GPRMC,151653,A,2423.5957,N,08134.5996,W,3.2,121.5,210615,5.7,"
"##MN-00 00 06 0247 01757 5416 447112 205459 197"
"172.636806"
"$GPRMC,151657,A,2423.5938,N,08134.5963,W,3.2,121.8,210615,5.7,"
"##MN-00 00 06 0249 01754 5417 446736 205424 197"
"172.636852"
"$GPRMC,151701,A,2423.5919,N,08134.5929,W,3.2,121.8,210615,5.7,"
"##MN-00 00 06 0250 01752 5419 446491 205395 197"
"172.636898"
"$GPRMC,151705,A,2423.5900,N,08134.5896,W,3.2,121.7,210615,5.7,"
"##MN-00 00 06 0252 01748 5420 446299 205356 197"
"172.636944"
"$GPRMC,151709,A,2423.5881,N,08134.5863,W,3.1,121.5,210615,5.7,"
"##MN-00 00 06 0253 01742 5422 446186 205348 197"
"172.636991"
"$GPRMC,151713,A,2423.5869,N,08134.5837,W,3.2,121.1,210615,5.7,"
"##MN-00 00 06 0255 01739 5423 446071 205324 197"
"172.637037"
"$GPRMC,151717,A,2423.5844,N,08134.5796,W,3.2,121.2,210615,5.7,"
"##MN-00 00 06 0256 01734 5425 445897 205289 197"
"172.637083"
"$GPRMC,151721,A,2423.5824,N,08134.5762,W,3.2,121.0,210615,5.7,"
"##MN-00 00 06 0257 01729 5427 445663 205254 197"
"172.63713"
"$GPRMC,151725,A,2423.5805,N,08134.5728,W,3.2,121.1,210615,5.7,"
"##MN-00 00 06 0259 01727 5428 445459 205230 197"
"172.637176"
"$GPRMC,151729,A,2423.5787,N,08134.5694,W,3.2,121.3,210615,5.7,"
"##MN-00 00 06 0260 01722 5430 445214 205200 197"
"172.637222"
"$GPRMC,151733,A,2423.5768,N,08134.5659,W,3.3,121.1,210615,5.7,"
"##MN-00 00 06 0262 01718 5431 445033 205173 197"
"172.637269"
"$GPRMC,151737,A,2423.5750,N,08134.5625,W,3.3,120.7,210615,5.7,"
"##MN-00 00 06 0263 01715 5433 444921 205154 197"
"172.637315"
"$GPRMC,151741,A,2423.5732,N,08134.5591,W,3.3,120.8,210615,5.7,"
"##MN-00 00 06 0265 01711 5435 444833 205143 197"
"172.637361"
"$GPRMC,151745,A,2423.5714,N,08134.5557,W,3.2,120.9,210615,5.7,"
"##MN-00 00 06 0266 01708 5436 444771 205138 197"
"172.637407"
"$GPRMC,151749,A,2423.5695,N,08134.5522,W,3.2,120.5,210615,5.7,"
"##MN-00 00 06 0268 01708 5438 444750 205133 197"
"172.637454"
"$GPRMC,151753,A,2423.5677,N,08134.5487,W,3.2,120.1,210615,5.7,"
"##MN-00 00 06 0269 01704 5440 444604 205110 197"
"172.6375"
"$GPRMC,151757,A,2423.5659,N,08134.5454,W,3.2,120.1,210615,5.7,"
"##MN-00 00 06 0270 01700 5442 444464 205086 197"
"172.637546"
"$GPRMC,151801,A,2423.5640,N,08134.5419,W,3.2,119.9,210615,5.7,"
"##MN-00 00 06 0272 01698 5443 444321 205072 197"
"172.637593"
"$GPRMC,151805,A,2423.5622,N,08134.5383,W,3.2,119.8,210615,5.7,"
"##MN-00 00 06 0273 01694 5445 444218 205054 197"
"172.637639"
"$GPRMC,151809,A,2423.5605,N,08134.5348,W,3.2,120.1,210615,5.7,"
"##MN-00 00 06 0275 01693 5446 444189 205055 197"
"172.637685"
"$GPRMC,151813,A,2423.5587,N,08134.5312,W,3.3,120.3,210615,5.7,"
"##MN-00 00 06 0276 01690 5448 444179 205047 197"
"172.637731"
"$GPRMC,151817,A,2423.5569,N,08134.5278,W,3.3,120.3,210615,5.7,"
"##MN-00 00 06 0278 01686 5450 444169 205042 197"
"172.637778"
"$GPRMC,151821,A,2423.5549,N,08134.5243,W,3.3,120.4,210615,5.7,"
"##MN-00 00 06 0279 01682 5451 444159 205040 197"
"172.637824"
"$GPRMC,151825,A,2423.5529,N,08134.5207,W,3.3,120.7,210615,5.7,"
"##MN-00 00 06 0281 01680 5453 444153 205041 197"
"172.63787"
"$GPRMC,151829,A,2423.5509,N,08134.5172,W,3.3,120.9,210615,5.7,"
"##MN-00 00 06 0282 01676 5455 444149 205037 197"
"172.637917"
"$GPRMC,151833,A,2423.5490,N,08134.5138,W,3.3,121.2,210615,5.7,"
"##MN-00 00 06 0283 01673 5457 444137 205033 197"
"172.637963"
"$GPRMC,151837,A,2423.5469,N,08134.5104,W,3.3,121.2,210615,5.7,"
"##MN-00 00 06 0285 01670 5458 444124 205031 197"
"172.638009"
"$GPRMC,151841,A,2423.5450,N,08134.5068,W,3.3,121.4,210615,5.7,"
"##MN-00 00 06 0286 01666 5460 444112 205028 197"
"172.638056"
"$GPRMC,151845,A,2423.5429,N,08134.5034,W,3.3,121.6,210615,5.7,"
"##MN-00 00 06 0288 01663 5462 444109 205028 197"
"172.638102"
"$GPRMC,151849,A,2423.5410,N,08134.4999,W,3.3,121.9,210615,5.7,"
"##MN-00 00 06 0289 01659 5464 444104 205025 197"
"172.638148"
"$GPRMC,151853,A,2423.5389,N,08134.4965,W,3.3,121.9,210615,5.7,"
"##MN-00 00 06 0291 01653 5465 444072 205019 197"
"172.638194"
"$GPRMC,151857,A,2423.5369,N,08134.4931,W,3.3,121.7,210615,5.7,"
"##MN-00 00 06 0292 01652 5467 444029 205010 197"
"172.638241"
"$GPRMC,151901,A,2423.5349,N,08134.4896,W,3.3,122.2,210615,5.7,"
"##MN-00 00 06 0294 01648 5469 443990 205001 197"
"172.638287"
"$GPRMC,151905,A,2423.5328,N,08134.4861,W,3.4,122.5,210615,5.7,"
"##MN-00 00 06 0295 01646 5471 443958 204994 197"
"172.638345"
"$GPRMC,151909,A,2423.5309,N,08134.4828,W,3.3,122.3,210615,5.7,"
"##MN-00 00 06 0296 01639 5472 443931 204988 197"
"172.638391"
"$GPRMC,151913,A,2423.5288,N,08134.4794,W,3.3,122.1,210615,5.7,"
"##MN-00 00 06 0298 01634 5474 443899 204981 197"
"172.638438"
"$GPRMC,151917,A,2423.5269,N,08134.4759,W,3.3,122.1,210615,5.7,"
"##MN-00 00 06 0299 01631 5476 443870 204975 197"
"172.638484"
"$GPRMC,151921,A,2423.5249,N,08134.4724,W,3.2,122.2,210615,5.7,"
"##MN-00 00 06 0301 01629 5478 443839 204968 197"
"172.63853"
"$GPRMC,151925,A,2423.5230,N,08134.4689,W,3.2,122.3,210615,5.7,"
"##MN-00 00 06 0302 01628 5480 443807 204960 197"
"172.638576"
"$GPRMC,151929,A,2423.5212,N,08134.4656,W,3.2,122.0,210615,5.7,"
"##MN-00 00 06 0303 01622 5481 443783 204955 197"
"172.638623"
"$GPRMC,151933,A,2423.5193,N,08134.4622,W,3.2,121.4,210615,5.7,"
"##MN-00 00 06 0305 01620 5483 443773 204955 197"
"172.638669"
"$GPRMC,151937,A,2423.5175,N,08134.4588,W,3.2,121.0,210615,5.7,"
"##MN-00 00 06 0306 01620 5485 443766 204952 197"
"172.638715"
"$GPRMC,151941,A,2423.5157,N,08134.4555,W,3.2,120.5,210615,5.7,"
"##MN-00 00 06 0308 01614 5486 443745 204946 197"
"172.638762"
"$GPRMC,151945,A,2423.5139,N,08134.4521,W,3.2,120.4,210615,5.7,"
"##MN-00 00 06 0309 01611 5488 443715 204941 197"
"172.638808"
"$GPRMC,151949,A,2423.5122,N,08134.4488,W,3.2,120.3,210615,5.7,"
"##MN-00 00 06 0310 01609 5490 443691 204934 197"
"172.638854"
"$GPRMC,151953,A,2423.5104,N,08134.4457,W,3.2,120.4,210615,5.7,"
"##MN-00 00 06 0312 01608 5492 443670 204929 197"
"172.6389"
"$GPRMC,151957,A,2423.5086,N,08134.4426,W,3.2,120.6,210615,5.7,"
"##MN-00 00 06 0313 01601 5493 443654 204929 197"
"172.638947"
"$GPRMC,152002,A,2423.5064,N,08134.4383,W,3.2,120.5,210615,5.7,"
"##MN-00 00 06 0315 01599 5495 443633 204922 197"
"172.638993"
"$GPRMC,152006,A,2423.5046,N,08134.4349,W,3.2,120.5,210615,5.7,"
"##MN-00 00 06 0316 01595 5496 443611 204916 197"
"172.639039"
"$GPRMC,152010,A,2423.5027,N,08134.4314,W,3.3,120.6,210615,5.7,"
"##MN-00 00 06 0317 01590 5498 443595 204912 197"
"172.639086"
"$GPRMC,152014,A,2423.5009,N,08134.4280,W,3.2,120.9,210615,5.7,"
"##MN-00 00 06 0319 01586 5500 443568 204906 197"
"172.639132"
"$GPRMC,152018,A,2423.4989,N,08134.4245,W,3.3,121.1,210615,5.7,"
"##MN-00 00 06 0320 01582 5502 443540 204899 197"
"172.639178"
"$GPRMC,152022,A,2423.4970,N,08134.4211,W,3.2,121.3,210615,5.7,"
"##MN-00 00 06 0322 01581 5503 443489 204887 197"
"172.639225"
"$GPRMC,152026,A,2423.4951,N,08134.4176,W,3.2,121.3,210615,5.7,"
"##MN-00 00 06 0323 01577 5505 443439 204877 197"
"172.639271"
"$GPRMC,152030,A,2423.4932,N,08134.4141,W,3.2,121.5,210615,5.7,"
"##MN-00 00 06 0324 01571 5507 443406 204870 197"
"172.639317"
"$GPRMC,152034,A,2423.4913,N,08134.4106,W,3.3,120.5,210615,5.7,"
"##MN-00 00 06 0326 01565 5509 443363 204863 197"
"172.639363"
"$GPRMC,152038,A,2423.4893,N,08134.4072,W,3.2,121.8,210615,5.7,"
"##MN-00 00 07 0327 01562 5511 443072 204833 197"
"172.63941"
"$GPRMC,152042,A,2423.4874,N,08134.4037,W,3.3,121.6,210615,5.7,"
"##MN-00 00 07 0328 01560 5512 443140 204812 197"
"172.639456"
"$GPRMC,152046,A,2423.4855,N,08134.4002,W,3.2,121.2,210615,5.7,"
"##MN-00 00 07 0330 01554 5514 443047 204803 197"
"172.639502"
"$GPRMC,152050,A,2423.4836,N,08134.3967,W,3.3,121.1,210615,5.7,"
"##MN-00 00 07 0331 01554 5516 442892 204746 197"
"172.639549"
"$GPRMC,152054,A,2423.4818,N,08134.3932,W,3.2,121.0,210615,5.7,"
"##MN-00 00 07 0333 01555 5517 442684 204726 197"
"172.639595"
"$GPRMC,152058,A,2423.4798,N,08134.3896,W,3.3,120.7,210615,5.7,"
"##MN-00 00 07 0334 01554 5519 442649 204701 197"
"172.639641"
"$GPRMC,152102,A,2423.4780,N,08134.3859,W,3.3,119.9,210615,5.7,"
"##MN-00 00 07 0335 01553 5521 442676 204714 197"
"172.639687"
"$GPRMC,152106,A,2423.4761,N,08134.3824,W,3.3,119.6,210615,5.7,"
"##MN-00 00 07 0337 01553 5523 442870 204760 197"
"172.639734"
"$GPRMC,152110,A,2423.4743,N,08134.3788,W,3.3,119.5,210615,5.7,"
"##MN-00 00 07 0338 01554 5524 443075 204783 197"
