" Tow: 9WM-A   RVWS/WS15161"
" Date: 21/06/2015"
" Temperature Probe #  4762    Conductivity Probe #  710"
" Pressure Probe #  159"
" Flow Meter Calibration  4.71 (m/count)  "
"172.587014"
"$GPRMC,140514,A,2426.0667,N,08138.2881,W,3.5,144.2,210615,5.7,"
"##MN-00 00 87 0000 01493 8032 409144 827111 199"
"172.58706"
"$GPRMC,140519,A,2426.0627,N,08138.2846,W,3.6,143.8,210615,5.7,"
"##MN-00 00 87 0000 01493 8035 407712 827013 199"
"172.587106"
"$GPRMC,140523,A,2426.0595,N,08138.2820,W,3.6,144.2,210615,5.7,"
"##MN-00 00 87 0000 01493 8037 408873 827094 199"
"172.587153"
"$GPRMC,140527,A,2426.0565,N,08138.2795,W,3.6,143.6,210615,5.7,"
"##MN-00 00 87 0000 01495 8039 410258 827080 199"
"172.587199"
"$GPRMC,140531,A,2426.0535,N,08138.2769,W,3.6,142.9,210615,5.7,"
"##MN-00 00 87 0000 01493 8041 411297 826885 199"
"172.587245"
"$GPRMC,140535,A,2426.0505,N,08138.2741,W,3.6,142.3,210615,5.7,"
"##MN-00 00 87 0000 01494 8043 411141 827422 199"
"172.587292"
"$GPRMC,140539,A,2426.0475,N,08138.2712,W,3.6,142.0,210615,5.7,"
"##MN-00 00 87 0000 01493 8045 412134 827011 199"
"172.587419"
"$GPRMC,140550,A,2426.0389,N,08138.2631,W,3.7,139.9,210615,5.7,"
"…##MN-00 00 76 0000 01494 8050 413396 826788 19"
"172.587465"
"$GPRMC,140554,A,2426.0358,N,08138.2599,W,3.7,139.2,210615,5.7,"
"##MN-00 00 75 0000 01497 8053 413467 826943 199"
"172.587512"
"$GPRMC,140558,A,2426.0327,N,08138.2568,W,3.6,137.8,210615,5.7,"
"##MN-00 00 74 0000 01494 8054 413486 826948 199"
"172.587558"
"$GPRMC,140602,A,2426.0299,N,08138.2536,W,3.7,137.1,210615,5.7,"
"##MN-00 00 74 0000 01493 8056 414825 827084 199"
"172.587616"
"$GPRMC,140606,A,2426.0270,N,08138.2504,W,3.7,136.1,210615,5.7,"
"##MN-00 00 74 0000 01495 8058 415938 826685 199"
"172.587662"
"$GPRMC,140610,A,2426.0240,N,08138.2473,W,3.7,135.6,210615,5.7,"
"##MN-00 00 71 0000 01494 8060 416765 826603 199"
"172.587708"
"$GPRMC,140614,A,2426.0211,N,08138.2442,W,3.7,135.8,210615,5.7,"
"##MN-00 00 71 0000 01494 8061 416516 826558 199"
"172.587755"
"$GPRMC,140619,A,2426.0174,N,08138.2402,W,3.6,135.9,210615,5.7,"
"##MN-00 00 71 0000 01494 8063 417577 826669 199"
"172.587801"
"$GPRMC,140623,A,2426.0148,N,08138.2374,W,3.6,135.5,210615,5.7,"
"##MN-00 00 71 0000 01494 8065 418675 826601 199"
"172.587847"
"$GPRMC,140627,A,2426.0119,N,08138.2344,W,3.6,135.2,210615,5.7,"
"##MN-00 00 71 0000 01493 8067 420409 826952 199"
"172.587894"
"$GPRMC,140630,A,2426.0098,N,08138.2321,W,3.5,135.4,210615,5.7,"
"##MN-00 00 71 0000 01495 8069 421821 826064 199"
"172.58794"
"$GPRMC,140634,A,2426.0070,N,08138.2292,W,3.5,135.7,210615,5.7,"
"##MN-00 00 71 0000 01494 8070 426113 454523 199"
"172.587986"
"$GPRMC,140639,A,2426.0035,N,08138.2256,W,3.3,136.0,210615,5.7,"
"##MN-00 00 08 0001 01492 8072 440766 203637 199"
"172.588032"
"$GPRMC,140642,A,2426.0015,N,08138.2235,W,3.3,136.3,210615,5.7,"
"##MN-00 00 08 0002 01495 8073 441359 203907 199"
"172.588079"
"$GPRMC,140647,A,2425.9984,N,08138.2202,W,3.3,137.1,210615,5.7,"
"##MN-00 00 13 0003 01493 8075 441467 205436 199"
"172.588125"
"$GPRMC,140651,A,2425.9958,N,08138.2178,W,3.2,137.8,210615,5.7,"
"##MN-00 00 14 0004 01492 8076 441575 204239 199"
"172.588171"
"$GPRMC,140655,A,2425.9934,N,08138.2153,W,3.1,138.6,210615,5.7,"
"##MN-00 00 14 0005 01490 8077 441803 204138 199"
"172.588218"
"$GPRMC,140659,A,2425.9909,N,08138.2127,W,3.1,138.7,210615,5.7,"
"##MN-00 00 13 0006 01490 8079 441904 204493 199"
"172.588264"
"$GPRMC,140703,A,2425.9884,N,08138.2101,W,3.0,138.7,210615,5.7,"
"##MN-00 00 13 0007 01493 8080 441881 204481 199"
"172.58831"
"$GPRMC,140707,A,2425.9855,N,08138.2076,W,3.0,138.8,210615,5.7,"
"##MN-00 00 12 0008 01493 8080 441980 204531 199"
"172.588356"
"$GPRMC,140711,A,2425.9830,N,08138.2051,W,2.9,138.5,210615,5.7,"
"##MN-00 00 13 0009 01492 8081 442011 204589 199"
"172.588403"
"$GPRMC,140715,A,2425.9808,N,08138.2029,W,2.9,138.6,210615,5.7,"
"##MN-00 00 10 0010 01493 8081 442224 204693 199"
"172.588449"
"$GPRMC,140719,A,2425.9787,N,08138.2010,W,2.8,138.2,210615,5.7,"
"##MN-00 00 09 0010 01495 8081 442379 204761 199"
"172.588495"
"$GPRMC,140723,A,2425.9769,N,08138.1990,W,2.8,137.8,210615,5.7,"
"##MN-00 00 10 0011 01498 8081 442476 204755 199"
"172.588542"
"$GPRMC,140727,A,2425.9745,N,08138.1967,W,2.8,137.4,210615,5.7,"
"##MN-00 00 09 0012 01501 8080 442610 204797 199"
"172.588588"
"$GPRMC,140731,A,2425.9722,N,08138.1943,W,2.7,136.9,210615,5.7,"
"##MN-00 00 09 0013 01504 8079 442753 204864 199"
"172.588634"
"$GPRMC,140735,A,2425.9700,N,08138.1921,W,2.7,137.0,210615,5.7,"
"##MN-00 00 09 0014 01507 8078 442879 204899 199"
"172.588681"
"$GPRMC,140739,A,2425.9678,N,08138.1896,W,2.7,136.5,210615,5.7,"
"##MN-00 00 09 0015 01509 8077 442958 204918 199"
"172.588727"
"$GPRMC,140743,A,2425.9656,N,08138.1869,W,2.7,135.5,210615,5.7,"
"##MN-00 00 09 0016 01513 8075 442926 204891 199"
"172.588773"
"$GPRMC,140747,A,2425.9633,N,08138.1843,W,2.8,134.3,210615,5.7,"
"##MN-00 00 09 0017 01516 8073 442957 204896 199"
"172.588819"
"$GPRMC,140751,A,2425.9612,N,08138.1817,W,2.8,133.5,210615,5.7,"
"##MN-00 00 08 0018 01518 8071 442977 204885 199"
"172.588866"
"$GPRMC,140755,A,2425.9588,N,08138.1790,W,2.8,133.2,210615,5.7,"
"##MN-00 00 09 0019 01521 8069 443020 204931 199"
"172.588912"
"$GPRMC,140759,A,2425.9566,N,08138.1764,W,2.8,133.0,210615,5.7,"
"##MN-00 00 08 0020 01524 8066 443069 204946 199"
"172.588958"
"$GPRMC,140803,A,2425.9547,N,08138.1740,W,2.8,132.7,210615,5.7,"
"##MN-00 00 08 0021 01527 8064 443077 204923 199"
"172.589005"
"$GPRMC,140807,A,2425.9525,N,08138.1713,W,2.9,132.5,210615,5.7,"
"##MN-00 00 08 0022 01530 8061 443083 204928 199"
"172.589051"
"$GPRMC,140811,A,2425.9503,N,08138.1686,W,2.9,132.4,210615,5.7,"
"##MN-00 00 08 0023 01533 8058 443105 204947 199"
"172.589097"
"$GPRMC,140815,A,2425.9482,N,08138.1663,W,2.8,132.6,210615,5.7,"
"##MN-00 00 08 0024 01535 8055 443121 204954 199"
"172.589144"
"$GPRMC,140819,A,2425.9460,N,08138.1641,W,2.8,133.3,210615,5.7,"
"##MN-00 00 08 0025 01538 8052 443130 204950 199"
"172.58919"
"$GPRMC,140823,A,2425.9438,N,08138.1618,W,2.8,133.9,210615,5.7,"
"##MN-00 00 08 0026 01542 8049 443130 204943 199"
"172.589236"
"$GPRMC,140827,A,2425.9417,N,08138.1597,W,2.8,134.7,210615,5.7,"
"##MN-00 00 08 0027 01545 8046 443132 204945 199"
"172.589282"
"$GPRMC,140831,A,2425.9393,N,08138.1575,W,2.9,135.7,210615,5.7,"
"##MN-00 00 08 0028 01547 8043 443136 204951 199"
"172.589329"
"$GPRMC,140835,A,2425.9370,N,08138.1551,W,2.9,136.1,210615,5.7,"
"##MN-00 00 08 0029 01551 8039 443138 204945 199"
"172.589375"
"$GPRMC,140839,A,2425.9346,N,08138.1527,W,2.9,136.1,210615,5.7,"
"##MN-00 00 08 0030 01553 8035 443128 204941 199"
"172.589421"
"$GPRMC,140843,A,2425.9323,N,08138.1503,W,2.9,137.4,210615,5.7,"
"##MN-00 00 08 0031 01556 8032 443119 204938 199"
"172.589468"
"$GPRMC,140847,A,2425.9299,N,08138.1478,W,2.9,137.5,210615,5.7,"
"##MN-00 00 08 0032 01559 8028 443119 204935 199"
"172.589514"
"$GPRMC,140851,A,2425.9276,N,08138.1453,W,2.9,137.7,210615,5.7,"
"##MN-00 00 08 0033 01560 8024 443123 204934 199"
"172.58956"
"$GPRMC,140855,A,2425.9251,N,08138.1427,W,2.8,137.8,210615,5.7,"
"##MN-00 00 08 0034 01563 8020 443129 204932 199"
"172.589606"
"$GPRMC,140859,A,2425.9234,N,08138.1409,W,2.8,137.7,210615,5.7,"
"##MN-00 00 07 0035 01566 8016 443133 204931 199"
"172.589653"
"$GPRMC,140903,A,2425.9204,N,08138.1378,W,2.8,137.5,210615,5.7,"
"##MN-00 00 07 0036 01570 8012 443142 204927 199"
"172.589699"
"$GPRMC,140907,A,2425.9180,N,08138.1354,W,2.8,137.3,210615,5.7,"
"##MN-00 00 07 0038 01573 8008 443146 204926 199"
"172.589745"
"$GPRMC,140911,A,2425.9156,N,08138.1330,W,2.9,137.0,210615,5.7,"
"##MN-00 00 07 0039 01575 8003 443159 204926 199"
"172.589792"
"$GPRMC,140915,A,2425.9135,N,08138.1308,W,2.9,136.5,210615,5.7,"
"##MN-00 00 08 0040 01581 7999 443170 204925 199"
"172.589838"
"$GPRMC,140919,A,2425.9111,N,08138.1282,W,2.9,136.4,210615,5.7,"
"##MN-00 00 07 0041 01584 7995 443179 204921 199"
"172.589884"
"$GPRMC,140923,A,2425.9088,N,08138.1257,W,2.8,136.6,210615,5.7,"
"##MN-00 00 07 0042 01584 7990 443195 204920 199"
"172.589931"
"$GPRMC,140927,A,2425.9063,N,08138.1234,W,2.8,137.0,210615,5.7,"
"##MN-00 00 07 0043 01587 7986 443218 204920 199"
"172.589977"
"$GPRMC,140931,A,2425.9041,N,08138.1208,W,2.8,136.7,210615,5.7,"
"##MN-00 00 07 0044 01592 7982 443233 204917 199"
"172.590023"
"$GPRMC,140935,A,2425.9018,N,08138.1182,W,2.9,136.1,210615,5.7,"
"##MN-00 00 07 0045 01594 7977 443238 204911 199"
"172.590069"
"$GPRMC,140939,A,2425.8995,N,08138.1154,W,2.8,135.4,210615,5.7,"
"##MN-00 00 07 0046 01600 7973 443245 204906 199"
"172.590116"
"$GPRMC,140943,A,2425.8973,N,08138.1128,W,2.8,135.0,210615,5.7,"
"##MN-00 00 07 0047 01602 7968 443283 204905 199"
"172.590162"
"$GPRMC,140947,A,2425.8951,N,08138.1103,W,2.8,134.7,210615,5.7,"
"##MN-00 00 07 0048 01606 7964 443304 204902 199"
"172.590208"
"$GPRMC,140951,A,2425.8929,N,08138.1078,W,2.8,134.5,210615,5.7,"
"##MN-00 00 07 0049 01608 7959 443330 204901 199"
"172.590255"
"$GPRMC,140955,A,2425.8907,N,08138.1052,W,2.8,134.2,210615,5.7,"
"##MN-00 00 06 0050 01610 7954 443344 204904 199"
"172.590301"
"$GPRMC,140959,A,2425.8885,N,08138.1027,W,2.9,134.0,210615,5.7,"
"##MN-00 00 06 0051 01615 7950 443349 204904 199"
"172.590347"
"$GPRMC,141003,A,2425.8862,N,08138.1001,W,2.9,133.9,210615,5.7,"
"##MN-00 00 06 0052 01617 7945 443358 204902 199"
"172.590394"
"$GPRMC,141007,A,2425.8840,N,08138.0976,W,2.9,133.8,210615,5.7,"
"##MN-00 00 06 0053 01619 7940 443362 204900 199"
"172.59044"
"$GPRMC,141011,A,2425.8818,N,08138.0953,W,2.9,133.8,210615,5.7,"
"##MN-00 00 06 0054 01622 7935 443355 204899 199"
"172.590486"
"$GPRMC,141015,A,2425.8796,N,08138.0932,W,2.8,134.5,210615,5.7,"
"##MN-00 00 06 0055 01623 7930 443342 204895 199"
"172.590532"
"$GPRMC,141019,A,2425.8774,N,08138.0909,W,2.8,134.8,210615,5.7,"
"##MN-00 00 06 0056 01625 7926 443353 204892 199"
"172.590579"
"$GPRMC,141023,A,2425.8752,N,08138.0886,W,2.8,135.2,210615,5.7,"
"##MN-00 00 06 0057 01629 7921 443366 204890 199"
"172.590625"
"$GPRMC,141027,A,2425.8730,N,08138.0864,W,2.8,135.4,210615,5.7,"
"##MN-00 00 07 0058 01631 7916 443381 204887 199"
"172.590671"
"$GPRMC,141031,A,2425.8706,N,08138.0840,W,2.8,135.8,210615,5.7,"
"##MN-00 00 06 0059 01631 7911 443386 204886 198"
"172.590718"
"$GPRMC,141035,A,2425.8682,N,08138.0815,W,2.8,136.0,210615,5.7,"
"##MN-00 00 07 0060 01636 7907 443425 204887 199"
"172.590764"
"$GPRMC,141039,A,2425.8656,N,08138.0798,W,2.8,137.0,210615,5.7,"
"##MN-00 00 07 0062 01638 7902 443475 204884 198"
"172.59081"
"$GPRMC,141043,A,2425.8634,N,08138.0777,W,2.8,137.5,210615,5.7,"
"##MN-00 00 07 0063 01639 7897 443520 204887 198"
"172.590868"
"$GPRMC,141047,A,2425.8611,N,08138.0754,W,2.8,137.7,210615,5.7,"
"##MN-00 00 08 0064 01645 7892 443616 204894 199"
"172.590914"
"$GPRMC,141052,A,2425.8584,N,08138.0727,W,2.8,136.7,210615,5.7,"
"##MN-00 00 09 0065 01647 7887 443678 204898 198"
"172.590961"
"$GPRMC,141056,A,2425.8562,N,08138.0704,W,2.8,136.3,210615,5.7,"
"##MN-00 00 08 0066 01648 7882 443780 204902 199"
"172.591007"
"$GPRMC,141100,A,2425.8540,N,08138.0681,W,2.8,136.5,210615,5.7,"
"##MN-00 00 07 0067 01652 7877 443846 204901 199"
"172.591053"
"$GPRMC,141104,A,2425.8517,N,08138.0655,W,2.8,136.3,210615,5.7,"
"##MN-00 00 07 0068 01656 7873 443901 204909 199"
"172.5911"
"$GPRMC,141108,A,2425.8494,N,08138.0629,W,2.8,136.1,210615,5.7,"
"##MN-00 00 07 0069 01657 7867 444019 204915 198"
"172.591146"
"$GPRMC,141111,A,2425.8478,N,08138.0611,W,2.8,135.2,210615,5.7,"
"##MN-00 00 07 0070 01662 7862 444041 204922 198"
"172.591192"
"$GPRMC,141116,A,2425.8450,N,08138.0580,W,2.8,135.0,210615,5.7,"
"##MN-00 00 07 0071 01664 7858 444092 204922 199"
"172.591238"
"$GPRMC,141120,A,2425.8428,N,08138.0556,W,2.8,134.6,210615,5.7,"
"##MN-00 00 07 0072 01669 7852 444200 204929 199"
"172.591285"
"$GPRMC,141124,A,2425.8406,N,08138.0531,W,2.8,134.4,210615,5.7,"
"##MN-00 00 06 0073 01671 7847 444315 204944 199"
"172.591331"
"$GPRMC,141128,A,2425.8384,N,08138.0505,W,2.8,134.3,210615,5.7,"
"##MN-00 00 06 0074 01673 7842 444396 204963 198"
"172.591377"
"$GPRMC,141132,A,2425.8363,N,08138.0479,W,2.8,134.0,210615,5.7,"
"##MN-00 00 06 0075 01673 7837 444443 204975 198"
"172.591424"
"$GPRMC,141136,A,2425.8342,N,08138.0453,W,2.8,133.9,210615,5.7,"
"##MN-00 00 06 0076 01675 7832 444471 204980 199"
"172.59147"
"$GPRMC,141140,A,2425.8320,N,08138.0428,W,2.8,134.0,210615,5.7,"
"##MN-00 00 06 0077 01677 7827 444483 204972 198"
"172.591516"
"$GPRMC,141144,A,2425.8298,N,08138.0402,W,2.8,134.3,210615,5.7,"
"##MN-00 00 06 0079 01681 7822 444495 204982 198"
"172.591563"
"$GPRMC,141148,A,2425.8275,N,08138.0380,W,2.8,134.5,210615,5.7,"
"##MN-00 00 06 0080 01684 7817 444500 204980 198"
"172.591609"
"$GPRMC,141152,A,2425.8252,N,08138.0354,W,2.9,134.8,210615,5.7,"
"##MN-00 00 06 0081 01686 7812 444505 204985 198"
"172.591655"
"$GPRMC,141156,A,2425.8230,N,08138.0329,W,2.9,135.2,210615,5.7,"
"##MN-00 00 06 0082 01689 7807 444516 204990 198"
"172.591701"
"$GPRMC,141200,A,2425.8208,N,08138.0304,W,2.8,134.9,210615,5.7,"
"##MN-00 00 06 0083 01691 7802 444525 204992 198"
"172.591748"
"$GPRMC,141204,A,2425.8187,N,08138.0279,W,2.8,135.0,210615,5.7,"
"##MN-00 00 53 0084 01694 7797 444533 204995 199"
"172.591794"
"$GPRMC,141208,A,2425.8165,N,08138.0254,W,2.8,134.3,210615,5.7,"
"##MN-00 00 06 0085 01698 7792 444547 204997 199"
"172.59184"
"$GPRMC,141212,A,2425.8145,N,08138.0228,W,2.8,133.6,210615,5.7,"
"##MN-00 00 06 0086 01701 7787 444554 204999 198"
"172.591887"
"$GPRMC,141216,A,2425.8123,N,08138.0202,W,2.8,133.0,210615,5.7,"
"##MN-00 00 06 0087 01704 7781 444584 205007 198"
"172.591933"
"$GPRMC,141220,A,2425.8103,N,08138.0177,W,2.8,132.4,210615,5.7,"
"##MN-00 00 06 0088 01708 7776 444601 205008 198"
"172.591979"
"$GPRMC,141224,A,2425.8083,N,08138.0150,W,2.8,131.6,210615,5.7,"
"##MN-00 00 06 0089 01709 7771 444618 205008 198"
"172.592025"
"$GPRMC,141228,A,2425.8062,N,08138.0123,W,2.8,131.0,210615,5.7,"
"##MN-00 00 06 0091 01713 7766 444637 205013 198"
"172.592072"
"$GPRMC,141232,A,2425.8042,N,08138.0095,W,2.9,130.5,210615,5.7,"
"##MN-00 00 06 0092 01716 7761 444665 205022 198"
"172.592118"
"$GPRMC,141236,A,2425.8023,N,08138.0072,W,2.8,130.1,210615,5.7,"
"##MN-00 00 06 0093 01719 7756 444681 205028 198"
"172.592164"
"$GPRMC,141240,A,2425.8002,N,08138.0045,W,2.8,130.1,210615,5.7,"
"##MN-00 00 06 0094 01723 7750 444688 205030 198"
"172.592211"
"$GPRMC,141244,A,2425.7983,N,08138.0023,W,2.8,130.2,210615,5.7,"
"##MN-00 00 06 0095 01725 7745 444691 205030 198"
"172.592257"
"$GPRMC,141248,A,2425.7961,N,08137.9996,W,2.8,130.6,210615,5.7,"
"##MN-00 00 06 0096 01727 7740 444693 205030 198"
"172.592303"
"$GPRMC,141252,A,2425.7940,N,08137.9966,W,2.8,130.4,210615,5.7,"
"##MN-00 00 06 0097 01733 7735 444703 205030 198"
"172.59235"
"$GPRMC,141256,A,2425.7921,N,08137.9938,W,2.8,130.7,210615,5.7,"
"##MN-00 00 06 0098 01735 7730 444746 205031 198"
"172.592396"
"$GPRMC,141300,A,2425.7898,N,08137.9910,W,2.9,130.5,210615,5.7,"
"##MN-00 00 06 0099 01735 7725 444812 205045 198"
"172.592442"
"$GPRMC,141304,A,2425.7876,N,08137.9883,W,2.8,131.4,210615,5.7,"
"##MN-00 00 06 0100 01734 7720 444868 205056 198"
"172.592488"
"$GPRMC,141308,A,2425.7854,N,08137.9857,W,2.8,132.2,210615,5.7,"
"##MN-00 00 06 0102 01733 7715 444861 205060 198"
"172.592535"
"$GPRMC,141312,A,2425.7832,N,08137.9831,W,2.8,132.7,210615,5.7,"
"##MN-00 00 06 0103 01734 7710 444811 205053 198"
"172.592581"
"$GPRMC,141316,A,2425.7811,N,08137.9805,W,2.9,132.6,210615,5.7,"
"##MN-00 00 06 0104 01734 7705 444782 205050 198"
"172.592627"
"$GPRMC,141320,A,2425.7789,N,08137.9779,W,2.9,132.8,210615,5.7,"
"##MN-00 00 06 0105 01736 7700 444778 205049 198"
"172.592674"
"$GPRMC,141324,A,2425.7768,N,08137.9753,W,2.9,132.7,210615,5.7,"
"##MN-00 00 06 0106 01733 7695 444782 205048 198"
"172.59272"
"$GPRMC,141328,A,2425.7748,N,08137.9727,W,2.8,132.5,210615,5.7,"
"##MN-00 00 06 0108 01734 7690 444817 205056 198"
"172.592766"
"$GPRMC,141332,A,2425.7727,N,08137.9702,W,2.8,132.7,210615,5.7,"
"##MN-00 00 06 0109 01732 7684 444916 205067 198"
"172.592812"
"$GPRMC,141336,A,2425.7706,N,08137.9677,W,2.8,132.4,210615,5.7,"
"##MN-00 00 06 0110 01735 7679 445039 205074 198"
"172.592859"
"$GPRMC,141340,A,2425.7686,N,08137.9652,W,2.8,132.1,210615,5.7,"
"##MN-00 00 06 0111 01735 7674 445100 205109 198"
"172.592905"
"$GPRMC,141344,A,2425.7665,N,08137.9628,W,2.8,132.5,210615,5.7,"
"##MN-00 00 06 0112 01735 7669 445159 205123 198"
"172.592951"
"$GPRMC,141348,A,2425.7644,N,08137.9602,W,2.8,132.8,210615,5.7,"
"##MN-00 00 06 0113 01736 7664 445205 205135 198"
"172.592998"
"$GPRMC,141352,A,2425.7623,N,08137.9577,W,2.8,132.7,210615,5.7,"
"##MN-00 00 05 0114 01741 7659 445267 205144 198"
"172.593044"
"$GPRMC,141356,A,2425.7603,N,08137.9553,W,2.8,132.5,210615,5.7,"
"##MN-00 00 06 0115 01746 7654 445323 205160 198"
"172.59309"
"$GPRMC,141400,A,2425.7581,N,08137.9527,W,2.8,132.6,210615,5.7,"
"##MN-00 00 06 0117 01748 7649 445357 205156 198"
"172.593137"
"$GPRMC,141404,A,2425.7560,N,08137.9502,W,2.8,132.1,210615,5.7,"
"##MN-00 00 05 0118 01753 7644 445386 205165 198"
"172.593183"
"$GPRMC,141408,A,2425.7539,N,08137.9476,W,2.8,132.1,210615,5.7,"
"##MN-00 00 05 0119 01755 7639 445429 205172 198"
"172.593229"
"$GPRMC,141412,A,2425.7517,N,08137.9451,W,2.9,132.5,210615,5.7,"
"##MN-00 00 05 0120 01754 7634 445455 205172 198"
"172.593275"
"$GPRMC,141416,A,2425.7496,N,08137.9425,W,2.9,133.0,210615,5.7,"
"##MN-00 00 05 0121 01757 7629 445472 205187 198"
"172.593322"
"$GPRMC,141420,A,2425.7473,N,08137.9399,W,2.9,133.3,210615,5.7,"
"##MN-00 00 06 0122 01758 7624 445474 205190 198"
"172.593368"
"$GPRMC,141424,A,2425.7452,N,08137.9372,W,2.9,133.3,210615,5.7,"
"##MN-00 00 06 0123 01759 7619 445471 205186 198"
"172.593414"
"$GPRMC,141428,A,2425.7430,N,08137.9344,W,2.9,132.7,210615,5.7,"
"##MN-00 00 06 0124 01761 7613 445468 205189 198"
"172.593461"
"$GPRMC,141432,A,2425.7405,N,08137.9317,W,2.9,132.5,210615,5.7,"
"##MN-00 00 06 0126 01757 7609 445469 205189 198"
"172.593507"
"$GPRMC,141436,A,2425.7383,N,08137.9290,W,2.9,132.4,210615,5.7,"
"##MN-00 00 06 0127 01760 7604 445473 205193 198"
"172.593553"
"$GPRMC,141440,A,2425.7361,N,08137.9264,W,2.9,132.1,210615,5.7,"
"##MN-00 00 06 0128 01761 7598 445480 205195 198"
"172.5936"
"$GPRMC,141444,A,2425.7340,N,08137.9239,W,2.9,131.6,210615,5.7,"
"##MN-00 00 05 0129 01762 7593 445489 205196 198"
"172.593646"
"$GPRMC,141448,A,2425.7319,N,08137.9213,W,2.8,131.3,210615,5.7,"
"##MN-00 00 05 0130 01762 7588 445502 205196 198"
"172.593692"
"$GPRMC,141452,A,2425.7298,N,08137.9187,W,2.8,131.7,210615,5.7,"
"##MN-00 00 05 0131 01763 7583 445501 205196 198"
"172.593738"
"$GPRMC,141456,A,2425.7278,N,08137.9163,W,2.8,131.6,210615,5.7,"
"##MN-00 00 05 0132 01763 7578 445519 205203 198"
"172.593785"
"$GPRMC,141500,A,2425.7257,N,08137.9138,W,2.8,131.9,210615,5.7,"
"##MN-00 00 05 0134 01766 7573 445658 205253 198"
"172.593831"
"$GPRMC,141504,A,2425.7238,N,08137.9114,W,2.8,131.6,210615,5.7,"
"##MN-00 00 05 0135 01767 7568 446251 205318 198"
"172.593877"
"$GPRMC,141508,A,2425.7217,N,08137.9090,W,2.8,132.1,210615,5.7,"
"##MN-00 00 05 0136 01767 7563 446892 205423 198"
"172.593924"
"$GPRMC,141512,A,2425.7196,N,08137.9065,W,2.7,132.3,210615,5.7,"
"##MN-00 00 05 0137 01768 7558 447182 205469 198"
"172.593981"
"$GPRMC,141516,A,2425.7177,N,08137.9041,W,2.7,132.4,210615,5.7,"
"##MN-00 00 05 0138 01769 7553 447306 205513 198"
"172.594028"
"$GPRMC,141520,A,2425.7156,N,08137.9018,W,2.6,132.8,210615,5.7,"
"##MN-00 00 05 0139 01773 7548 447441 205533 198"
"172.594074"
"$GPRMC,141524,A,2425.7137,N,08137.8995,W,2.6,132.9,210615,5.7,"
"##MN-00 00 05 0140 01777 7544 447557 205539 198"
"172.59412"
"$GPRMC,141528,A,2425.7116,N,08137.8972,W,2.6,133.1,210615,5.7,"
"##MN-00 00 05 0141 01782 7539 447678 205574 198"
"172.594167"
"$GPRMC,141532,A,2425.7095,N,08137.8948,W,2.6,132.8,210615,5.7,"
"##MN-00 00 05 0142 01786 7533 447885 205582 198"
"172.594213"
"$GPRMC,141536,A,2425.7076,N,08137.8922,W,2.7,132.1,210615,5.7,"
"##MN-00 00 05 0143 01792 7529 448042 205620 198"
"172.594259"
"$GPRMC,141540,A,2425.7054,N,08137.8896,W,2.7,131.7,210615,5.7,"
"##MN-00 00 05 0144 01794 7524 448197 205654 198"
"172.594306"
"$GPRMC,141544,A,2425.7033,N,08137.8871,W,2.8,132.0,210615,5.7,"
"##MN-00 00 05 0145 01792 7519 448259 205650 198"
"172.594352"
"$GPRMC,141548,A,2425.7012,N,08137.8845,W,2.8,131.7,210615,5.7,"
"##MN-00 00 05 0146 01794 7514 448389 205656 198"
"172.594398"
"$GPRMC,141552,A,2425.6991,N,08137.8819,W,2.8,131.5,210615,5.7,"
"##MN-00 00 05 0147 01793 7509 448537 205673 198"
"172.594444"
"$GPRMC,141556,A,2425.6971,N,08137.8794,W,2.8,131.9,210615,5.7,"
"##MN-00 00 05 0149 01796 7504 448652 205696 198"
"172.594491"
"$GPRMC,141600,A,2425.6949,N,08137.8769,W,2.8,132.2,210615,5.7,"
"##MN-00 00 05 0150 01793 7499 448682 205739 198"
"172.594537"
"$GPRMC,141605,A,2425.6924,N,08137.8738,W,2.8,132.1,210615,5.7,"
"##MN-00 00 05 0151 01793 7494 448538 205719 198"
"172.594583"
"$GPRMC,141609,A,2425.6902,N,08137.8714,W,2.8,132.0,210615,5.7,"
"##MN-00 00 05 0152 01792 7489 448407 205703 198"
"172.59463"
"$GPRMC,141613,A,2425.6882,N,08137.8689,W,2.8,131.6,210615,5.7,"
"##MN+00 00 05 0153 01792 7484 448333 205697 198"
"172.594676"
"$GPRMC,141617,A,2425.6862,N,08137.8664,W,2.8,131.3,210615,5.7,"
"##MN+00 00 05 0154 01793 7479 448337 205699 198"
"172.594722"
"$GPRMC,141621,A,2425.6841,N,08137.8640,W,2.8,131.7,210615,5.7,"
"##MN+00 00 05 0155 01796 7474 448471 205719 198"
"172.594769"
"$GPRMC,141625,A,2425.6823,N,08137.8615,W,2.7,131.5,210615,5.7,"
"##MN+00 00 05 0156 01797 7469 448653 205738 198"
"172.594815"
"$GPRMC,141629,A,2425.6802,N,08137.8592,W,2.7,131.7,210615,5.7,"
"##MN+00 00 05 0157 01797 7465 448727 205755 198"
"172.594861"
"$GPRMC,141633,A,2425.6781,N,08137.8567,W,2.7,131.5,210615,5.7,"
"##MN+00 00 05 0158 01800 7460 448670 205748 198"
"172.594907"
"$GPRMC,141637,A,2425.6761,N,08137.8542,W,2.8,132.1,210615,5.7,"
"##MN-00 00 05 0159 01797 7455 448749 205764 198"
"172.594954"
"#increment_net"
"$GPRMC,141641,A,2425.6740,N,08137.8517,W,2.7,132.3,210615,5.7,"
"##MN-00 00 05 0160 01800 7450 448775 205768 198"
"172.595"
"$GPRMC,141645,A,2425.6719,N,08137.8493,W,2.7,132.4,210615,5.7,"
"##MN-00 00 05 0162 01801 7445 448848 205777 198"
"172.595046"
"$GPRMC,141649,A,2425.6700,N,08137.8468,W,2.8,131.9,210615,5.7,"
"##MN-00 00 05 0163 01800 7440 448993 205802 198"
"172.595093"
"$GPRMC,141653,A,2425.6678,N,08137.8443,W,2.8,131.3,210615,5.7,"
"##MN-00 00 05 0164 01800 7435 449119 205818 198"
"172.595139"
"$GPRMC,141657,A,2425.6658,N,08137.8416,W,2.8,130.7,210615,5.7,"
"##MN-00 00 05 0165 01801 7431 449220 205839 198"
"172.595185"
"$GPRMC,141701,A,2425.6638,N,08137.8389,W,2.8,130.4,210615,5.7,"
"##MN-00 00 05 0166 01801 7426 449386 205873 198"
"172.595231"
"$GPRMC,141705,A,2425.6617,N,08137.8361,W,2.8,129.8,210615,5.7,"
"##MN-00 00 05 0167 01800 7421 449517 205895 198"
"172.595278"
"$GPRMC,141709,A,2425.6593,N,08137.8331,W,2.8,129.4,210615,5.7,"
"##MN+00 00 05 0168 01800 7416 449570 205911 198"
"172.595324"
"$GPRMC,141713,A,2425.6572,N,08137.8302,W,2.8,128.7,210615,5.7,"
"##MN+00 00 05 0169 01797 7411 449620 205922 198"
"172.59537"
"$GPRMC,141717,A,2425.6552,N,08137.8273,W,2.9,128.2,210615,5.7,"
"##MN+00 00 05 0171 01797 7406 449656 205924 198"
"172.595417"
"$GPRMC,141721,A,2425.6532,N,08137.8244,W,2.9,127.5,210615,5.7,"
"##MN-00 00 05 0172 01796 7401 449667 205926 198"
"172.595463"
"$GPRMC,141725,A,2425.6513,N,08137.8216,W,2.9,127.1,210615,5.7,"
"##MN+00 00 05 0173 01798 7396 449673 205936 198"
"172.595509"
"$GPRMC,141729,A,2425.6494,N,08137.8187,W,2.9,126.9,210615,5.7,"
"##MN+00 00 06 0174 01799 7392 449640 205934 198"
"172.595556"
"$GPRMC,141733,A,2425.6474,N,08137.8159,W,2.9,127.2,210615,5.7,"
"##MN+00 00 05 0175 01799 7387 449630 205931 198"
"172.595602"
"#increment_net"
"$GPRMC,141737,A,2425.6454,N,08137.8132,W,2.9,127.0,210615,5.7,"
"##MN-00 00 05 0176 01797 7382 449620 205930 198"
"172.595648"
"$GPRMC,141741,A,2425.6436,N,08137.8104,W,2.9,127.1,210615,5.7,"
"##MN-00 00 05 0177 01796 7377 449593 205928 198"
"172.595694"
"$GPRMC,141745,A,2425.6416,N,08137.8077,W,2.9,127.1,210615,5.7,"
"##MN-00 00 05 0178 01795 7372 449563 205922 198"
"172.595741"
"$GPRMC,141749,A,2425.6398,N,08137.8049,W,2.9,127.0,210615,5.7,"
"##MN-00 00 05 0179 01797 7368 449529 205917 198"
"172.595787"
"$GPRMC,141753,A,2425.6379,N,08137.8021,W,2.9,126.7,210615,5.7,"
"##MN-00 00 05 0181 01797 7363 449545 205918 198"
"172.595833"
"$GPRMC,141757,A,2425.6359,N,08137.7994,W,2.8,127.1,210615,5.7,"
"##MN-00 00 05 0182 01797 7358 449574 205923 198"
"172.59588"
"$GPRMC,141801,A,2425.6340,N,08137.7967,W,2.8,127.3,210615,5.7,"
"##MN-00 00 05 0183 01797 7353 449583 205926 198"
"172.595926"
"$GPRMC,141805,A,2425.6321,N,08137.7940,W,2.8,127.9,210615,5.7,"
"##MN+00 00 06 0184 01798 7349 449569 205924 198"
"172.595972"
"$GPRMC,141809,A,2425.6301,N,08137.7913,W,2.8,128.5,210615,5.7,"
"##MN+00 00 06 0185 01797 7344 449563 205923 198"
"172.596019"
"$GPRMC,141813,A,2425.6282,N,08137.7887,W,2.8,128.7,210615,5.7,"
"##MN+00 00 06 0186 01796 7339 449578 205924 198"
"172.596065"
"$GPRMC,141817,A,2425.6263,N,08137.7861,W,2.9,128.9,210615,5.7,"
"##MN-00 00 06 0187 01796 7334 449580 205925 198"
"172.596111"
"$GPRMC,141821,A,2425.6242,N,08137.7834,W,2.9,128.9,210615,5.7,"
"##MN-00 00 05 0189 01796 7330 449541 205919 198"
"172.596157"
"$GPRMC,141825,A,2425.6223,N,08137.7807,W,2.9,129.0,210615,5.7,"
"##MN+00 00 19 0190 01794 7325 449474 205909 198"
"172.596204"
"$GPRMC,141829,A,2425.6202,N,08137.7780,W,2.9,129.0,210615,5.7,"
"##MN+00 00 06 0191 01793 7320 449364 205884 198"
"172.59625"
"$GPRMC,141833,A,2425.6182,N,08137.7752,W,2.9,129.1,210615,5.7,"
"##MN+00 00 06 0192 01798 7315 449114 205849 198"
"172.596296"
"#increment_net"
"$GPRMC,141837,A,2425.6162,N,08137.7725,W,2.9,129.5,210615,5.7,"
"##MN-00 00 06 0193 01794 7310 448859 205790 198"
"172.596343"
"$GPRMC,141841,A,2425.6141,N,08137.7698,W,2.9,129.8,210615,5.7,"
"##MN-00 00 06 0194 01794 7306 448699 205774 198"
"172.596389"
"$GPRMC,141845,A,2425.6120,N,08137.7672,W,2.9,129.9,210615,5.7,"
"##MN-00 00 05 0195 01794 7302 448489 205759 198"
"172.596435"
"$GPRMC,141849,A,2425.6100,N,08137.7645,W,2.9,129.3,210615,5.7,"
"##MN-00 00 05 0197 01790 7297 448113 205675 198"
"172.596481"
"$GPRMC,141853,A,2425.6079,N,08137.7618,W,2.9,129.0,210615,5.7,"
"##MN-00 00 05 0198 01789 7292 447885 205641 198"
"172.596528"
"$GPRMC,141857,A,2425.6061,N,08137.7590,W,2.9,129.1,210615,5.7,"
"##MN-00 00 05 0199 01788 7288 447791 205620 198"
"172.596574"
"$GPRMC,141901,A,2425.6041,N,08137.7564,W,2.8,128.8,210615,5.7,"
"##MN-00 00 05 0200 01788 7283 447759 205611 198"
"172.59662"
"$GPRMC,141905,A,2425.6022,N,08137.7537,W,2.8,128.2,210615,5.7,"
"##MN-00 00 05 0201 01788 7278 447792 205609 198"
"172.596667"
"$GPRMC,141909,A,2425.6003,N,08137.7509,W,2.8,128.0,210615,5.7,"
"##MN-00 00 05 0202 01785 7274 447887 205622 198"
"172.596713"
"$GPRMC,141913,A,2425.5984,N,08137.7482,W,2.8,127.5,210615,5.7,"
"##MN+00 00 05 0204 01785 7270 447906 205625 198"
"172.596759"
"$GPRMC,141917,A,2425.5965,N,08137.7454,W,2.8,127.8,210615,5.7,"
"##MN+00 00 05 0205 01785 7265 447897 205623 198"
"172.596806"
"$GPRMC,141921,A,2425.5947,N,08137.7427,W,2.7,127.5,210615,5.7,"
"##MN+00 00 05 0206 01788 7260 447915 205625 198"
"172.596852"
"$GPRMC,141925,A,2425.5929,N,08137.7400,W,2.7,127.0,210615,5.7,"
"##MN+00 00 05 0207 01789 7256 447931 205624 198"
"172.596898"
"$GPRMC,141929,A,2425.5911,N,08137.7375,W,2.7,126.5,210615,5.7,"
"##MN+00 00 05 0208 01791 7251 447924 205624 198"
"172.596944"
"$GPRMC,141933,A,2425.5893,N,08137.7350,W,2.7,126.5,210615,5.7,"
"##MN+00 00 05 0209 01791 7247 448007 205630 198"
"172.596991"
"$GPRMC,141937,A,2425.5874,N,08137.7323,W,2.7,126.4,210615,5.7,"
"##MN-00 00 05 0210 01792 7242 448301 205695 198"
"172.597037"
"#increment_net"
"$GPRMC,141941,A,2425.5858,N,08137.7296,W,2.7,126.9,210615,5.7,"
"##MN-00 00 05 0211 01793 7238 448526 205730 198"
"172.597083"
"$GPRMC,141945,A,2425.5838,N,08137.7270,W,2.6,127.3,210615,5.7,"
"##MN-00 00 05 0212 01795 7233 448776 205773 198"
"172.597141"
"$GPRMC,141949,A,2425.5819,N,08137.7244,W,2.6,127.9,210615,5.7,"
"##MN-00 00 05 0213 01796 7228 449138 205815 198"
"172.597188"
"$GPRMC,141953,A,2425.5801,N,08137.7219,W,2.5,128.3,210615,5.7,"
"##MN-00 00 05 0214 01798 7224 449411 205885 198"
"172.597234"
"$GPRMC,141957,A,2425.5783,N,08137.7194,W,2.5,128.6,210615,5.7,"
"##MN-00 00 05 0215 01797 7220 449828 205948 198"
"172.59728"
"$GPRMC,142001,A,2425.5764,N,08137.7169,W,2.5,129.0,210615,5.7,"
"##MN-00 00 05 0217 01799 7215 450067 205993 198"
"172.597326"
"$GPRMC,142005,A,2425.5746,N,08137.7144,W,2.6,129.3,210615,5.7,"
"##MN-00 00 05 0218 01802 7211 450730 206117 198"
"172.597373"
"$GPRMC,142009,A,2425.5726,N,08137.7119,W,2.6,129.7,210615,5.7,"
"##MN+00 00 05 0219 01800 7206 451522 206239 198"
"172.597419"
"$GPRMC,142014,A,2425.5701,N,08137.7088,W,2.7,130.1,210615,5.7,"
"##MN+00 00 05 0220 01802 7202 452099 206324 198"
"172.597465"
"$GPRMC,142018,A,2425.5681,N,08137.7063,W,2.7,130.2,210615,5.7,"
"##MN+00 00 05 0221 01799 7198 452471 206372 198"
"172.597512"
"$GPRMC,142021,A,2425.5667,N,08137.7043,W,2.8,130.0,210615,5.7,"
"##MN-00 00 05 0222 01802 7194 452505 206408 198"
"172.597558"
"$GPRMC,142026,A,2425.5641,N,08137.7010,W,2.8,129.5,210615,5.7,"
"##MN-00 00 05 0224 01800 7189 452276 206375 198"
"172.597604"
"$GPRMC,142029,A,2425.5627,N,08137.6990,W,2.8,129.4,210615,5.7,"
"##MN+00 00 05 0225 01802 7185 451826 206323 198"
"172.59765"
"$GPRMC,142033,A,2425.5606,N,08137.6964,W,2.8,129.4,210615,5.7,"
"##MN+00 00 05 0226 01799 7180 451532 206258 198"
"172.597697"
"$GPRMC,142038,A,2425.5580,N,08137.6930,W,2.9,128.9,210615,5.7,"
"##MN+00 00 05 0227 01803 7176 450999 206193 198"
"172.597743"
"$GPRMC,142042,A,2425.5559,N,08137.6903,W,2.9,128.8,210615,5.7,"
"##MN-00 00 05 0229 01803 7172 450673 206132 198"
"172.597789"
"#increment_net"
"$GPRMC,142046,A,2425.5537,N,08137.6875,W,2.9,128.9,210615,5.7,"
"##MN-00 00 05 0230 01808 7168 451049 206218 198"
"172.597836"
"$GPRMC,142050,A,2425.5516,N,08137.6847,W,2.9,129.3,210615,5.7,"
"##MN-00 00 05 0232 01815 7164 452949 206528 198"
"172.597882"
"$GPRMC,142054,A,2425.5495,N,08137.6818,W,2.9,129.4,210615,5.7,"
"##MN-00 00 05 0233 01821 7159 455279 206928 198"
"172.597928"
"$GPRMC,142058,A,2425.5475,N,08137.6791,W,2.9,129.6,210615,5.7,"
"##MN-00 00 05 0234 01827 7155 456456 207093 198"
"172.597975"
"$GPRMC,142102,A,2425.5451,N,08137.6762,W,2.9,130.1,210615,5.7,"
"##MN-00 00 05 0236 01833 7150 456882 207169 198"
"172.598021"
"$GPRMC,142106,A,2425.5429,N,08137.6734,W,2.9,129.8,210615,5.7,"
"##MN-00 00 05 0237 01837 7146 457063 207289 198"
"172.598067"
"$GPRMC,142110,A,2425.5408,N,08137.6707,W,2.9,129.3,210615,5.7,"
"##MN-00 00 05 0238 01843 7142 457117 207310 198"
"172.598113"
"$GPRMC,142114,A,2425.5386,N,08137.6677,W,3.0,129.2,210615,5.7,"
"##MN-00 00 05 0240 01843 7138 457199 207346 198"
"172.59816"
"$GPRMC,142118,A,2425.5365,N,08137.6649,W,3.0,129.3,210615,5.7,"
"##MN-00 00 05 0241 01842 7133 457418 207386 198"
"172.598206"
"$GPRMC,142122,A,2425.5345,N,08137.6620,W,3.0,129.6,210615,5.7,"
"##MN-00 00 04 0243 01840 7129 457463 207412 198"
"172.598252"
"$GPRMC,142126,A,2425.5324,N,08137.6591,W,3.0,129.5,210615,5.7,"
"##MN-00 00 04 0244 01839 7125 457511 207413 198"
"172.598299"
"$GPRMC,142130,A,2425.5302,N,08137.6563,W,3.0,129.3,210615,5.7,"
"##MN-00 00 04 0246 01838 7121 457430 207397 198"
"172.598345"
"$GPRMC,142134,A,2425.5281,N,08137.6535,W,3.0,129.1,210615,5.7,"
"##MN-00 00 49 0247 01838 7116 457250 207372 198"
"172.598391"
"$GPRMC,142138,A,2425.5260,N,08137.6507,W,3.0,128.8,210615,5.7,"
"##MN-00 00 07 0249 01834 7112 457001 207318 198"
"172.598438"
"$GPRMC,142142,A,2425.5238,N,08137.6478,W,3.1,128.6,210615,5.7,"
"##MN-00 00 05 0250 01831 7108 456631 207252 198"
"172.598484"
"$GPRMC,142146,A,2425.5217,N,08137.6449,W,3.1,128.6,210615,5.7,"
"##MN-00 00 06 0252 01829 7103 455995 207117 198"
"172.59853"
"$GPRMC,142150,A,2425.5194,N,08137.6418,W,3.1,128.4,210615,5.7,"
"##MN-00 00 04 0253 01823 7099 454832 206879 198"
"172.598576"
"$GPRMC,142154,A,2425.5173,N,08137.6389,W,3.1,128.3,210615,5.7,"
"##MN-00 00 04 0255 01820 7095 453776 206686 198"
"172.598623"
"$GPRMC,142158,A,2425.5151,N,08137.6360,W,3.1,128.5,210615,5.7,"
"##MN-00 00 04 0256 01818 7091 453122 206589 198"
"172.598669"
"$GPRMC,142202,A,2425.5129,N,08137.6331,W,3.1,128.5,210615,5.7,"
"##MN-00 00 04 0258 01816 7086 452572 206473 198"
"172.598715"
"$GPRMC,142206,A,2425.5108,N,08137.6303,W,3.1,128.6,210615,5.7,"
"##MN-00 00 04 0259 01814 7082 451777 206355 198"
"172.598762"
"$GPRMC,142210,A,2425.5087,N,08137.6274,W,3.0,129.1,210615,5.7,"
"##MN-00 00 04 0261 01811 7078 450776 206189 198"
"172.598808"
"$GPRMC,142214,A,2425.5067,N,08137.6246,W,3.0,129.3,210615,5.7,"
"##MN-00 00 04 0262 01804 7073 450218 206095 198"
"172.598854"
"$GPRMC,142218,A,2425.5046,N,08137.6219,W,3.0,129.1,210615,5.7,"
"##MN-00 00 04 0264 01800 7069 449878 206013 198"
"172.5989"
"$GPRMC,142222,A,2425.5024,N,08137.6191,W,3.0,129.3,210615,5.7,"
"##MN-00 00 02 0265 01801 7065 449752 205989 197"
"172.598947"
"$GPRMC,142226,A,2425.5004,N,08137.6164,W,3.0,129.5,210615,5.7,"
"##MN-00 00 03 0267 01794 7060 449751 205973 198"
"172.598993"
"$GPRMC,142230,A,2425.4984,N,08137.6137,W,3.0,129.7,210615,5.7,"
"##MN-00 00 04 0268 01789 7056 449725 205973 198"
"172.599039"
"$GPRMC,142234,A,2425.4963,N,08137.6110,W,2.9,129.6,210615,5.7,"
"##MN-00 00 04 0269 01788 7052 449675 205958 198"
"172.599086"
"$GPRMC,142238,A,2425.4944,N,08137.6083,W,2.9,129.3,210615,5.7,"
"##MN-00 00 03 0271 01786 7048 449568 205936 198"
"172.599132"
"$GPRMC,142242,A,2425.4924,N,08137.6056,W,2.9,128.8,210615,5.7,"
"##MN-00 00 03 0272 01782 7044 449450 205913 198"
"172.599178"
"$GPRMC,142246,A,2425.4904,N,08137.6028,W,2.9,128.4,210615,5.7,"
"##MN-00 00 03 0274 01780 7040 449335 205894 198"
"172.599225"
"$GPRMC,142250,A,2425.4885,N,08137.6001,W,2.9,128.1,210615,5.7,"
"##MN-00 00 03 0275 01773 7035 449270 205881 198"
"172.599271"
"$GPRMC,142254,A,2425.4865,N,08137.5974,W,2.9,128.0,210615,5.7,"
"##MN-00 00 03 0277 01772 7032 449158 205849 198"
"172.599317"
"$GPRMC,142258,A,2425.4846,N,08137.5946,W,3.0,127.9,210615,5.7,"
"##MN-00 00 03 0278 01767 7028 449005 205820 198"
"172.599363"
"$GPRMC,142302,A,2425.4827,N,08137.5919,W,3.0,127.4,210615,5.7,"
"##MN-00 00 03 0280 01766 7024 448900 205795 198"
"172.59941"
"$GPRMC,142306,A,2425.4807,N,08137.5890,W,3.0,127.1,210615,5.7,"
"##MN-00 00 03 0281 01762 7020 448775 205772 198"
"172.599456"
"$GPRMC,142310,A,2425.4789,N,08137.5862,W,2.9,126.9,210615,5.7,"
"##MN-00 00 03 0282 01759 7016 448625 205751 198"
"172.599502"
"$GPRMC,142314,A,2425.4768,N,08137.5834,W,2.9,126.7,210615,5.7,"
"##MN-00 00 03 0284 01754 7012 448544 205733 198"
"172.599549"
"$GPRMC,142318,A,2425.4751,N,08137.5809,W,2.9,127.1,210615,5.7,"
"##MN-00 00 03 0285 01754 7008 448526 205731 198"
"172.599595"
"$GPRMC,142322,A,2425.4731,N,08137.5781,W,2.9,126.1,210615,5.7,"
"##MN-00 00 03 0287 01751 7004 448553 205735 198"
"172.599641"
"$GPRMC,142326,A,2425.4710,N,08137.5749,W,2.9,125.1,210615,5.7,"
"##MN-00 00 03 0288 01745 7000 448584 205740 198"
"172.599687"
"$GPRMC,142330,A,2425.4688,N,08137.5717,W,2.9,125.5,210615,5.7,"
"##MN-00 00 03 0290 01743 6996 448605 205740 198"
"172.599734"
"$GPRMC,142334,A,2425.4668,N,08137.5686,W,3.0,125.4,210615,5.7,"
"##MN-00 00 03 0291 01739 6992 448561 205734 198"
"172.59978"
"$GPRMC,142338,A,2425.4649,N,08137.5653,W,3.0,124.5,210615,5.7,"
"##MN-00 00 02 0293 01734 6988 448374 205704 198"
"172.599826"
"$GPRMC,142342,A,2425.4630,N,08137.5620,W,3.1,123.6,210615,5.7,"
"##MN-00 00 02 0294 01733 6985 448108 205649 198"
"172.599873"
"$GPRMC,142346,A,2425.4612,N,08137.5589,W,3.1,123.4,210615,5.7,"
"##MN-00 00 02 0296 01725 6981 447956 205630 198"
"172.599919"
"$GPRMC,142350,A,2425.4591,N,08137.5556,W,3.1,123.9,210615,5.7,"
"##MN-00 00 02 0297 01722 6977 447943 205629 198"
"172.599965"
"$GPRMC,142354,A,2425.4570,N,08137.5524,W,3.1,124.2,210615,5.7,"
"##MN-00 00 02 0299 01718 6973 448021 205641 198"
"172.600012"
"$GPRMC,142358,A,2425.4550,N,08137.5493,W,3.1,123.6,210615,5.7,"
"##MN-00 00 02 0300 01712 6969 447928 205619 198"
"172.600058"
"$GPRMC,142402,A,2425.4536,N,08137.5468,W,3.2,123.5,210615,5.7,"
"##MN-00 00 02 0302 01708 6966 447494 205514 198"
"172.600104"
"$GPRMC,142406,A,2425.4516,N,08137.5436,W,3.2,123.9,210615,5.7,"
"##MN-00 00 05 0304 01704 6962 446743 205387 198"
"172.60015"
"$GPRMC,142410,A,2425.4491,N,08137.5396,W,3.2,124.8,210615,5.7,"
"##MN-00 00 28 0305 01701 6958 445875 205282 198"
"172.600197"
"$GPRMC,142414,A,2425.4471,N,08137.5363,W,3.3,125.3,210615,5.7,"
"##MN-00 00 03 0307 01695 6955 445506 205229 198"
"172.600243"
"$GPRMC,142418,A,2425.4450,N,08137.5333,W,3.2,125.3,210615,5.7,"
"##MN-00 00 03 0308 01690 6951 445327 205192 198"
"172.600289"
"$GPRMC,142422,A,2425.4429,N,08137.5302,W,3.2,125.3,210615,5.7,"
"##MN-00 00 04 0310 01686 6948 445245 205167 198"
"172.600336"
"$GPRMC,142426,A,2425.4408,N,08137.5270,W,3.2,125.3,210615,5.7,"
"##MN-00 00 44 0311 01681 6944 445135 205154 198"
"172.600394"
"$GPRMC,142430,A,2425.4388,N,08137.5240,W,3.2,125.7,210615,5.7,"
"##MN-00 00 04 0313 01676 6941 445105 205151 198"
"172.60044"
"$GPRMC,142434,A,2425.4367,N,08137.5208,W,3.1,126.2,210615,5.7,"
"##MN-00 00 03 0314 01674 6937 445085 205147 198"
"172.600486"
"$GPRMC,142438,A,2425.4346,N,08137.5177,W,3.1,126.9,210615,5.7,"
"##MN-00 00 03 0316 01668 6933 445076 205150 198"
"172.600532"
"$GPRMC,142442,A,2425.4323,N,08137.5146,W,3.2,127.5,210615,5.7,"
"##MN-00 00 04 0317 01664 6930 445049 205135 198"
"172.600579"
"$GPRMC,142446,A,2425.4301,N,08137.5114,W,3.2,127.9,210615,5.7,"
"##MN-00 00 05 0319 01661 6926 444994 205125 198"
"172.600625"
"$GPRMC,142450,A,2425.4279,N,08137.5084,W,3.2,128.2,210615,5.7,"
"##MN-00 00 03 0321 01657 6923 444975 205120 198"
"172.600671"
"$GPRMC,142454,A,2425.4258,N,08137.5052,W,3.2,128.2,210615,5.7,"
"##MN-00 00 03 0322 01652 6919 444930 205112 198"
"172.600718"
"$GPRMC,142459,A,2425.4229,N,08137.5014,W,3.2,127.8,210615,5.7,"
"##MN-00 00 03 0324 01649 6916 444844 205087 198"
"172.600764"
"$GPRMC,142502,A,2425.4212,N,08137.4989,W,3.3,127.9,210615,5.7,"
"##MN-00 00 03 0325 01645 6913 444678 205043 198"
"172.60081"
"$GPRMC,142507,A,2425.4186,N,08137.4951,W,3.2,127.0,210615,5.7,"
"##MN-00 00 04 0327 01639 6910 444495 205017 198"
"172.600856"
"$GPRMC,142511,A,2425.4165,N,08137.4919,W,3.2,126.6,210615,5.7,"
"##MN-00 00 04 0329 01635 6906 444409 204996 198"
"172.600903"
"$GPRMC,142515,A,2425.4144,N,08137.4887,W,3.2,126.4,210615,5.7,"
"##MN-00 00 03 0330 01632 6903 444367 204988 198"
"172.600949"
"$GPRMC,142519,A,2425.4124,N,08137.4855,W,3.2,125.9,210615,5.7,"
"##MN-00 00 03 0332 01627 6900 444339 204978 198"
"172.600995"
"$GPRMC,142523,A,2425.4103,N,08137.4823,W,3.2,125.6,210615,5.7,"
"##MN-00 00 04 0333 01626 6896 444301 204976 198"
"172.601042"
"$GPRMC,142527,A,2425.4084,N,08137.4791,W,3.2,125.3,210615,5.7,"
"##MN-00 00 03 0335 01622 6893 444246 204975 198"
"172.601088"
"$GPRMC,142531,A,2425.4063,N,08137.4757,W,3.2,124.8,210615,5.7,"
"##MN-00 00 03 0337 01618 6890 444205 204989 198"
"172.601134"
"$GPRMC,142535,A,2425.4043,N,08137.4725,W,3.2,124.0,210615,5.7,"
"##MN-00 00 03 0338 01612 6887 444179 204998 198"
"172.601181"
"$GPRMC,142539,A,2425.4027,N,08137.4694,W,3.2,123.3,210615,5.7,"
"##MN-00 00 03 0340 01614 6884 444140 205009 198"
"172.601227"
"$GPRMC,142543,A,2425.4007,N,08137.4660,W,3.2,123.0,210615,5.7,"
"##MN-00 00 03 0341 01608 6881 444108 205017 198"
"172.601273"
"$GPRMC,142547,A,2425.3987,N,08137.4625,W,3.1,122.7,210615,5.7,"
"##MN-00 00 03 0343 01602 6877 444084 205040 198"
"172.601319"
"$GPRMC,142551,A,2425.3967,N,08137.4593,W,3.1,122.1,210615,5.7,"
"##MN-00 00 03 0344 01601 6874 444079 205048 198"
"172.601366"
"$GPRMC,142555,A,2425.3948,N,08137.4559,W,3.1,121.6,210615,5.7,"
"##MN-00 00 03 0346 01598 6871 444072 205058 198"
"172.601412"
"$GPRMC,142559,A,2425.3929,N,08137.4525,W,3.2,120.8,210615,5.7,"
"##MN-00 00 03 0347 01595 6868 444036 205062 198"
"172.601458"
"$GPRMC,142603,A,2425.3911,N,08137.4492,W,3.2,120.5,210615,5.7,"
"##MN-00 00 03 0349 01591 6865 444004 205065 198"
"172.601505"
"$GPRMC,142607,A,2425.3896,N,08137.4461,W,3.2,120.9,210615,5.7,"
"##MN-00 00 03 0350 01590 6862 443990 205071 198"
"172.601551"
"$GPRMC,142611,A,2425.3876,N,08137.4426,W,3.2,121.3,210615,5.7,"
"##MN-00 00 03 0352 01584 6859 443981 205078 198"
"172.601597"
"$GPRMC,142615,A,2425.3855,N,08137.4391,W,3.2,121.4,210615,5.7,"
"##MN-00 00 03 0353 01579 6856 443974 205083 198"
"172.601644"
"$GPRMC,142619,A,2425.3835,N,08137.4356,W,3.2,122.3,210615,5.7,"
"##MN-00 00 03 0355 01574 6853 443974 205090 198"
"172.60169"
"$GPRMC,142623,A,2425.3814,N,08137.4322,W,3.2,122.7,210615,5.7,"
"##MN-00 00 03 0356 01574 6850 443973 205090 198"
"172.601736"
"$GPRMC,142627,A,2425.3793,N,08137.4288,W,3.2,123.1,210615,5.7,"
"##MN-00 00 03 0358 01571 6847 443973 205095 198"
"172.601782"
"$GPRMC,142631,A,2425.3772,N,08137.4254,W,3.3,123.6,210615,5.7,"
"##MN-00 00 03 0359 01564 6844 443970 205104 198"
"172.601829"
"$GPRMC,142635,A,2425.3752,N,08137.4220,W,3.3,124.0,210615,5.7,"
"##MN-00 00 03 0361 01561 6841 443961 205113 198"
"172.601875"
"$GPRMC,142639,A,2425.3731,N,08137.4186,W,3.3,124.4,210615,5.7,"
"##MN-00 00 03 0363 01557 6838 443948 205122 198"
"172.601921"
"$GPRMC,142643,A,2425.3710,N,08137.4153,W,3.3,124.6,210615,5.7,"
"##MN-00 00 03 0364 01553 6835 443933 205126 198"
"172.601968"
"$GPRMC,142647,A,2425.3689,N,08137.4121,W,3.3,125.1,210615,5.7,"
"##MN-00 00 03 0366 01549 6832 443921 205127 198"
"172.602014"
"$GPRMC,142651,A,2425.3669,N,08137.4089,W,3.3,125.3,210615,5.7,"
"##MN-00 00 03 0367 01546 6829 443903 205127 198"
"172.60206"
"$GPRMC,142655,A,2425.3647,N,08137.4057,W,3.3,125.0,210615,5.7,"
"##MN-00 00 03 0369 01540 6826 443863 205124 198"
"172.602106"
"$GPRMC,142659,A,2425.3626,N,08137.4025,W,3.2,125.1,210615,5.7,"
"##MN-00 00 03 0370 01538 6824 443836 205123 198"
"172.602153"
"$GPRMC,142703,A,2425.3607,N,08137.3993,W,3.2,125.0,210615,5.7,"
"##MN-00 00 03 0372 01536 6821 443814 205119 198"
"172.602199"
"$GPRMC,142707,A,2425.3587,N,08137.3962,W,3.2,124.5,210615,5.7,"
"##MN-00 00 03 0373 01531 6818 443711 205094 198"
"172.602245"
"$GPRMC,142711,A,2425.3569,N,08137.3932,W,3.1,124.7,210615,5.7,"
"##MN-00 00 03 0375 01527 6815 443713 205105 198"
"172.602292"
"$GPRMC,142715,A,2425.3550,N,08137.3900,W,3.1,124.6,210615,5.7,"
"##MN-00 00 03 0376 01522 6812 443683 205097 198"
"172.602338"
"$GPRMC,142719,A,2425.3529,N,08137.3868,W,3.2,124.6,210615,5.7,"
"##MN-00 00 04 0378 01522 6809 443615 205084 198"
"172.602384"
"$GPRMC,142723,A,2425.3508,N,08137.3836,W,3.2,124.9,210615,5.7,"
"##MN-00 00 04 0379 01522 6807 443495 205065 198"
"172.602431"
"$GPRMC,142727,A,2425.3486,N,08137.3803,W,3.2,124.9,210615,5.7,"
"##MN-00 00 04 0380 01523 6804 443411 205052 198"
