" Tow: 9WM   RVWS/WS15161"
" Date: 21/06/2015"
" Temperature Probe #  4762    Conductivity Probe #  710"
" Pressure Probe #  188"
" Flow Meter Calibration  4.71 (m/count)  "
"172.827419"
"$GPRMC,195125,A,2426.2411,N,08131.4948,W,3.1,138.5,210615,5.8,"
"##MN-00 00 42 0000 02680 5536 562632 024408 200"
"172.827465"
"$GPRMC,195130,A,2426.2373,N,08131.4914,W,3.1,138.6,210615,5.8,"
"##MN-00 00 26 0000 02681 5535 127856 024361 200"
"172.827512"
"$GPRMC,195134,A,2426.2345,N,08131.4887,W,3.1,139.1,210615,5.8,"
"##MN-00 00 07 0000 02681 5535 515376 024353 200"
"172.827558"
"$GPRMC,195138,A,2426.2320,N,08131.4862,W,3.1,139.2,210615,5.8,"
"##MN-00 00 00 0000 02682 5534 813608 024348 200"
"172.827604"
"$GPRMC,195142,A,2426.2296,N,08131.4838,W,3.1,139.0,210615,5.8,"
"##MN-00 00 03 0000 02683 5533 829208 024343 200"
"172.82765"
"$GPRMC,195146,A,2426.2271,N,08131.4813,W,3.1,138.5,210615,5.8,"
"##MN-00 00 07 0000 02681 5533 270800 024333 200"
"172.827697"
"$GPRMC,195150,A,2426.2246,N,08131.4788,W,3.2,138.1,210615,5.8,"
"##MN-00 00 09 0000 02685 5532 465608 024340 200"
"172.827743"
"$GPRMC,195154,A,2426.2221,N,08131.4761,W,3.1,137.4,210615,5.8,"
"##MN-00 00 24 0000 02683 5532 281616 024346 200"
"172.827789"
"$GPRMC,195158,A,2426.2195,N,08131.4734,W,3.1,137.2,210615,5.8,"
"##MN-00 00 48 0000 02683 5531 854992 024334 200"
"172.827836"
"$GPRMC,195202,A,2426.2170,N,08131.4708,W,3.1,136.7,210615,5.8,"
"##MN-00 00 45 0000 02684 5530 486296 024333 200"
"172.827882"
"$GPRMC,195206,A,2426.2148,N,08131.4683,W,3.1,136.2,210615,5.8,"
"##MN-00 00 43 0000 02683 5530 596112 024331 200"
"172.827928"
"$GPRMC,195210,A,2426.2124,N,08131.4659,W,3.0,135.7,210615,5.8,"
"##MN-00 00 43 0001 02681 5529 888432 024328 200"
"172.827975"
"$GPRMC,195214,A,2426.2101,N,08131.4635,W,3.0,135.4,210615,5.8,"
"##MN-00 00 43 0002 02681 5529 898928 024334 200"
"172.828021"
"$GPRMC,195218,A,2426.2077,N,08131.4609,W,3.0,135.3,210615,5.8,"
"##MN-00 00 43 0003 02683 5528 901768 024350 200"
"172.828067"
"$GPRMC,195222,A,2426.2054,N,08131.4584,W,2.9,135.2,210615,5.8,"
"##MN-00 00 43 0004 02682 5527 916368 024330 200"
"172.828113"
"$GPRMC,195226,A,2426.2030,N,08131.4559,W,2.9,135.0,210615,5.8,"
"##MN-00 00 43 0004 02683 5526 367696 024337 200"
"172.82816"
"$GPRMC,195230,A,2426.2007,N,08131.4534,W,2.9,135.2,210615,5.8,"
"##MN-00 00 43 0005 02681 5526 944336 024318 200"
"172.828206"
"$GPRMC,195234,A,2426.1983,N,08131.4508,W,2.9,135.3,210615,5.8,"
"##MN-00 00 43 0006 02683 5525 955744 024333 200"
"172.828252"
"$GPRMC,195238,A,2426.1960,N,08131.4483,W,2.9,135.5,210615,5.8,"
"##MN-00 00 44 0007 02683 5524 958176 024341 200"
"172.828299"
"$GPRMC,195242,A,2426.1935,N,08131.4458,W,2.9,136.1,210615,5.8,"
"##MN-00 00 44 0008 02683 5524 596728 024326 200"
"172.828345"
"$GPRMC,195246,A,2426.1910,N,08131.4433,W,2.9,136.4,210615,5.8,"
"##MN-00 00 44 0009 02682 5523 992112 024335 200"
"172.828391"
"$GPRMC,195250,A,2426.1888,N,08131.4410,W,2.9,136.6,210615,5.8,"
"##MN-00 00 44 0010 02684 5523 005840 024317 200"
"172.828437"
"$GPRMC,195254,A,2426.1863,N,08131.4386,W,2.9,137.1,210615,5.8,"
"##MN-00 00 44 0011 02682 5522 012480 024344 200"
"172.828484"
"$GPRMC,195258,A,2426.1839,N,08131.4363,W,2.9,137.1,210615,5.8,"
"##MN-00 00 44 0011 02684 5521 017768 024321 200"
"172.82853"
"$GPRMC,195302,A,2426.1814,N,08131.4340,W,2.8,137.4,210615,5.8,"
"##MN-00 00 44 0012 02685 5521 757344 024318 200"
"172.828576"
"$GPRMC,195306,A,2426.1794,N,08131.4319,W,2.9,138.1,210615,5.8,"
"##MN-00 00 44 0013 02686 5520 046736 024313 200"
"172.828623"
"$GPRMC,195310,A,2426.1769,N,08131.4296,W,2.9,138.4,210615,5.8,"
"##MN-00 00 44 0014 02686 5520 011208 024296 200"
"172.828669"
"$GPRMC,195314,A,2426.1747,N,08131.4273,W,2.9,138.0,210615,5.8,"
"##MN-00 00 44 0015 02684 5519 016192 024323 200"
"172.828715"
"$GPRMC,195318,A,2426.1723,N,08131.4252,W,2.9,138.3,210615,5.8,"
"##MN-00 00 44 0016 02687 5519 019008 024307 200"
"172.828762"
"$GPRMC,195322,A,2426.1700,N,08131.4229,W,2.9,138.3,210615,5.8,"
"##MN-00 00 44 0016 02685 5518 039616 024300 200"
"172.828808"
"$GPRMC,195326,A,2426.1674,N,08131.4207,W,2.9,137.9,210615,5.8,"
"##MN-00 00 44 0017 02687 5518 048272 024299 200"
"172.828854"
"$GPRMC,195330,A,2426.1649,N,08131.4183,W,2.9,137.9,210615,5.8,"
"##MN-00 00 44 0018 02687 5517 057856 024289 200"
"172.8289"
"$GPRMC,195334,A,2426.1624,N,08131.4158,W,2.9,137.6,210615,5.8,"
"##MN-00 00 44 0019 02686 5517 070080 024292 200"
"172.828947"
"$GPRMC,195338,A,2426.1600,N,08131.4134,W,2.9,137.2,210615,5.8,"
"##MN-00 00 44 0020 02689 5516 350712 024313 200"
"172.829005"
"$GPRMC,195342,A,2426.1577,N,08131.4108,W,2.8,136.9,210615,5.8,"
"##MN-00 00 45 0020 02689 5516 078432 024313 200"
"172.829051"
"$GPRMC,195346,A,2426.1555,N,08131.4084,W,2.9,136.9,210615,5.8,"
"##MN-00 00 45 0021 02690 5516 092496 024302 200"
"172.829097"
"$GPRMC,195350,A,2426.1535,N,08131.4059,W,2.9,137.1,210615,5.8,"
"##MN-00 00 46 0022 02689 5516 098520 024291 200"
"172.829144"
"$GPRMC,195354,A,2426.1514,N,08131.4035,W,2.8,137.0,210615,5.8,"
"##MN-00 00 46 0023 02691 5515 106352 024288 200"
"172.82919"
"$GPRMC,195358,A,2426.1492,N,08131.4010,W,2.8,137.0,210615,5.8,"
"##MN-00 00 46 0024 02691 5515 116400 024278 200"
"172.829236"
"$GPRMC,195402,A,2426.1470,N,08131.3986,W,2.8,137.3,210615,5.8,"
"##MN-00 00 46 0025 02691 5515 127280 024281 200"
"172.829282"
"$GPRMC,195406,A,2426.1448,N,08131.3962,W,2.8,137.3,210615,5.8,"
"##MN-00 00 47 0025 02694 5515 126224 024302 200"
"172.829329"
"$GPRMC,195410,A,2426.1426,N,08131.3939,W,2.7,137.5,210615,5.8,"
"##MN-00 00 47 0026 02695 5514 126976 024310 200"
"172.829375"
"$GPRMC,195414,A,2426.1404,N,08131.3915,W,2.8,137.4,210615,5.8,"
"##MN-00 00 47 0027 02696 5515 141056 024290 200"
"172.829421"
"$GPRMC,195418,A,2426.1389,N,08131.3897,W,2.7,136.9,210615,5.8,"
"##MN-00 00 47 0028 02697 5514 150232 024293 200"
"172.829468"
"$GPRMC,195422,A,2426.1359,N,08131.3869,W,2.7,136.8,210615,5.8,"
"##MN-00 00 47 0029 02698 5515 158504 024290 200"
"172.829514"
"$GPRMC,195426,A,2426.1337,N,08131.3846,W,2.7,136.6,210615,5.8,"
"##MN-00 00 47 0029 02699 5514 163632 024300 200"
"172.82956"
"$GPRMC,195430,A,2426.1314,N,08131.3822,W,2.8,136.2,210615,5.8,"
"##MN-00 00 47 0030 02699 5514 558080 024292 200"
"172.829606"
"$GPRMC,195434,A,2426.1292,N,08131.3797,W,2.8,136.2,210615,5.8,"
"##MN-00 00 47 0031 02702 5514 182944 024309 200"
"172.829653"
"$GPRMC,195438,A,2426.1268,N,08131.3773,W,2.8,136.2,210615,5.8,"
"##MN-00 00 47 0032 02704 5514 461432 024321 200"
"172.829699"
"$GPRMC,195442,A,2426.1245,N,08131.3749,W,2.8,135.8,210615,5.8,"
"##MN-00 00 47 0033 02704 5515 182088 024330 200"
"172.829745"
"$GPRMC,195446,A,2426.1223,N,08131.3725,W,2.8,135.8,210615,5.8,"
"##MN-00 00 47 0034 02707 5515 959120 024325 200"
"172.829792"
"$GPRMC,195450,A,2426.1199,N,08131.3701,W,2.8,135.7,210615,5.8,"
"##MN-00 00 47 0034 02707 5515 342792 024322 200"
"172.829838"
"$GPRMC,195454,A,2426.1176,N,08131.3676,W,2.8,135.6,210615,5.8,"
"##MN-00 00 47 0035 02709 5515 208880 024325 200"
"172.829884"
"$GPRMC,195458,A,2426.1152,N,08131.3652,W,2.9,135.3,210615,5.8,"
"##MN-00 00 47 0036 02711 5515 212328 024321 200"
"172.829931"
"$GPRMC,195502,A,2426.1129,N,08131.3627,W,2.9,135.6,210615,5.8,"
"##MN-00 00 48 0037 02713 5515 884096 024315 200"
"172.829977"
"$GPRMC,195506,A,2426.1105,N,08131.3602,W,2.9,135.7,210615,5.8,"
"##MN-00 00 47 0038 02715 5516 784528 024322 200"
"172.830023"
"$GPRMC,195510,A,2426.1082,N,08131.3578,W,2.9,135.4,210615,5.8,"
"##MN-00 00 47 0039 02717 5516 621248 024306 200"
"172.830069"
"$GPRMC,195515,A,2426.1053,N,08131.3549,W,2.8,136.3,210615,5.8,"
"##MN-00 00 47 0040 02718 5516 794144 024337 200"
"172.830116"
"$GPRMC,195519,A,2426.1030,N,08131.3527,W,2.8,137.3,210615,5.8,"
"##MN-00 00 47 0040 02721 5516 235400 024332 200"
"172.830162"
"$GPRMC,195523,A,2426.1008,N,08131.3506,W,2.8,138.0,210615,5.8,"
"##MN-00 00 48 0041 02722 5517 463344 024338 200"
"172.830208"
"$GPRMC,195527,A,2426.0982,N,08131.3481,W,2.8,138.1,210615,5.8,"
"##MN-00 00 48 0042 02725 5517 349136 024328 200"
"172.830255"
"$GPRMC,195531,A,2426.0959,N,08131.3457,W,2.8,137.9,210615,5.8,"
"##MN-00 00 48 0043 02729 5517 673312 024330 200"
"172.830301"
"$GPRMC,195535,A,2426.0938,N,08131.3436,W,2.8,137.7,210615,5.8,"
"##MN-00 00 48 0044 02729 5518 264704 024314 200"
"172.830347"
"$GPRMC,195539,A,2426.0914,N,08131.3415,W,2.8,137.9,210615,5.8,"
"##MN-00 00 48 0045 02732 5518 788552 024320 200"
"172.830394"
"$GPRMC,195543,A,2426.0891,N,08131.3394,W,2.8,138.3,210615,5.8,"
"##MN-00 00 48 0045 02736 5519 935904 024320 200"
"172.83044"
"$GPRMC,195547,A,2426.0869,N,08131.3373,W,2.8,138.7,210615,5.8,"
"##MN-00 00 48 0046 02738 5519 278592 024315 200"
"172.830486"
"$GPRMC,195551,A,2426.0845,N,08131.3350,W,2.8,138.5,210615,5.8,"
"##MN-00 00 48 0047 02742 5519 557336 024309 200"
"172.830532"
"$GPRMC,195555,A,2426.0823,N,08131.3326,W,2.8,138.1,210615,5.8,"
"##MN-00 00 48 0048 02747 5520 567480 024271 200"
"172.830579"
"$GPRMC,195559,A,2426.0801,N,08131.3305,W,2.8,137.5,210615,5.8,"
"##MN-00 00 48 0049 02750 5520 568288 024305 200"
"172.830625"
"$GPRMC,195603,A,2426.0781,N,08131.3286,W,2.8,137.3,210615,5.8,"
"##MN-00 00 47 0050 02753 5521 571192 024332 200"
"172.830671"
"$GPRMC,195607,A,2426.0761,N,08131.3265,W,2.8,137.2,210615,5.8,"
"##MN-00 00 48 0050 02755 5521 567216 024335 200"
"172.830718"
"$GPRMC,195611,A,2426.0739,N,08131.3240,W,2.8,136.8,210615,5.8,"
"##MN-00 00 48 0051 02758 5522 431488 024334 200"
"172.830764"
"$GPRMC,195615,A,2426.0717,N,08131.3215,W,2.8,136.3,210615,5.8,"
"##MN-00 00 48 0052 02762 5522 168312 024310 200"
"172.83081"
"$GPRMC,195619,A,2426.0693,N,08131.3189,W,2.8,136.2,210615,5.8,"
"##MN-00 00 47 0053 02767 5523 867328 024305 200"
"172.830856"
"$GPRMC,195623,A,2426.0669,N,08131.3163,W,2.8,135.9,210615,5.8,"
"##MN-00 00 47 0054 02771 5523 319672 024313 200"
"172.830903"
"$GPRMC,195627,A,2426.0647,N,08131.3139,W,2.8,135.3,210615,5.8,"
"##MN-00 00 48 0054 02775 5524 043280 024301 200"
"172.830949"
"$GPRMC,195631,A,2426.0625,N,08131.3115,W,2.8,135.0,210615,5.8,"
"##MN-00 00 48 0055 02780 5525 326176 024295 200"
"172.830995"
"$GPRMC,195635,A,2426.0603,N,08131.3090,W,2.8,135.2,210615,5.8,"
"##MN-00 00 47 0056 02783 5525 744816 024295 200"
"172.831042"
"$GPRMC,195639,A,2426.0580,N,08131.3065,W,2.8,135.0,210615,5.8,"
"##MN-00 00 47 0057 02785 5526 331248 024286 200"
"172.831088"
"$GPRMC,195643,A,2426.0558,N,08131.3040,W,2.8,134.9,210615,5.8,"
"##MN-00 00 47 0058 02791 5526 479352 024293 200"
"172.831134"
"$GPRMC,195647,A,2426.0534,N,08131.3014,W,2.8,134.9,210615,5.8,"
"##MN-00 00 47 0059 02796 5527 125088 024232 200"
"172.831181"
"$GPRMC,195651,A,2426.0515,N,08131.2991,W,2.8,135.4,210615,5.8,"
"##MN-00 00 47 0059 02800 5528 347784 024238 200"
"172.831227"
"$GPRMC,195655,A,2426.0491,N,08131.2966,W,2.8,135.5,210615,5.8,"
"##MN-00 00 47 0060 02803 5529 350248 024329 200"
"172.831273"
"$GPRMC,195659,A,2426.0468,N,08131.2943,W,2.8,136.3,210615,5.8,"
"##MN-00 00 48 0061 02808 5529 623248 024316 200"
"172.831319"
"$GPRMC,195703,A,2426.0446,N,08131.2921,W,2.8,136.4,210615,5.8,"
"##MN-00 00 48 0062 02811 5530 487096 024314 200"
"172.831366"
"$GPRMC,195707,A,2426.0423,N,08131.2898,W,2.8,136.5,210615,5.8,"
"##MN-00 00 47 0063 02816 5531 901184 024336 200"
"172.831412"
"$GPRMC,195711,A,2426.0400,N,08131.2876,W,2.8,137.5,210615,5.8,"
"##MN-00 00 47 0064 02822 5531 211880 024318 200"
"172.831458"
"$GPRMC,195715,A,2426.0378,N,08131.2854,W,2.8,138.0,210615,5.8,"
"##MN-00 00 47 0064 02827 5532 361096 024304 200"
"172.831505"
"$GPRMC,195719,A,2426.0356,N,08131.2833,W,2.8,139.2,210615,5.8,"
"##MN-00 00 47 0065 02830 5533 369504 024292 200"
"172.831551"
"$GPRMC,195723,A,2426.0331,N,08131.2813,W,2.7,140.2,210615,5.8,"
"##MN-00 00 47 0066 02833 5533 507784 024292 200"
"172.831597"
"$GPRMC,195727,A,2426.0305,N,08131.2793,W,2.7,141.2,210615,5.8,"
"##MN-00 00 47 0067 02836 5534 927744 024303 200"
"172.831644"
"$GPRMC,195731,A,2426.0282,N,08131.2772,W,2.7,142.3,210615,5.8,"
"##MN-00 00 47 0068 02845 5535 378328 024255 200"
"172.83169"
"$GPRMC,195735,A,2426.0260,N,08131.2753,W,2.7,142.6,210615,5.8,"
"##MN-00 00 47 0068 02848 5536 241920 024282 200"
"172.831736"
"$GPRMC,195739,A,2426.0237,N,08131.2734,W,2.7,142.7,210615,5.8,"
"##MN-00 00 48 0069 02851 5537 657552 024277 200"
"172.831782"
"$GPRMC,195743,A,2426.0213,N,08131.2713,W,2.6,143.0,210615,5.8,"
"##MN-00 00 48 0070 02859 5537 663136 024249 200"
"172.831829"
"$GPRMC,195747,A,2426.0190,N,08131.2693,W,2.6,143.3,210615,5.8,"
"##MN-00 00 48 0071 02861 5538 111712 024259 200"
"172.831875"
"$GPRMC,195751,A,2426.0165,N,08131.2674,W,2.6,143.5,210615,5.8,"
"##MN-00 00 48 0072 02866 5539 394656 024282 200"
"172.831921"
"$GPRMC,195755,A,2426.0141,N,08131.2653,W,2.7,143.6,210615,5.8,"
"##MN-00 00 48 0073 02871 5539 676856 024288 200"
"172.831968"
"$GPRMC,195759,A,2426.0118,N,08131.2634,W,2.6,143.5,210615,5.8,"
"##MN-00 00 48 0073 02875 5541 309312 024264 200"
"172.832014"
"$GPRMC,195803,A,2426.0094,N,08131.2614,W,2.6,143.2,210615,5.8,"
"##MN-00 00 48 0074 02881 5541 454760 024262 200"
"172.83206"
"$GPRMC,195807,A,2426.0071,N,08131.2595,W,2.6,143.2,210615,5.8,"
"##MN-00 00 48 0075 02885 5542 679616 024265 200"
"172.832118"
"$GPRMC,195811,A,2426.0047,N,08131.2576,W,2.6,142.9,210615,5.8,"
"##MN-00 00 47 0076 02889 5543 406056 024266 200"
"172.832164"
"$GPRMC,195815,A,2426.0024,N,08131.2556,W,2.6,143.1,210615,5.8,"
"##MN-00 00 47 0077 02892 5544 128384 024254 200"
"172.832211"
"$GPRMC,195819,A,2426.0000,N,08131.2537,W,2.6,143.1,210615,5.8,"
"##MN-00 00 47 0077 02898 5545 406856 024272 200"
"172.832257"
"$GPRMC,195823,A,2425.9978,N,08131.2519,W,2.6,142.4,210615,5.8,"
"##MN-00 00 47 0078 02902 5545 681080 024255 200"
"172.832303"
"$GPRMC,195827,A,2425.9955,N,08131.2499,W,2.6,141.9,210615,5.8,"
"##MN-00 00 46 0079 02906 5546 406304 024270 200"
"172.83235"
"$GPRMC,195831,A,2425.9932,N,08131.2479,W,2.6,141.4,210615,5.8,"
"##MN-00 00 45 0080 02911 5547 268640 024257 200"
"172.832396"
"$GPRMC,195835,A,2425.9909,N,08131.2458,W,2.6,140.9,210615,5.8,"
"##MN-00 00 45 0081 02914 5548 407200 024294 200"
"172.832442"
"$GPRMC,195839,A,2425.9887,N,08131.2439,W,2.6,140.7,210615,5.8,"
"##MN-00 00 44 0082 02917 5549 164888 024285 200"
"172.832488"
"$GPRMC,195843,A,2425.9865,N,08131.2418,W,2.6,140.9,210615,5.8,"
"##MN+00 00 45 0083 02921 5549 835776 024282 200"
"172.832535"
"$GPRMC,195847,A,2425.9843,N,08131.2398,W,2.6,140.7,210615,5.8,"
"##MN+00 00 45 0084 02921 5551 697200 024278 200"
"172.832581"
"$GPRMC,195851,A,2425.9820,N,08131.2376,W,2.6,140.3,210615,5.8,"
"##MN+00 00 45 0084 02925 5551 427248 024267 200"
"172.832627"
"$GPRMC,195855,A,2425.9799,N,08131.2355,W,2.6,139.8,210615,5.8,"
"##MN-00 00 46 0085 02929 5552 155840 024279 200"
"172.832674"
"$GPRMC,195859,A,2425.9778,N,08131.2334,W,2.5,140.0,210615,5.8,"
"##MN-00 00 46 0086 02932 5553 433448 024270 200"
"172.83272"
"#increment_net"
"$GPRMC,195903,A,2425.9755,N,08131.2314,W,2.5,140.0,210615,5.8,"
"##MN-00 00 45 0087 02934 5554 709904 024278 200"
"172.832766"
"$GPRMC,195907,A,2425.9733,N,08131.2294,W,2.5,140.4,210615,5.8,"
"##MN-00 00 44 0088 02936 5555 435648 024275 200"
"172.832812"
"$GPRMC,195911,A,2425.9710,N,08131.2274,W,2.6,141.0,210615,5.8,"
"##MN-00 00 44 0089 02937 5556 298776 024282 200"
"172.832859"
"$GPRMC,195915,A,2425.9688,N,08131.2254,W,2.6,141.4,210615,5.8,"
"##MN-00 00 44 0090 02940 5557 991136 024275 200"
"172.832905"
"$GPRMC,195919,A,2425.9664,N,08131.2234,W,2.6,141.6,210615,5.8,"
"##MN-00 00 44 0091 02941 5557 579608 024284 200"
"172.832951"
"$GPRMC,195923,A,2425.9641,N,08131.2214,W,2.6,142.0,210615,5.8,"
"##MN-00 00 44 0092 02943 5558 394792 024276 200"
"172.832998"
"$GPRMC,195927,A,2425.9617,N,08131.2195,W,2.6,142.4,210615,5.8,"
"##MN-00 00 44 0093 02944 5559 267104 024281 200"
"172.833044"
"$GPRMC,195931,A,2425.9594,N,08131.2175,W,2.6,142.6,210615,5.8,"
"##MN-00 00 45 0093 02946 5560 450040 024286 200"
"172.83309"
"$GPRMC,195935,A,2425.9569,N,08131.2155,W,2.6,142.9,210615,5.8,"
"##MN-00 00 45 0094 02945 5561 452288 024283 200"
"172.833137"
"$GPRMC,195939,A,2425.9545,N,08131.2136,W,2.6,143.0,210615,5.8,"
"##MN-00 00 45 0095 02946 5562 592368 024287 200"
"172.833183"
"$GPRMC,195943,A,2425.9521,N,08131.2115,W,2.6,143.0,210615,5.8,"
"##MN-00 00 45 0096 02948 5562 462440 024292 200"
"172.833229"
"$GPRMC,195947,A,2425.9498,N,08131.2096,W,2.6,142.5,210615,5.8,"
"##MN-00 00 45 0097 02948 5563 011296 024286 200"
"172.833275"
"$GPRMC,195952,A,2425.9469,N,08131.2071,W,2.6,142.5,210615,5.8,"
"##MN-00 00 45 0098 02948 5564 324240 024288 200"
"172.833322"
"$GPRMC,195956,A,2425.9446,N,08131.2052,W,2.6,142.6,210615,5.8,"
"##MN-00 00 45 0099 02949 5565 013056 024293 200"
"172.833368"
"$GPRMC,200000,A,2425.9424,N,08131.2032,W,2.5,142.5,210615,5.8,"
"##MN-00 00 45 0100 02949 5566 323776 024289 200"
"172.833414"
"$GPRMC,200004,A,2425.9400,N,08131.2012,W,2.6,141.8,210615,5.8,"
"##MN-00 00 45 0101 02950 5567 462736 024294 200"
"172.833461"
"$GPRMC,200008,A,2425.9378,N,08131.1995,W,2.5,141.9,210615,5.8,"
"##MN-00 00 45 0102 02951 5567 462688 024285 200"
"172.833507"
"$GPRMC,200012,A,2425.9356,N,08131.1975,W,2.5,142.2,210615,5.8,"
"##MN-00 00 45 0103 02952 5568 461776 024288 200"
"172.833553"
"$GPRMC,200016,A,2425.9334,N,08131.1956,W,2.5,141.8,210615,5.8,"
"##MN-00 00 45 0103 02954 5569 463568 024291 200"
"172.8336"
"$GPRMC,200020,A,2425.9312,N,08131.1936,W,2.5,141.6,210615,5.8,"
"##MN-00 00 45 0104 02952 5570 463080 024291 200"
"172.833646"
"$GPRMC,200024,A,2425.9291,N,08131.1916,W,2.5,141.2,210615,5.8,"
"##MN-00 00 45 0105 02954 5571 461728 024293 200"
"172.833692"
"$GPRMC,200028,A,2425.9269,N,08131.1898,W,2.5,140.5,210615,5.8,"
"##MN-00 00 46 0106 02955 5572 463056 024286 200"
"172.833738"
"$GPRMC,200032,A,2425.9247,N,08131.1878,W,2.5,140.2,210615,5.8,"
"##MN-00 00 46 0107 02956 5573 463888 024288 200"
"172.833785"
"$GPRMC,200036,A,2425.9225,N,08131.1858,W,2.5,140.0,210615,5.8,"
"##MN-00 00 45 0108 02956 5573 011872 024295 200"
"172.833831"
"$GPRMC,200040,A,2425.9202,N,08131.1837,W,2.5,139.5,210615,5.8,"
"##MN-00 00 46 0109 02957 5574 470968 024294 200"
"172.833877"
"$GPRMC,200044,A,2425.9182,N,08131.1816,W,2.5,139.1,210615,5.8,"
"##MN-00 00 45 0110 02959 5575 201360 024293 200"
"172.833924"
"$GPRMC,200048,A,2425.9158,N,08131.1795,W,2.5,139.0,210615,5.8,"
"##MN-00 00 45 0111 02961 5576 481640 024299 200"
"172.83397"
"$GPRMC,200052,A,2425.9135,N,08131.1773,W,2.6,138.8,210615,5.8,"
"##MN-00 00 45 0111 02959 5577 483320 024300 200"
"172.834016"
"$GPRMC,200056,A,2425.9113,N,08131.1753,W,2.6,138.6,210615,5.8,"
"##MN-00 00 45 0112 02960 5578 485568 024302 200"
"172.834062"
"$GPRMC,200100,A,2425.9091,N,08131.1731,W,2.6,138.9,210615,5.8,"
"##MN+00 00 45 0113 02961 5579 487744 024307 200"
"172.834109"
"$GPRMC,200104,A,2425.9068,N,08131.1711,W,2.6,139.2,210615,5.8,"
"##MN+00 00 45 0114 02962 5579 489056 024296 200"
"172.834155"
"$GPRMC,200108,A,2425.9048,N,08131.1690,W,2.6,139.4,210615,5.8,"
"##MN+00 00 45 0115 02961 5580 490408 024300 200"
"172.834201"
"$GPRMC,200112,A,2425.9024,N,08131.1669,W,2.6,139.4,210615,5.8,"
"##MN-00 00 51 0116 02965 5581 765544 024304 200"
"172.834248"
"#increment_net"
"$GPRMC,200116,A,2425.9002,N,08131.1650,W,2.6,139.9,210615,5.8,"
"##MN-00 00 48 0117 02965 5582 493488 024309 200"
"172.834294"
"$GPRMC,200120,A,2425.8980,N,08131.1629,W,2.6,140.8,210615,5.8,"
"##MN-00 00 48 0118 02964 5583 495680 024304 200"
"172.83434"
"$GPRMC,200124,A,2425.8958,N,08131.1610,W,2.6,141.5,210615,5.8,"
"##MN-00 00 48 0119 02964 5583 496096 024308 200"
"172.834387"
"$GPRMC,200128,A,2425.8934,N,08131.1592,W,2.6,142.1,210615,5.8,"
"##MN-00 00 48 0120 02965 5584 360584 024308 200"
"172.834433"
"$GPRMC,200132,A,2425.8911,N,08131.1572,W,2.6,143.0,210615,5.8,"
"##MN-00 00 48 0121 02963 5585 501392 024306 200"
"172.834479"
"$GPRMC,200136,A,2425.8887,N,08131.1553,W,2.6,143.2,210615,5.8,"
"##MN-00 00 48 0122 02962 5586 771168 024307 200"
"172.834525"
"$GPRMC,200140,A,2425.8865,N,08131.1532,W,2.6,142.9,210615,5.8,"
"##MN-00 00 47 0122 02962 5587 505408 024320 200"
"172.834572"
"$GPRMC,200144,A,2425.8842,N,08131.1511,W,2.7,143.0,210615,5.8,"
"##MN-00 00 48 0123 02962 5588 510224 024307 200"
"172.834618"
"$GPRMC,200148,A,2425.8819,N,08131.1490,W,2.7,142.1,210615,5.8,"
"##MN-00 00 48 0124 02960 5588 506688 024274 200"
"172.834664"
"$GPRMC,200152,A,2425.8795,N,08131.1469,W,2.7,141.5,210615,5.8,"
"##MN-00 00 48 0125 02961 5589 779744 024278 200"
"172.834711"
"$GPRMC,200156,A,2425.8772,N,08131.1448,W,2.7,141.3,210615,5.8,"
"##MN-00 00 48 0126 02959 5590 512400 024259 200"
"172.834757"
"$GPRMC,200200,A,2425.8749,N,08131.1428,W,2.6,141.2,210615,5.8,"
"##MN-00 00 48 0127 02960 5591 648952 024266 200"
"172.834803"
"$GPRMC,200204,A,2425.8725,N,08131.1407,W,2.6,141.0,210615,5.8,"
"##MN-00 00 48 0128 02960 5592 515504 024268 200"
"172.83485"
"$GPRMC,200208,A,2425.8701,N,08131.1385,W,2.6,140.5,210615,5.8,"
"##MN-00 00 48 0129 02959 5593 128272 024257 200"
"172.834896"
"$GPRMC,200212,A,2425.8680,N,08131.1364,W,2.6,140.3,210615,5.8,"
"##MN-00 00 48 0130 02960 5594 520080 024258 200"
"172.834942"
"$GPRMC,200216,A,2425.8658,N,08131.1344,W,2.6,139.5,210615,5.8,"
"##MN-00 00 48 0131 02961 5594 380192 024255 200"
"172.834988"
"$GPRMC,200220,A,2425.8637,N,08131.1324,W,2.6,139.1,210615,5.8,"
"##MN-00 00 48 0132 02959 5595 268368 024261 200"
"172.835035"
"$GPRMC,200224,A,2425.8616,N,08131.1304,W,2.6,138.8,210615,5.8,"
"##MN-00 00 48 0133 02961 5596 244688 024265 200"
"172.835081"
"$GPRMC,200228,A,2425.8594,N,08131.1284,W,2.6,138.8,210615,5.8,"
"##MN-00 00 48 0134 02961 5597 267872 024284 200"
"172.835127"
"$GPRMC,200232,A,2425.8572,N,08131.1262,W,2.6,138.8,210615,5.8,"
"##MN-00 00 48 0135 02958 5597 518352 024277 200"
"172.835174"
"$GPRMC,200236,A,2425.8551,N,08131.1241,W,2.6,138.5,210615,5.8,"
"##MN-00 00 47 0136 02962 5598 520120 024298 200"
"172.83522"
"$GPRMC,200240,A,2425.8528,N,08131.1219,W,2.6,138.9,210615,5.8,"
"##MN-00 00 47 0137 02964 5599 512912 024307 200"
"172.835266"
"$GPRMC,200244,A,2425.8511,N,08131.1203,W,2.6,139.1,210615,5.8,"
"##MN-00 00 47 0138 02964 5600 521832 024279 200"
"172.835313"
"$GPRMC,200248,A,2425.8483,N,08131.1177,W,2.6,139.2,210615,5.8,"
"##MN-00 00 47 0139 02963 5601 518624 024286 200"
"172.83537"
"$GPRMC,200252,A,2425.8465,N,08131.1160,W,2.6,139.6,210615,5.8,"
"##MN-00 00 47 0140 02962 5602 519040 024281 200"
"172.835417"
"$GPRMC,200256,A,2425.8435,N,08131.1133,W,2.6,140.0,210615,5.8,"
"##MN-00 00 47 0141 02965 5603 518960 024313 200"
"172.835463"
"$GPRMC,200300,A,2425.8410,N,08131.1111,W,2.6,139.9,210615,5.8,"
"##MN-00 00 47 0142 02965 5603 518976 024319 200"
"172.835509"
"$GPRMC,200304,A,2425.8387,N,08131.1090,W,2.6,140.3,210615,5.8,"
"##MN-00 00 47 0143 02964 5604 654560 024305 200"
"172.835556"
"$GPRMC,200308,A,2425.8363,N,08131.1069,W,2.6,140.6,210615,5.8,"
"##MN+00 00 47 0144 02963 5605 518840 024285 200"
"172.835602"
"$GPRMC,200312,A,2425.8340,N,08131.1047,W,2.7,140.4,210615,5.8,"
"##MN+00 00 47 0145 02965 5606 518864 024300 200"
"172.835648"
"$GPRMC,200316,A,2425.8317,N,08131.1025,W,2.6,140.2,210615,5.8,"
"##MN+00 00 47 0145 02963 5606 518360 024317 200"
"172.835694"
"$GPRMC,200320,A,2425.8294,N,08131.1004,W,2.6,140.4,210615,5.8,"
"##MN-00 00 47 0146 02963 5607 518784 024289 200"
"172.835741"
"$GPRMC,200324,A,2425.8271,N,08131.0983,W,2.6,140.9,210615,5.8,"
"##MN-00 00 46 0147 02964 5608 264888 024287 200"
"172.835787"
"#increment_net"
"$GPRMC,200328,A,2425.8248,N,08131.0962,W,2.6,141.0,210615,5.8,"
"##MN-00 00 46 0148 02961 5609 518760 024309 200"
"172.835833"
"$GPRMC,200332,A,2425.8224,N,08131.0942,W,2.6,141.0,210615,5.8,"
"##MN-00 00 47 0149 02961 5610 519712 024317 200"
"172.83588"
"$GPRMC,200336,A,2425.8201,N,08131.0923,W,2.6,141.2,210615,5.8,"
"##MN-00 00 46 0150 02961 5610 519224 024310 200"
"172.835926"
"$GPRMC,200340,A,2425.8178,N,08131.0904,W,2.6,141.9,210615,5.8,"
"##MN-00 00 46 0151 02961 5611 523280 024267 200"
"172.835972"
"$GPRMC,200344,A,2425.8156,N,08131.0885,W,2.6,142.1,210615,5.8,"
"##MN-00 00 46 0152 02960 5612 523304 024285 200"
"172.836018"
"$GPRMC,200348,A,2425.8134,N,08131.0866,W,2.6,142.3,210615,5.8,"
"##MN-00 00 46 0153 02960 5613 520640 024295 200"
"172.836065"
"$GPRMC,200352,A,2425.8112,N,08131.0847,W,2.5,142.2,210615,5.8,"
"##MN-00 00 46 0154 02958 5613 392776 024262 200"
"172.836111"
"$GPRMC,200356,A,2425.8089,N,08131.0829,W,2.5,142.0,210615,5.8,"
"##MN-00 00 46 0155 02959 5614 285352 024245 200"
"172.836157"
"$GPRMC,200400,A,2425.8067,N,08131.0809,W,2.5,142.2,210615,5.8,"
"##MN-00 00 46 0156 02959 5615 538480 024253 200"
"172.836204"
"$GPRMC,200404,A,2425.8044,N,08131.0789,W,2.5,142.0,210615,5.8,"
"##MN-00 00 46 0157 02960 5616 537552 024267 200"
"172.83625"
"$GPRMC,200408,A,2425.8022,N,08131.0770,W,2.5,141.3,210615,5.8,"
"##MN-00 00 46 0158 02961 5617 538384 024248 200"
"172.836296"
"$GPRMC,200412,A,2425.8000,N,08131.0750,W,2.5,140.5,210615,5.8,"
"##MN-00 00 46 0159 02962 5617 539696 024263 200"
"172.836343"
"$GPRMC,200416,A,2425.7979,N,08131.0731,W,2.5,140.2,210615,5.8,"
"##MN-00 00 46 0160 02961 5618 541464 024247 200"
"172.836389"
"$GPRMC,200420,A,2425.7958,N,08131.0713,W,2.5,140.3,210615,5.8,"
"##MN-00 00 46 0161 02963 5619 267408 024254 200"
"172.836435"
"$GPRMC,200424,A,2425.7939,N,08131.0693,W,2.5,140.4,210615,5.8,"
"##MN-00 00 47 0161 02966 5619 294024 024245 200"
"172.836481"
"$GPRMC,200428,A,2425.7917,N,08131.0674,W,2.5,140.3,210615,5.8,"
"##MN-00 00 47 0162 02965 5620 271776 024248 200"
"172.836528"
"$GPRMC,200433,A,2425.7889,N,08131.0647,W,2.5,139.5,210615,5.8,"
"##MN-00 00 47 0163 02965 5621 547152 024256 200"
"172.836574"
"$GPRMC,200436,A,2425.7875,N,08131.0634,W,2.5,139.5,210615,5.8,"
"##MN-00 00 48 0164 02967 5622 547512 024243 200"
"172.83662"
"$GPRMC,200440,A,2425.7854,N,08131.0614,W,2.5,139.8,210615,5.8,"
"##MN-00 00 48 0165 02969 5623 546976 024247 200"
"172.836667"
"$GPRMC,200444,A,2425.7831,N,08131.0591,W,2.6,139.5,210615,5.8,"
"##MN-00 00 48 0166 02969 5623 297824 024251 200"
"172.836713"
"$GPRMC,200448,A,2425.7807,N,08131.0569,W,2.6,139.7,210615,5.8,"
"##MN-00 00 48 0167 02969 5624 550512 024255 200"
"172.836759"
"$GPRMC,200453,A,2425.7782,N,08131.0546,W,2.6,139.5,210615,5.8,"
"##MN-00 00 48 0168 02971 5625 415480 024241 200"
"172.836806"
"$GPRMC,200457,A,2425.7760,N,08131.0526,W,2.6,139.6,210615,5.8,"
"##MN-00 00 48 0169 02973 5625 556656 024251 200"
"172.836852"
"$GPRMC,200501,A,2425.7738,N,08131.0506,W,2.6,140.2,210615,5.8,"
"##MN-00 00 49 0170 02973 5626 305248 024235 200"
"172.836898"
"$GPRMC,200505,A,2425.7715,N,08131.0486,W,2.6,140.4,210615,5.8,"
"##MN-00 00 48 0170 02973 5627 418040 024249 200"
"172.836944"
"$GPRMC,200509,A,2425.7692,N,08131.0465,W,2.6,140.6,210615,5.8,"
"##MN-00 00 49 0171 02974 5628 055568 024240 200"
"172.836991"
"$GPRMC,200513,A,2425.7669,N,08131.0444,W,2.6,141.1,210615,5.8,"
"##MN-00 00 49 0172 02974 5628 558824 024258 200"
"172.837037"
"$GPRMC,200517,A,2425.7646,N,08131.0425,W,2.6,141.2,210615,5.8,"
"##MN-00 00 49 0173 02975 5629 561056 024243 200"
"172.837083"
"$GPRMC,200521,A,2425.7623,N,08131.0405,W,2.6,141.4,210615,5.8,"
"##MN+00 00 49 0174 02975 5630 424656 024245 200"
"172.83713"
"$GPRMC,200525,A,2425.7599,N,08131.0385,W,2.6,141.7,210615,5.8,"
"##MN+00 00 49 0175 02976 5631 564120 024243 200"
"172.837176"
"$GPRMC,200529,A,2425.7576,N,08131.0363,W,2.6,141.9,210615,5.8,"
"##MN+00 00 49 0176 02976 5631 564560 024239 200"
"172.837222"
"$GPRMC,200533,A,2425.7552,N,08131.0343,W,2.6,142.1,210615,5.8,"
"##MN-00 00 55 0177 02977 5632 566360 024246 200"
"172.837269"
"#increment_net"
"$GPRMC,200537,A,2425.7529,N,08131.0324,W,2.6,142.3,210615,5.8,"
"##MN-00 00 50 0178 02977 5633 568080 024237 200"
"172.837315"
"$GPRMC,200541,A,2425.7506,N,08131.0305,W,2.6,142.3,210615,5.8,"
"##MN-00 00 49 0179 02978 5634 318968 024224 200"
"172.837361"
"$GPRMC,200545,A,2425.7484,N,08131.0289,W,2.6,141.9,210615,5.8,"
"##MN-00 00 49 0179 02976 5634 574792 024227 200"
"172.837407"
"$GPRMC,200549,A,2425.7460,N,08131.0271,W,2.6,141.8,210615,5.8,"
"##MN-00 00 48 0180 02974 5635 575200 024220 200"
"172.837454"
"$GPRMC,200553,A,2425.7438,N,08131.0252,W,2.6,141.6,210615,5.8,"
"##MN-00 00 48 0181 02975 5636 575144 024229 200"
"172.8375"
"$GPRMC,200557,A,2425.7415,N,08131.0233,W,2.6,141.2,210615,5.8,"
"##MN-00 00 48 0182 02975 5637 575072 024239 200"
"172.837546"
"$GPRMC,200601,A,2425.7392,N,08131.0213,W,2.6,141.1,210615,5.8,"
"##MN-00 00 48 0183 02976 5637 575544 024244 200"
"172.837593"
"$GPRMC,200605,A,2425.7372,N,08131.0193,W,2.6,140.4,210615,5.8,"
"##MN-00 00 48 0184 02977 5638 297040 024249 200"
"172.837639"
"$GPRMC,200609,A,2425.7348,N,08131.0172,W,2.6,140.3,210615,5.8,"
"##MN-00 00 48 0185 02979 5638 575504 024266 200"
"172.837685"
"$GPRMC,200613,A,2425.7326,N,08131.0150,W,2.6,139.8,210615,5.8,"
"##MN-00 00 48 0186 02978 5639 709800 024261 200"
"172.837732"
"$GPRMC,200617,A,2425.7303,N,08131.0130,W,2.6,139.8,210615,5.8,"
"##MN-00 00 48 0187 02978 5640 072272 024246 200"
"172.837778"
"$GPRMC,200621,A,2425.7280,N,08131.0108,W,2.5,139.5,210615,5.8,"
"##MN-00 00 48 0188 02978 5641 575016 024253 200"
"172.837824"
"$GPRMC,200625,A,2425.7260,N,08131.0088,W,2.6,139.4,210615,5.8,"
"##MN-00 00 48 0188 02979 5641 575008 024251 200"
"172.83787"
"$GPRMC,200629,A,2425.7238,N,08131.0066,W,2.6,139.1,210615,5.8,"
"##MN-00 00 48 0189 02978 5642 413616 024246 200"
"172.837917"
"$GPRMC,200633,A,2425.7217,N,08131.0045,W,2.6,138.9,210615,5.8,"
"##MN-00 00 48 0190 02980 5643 732968 024245 200"
"172.837963"
"$GPRMC,200637,A,2425.7196,N,08131.0024,W,2.6,138.7,210615,5.8,"
"##MN-00 00 48 0191 02979 5643 574928 024258 200"
"172.838009"
"$GPRMC,200641,A,2425.7174,N,08131.0004,W,2.6,139.0,210615,5.8,"
"##MN-00 00 48 0192 02978 5644 458296 024264 200"
"172.838056"
"$GPRMC,200645,A,2425.7152,N,08130.9982,W,2.6,139.5,210615,5.8,"
"##MN-00 00 48 0193 02980 5645 574896 024247 200"
"172.838102"
"$GPRMC,200649,A,2425.7130,N,08130.9963,W,2.6,140.3,210615,5.8,"
"##MN-00 00 48 0194 02979 5646 574864 024264 200"
"172.838148"
"$GPRMC,200653,A,2425.7106,N,08130.9941,W,2.6,141.0,210615,5.8,"
"##MN-00 00 47 0195 02980 5646 573968 024252 200"
"172.838194"
"$GPRMC,200657,A,2425.7084,N,08130.9920,W,2.6,141.4,210615,5.8,"
"##MN-00 00 47 0196 02979 5647 574808 024276 200"
"172.838241"
"$GPRMC,200701,A,2425.7061,N,08130.9901,W,2.6,141.8,210615,5.8,"
"##MN-00 00 47 0197 02980 5647 575304 024261 200"
"172.838287"
"$GPRMC,200705,A,2425.7036,N,08130.9882,W,2.6,142.2,210615,5.8,"
"##MN-00 00 47 0198 02979 5648 573888 024265 200"
"172.838333"
"$GPRMC,200709,A,2425.7014,N,08130.9864,W,2.6,142.0,210615,5.8,"
"##MN-00 00 47 0198 02981 5649 574760 024269 200"
"172.83838"
"$GPRMC,200713,A,2425.6990,N,08130.9842,W,2.6,142.6,210615,5.8,"
"##MN-00 00 47 0199 02980 5650 574752 024268 200"
"172.838426"
"$GPRMC,200717,A,2425.6967,N,08130.9821,W,2.5,142.8,210615,5.8,"
"##MN-00 00 47 0200 02982 5651 583672 024250 200"
"172.838472"
"$GPRMC,200721,A,2425.6942,N,08130.9800,W,2.5,142.7,210615,5.8,"
"##MN-00 00 47 0201 02978 5652 591656 024238 200"
"172.838519"
"$GPRMC,200725,A,2425.6920,N,08130.9781,W,2.5,142.5,210615,5.8,"
"##MN-00 00 47 0202 02978 5652 594304 024237 200"
"172.838565"
"$GPRMC,200729,A,2425.6898,N,08130.9762,W,2.6,142.7,210615,5.8,"
"##MN-00 00 47 0203 02979 5653 593352 024242 200"
"172.838623"
"$GPRMC,200733,A,2425.6877,N,08130.9746,W,2.6,142.4,210615,5.8,"
"##MN-00 00 47 0204 02978 5654 594224 024257 200"
"172.838669"
"$GPRMC,200737,A,2425.6855,N,08130.9726,W,2.6,141.4,210615,5.8,"
"##MN-00 00 48 0205 02976 5654 595984 024245 200"
"172.838715"
"$GPRMC,200741,A,2425.6832,N,08130.9707,W,2.6,140.3,210615,5.8,"
"##MN-00 00 47 0206 02977 5655 596800 024254 200"
"172.838762"
"$GPRMC,200745,A,2425.6810,N,08130.9687,W,2.6,139.9,210615,5.8,"
"##MN-00 00 48 0207 02976 5656 458680 024253 200"
"172.838808"
"$GPRMC,200749,A,2425.6788,N,08130.9667,W,2.6,139.4,210615,5.8,"
"##MN-00 00 48 0208 02978 5656 601232 024241 200"
"172.838854"
"$GPRMC,200753,A,2425.6765,N,08130.9646,W,2.6,139.3,210615,5.8,"
"##MN-00 00 48 0209 02976 5657 098448 024253 200"
"172.8389"
"$GPRMC,200757,A,2425.6743,N,08130.9624,W,2.6,138.8,210615,5.8,"
"##MN-00 00 48 0210 02974 5658 465264 024239 200"
"172.838947"
"$GPRMC,200801,A,2425.6721,N,08130.9603,W,2.6,138.8,210615,5.8,"
"##MN-00 00 48 0210 02975 5658 099344 024244 200"
"172.838993"
"$GPRMC,200805,A,2425.6700,N,08130.9581,W,2.6,138.6,210615,5.8,"
"##MN-00 00 48 0211 02976 5659 602992 024236 200"
"172.839039"
"$GPRMC,200809,A,2425.6678,N,08130.9558,W,2.6,138.5,210615,5.8,"
"##MN-00 00 48 0212 02976 5660 464832 024251 200"
"172.839086"
"$GPRMC,200813,A,2425.6655,N,08130.9536,W,2.7,138.1,210615,5.8,"
"##MN-00 00 48 0213 02975 5660 604736 024245 200"
"172.839132"
"$GPRMC,200817,A,2425.6632,N,08130.9514,W,2.7,137.7,210615,5.8,"
"##MN-00 00 48 0214 02975 5661 355560 024235 200"
"172.839178"
"$GPRMC,200821,A,2425.6609,N,08130.9491,W,2.7,137.8,210615,5.8,"
"##MN-00 00 48 0215 02973 5662 331056 024259 200"
"172.839224"
"$GPRMC,200825,A,2425.6588,N,08130.9469,W,2.7,137.9,210615,5.8,"
"##MN-00 00 48 0216 02974 5662 357768 024251 200"
"172.839271"
"$GPRMC,200829,A,2425.6563,N,08130.9447,W,2.7,138.1,210615,5.8,"
"##MN-00 00 48 0217 02974 5663 474088 024257 200"
"172.839317"
"$GPRMC,200833,A,2425.6541,N,08130.9425,W,2.7,138.8,210615,5.8,"
"##MN-00 00 48 0218 02972 5664 612672 024247 200"
"172.839363"
"$GPRMC,200837,A,2425.6518,N,08130.9403,W,2.8,139.1,210615,5.8,"
"##MN-00 00 48 0219 02971 5664 361288 024245 200"
"172.83941"
"$GPRMC,200841,A,2425.6496,N,08130.9381,W,2.8,140.2,210615,5.8,"
"##MN-00 00 48 0220 02971 5665 611776 024247 200"
"172.839456"
"$GPRMC,200845,A,2425.6473,N,08130.9361,W,2.7,140.5,210615,5.8,"
"##MN-00 00 48 0221 02971 5666 612624 024245 200"
"172.839502"
"$GPRMC,200849,A,2425.6448,N,08130.9340,W,2.7,140.9,210615,5.8,"
"##MN-00 00 48 0222 02970 5667 615312 024244 200"
"172.839549"
"$GPRMC,200853,A,2425.6424,N,08130.9319,W,2.7,141.5,210615,5.8,"
"##MN-00 00 48 0223 02969 5668 615320 024251 200"
"172.839595"
"$GPRMC,200857,A,2425.6401,N,08130.9298,W,2.7,141.5,210615,5.8,"
"##MN-00 00 48 0224 02968 5668 480272 024244 200"
"172.839641"
"$GPRMC,200902,A,2425.6371,N,08130.9269,W,2.7,141.2,210615,5.8,"
"##MN-00 00 48 0225 02968 5669 618848 024229 200"
"172.839688"
"$GPRMC,200906,A,2425.6347,N,08130.9248,W,2.7,140.8,210615,5.8,"
"##MN-00 00 48 0226 02966 5669 620184 024239 200"
"172.839734"
"$GPRMC,200909,A,2425.6329,N,08130.9231,W,2.7,140.9,210615,5.8,"
"##MN-00 00 48 0226 02966 5670 622416 024241 200"
"172.83978"
"$GPRMC,200913,A,2425.6307,N,08130.9211,W,2.7,140.8,210615,5.8,"
"##MN-00 00 49 0227 02964 5671 624184 024245 200"
"172.839826"
"$GPRMC,200917,A,2425.6285,N,08130.9192,W,2.7,140.8,210615,5.8,"
"##MN-00 00 49 0228 02966 5672 625056 024236 200"
"172.839873"
"$GPRMC,200921,A,2425.6263,N,08130.9171,W,2.7,140.3,210615,5.8,"
"##MN-00 00 49 0229 02966 5672 627728 024229 200"
"172.839919"
"$GPRMC,200925,A,2425.6241,N,08130.9151,W,2.6,139.9,210615,5.8,"
"##MN-00 00 49 0230 02965 5673 630792 024207 200"
"172.839965"
"$GPRMC,200930,A,2425.6212,N,08130.9124,W,2.7,139.3,210615,5.8,"
"##MN-00 00 49 0231 02966 5673 127600 024209 200"
"172.840012"
"$GPRMC,200934,A,2425.6190,N,08130.9103,W,2.6,138.9,210615,5.8,"
"##MN-00 00 49 0232 02966 5674 631232 024223 200"
"172.840058"
"$GPRMC,200938,A,2425.6169,N,08130.9081,W,2.6,138.8,210615,5.8,"
"##MN-00 00 49 0233 02965 5675 631216 024214 200"
"172.840104"
"$GPRMC,200942,A,2425.6145,N,08130.9060,W,2.6,138.2,210615,5.8,"
"##MN+00 00 49 0234 02967 5676 631192 024213 200"
"172.84015"
"$GPRMC,200946,A,2425.6122,N,08130.9039,W,2.6,138.4,210615,5.8,"
"##MN+00 00 49 0235 02964 5676 631120 024230 200"
"172.840197"
"$GPRMC,200950,A,2425.6100,N,08130.9018,W,2.6,137.9,210615,5.8,"
"##MN+00 00 49 0236 02964 5677 631152 024247 200"
"172.840243"
"$GPRMC,200954,A,2425.6078,N,08130.8996,W,2.6,138.3,210615,5.8,"
"##MN-00 00 57 0237 02963 5678 630688 024280 200"
"172.840289"
"#increment_net"
"$GPRMC,200958,A,2425.6055,N,08130.8974,W,2.7,138.6,210615,5.8,"
"##MN-00 00 53 0238 02963 5678 632048 024270 200"
"172.840336"
"$GPRMC,201002,A,2425.6035,N,08130.8952,W,2.7,138.3,210615,5.8,"
"##MN-00 00 51 0239 02966 5679 631136 024280 200"
"172.840382"
"$GPRMC,201006,A,2425.6013,N,08130.8933,W,2.6,138.7,210615,5.8,"
"##MN-00 00 50 0239 02967 5680 631152 024250 200"
"172.840428"
"$GPRMC,201010,A,2425.5992,N,08130.8916,W,2.6,139.2,210615,5.8,"
"##MN-00 00 50 0240 02966 5680 526688 024255 200"
"172.840475"
"$GPRMC,201014,A,2425.5968,N,08130.8895,W,2.6,139.9,210615,5.8,"
"##MN-00 00 49 0241 02966 5681 683328 024261 200"
"172.840521"
"$GPRMC,201018,A,2425.5943,N,08130.8874,W,2.6,140.4,210615,5.8,"
"##MN-00 00 50 0242 02965 5682 631120 024251 200"
"172.840567"
"$GPRMC,201022,A,2425.5918,N,08130.8853,W,2.6,140.6,210615,5.8,"
"##MN-00 00 49 0243 02967 5682 631080 024253 200"
"172.840613"
"$GPRMC,201026,A,2425.5900,N,08130.8837,W,2.6,140.6,210615,5.8,"
"##MN-00 00 49 0244 02969 5683 355696 024250 200"
"172.84066"
"$GPRMC,201030,A,2425.5869,N,08130.8811,W,2.6,141.5,210615,5.8,"
"##MN-00 00 49 0245 02969 5684 378808 024247 200"
"172.840706"
"$GPRMC,201034,A,2425.5846,N,08130.8791,W,2.6,142.0,210615,5.8,"
"##MN-00 00 49 0246 02969 5684 631072 024256 200"
"172.840752"
"$GPRMC,201038,A,2425.5823,N,08130.8770,W,2.6,141.8,210615,5.8,"
"##MN-00 00 49 0247 02968 5685 631056 024253 200"
"172.840799"
"$GPRMC,201042,A,2425.5799,N,08130.8750,W,2.6,141.9,210615,5.8,"
"##MN-00 00 49 0248 02970 5686 631056 024242 200"
"172.840845"
"$GPRMC,201046,A,2425.5777,N,08130.8729,W,2.6,141.4,210615,5.8,"
"##MN-00 00 49 0249 02969 5686 631008 024234 200"
"172.840891"
"$GPRMC,201050,A,2425.5755,N,08130.8709,W,2.6,141.0,210615,5.8,"
"##MN-00 00 48 0250 02971 5687 632344 024255 200"
"172.840938"
"$GPRMC,201054,A,2425.5733,N,08130.8687,W,2.6,140.7,210615,5.8,"
"##MN-00 00 49 0251 02973 5687 491936 024239 200"
"172.840984"
"$GPRMC,201058,A,2425.5717,N,08130.8672,W,2.6,140.4,210615,5.8,"
"##MN-00 00 48 0252 02969 5688 630976 024246 200"
"172.84103"
"$GPRMC,201102,A,2425.5689,N,08130.8647,W,2.6,140.0,210615,5.8,"
"##MN-00 00 49 0253 02973 5689 378688 024251 200"
"172.841076"
"$GPRMC,201106,A,2425.5667,N,08130.8627,W,2.5,140.0,210615,5.8,"
"##MN-00 00 49 0254 02970 5689 630912 024253 200"
"172.841123"
"$GPRMC,201110,A,2425.5646,N,08130.8606,W,2.5,139.9,210615,5.8,"
"##MN-00 00 49 0254 02974 5690 494560 024257 200"
"172.841169"
"$GPRMC,201114,A,2425.5627,N,08130.8588,W,2.5,139.9,210615,5.8,"
"##MN-00 00 49 0255 02974 5691 632624 024248 200"
"172.841215"
"$GPRMC,201118,A,2425.5606,N,08130.8569,W,2.5,139.6,210615,5.8,"
"##MN-00 00 49 0256 02972 5691 387952 024252 200"
"172.841262"
"$GPRMC,201122,A,2425.5587,N,08130.8550,W,2.5,139.0,210615,5.8,"
"##MN-00 00 49 0257 02972 5692 643336 024243 200"
"172.841308"
"$GPRMC,201126,A,2425.5567,N,08130.8531,W,2.5,138.4,210615,5.8,"
"##MN-00 00 48 0258 02974 5693 646848 024257 200"
"172.841354"
"$GPRMC,201130,A,2425.5547,N,08130.8511,W,2.5,138.5,210615,5.8,"
"##MN-00 00 49 0259 02975 5693 648184 024236 200"
"172.8414"
"$GPRMC,201134,A,2425.5526,N,08130.8490,W,2.5,138.4,210615,5.8,"
"##MN-00 00 49 0260 02975 5694 650416 024245 200"
"172.841447"
"$GPRMC,201138,A,2425.5505,N,08130.8468,W,2.5,138.4,210615,5.8,"
"##MN-00 00 49 0261 02975 5695 650416 024248 200"
"172.841493"
"$GPRMC,201142,A,2425.5484,N,08130.8448,W,2.5,137.9,210615,5.8,"
"##MN-00 00 49 0262 02976 5695 651312 024236 200"
"172.841539"
"$GPRMC,201146,A,2425.5462,N,08130.8427,W,2.5,137.9,210615,5.8,"
"##MN-00 00 49 0263 02975 5696 649504 024246 200"
"172.841586"
"$GPRMC,201150,A,2425.5441,N,08130.8406,W,2.5,137.8,210615,5.8,"
"##MN-00 00 49 0264 02975 5696 651712 024251 200"
"172.841632"
"$GPRMC,201154,A,2425.5419,N,08130.8383,W,2.5,137.7,210615,5.8,"
"##MN-00 00 49 0264 02978 5697 651232 024250 200"
"172.841678"
"$GPRMC,201158,A,2425.5397,N,08130.8361,W,2.6,138.2,210615,5.8,"
"##MN-00 00 49 0265 02975 5698 651672 024247 200"
"172.841725"
"$GPRMC,201202,A,2425.5374,N,08130.8337,W,2.6,138.6,210615,5.8,"
"##MN+00 00 49 0266 02976 5698 653040 024244 200"
"172.841771"
"$GPRMC,201206,A,2425.5351,N,08130.8316,W,2.6,139.2,210615,5.8,"
"##MN+00 00 49 0267 02976 5699 653024 024252 200"
"172.841817"
"$GPRMC,201210,A,2425.5327,N,08130.8297,W,2.6,139.9,210615,5.8,"
"##MN+00 00 49 0268 02977 5700 652616 024259 200"
"172.841875"
"$GPRMC,201214,A,2425.5304,N,08130.8276,W,2.6,140.2,210615,5.8,"
"##MN-00 00 52 0269 02977 5700 653040 024246 200"
"172.841921"
"$GPRMC,201218,A,2425.5280,N,08130.8255,W,2.6,140.1,210615,5.8,"
"##MN-00 00 50 0270 02976 5701 653448 024249 200"
"172.841968"
"#increment_net"
"$GPRMC,201222,A,2425.5256,N,08130.8234,W,2.6,140.5,210615,5.8,"
"##MN-00 00 49 0271 02976 5702 656560 024246 200"
"172.842014"
"$GPRMC,201226,A,2425.5233,N,08130.8214,W,2.6,140.6,210615,5.8,"
"##MN-00 00 49 0272 02975 5702 521104 024239 200"
"172.84206"
"$GPRMC,201230,A,2425.5211,N,08130.8193,W,2.6,140.9,210615,5.8,"
"##MN-00 00 49 0273 02977 5703 153808 024250 200"
"172.842107"
"$GPRMC,201234,A,2425.5188,N,08130.8173,W,2.6,141.0,210615,5.8,"
"##MN-00 00 49 0274 02976 5703 659224 024240 200"
"172.842153"
"$GPRMC,201238,A,2425.5165,N,08130.8154,W,2.6,141.3,210615,5.8,"
"##MN-00 00 49 0275 02976 5704 659216 024242 200"
"172.842199"
"$GPRMC,201242,A,2425.5143,N,08130.8134,W,2.6,141.6,210615,5.8,"
"##MN-00 00 48 0275 02975 5705 659248 024240 200"
"172.842245"
"$GPRMC,201246,A,2425.5121,N,08130.8112,W,2.6,141.3,210615,5.8,"
"##MN-00 00 48 0276 02976 5705 659696 024242 200"
"172.842292"
"$GPRMC,201250,A,2425.5097,N,08130.8092,W,2.6,141.2,210615,5.8,"
"##MN-00 00 48 0277 02974 5706 658336 024235 200"
"172.842338"
"$GPRMC,201254,A,2425.5075,N,08130.8071,W,2.6,140.7,210615,5.8,"
"##MN-00 00 48 0278 02972 5707 660984 024239 200"
"172.842384"
"$GPRMC,201258,A,2425.5052,N,08130.8050,W,2.6,140.9,210615,5.8,"
"##MN-00 00 48 0279 02974 5707 525064 024234 200"
"172.842431"
"$GPRMC,201302,A,2425.5031,N,08130.8030,W,2.6,140.2,210615,5.8,"
"##MN-00 00 48 0280 02974 5707 664512 024240 200"
"172.842477"
"$GPRMC,201306,A,2425.5007,N,08130.8008,W,2.6,139.6,210615,5.8,"
"##MN-00 00 48 0281 02972 5708 665352 024236 200"
"172.842523"
"$GPRMC,201310,A,2425.4985,N,08130.7986,W,2.6,139.5,210615,5.8,"
"##MN-00 00 48 0282 02973 5709 667984 024246 200"
"172.842569"
"$GPRMC,201314,A,2425.4964,N,08130.7965,W,2.6,139.3,210615,5.8,"
"##MN-00 00 48 0283 02974 5710 664840 024223 200"
"172.842616"
"$GPRMC,201318,A,2425.4941,N,08130.7944,W,2.6,138.9,210615,5.8,"
"##MN-00 00 48 0284 02974 5710 667088 024236 200"
"172.842662"
"$GPRMC,201322,A,2425.4920,N,08130.7926,W,2.6,138.6,210615,5.8,"
"##MN-00 00 48 0285 02972 5710 668392 024233 200"
"172.842708"
"$GPRMC,201326,A,2425.4897,N,08130.7904,W,2.6,138.4,210615,5.8,"
"##MN-00 00 48 0286 02973 5711 667464 024234 200"
"172.842755"
"$GPRMC,201330,A,2425.4875,N,08130.7882,W,2.6,138.3,210615,5.8,"
"##MN-00 00 48 0287 02971 5712 668816 024239 200"
"172.842801"
"$GPRMC,201334,A,2425.4854,N,08130.7864,W,2.6,138.5,210615,5.8,"
"##MN-00 00 48 0288 02972 5713 668328 024226 200"
"172.842847"
"$GPRMC,201338,A,2425.4832,N,08130.7845,W,2.6,138.6,210615,5.8,"
"##MN-00 00 48 0288 02970 5713 668768 024246 200"
"172.842894"
"$GPRMC,201342,A,2425.4810,N,08130.7823,W,2.6,139.5,210615,5.8,"
"##MN-00 00 48 0289 02970 5714 668728 024236 200"
"172.84294"
"$GPRMC,201346,A,2425.4789,N,08130.7802,W,2.5,139.9,210615,5.8,"
"##MN-00 00 48 0290 02972 5714 672768 024223 200"
"172.842986"
"$GPRMC,201350,A,2425.4767,N,08130.7783,W,2.6,140.2,210615,5.8,"
"##MN-00 00 48 0291 02969 5715 674032 024240 200"
"172.843032"
"$GPRMC,201355,A,2425.4738,N,08130.7758,W,2.5,140.6,210615,5.8,"
"##MN-00 00 48 0292 02971 5715 672232 024227 200"
"172.843079"
"$GPRMC,201359,A,2425.4714,N,08130.7739,W,2.6,141.3,210615,5.8,"
"##MN-00 00 48 0293 02971 5716 165824 024231 200"
"172.843125"
"$GPRMC,201403,A,2425.4692,N,08130.7719,W,2.5,140.9,210615,5.8,"
"##MN-00 00 48 0294 02971 5717 675272 024236 200"
"172.843171"
"$GPRMC,201407,A,2425.4669,N,08130.7699,W,2.5,141.0,210615,5.8,"
"##MN-00 00 48 0295 02969 5717 677536 024236 200"
"172.843218"
"$GPRMC,201411,A,2425.4648,N,08130.7679,W,2.5,140.4,210615,5.8,"
"##MN-00 00 48 0296 02970 5718 677928 024224 200"
"172.843264"
"$GPRMC,201415,A,2425.4626,N,08130.7658,W,2.5,140.5,210615,5.8,"
"##MN-00 00 48 0297 02972 5718 679248 024231 200"
"172.84331"
"$GPRMC,201419,A,2425.4604,N,08130.7636,W,2.5,139.8,210615,5.8,"
"##MN+00 00 48 0298 02972 5719 679248 024237 200"
"172.843356"
"$GPRMC,201423,A,2425.4583,N,08130.7616,W,2.6,139.6,210615,5.8,"
"##MN+00 00 48 0299 02972 5719 684592 024228 200"
"172.843403"
"$GPRMC,201427,A,2425.4561,N,08130.7596,W,2.6,138.9,210615,5.8,"
"##MN+00 00 48 0299 02970 5720 685488 024217 200"
"172.843449"
"$GPRMC,201431,A,2425.4541,N,08130.7577,W,2.5,138.5,210615,5.8,"
"##MN-00 00 47 0300 02970 5721 686400 024216 200"
"172.843495"
"$GPRMC,201435,A,2425.4520,N,08130.7554,W,2.5,138.2,210615,5.8,"
"##MN-00 00 47 0301 02972 5721 685504 024221 200"
"172.843542"
"#increment_net"
"$GPRMC,201439,A,2425.4498,N,08130.7532,W,2.6,138.1,210615,5.8,"
"##MN-00 00 46 0302 02970 5722 686856 024204 200"
"172.843588"
"$GPRMC,201443,A,2425.4478,N,08130.7512,W,2.5,138.0,210615,5.8,"
"##MN-00 00 46 0303 02971 5723 687696 024211 200"
"172.843634"
"$GPRMC,201447,A,2425.4454,N,08130.7494,W,2.6,138.3,210615,5.8,"
"##MN-00 00 45 0304 02974 5723 686352 024215 200"
"172.843681"
"$GPRMC,201451,A,2425.4432,N,08130.7475,W,2.6,138.5,210615,5.8,"
"##MN-00 00 45 0305 02973 5723 549608 024221 200"
"172.843727"
"$GPRMC,201455,A,2425.4409,N,08130.7455,W,2.5,138.9,210615,5.8,"
"##MN-00 00 44 0306 02975 5724 181888 024215 200"
"172.843773"
"$GPRMC,201459,A,2425.4386,N,08130.7433,W,2.5,139.2,210615,5.8,"
"##MN-00 00 44 0307 02974 5724 687256 024223 200"
"172.843819"
"$GPRMC,201503,A,2425.4363,N,08130.7413,W,2.5,140.0,210615,5.8,"
"##MN-00 00 44 0308 02976 5725 687752 024241 200"
"172.843866"
"$GPRMC,201507,A,2425.4341,N,08130.7394,W,2.5,140.7,210615,5.8,"
"##MN-00 00 44 0308 02975 5726 687296 024239 200"
"172.843912"
"$GPRMC,201511,A,2425.4319,N,08130.7374,W,2.5,140.8,210615,5.8,"
"##MN-00 00 44 0309 02975 5726 686848 024234 200"
"172.843958"
"$GPRMC,201515,A,2425.4296,N,08130.7352,W,2.5,141.0,210615,5.8,"
"##MN-00 00 44 0310 02977 5727 687248 024241 200"
"172.844005"
"$GPRMC,201519,A,2425.4274,N,08130.7333,W,2.5,140.5,210615,5.8,"
"##MN-00 00 44 0311 02978 5727 687272 024244 200"
"172.844051"
"$GPRMC,201523,A,2425.4251,N,08130.7314,W,2.5,140.8,210615,5.8,"
"##MN-00 00 45 0312 02977 5728 687296 024232 200"
"172.844097"
"$GPRMC,201527,A,2425.4230,N,08130.7294,W,2.5,141.0,210615,5.8,"
"##MN-00 00 45 0313 02978 5728 686848 024236 200"
"172.844144"
"$GPRMC,201531,A,2425.4208,N,08130.7275,W,2.5,141.0,210615,5.8,"
"##MN-00 00 45 0314 02978 5729 688160 024235 200"
"172.84419"
"$GPRMC,201535,A,2425.4187,N,08130.7257,W,2.4,140.7,210615,5.8,"
"##MN-00 00 45 0315 02979 5730 686352 024236 200"
"172.844236"
"$GPRMC,201539,A,2425.4166,N,08130.7238,W,2.4,140.5,210615,5.8,"
"##MN-00 00 44 0316 02979 5730 687256 024236 200"
"172.844282"
"$GPRMC,201543,A,2425.4146,N,08130.7217,W,2.4,140.1,210615,5.8,"
"##MN-00 00 44 0316 02980 5731 686352 024239 200"
"172.844329"
"$GPRMC,201547,A,2425.4124,N,08130.7198,W,2.4,139.4,210615,5.8,"
"##MN-00 00 44 0317 02981 5732 688104 024232 200"
"172.844375"
"$GPRMC,201551,A,2425.4104,N,08130.7178,W,2.4,138.9,210615,5.8,"
"##MN-00 00 44 0318 02981 5732 686768 024229 200"
"172.844421"
"$GPRMC,201555,A,2425.4083,N,08130.7158,W,2.4,138.5,210615,5.8,"
"##MN-00 00 44 0319 02983 5732 687200 024237 200"
"172.844468"
"$GPRMC,201559,A,2425.4063,N,08130.7139,W,2.4,138.3,210615,5.8,"
"##MN-00 00 44 0320 02982 5733 687152 024239 200"
"172.844514"
"$GPRMC,201603,A,2425.4042,N,08130.7118,W,2.4,137.7,210615,5.8,"
"##MN-00 00 45 0321 02983 5733 687200 024224 200"
"172.84456"
"$GPRMC,201607,A,2425.4020,N,08130.7098,W,2.5,137.1,210615,5.8,"
"##MN-00 00 44 0322 02985 5734 687200 024245 200"
"172.844606"
"$GPRMC,201611,A,2425.4001,N,08130.7076,W,2.5,136.9,210615,5.8,"
"##MN-00 00 45 0323 02987 5734 687152 024227 200"
"172.844653"
"$GPRMC,201615,A,2425.3978,N,08130.7055,W,2.5,136.7,210615,5.8,"
"##MN-00 00 45 0323 02986 5735 687160 024244 200"
"172.844699"
"$GPRMC,201619,A,2425.3958,N,08130.7035,W,2.5,136.9,210615,5.8,"
"##MN-00 00 44 0324 02986 5736 687200 024230 200"
"172.844745"
"$GPRMC,201623,A,2425.3937,N,08130.7014,W,2.5,136.8,210615,5.8,"
"##MN-00 00 44 0325 02987 5736 687232 024238 200"
"172.844792"
"$GPRMC,201627,A,2425.3915,N,08130.6992,W,2.5,137.4,210615,5.8,"
"##MN-00 00 44 0326 02989 5737 687208 024236 200"
"172.844838"
"$GPRMC,201631,A,2425.3893,N,08130.6972,W,2.5,137.6,210615,5.8,"
"##MN-00 00 44 0327 02990 5737 414512 024230 200"
"172.844884"
"$GPRMC,201635,A,2425.3873,N,08130.6950,W,2.5,138.1,210615,5.8,"
"##MN+00 00 45 0328 02989 5738 686336 024227 200"
"172.844931"
"$GPRMC,201639,A,2425.3851,N,08130.6930,W,2.5,138.2,210615,5.8,"
"##MN+00 00 44 0329 02990 5739 687248 024232 200"
"172.844977"
"$GPRMC,201643,A,2425.3831,N,08130.6910,W,2.5,138.5,210615,5.8,"
"##MN+00 00 44 0329 02990 5739 687232 024231 200"
"172.845023"
"$GPRMC,201647,A,2425.3810,N,08130.6889,W,2.5,138.7,210615,5.8,"
"##MN-00 00 50 0330 02989 5739 434536 024221 200"
"172.845069"
"$GPRMC,201651,A,2425.3788,N,08130.6871,W,2.5,139.2,210615,5.8,"
"##MN-00 00 48 0331 02989 5740 687232 024223 200"
"172.845127"
"#increment_net"
"$GPRMC,201655,A,2425.3764,N,08130.6851,W,2.5,139.8,210615,5.8,"
"##MN-00 00 48 0332 02989 5740 687232 024221 200"
"172.845174"
"$GPRMC,201659,A,2425.3743,N,08130.6832,W,2.5,140.1,210615,5.8,"
"##MN-00 00 47 0333 02989 5741 413648 024233 200"
"172.84522"
"$GPRMC,201703,A,2425.3721,N,08130.6811,W,2.5,140.6,210615,5.8,"
"##MN-00 00 48 0334 02989 5741 687656 024222 200"
"172.845266"
"$GPRMC,201707,A,2425.3699,N,08130.6791,W,2.6,141.0,210615,5.8,"
"##MN-00 00 48 0335 02986 5742 688560 024223 200"
"172.845313"
"$GPRMC,201711,A,2425.3677,N,08130.6771,W,2.6,140.8,210615,5.8,"
"##MN-00 00 47 0336 02988 5743 685408 024220 200"
"172.845359"
"$GPRMC,201715,A,2425.3655,N,08130.6750,W,2.6,141.0,210615,5.8,"
"##MN-00 00 47 0337 02986 5743 693888 024213 200"
"172.845405"
"$GPRMC,201719,A,2425.3633,N,08130.6732,W,2.6,141.4,210615,5.8,"
"##MN-00 00 46 0338 02986 5744 696128 024216 200"
"172.845451"
"$GPRMC,201723,A,2425.3612,N,08130.6713,W,2.5,141.7,210615,5.8,"
"##MN-00 00 46 0338 02986 5744 696152 024208 200"
"172.845498"
"$GPRMC,201727,A,2425.3591,N,08130.6695,W,2.5,141.6,210615,5.8,"
"##MN-00 00 46 0339 02985 5745 697024 024217 200"
"172.845544"
"$GPRMC,201731,A,2425.3569,N,08130.6675,W,2.5,141.0,210615,5.8,"
"##MN-00 00 46 0340 02981 5745 699744 024218 200"
"172.84559"
"$GPRMC,201735,A,2425.3548,N,08130.6654,W,2.6,140.5,210615,5.8,"
"##MN-00 00 46 0341 02981 5746 698864 024213 200"
"172.845637"
"$GPRMC,201739,A,2425.3528,N,08130.6633,W,2.5,139.7,210615,5.8,"
"##MN-00 00 46 0342 02980 5746 701536 024208 200"
"172.845683"
"$GPRMC,201743,A,2425.3504,N,08130.6613,W,2.6,139.4,210615,5.8,"
"##MN-00 00 46 0343 02981 5747 311096 024219 200"
"172.845729"
"$GPRMC,201747,A,2425.3483,N,08130.6592,W,2.6,139.1,210615,5.8,"
"##MN-00 00 46 0344 02980 5747 705040 024212 200"
"172.845775"
"$GPRMC,201751,A,2425.3461,N,08130.6570,W,2.5,138.9,210615,5.8,"
"##MN-00 00 46 0345 02979 5747 451896 024216 200"
"172.845822"
"$GPRMC,201755,A,2425.3439,N,08130.6549,W,2.5,138.1,210615,5.8,"
"##MN-00 00 46 0346 02977 5748 705488 024220 200"
"172.845868"
"$GPRMC,201759,A,2425.3417,N,08130.6528,W,2.5,137.9,210615,5.8,"
"##MN-00 00 46 0347 02977 5748 432384 024220 200"
"172.845914"
"$GPRMC,201803,A,2425.3394,N,08130.6507,W,2.5,137.3,210615,5.8,"
"##MN-00 00 46 0347 02978 5749 451880 024204 200"
"172.845961"
"$GPRMC,201807,A,2425.3373,N,08130.6486,W,2.5,137.9,210615,5.8,"
"##MN-00 00 46 0348 02976 5749 706816 024221 200"
"172.846007"
"$GPRMC,201811,A,2425.3351,N,08130.6464,W,2.5,137.8,210615,5.8,"
"##MN-00 00 46 0349 02977 5750 706376 024213 200"
"172.846053"
"$GPRMC,201815,A,2425.3329,N,08130.6442,W,2.6,137.7,210615,5.8,"
"##MN-00 00 46 0350 02975 5751 705888 024223 200"
"172.8461"
"$GPRMC,201819,A,2425.3307,N,08130.6420,W,2.6,137.8,210615,5.8,"
"##MN-00 00 46 0351 02975 5751 706312 024221 200"
"172.846146"
"$GPRMC,201823,A,2425.3284,N,08130.6399,W,2.6,137.9,210615,5.8,"
"##MN-00 00 47 0352 02974 5751 705880 024213 200"
"172.846192"
"$GPRMC,201828,A,2425.3255,N,08130.6373,W,2.6,138.7,210615,5.8,"
"##MN-00 00 46 0353 02973 5752 706752 024218 200"
"172.846238"
"$GPRMC,201832,A,2425.3233,N,08130.6352,W,2.6,139.0,210615,5.8,"
"##MN-00 00 47 0354 02974 5752 569048 024214 200"
"172.846285"
"$GPRMC,201836,A,2425.3211,N,08130.6330,W,2.6,138.9,210615,5.8,"
"##MN-00 00 46 0355 02970 5753 708512 024211 200"
"172.846331"
"$GPRMC,201840,A,2425.3189,N,08130.6309,W,2.6,139.1,210615,5.8,"
"##MN-00 00 46 0356 02972 5753 681688 024225 200"
"172.846377"
"$GPRMC,201844,A,2425.3167,N,08130.6291,W,2.5,139.3,210615,5.8,"
"##MN-00 00 46 0357 02973 5754 247776 024219 200"
"172.846424"
"$GPRMC,201848,A,2425.3145,N,08130.6270,W,2.6,139.5,210615,5.8,"
"##MN+00 00 46 0357 02972 5754 707632 024214 200"
"172.84647"
"$GPRMC,201852,A,2425.3127,N,08130.6255,W,2.6,140.2,210615,5.8,"
"##MN+00 00 47 0358 02969 5755 706784 024220 200"
"172.846516"
"$GPRMC,201856,A,2425.3103,N,08130.6233,W,2.6,140.2,210615,5.8,"
"##MN+00 00 46 0359 02971 5755 706784 024218 200"
"172.846562"
"$GPRMC,201900,A,2425.3075,N,08130.6209,W,2.6,140.8,210615,5.8,"
"##MN-00 00 47 0360 02969 5756 707224 024215 200"
"172.846609"
"$GPRMC,201904,A,2425.3053,N,08130.6189,W,2.6,141.0,210615,5.8,"
"##MN-00 00 47 0361 02970 5756 433216 024219 200"
"172.846655"
"#increment_net"
"$GPRMC,201908,A,2425.3031,N,08130.6170,W,2.5,141.4,210615,5.8,"
"##MN-00 00 47 0362 02973 5756 455824 024210 200"
"172.846701"
"$GPRMC,201912,A,2425.3008,N,08130.6150,W,2.5,141.3,210615,5.8,"
"##MN-00 00 46 0363 02974 5757 708560 024219 200"
"172.846748"
"$GPRMC,201916,A,2425.2986,N,08130.6130,W,2.5,141.6,210615,5.8,"
"##MN-00 00 44 0364 02977 5757 703248 024220 200"
"172.846794"
"$GPRMC,201920,A,2425.2963,N,08130.6109,W,2.6,141.3,210615,5.8,"
"##MN-00 00 45 0366 02980 5758 719736 024209 200"
"172.84684"
"$GPRMC,201924,A,2425.2940,N,08130.6088,W,2.6,141.0,210615,5.8,"
"##MN-00 00 45 0367 02985 5758 712192 024219 200"
"172.846887"
"$GPRMC,201928,A,2425.2918,N,08130.6067,W,2.6,140.5,210615,5.8,"
"##MN-00 00 44 0368 02987 5759 577984 024212 200"
"172.846933"
"$GPRMC,201932,A,2425.2896,N,08130.6045,W,2.6,139.8,210615,5.8,"
"##MN-00 00 44 0369 02994 5759 716624 024215 200"
"172.846979"
"$GPRMC,201936,A,2425.2872,N,08130.6022,W,2.6,138.9,210615,5.8,"
"##MN-00 00 42 0370 02994 5760 713096 024213 200"
"172.847025"
"$GPRMC,201940,A,2425.2849,N,08130.5999,W,2.7,138.5,210615,5.8,"
"##MN-00 00 43 0371 02999 5760 715808 024208 200"
"172.847072"
"$GPRMC,201944,A,2425.2827,N,08130.5976,W,2.7,138.0,210615,5.8,"
"##MN-00 00 42 0372 03002 5761 202400 024207 200"
"172.847118"
"$GPRMC,201948,A,2425.2804,N,08130.5954,W,2.7,137.6,210615,5.8,"
"##MN-00 00 43 0373 03004 5761 575568 024215 200"
"172.847164"
"$GPRMC,201952,A,2425.2781,N,08130.5932,W,2.7,137.3,210615,5.8,"
"##MN-00 00 43 0374 03005 5762 711536 024221 200"
"172.847211"
"$GPRMC,201956,A,2425.2759,N,08130.5910,W,2.7,137.1,210615,5.8,"
"##MN-00 00 43 0375 03007 5762 713000 024205 200"
"172.847257"
"$GPRMC,202000,A,2425.2735,N,08130.5888,W,2.7,137.3,210615,5.8,"
"##MN-00 00 43 0376 03009 5762 712200 024213 200"
"172.847303"
"$GPRMC,202004,A,2425.2713,N,08130.5864,W,2.8,137.1,210615,5.8,"
"##MN-00 00 43 0377 03006 5762 710960 024215 200"
"172.84735"
"$GPRMC,202008,A,2425.2691,N,08130.5841,W,2.8,137.5,210615,5.8,"
"##MN-00 00 42 0378 03009 5763 710992 024210 200"
"172.847396"
"$GPRMC,202012,A,2425.2668,N,08130.5819,W,2.7,138.1,210615,5.8,"
"##MN-00 00 42 0380 03008 5763 709248 024211 200"
"172.847442"
"$GPRMC,202016,A,2425.2645,N,08130.5797,W,2.7,138.6,210615,5.8,"
"##MN-00 00 42 0381 03004 5764 707968 024210 200"
"172.847488"
"$GPRMC,202020,A,2425.2622,N,08130.5776,W,2.7,139.2,210615,5.8,"
"##MN-00 00 42 0382 03004 5764 707568 024213 200"
"172.847535"
"$GPRMC,202024,A,2425.2599,N,08130.5755,W,2.7,139.6,210615,5.8,"
"##MN-00 00 42 0383 03001 5764 707120 024215 200"
"172.847581"
"$GPRMC,202028,A,2425.2575,N,08130.5734,W,2.7,139.8,210615,5.8,"
"##MN-00 00 42 0384 03000 5765 707632 024209 200"
"172.847627"
"$GPRMC,202032,A,2425.2551,N,08130.5713,W,2.7,140.5,210615,5.8,"
"##MN-00 00 41 0385 02996 5765 706768 024212 200"
"172.847674"
"$GPRMC,202036,A,2425.2528,N,08130.5693,W,2.7,141.1,210615,5.8,"
"##MN-00 00 42 0386 02994 5766 708096 024213 200"
"172.84772"
"$GPRMC,202040,A,2425.2504,N,08130.5673,W,2.7,142.2,210615,5.8,"
"##MN-00 00 42 0387 02991 5766 704976 024218 200"
"172.847766"
"$GPRMC,202044,A,2425.2481,N,08130.5655,W,2.7,142.4,210615,5.8,"
"##MN-00 00 42 0388 02986 5766 707648 024209 200"
"172.847812"
"$GPRMC,202048,A,2425.2458,N,08130.5636,W,2.7,142.7,210615,5.8,"
"##MN-00 00 43 0390 02985 5767 704944 024215 200"
"172.847859"
"$GPRMC,202052,A,2425.2435,N,08130.5617,W,2.6,143.3,210615,5.8,"
"##MN-00 00 43 0391 02982 5767 707128 024214 200"
"172.847905"
"$GPRMC,202056,A,2425.2413,N,08130.5598,W,2.6,143.5,210615,5.8,"
"##MN-00 00 43 0392 02977 5767 707064 024218 200"
"172.847951"
"$GPRMC,202100,A,2425.2390,N,08130.5579,W,2.6,143.5,210615,5.8,"
"##MN-00 00 44 0393 02973 5768 706576 024203 200"
"172.847998"
"$GPRMC,202104,A,2425.2365,N,08130.5559,W,2.6,143.5,210615,5.8,"
"##MN-00 00 43 0394 02970 5768 707800 024206 200"
"172.848044"
"$GPRMC,202108,A,2425.2343,N,08130.5539,W,2.6,143.1,210615,5.8,"
"##MN-00 00 43 0395 02966 5768 707296 024217 200"
"172.84809"
"$GPRMC,202112,A,2425.2319,N,08130.5518,W,2.6,142.9,210615,5.8,"
"##MN-00 00 43 0396 02965 5768 708992 024207 200"
"172.848137"
"$GPRMC,202116,A,2425.2296,N,08130.5497,W,2.6,142.6,210615,5.8,"
"##MN-00 00 43 0397 02960 5769 708456 024208 200"
"172.848183"
"$GPRMC,202120,A,2425.2271,N,08130.5478,W,2.7,142.5,210615,5.8,"
"##MN-00 00 44 0398 02957 5769 709728 024212 200"
"172.848229"
"$GPRMC,202124,A,2425.2246,N,08130.5457,W,2.7,141.9,210615,5.8,"
"##MN-00 00 43 0399 02954 5770 711432 024210 200"
"172.848287"
"$GPRMC,202128,A,2425.2224,N,08130.5437,W,2.7,140.9,210615,5.8,"
"##MN-00 00 43 0400 02950 5770 715840 024211 200"
"172.848333"
"$GPRMC,202132,A,2425.2200,N,08130.5416,W,2.7,140.2,210615,5.8,"
"##MN-00 00 43 0402 02945 5770 715320 024211 200"
"172.84838"
"$GPRMC,202136,A,2425.2177,N,08130.5394,W,2.6,139.3,210615,5.8,"
"##MN-00 00 43 0403 02943 5771 713936 024214 200"
"172.848426"
"$GPRMC,202140,A,2425.2155,N,08130.5372,W,2.6,138.9,210615,5.8,"
"##MN-00 00 42 0404 02941 5771 715664 024210 200"
"172.848472"
"$GPRMC,202144,A,2425.2132,N,08130.5350,W,2.6,139.0,210615,5.8,"
"##MN-00 00 41 0405 02937 5771 716536 024209 200"
"172.848519"
"$GPRMC,202148,A,2425.2110,N,08130.5328,W,2.6,139.3,210615,5.8,"
"##MN-00 00 42 0406 02934 5771 713824 024210 200"
"172.848565"
"$GPRMC,202152,A,2425.2088,N,08130.5305,W,2.7,139.9,210615,5.8,"
"##MN-00 00 42 0407 02930 5772 461936 024201 200"
"172.848611"
"$GPRMC,202156,A,2425.2065,N,08130.5285,W,2.7,139.7,210615,5.8,"
"##MN-00 00 42 0408 02927 5772 718176 024198 200"
"172.848657"
"$GPRMC,202200,A,2425.2041,N,08130.5263,W,2.7,140.0,210615,5.8,"
"##MN-00 00 42 0409 02924 5772 717608 024202 200"
"172.848704"
"$GPRMC,202204,A,2425.2018,N,08130.5242,W,2.7,139.6,210615,5.8,"
"##MN-00 00 42 0410 02920 5772 718976 024197 200"
"172.84875"
"$GPRMC,202208,A,2425.1994,N,08130.5221,W,2.7,139.9,210615,5.8,"
"##MN-00 00 42 0411 02917 5773 722496 024204 200"
"172.848796"
"$GPRMC,202212,A,2425.1971,N,08130.5198,W,2.7,140.3,210615,5.8,"
"##MN-00 00 42 0413 02913 5773 723792 024209 200"
"172.848843"
"$GPRMC,202216,A,2425.1946,N,08130.5177,W,2.7,140.5,210615,5.8,"
"##MN-00 00 42 0414 02907 5773 725072 024211 200"
"172.848889"
"$GPRMC,202220,A,2425.1924,N,08130.5155,W,2.7,140.6,210615,5.8,"
"##MN-00 00 42 0415 02906 5774 724568 024219 200"
"172.848935"
"$GPRMC,202224,A,2425.1900,N,08130.5134,W,2.7,140.8,210615,5.8,"
"##MN-00 00 42 0416 02900 5774 724976 024206 200"
"172.848981"
"$GPRMC,202228,A,2425.1877,N,08130.5112,W,2.8,140.8,210615,5.8,"
"##MN-00 00 41 0417 02898 5774 724992 024211 200"
"172.849028"
"$GPRMC,202232,A,2425.1853,N,08130.5093,W,2.7,141.2,210615,5.8,"
"##MN-00 00 40 0418 02895 5775 724920 024208 200"
"172.849074"
"$GPRMC,202236,A,2425.1830,N,08130.5075,W,2.7,141.8,210615,5.8,"
