" Tow: 9WS-A   RVWS/WS15161"
" Date: 21/06/2015"
" Temperature Probe #  4762    Conductivity Probe #  710"
" Pressure Probe #  159"
" Flow Meter Calibration  4.71 (m/count)  "
"172.656204"
"$GPRMC,154452,A,2423.1888,N,08133.6623,W,2.8,335.3,210615,5.7,"
"##MN-00 00 87 0000 01543 4824 430936 827631 197"
"172.65625"
"$GPRMC,154456,A,2423.1916,N,08133.6637,W,2.7,335.4,210615,5.7,"
"##MN-00 00 87 0000 01544 4823 429485 827816 197"
"172.656296"
"$GPRMC,154501,A,2423.1949,N,08133.6654,W,2.7,334.6,210615,5.7,"
"##MN-00 00 87 0000 01544 4821 428577 827816 197"
"172.656343"
"$GPRMC,154505,A,2423.1974,N,08133.6666,W,2.8,334.6,210615,5.7,"
"##MN-00 00 87 0000 01543 4820 427848 827815 197"
"172.656389"
"$GPRMC,154509,A,2423.2002,N,08133.6681,W,2.8,334.6,210615,5.7,"
"##MN-00 00 87 0000 01542 4818 428044 827815 197"
"172.656435"
"$GPRMC,154513,A,2423.2029,N,08133.6695,W,2.8,334.4,210615,5.7,"
"##MN-00 00 86 0000 01544 4817 428163 827814 197"
"172.656481"
"$GPRMC,154517,A,2423.2056,N,08133.6710,W,2.7,334.4,210615,5.7,"
"##MN-00 00 87 0000 01546 4816 428836 827815 197"
"172.656528"
"$GPRMC,154521,A,2423.2083,N,08133.6725,W,2.7,334.3,210615,5.7,"
"##MN-00 00 87 0000 01545 4814 429597 827815 197"
"172.656574"
"$GPRMC,154525,A,2423.2111,N,08133.6741,W,2.7,333.9,210615,5.7,"
"##MN-00 00 87 0000 01545 4813 430335 827814 197"
"172.65662"
"$GPRMC,154529,A,2423.2137,N,08133.6756,W,2.7,333.5,210615,5.7,"
"##MN-00 00 87 0000 01545 4812 430290 827814 197"
"172.656667"
"$GPRMC,154533,A,2423.2165,N,08133.6770,W,2.7,334.2,210615,5.7,"
"##MN-00 00 86 0000 01545 4811 430084 827746 197"
"172.656713"
"$GPRMC,154537,A,2423.2191,N,08133.6783,W,2.7,334.7,210615,5.7,"
"##MN-00 00 87 0000 01544 4810 430135 827814 197"
"172.656759"
"$GPRMC,154541,A,2423.2220,N,08133.6797,W,2.7,334.9,210615,5.7,"
"##MN-00 00 87 0000 01544 4809 429517 827813 197"
"172.656806"
"$GPRMC,154545,A,2423.2249,N,08133.6811,W,2.8,335.1,210615,5.7,"
"##MN-00 00 86 0000 01544 4808 428645 827813 197"
"172.656852"
"$GPRMC,154549,A,2423.2277,N,08133.6825,W,2.8,335.7,210615,5.7,"
"##MN-00 00 85 0000 01544 4807 428017 827809 197"
"172.656898"
"$GPRMC,154553,A,2423.2306,N,08133.6839,W,2.8,336.2,210615,5.7,"
"##MN-00 00 83 0000 01545 4806 427656 827741 197"
"172.656944"
"$GPRMC,154557,A,2423.2335,N,08133.6853,W,2.8,336.4,210615,5.7,"
"##MN-00 00 81 0000 01545 4805 426823 773274 197"
"172.656991"
"$GPRMC,154601,A,2423.2365,N,08133.6866,W,2.8,336.8,210615,5.7,"
"##MN-00 00 81 0000 01543 4805 426014 827860 197"
"172.657037"
"$GPRMC,154605,A,2423.2393,N,08133.6880,W,2.8,336.9,210615,5.7,"
"##MN-00 00 71 0000 01543 4804 424836 827861 197"
"172.657083"
"$GPRMC,154609,A,2423.2422,N,08133.6894,W,2.8,337.1,210615,5.7,"
"##MN-00 00 71 0000 01544 4804 423986 827861 197"
"172.65713"
"$GPRMC,154613,A,2423.2453,N,08133.6908,W,2.8,337.7,210615,5.7,"
"##MN-00 00 71 0000 01544 4803 423559 827861 197"
"172.657176"
"$GPRMC,154617,A,2423.2483,N,08133.6922,W,2.9,337.3,210615,5.7,"
"##MN-00 00 71 0000 01546 4802 422799 827859 197"
"172.657222"
"$GPRMC,154621,A,2423.2512,N,08133.6936,W,2.9,337.3,210615,5.7,"
"##MN-00 00 69 0000 01544 4801 421718 827858 197"
"172.657269"
"$GPRMC,154625,A,2423.2540,N,08133.6947,W,2.8,337.1,210615,5.7,"
"##MN-00 00 69 0000 01546 4801 421823 827859 197"
"172.657315"
"$GPRMC,154629,A,2423.2567,N,08133.6959,W,2.8,336.6,210615,5.7,"
"##MN-00 00 70 0000 01544 4801 421578 827859 197"
"172.657361"
"$GPRMC,154633,A,2423.2594,N,08133.6973,W,2.8,336.4,210615,5.7,"
"##MN-00 00 70 0000 01546 4800 420749 827858 197"
"172.657407"
"$GPRMC,154637,A,2423.2621,N,08133.6985,W,2.8,336.2,210615,5.7,"
"##MN-00 00 70 0000 01545 4800 419443 827858 197"
"172.657454"
"$GPRMC,154641,A,2423.2650,N,08133.6999,W,2.8,335.7,210615,5.7,"
"##MN-00 00 70 0000 01544 4799 418720 827857 197"
"172.6575"
"$GPRMC,154645,A,2423.2678,N,08133.7014,W,2.8,335.2,210615,5.7,"
"##MN-00 00 70 0000 01545 4799 418224 827858 197"
"172.657546"
"$GPRMC,154649,A,2423.2704,N,08133.7028,W,2.7,335.0,210615,5.7,"
"##MN-00 00 70 0001 01546 4798 417664 827857 197"
"172.657593"
"$GPRMC,154653,A,2423.2732,N,08133.7042,W,2.6,335.0,210615,5.7,"
"##MN-00 00 50 0002 01546 4798 431250 251328 197"
"172.657639"
"$GPRMC,154657,A,2423.2757,N,08133.7056,W,2.6,335.2,210615,5.7,"
"##MN-00 00 08 0003 01547 4798 440940 204531 197"
"172.657685"
"$GPRMC,154701,A,2423.2784,N,08133.7068,W,2.5,335.6,210615,5.7,"
"##MN-00 00 08 0004 01546 4798 441212 204903 197"
"172.657731"
"$GPRMC,154705,A,2423.2811,N,08133.7079,W,2.4,336.4,210615,5.7,"
"##MN-00 00 07 0004 01548 4798 441354 204976 197"
"172.657778"
"$GPRMC,154709,A,2423.2837,N,08133.7090,W,2.3,337.7,210615,5.7,"
"##MN-00 00 07 0006 01546 4798 441482 204537 197"
"172.657824"
"$GPRMC,154713,A,2423.2860,N,08133.7099,W,2.3,338.7,210615,5.7,"
"##MN-00 00 07 0007 01547 4798 441401 204571 197"
"172.65787"
"$GPRMC,154717,A,2423.2885,N,08133.7110,W,2.3,339.7,210615,5.7,"
"##MN-00 00 06 0008 01550 4798 441437 204530 197"
"172.657917"
"$GPRMC,154721,A,2423.2910,N,08133.7117,W,2.2,340.1,210615,5.7,"
"##MN-00 00 06 0008 01555 4799 441507 204590 197"
"172.657963"
"$GPRMC,154725,A,2423.2932,N,08133.7126,W,2.2,340.6,210615,5.7,"
"##MN-00 00 06 0010 01556 4800 441574 204565 197"
"172.658009"
"$GPRMC,154729,A,2423.2956,N,08133.7135,W,2.1,341.0,210615,5.7,"
"##MN-00 00 06 0011 01559 4801 441545 204559 197"
"172.658056"
"$GPRMC,154733,A,2423.2978,N,08133.7143,W,2.1,341.3,210615,5.7,"
"##MN-00 00 06 0012 01561 4802 441663 204579 197"
"172.658102"
"$GPRMC,154737,A,2423.3000,N,08133.7153,W,2.1,341.6,210615,5.7,"
"##MN-00 00 06 0013 01567 4803 442187 204705 197"
"172.658148"
"$GPRMC,154741,A,2423.3019,N,08133.7160,W,2.1,342.6,210615,5.7,"
"##MN-00 00 06 0014 01568 4804 442661 204749 197"
"172.658194"
"$GPRMC,154745,A,2423.3043,N,08133.7168,W,2.1,343.3,210615,5.7,"
"##MN-00 00 06 0015 01568 4805 443244 204828 197"
"172.658241"
"$GPRMC,154749,A,2423.3064,N,08133.7175,W,2.1,343.8,210615,5.7,"
"##MN-00 00 06 0016 01576 4807 443600 204954 197"
"172.658287"
"$GPRMC,154753,A,2423.3086,N,08133.7182,W,2.1,344.1,210615,5.7,"
"##MN-00 00 06 0017 01578 4809 443751 204947 197"
"172.658333"
"$GPRMC,154757,A,2423.3107,N,08133.7189,W,2.1,344.5,210615,5.7,"
"##MN-00 00 06 0018 01581 4811 443825 204978 197"
"172.65838"
"$GPRMC,154801,A,2423.3129,N,08133.7197,W,2.0,344.7,210615,5.7,"
"##MN-00 00 06 0019 01585 4813 443855 205001 197"
"172.658426"
"$GPRMC,154805,A,2423.3151,N,08133.7204,W,2.0,344.0,210615,5.7,"
"##MN-00 00 06 0020 01589 4815 443919 204996 197"
"172.658472"
"$GPRMC,154809,A,2423.3172,N,08133.7211,W,2.0,343.6,210615,5.7,"
"##MN-00 00 06 0022 01590 4817 443961 205032 197"
"172.658519"
"$GPRMC,154813,A,2423.3192,N,08133.7218,W,2.0,343.0,210615,5.7,"
"##MN-00 00 06 0023 01594 4820 443960 205031 197"
"172.658576"
"$GPRMC,154817,A,2423.3214,N,08133.7226,W,1.9,342.3,210615,5.7,"
"##MN-00 00 06 0024 01596 4822 443990 205061 197"
"172.658623"
"$GPRMC,154821,A,2423.3239,N,08133.7234,W,1.9,341.4,210615,5.7,"
"##MN-00 00 06 0025 01598 4824 443984 205051 197"
"172.658669"
"$GPRMC,154825,A,2423.3260,N,08133.7243,W,1.9,340.6,210615,5.7,"
"##MN-00 00 06 0026 01602 4827 444037 205061 197"
"172.658715"
"$GPRMC,154829,A,2423.3279,N,08133.7248,W,1.8,340.1,210615,5.7,"
"##MN-00 00 06 0027 01606 4829 444018 205063 197"
"172.658762"
"$GPRMC,154833,A,2423.3297,N,08133.7258,W,1.8,339.3,210615,5.7,"
"##MN-00 00 06 0028 01610 4832 444041 205065 197"
"172.658808"
"$GPRMC,154837,A,2423.3315,N,08133.7265,W,1.8,338.0,210615,5.7,"
"##MN-00 00 06 0029 01613 4835 444048 205066 197"
"172.658854"
"$GPRMC,154841,A,2423.3331,N,08133.7272,W,1.8,337.2,210615,5.7,"
"##MN-00 00 06 0030 01615 4838 444079 205069 197"
"172.6589"
"$GPRMC,154845,A,2423.3350,N,08133.7281,W,1.8,336.7,210615,5.7,"
"##MN-00 00 06 0031 01618 4840 444107 205077 197"
"172.658947"
"$GPRMC,154849,A,2423.3369,N,08133.7291,W,1.8,336.8,210615,5.7,"
"##MN-00 00 06 0032 01622 4843 444110 205082 197"
"172.658993"
"$GPRMC,154853,A,2423.3389,N,08133.7301,W,1.8,336.7,210615,5.7,"
"##MN-00 00 06 0033 01624 4846 444137 205084 197"
"172.659039"
"$GPRMC,154857,A,2423.3409,N,08133.7307,W,1.8,336.0,210615,5.7,"
"##MN-00 00 06 0035 01628 4849 444191 205085 197"
"172.659086"
"$GPRMC,154901,A,2423.3427,N,08133.7314,W,1.8,335.8,210615,5.7,"
"##MN-00 00 05 0036 01629 4853 444223 205087 197"
"172.659132"
"$GPRMC,154905,A,2423.3445,N,08133.7323,W,1.8,335.9,210615,5.7,"
"##MN-00 00 05 0037 01631 4855 444246 205107 197"
"172.659178"
"$GPRMC,154909,A,2423.3463,N,08133.7330,W,1.8,336.4,210615,5.7,"
"##MN-00 00 06 0038 01636 4858 444254 205109 197"
"172.659225"
"$GPRMC,154913,A,2423.3484,N,08133.7339,W,1.8,337.2,210615,5.7,"
"##MN-00 00 06 0039 01638 4861 444267 205102 197"
"172.659271"
"$GPRMC,154917,A,2423.3503,N,08133.7348,W,1.8,337.6,210615,5.7,"
"##MN-00 00 05 0040 01640 4864 444272 205103 197"
"172.659317"
"$GPRMC,154922,A,2423.3527,N,08133.7359,W,1.8,338.1,210615,5.7,"
"##MN-00 00 05 0041 01643 4867 444284 205106 197"
"172.659363"
"$GPRMC,154926,A,2423.3546,N,08133.7370,W,1.8,337.7,210615,5.7,"
"##MN-00 00 05 0042 01647 4871 444306 205109 197"
"172.65941"
"$GPRMC,154930,A,2423.3561,N,08133.7382,W,1.8,337.7,210615,5.7,"
"##MN-00 00 05 0043 01648 4874 444309 205115 197"
"172.659456"
"$GPRMC,154934,A,2423.3578,N,08133.7391,W,1.8,337.3,210615,5.7,"
"##MN-00 00 05 0044 01651 4877 444312 205120 197"
"172.659502"
"$GPRMC,154938,A,2423.3596,N,08133.7399,W,1.8,336.9,210615,5.7,"
"##MN-00 00 05 0045 01656 4880 444332 205118 197"
"172.659549"
"$GPRMC,154941,A,2423.3610,N,08133.7406,W,1.8,336.7,210615,5.7,"
"##MN-00 00 06 0047 01658 4884 444317 205118 197"
"172.659595"
"$GPRMC,154946,A,2423.3633,N,08133.7415,W,1.8,336.1,210615,5.7,"
"##MN-00 00 06 0048 01661 4887 444341 205120 197"
"172.659641"
"$GPRMC,154950,A,2423.3651,N,08133.7424,W,1.8,335.6,210615,5.7,"
"##MN-00 00 05 0049 01664 4890 444337 205120 197"
"172.659688"
"$GPRMC,154954,A,2423.3671,N,08133.7438,W,1.8,334.9,210615,5.7,"
"##MN-00 00 05 0050 01669 4893 444340 205121 197"
"172.659734"
"$GPRMC,154958,A,2423.3687,N,08133.7447,W,1.8,334.6,210615,5.7,"
"##MN-00 00 06 0051 01668 4896 444365 205124 197"
"172.65978"
"$GPRMC,155002,A,2423.3707,N,08133.7460,W,1.8,334.1,210615,5.7,"
"##MN+00 00 06 0052 01671 4900 444363 205123 197"
"172.659826"
"$GPRMC,155006,A,2423.3722,N,08133.7464,W,1.8,334.3,210615,5.7,"
"##MN+00 00 06 0053 01667 4903 444355 205123 197"
"172.659873"
"$GPRMC,155010,A,2423.3741,N,08133.7475,W,1.8,335.2,210615,5.7,"
"##MN+00 00 06 0055 01668 4906 444353 205125 197"
"172.659919"
"$GPRMC,155014,A,2423.3759,N,08133.7482,W,1.7,335.9,210615,5.7,"
"##MN+00 00 06 0056 01669 4909 444351 205124 197"
"172.659965"
"$GPRMC,155018,A,2423.3776,N,08133.7487,W,1.7,336.3,210615,5.7,"
"##MN+00 00 06 0057 01669 4912 444345 205124 197"
"172.660012"
"$GPRMC,155022,A,2423.3795,N,08133.7498,W,1.7,337.0,210615,5.7,"
"##MN+00 00 06 0058 01672 4916 444369 205123 197"
"172.660058"
"$GPRMC,155026,A,2423.3813,N,08133.7507,W,1.7,337.4,210615,5.7,"
"##MN-00 00 06 0059 01673 4919 444375 205124 197"
"172.660104"
"#increment_net"
"$GPRMC,155030,A,2423.3831,N,08133.7511,W,1.8,337.6,210615,5.7,"
"##MN-00 00 06 0060 01670 4922 444372 205125 197"
"172.66015"
"$GPRMC,155034,A,2423.3849,N,08133.7519,W,1.8,338.1,210615,5.7,"
"##MN-00 00 06 0061 01672 4926 444375 205125 197"
"172.660197"
"$GPRMC,155038,A,2423.3868,N,08133.7523,W,1.8,338.3,210615,5.7,"
"##MN-00 00 06 0063 01671 4929 444366 205124 197"
"172.660243"
"$GPRMC,155042,A,2423.3885,N,08133.7529,W,1.8,338.2,210615,5.7,"
"##MN-00 00 06 0064 01671 4932 444374 205124 197"
"172.660289"
"$GPRMC,155046,A,2423.3904,N,08133.7536,W,1.8,338.4,210615,5.7,"
"##MN-00 00 06 0065 01671 4935 444383 205125 197"
"172.660336"
"$GPRMC,155050,A,2423.3922,N,08133.7545,W,1.8,338.4,210615,5.7,"
"##MN-00 00 06 0066 01671 4939 444381 205125 197"
"172.660382"
"$GPRMC,155054,A,2423.3945,N,08133.7556,W,1.8,338.4,210615,5.7,"
"##MN+00 00 06 0067 01671 4942 444391 205124 197"
"172.660428"
"$GPRMC,155058,A,2423.3961,N,08133.7561,W,1.8,338.3,210615,5.7,"
"##MN+00 00 06 0068 01672 4945 444394 205124 197"
"172.660475"
"$GPRMC,155102,A,2423.3983,N,08133.7573,W,1.8,338.8,210615,5.7,"
"##MN+00 00 06 0069 01672 4948 444393 205123 197"
"172.660521"
"$GPRMC,155106,A,2423.4001,N,08133.7580,W,1.8,339.0,210615,5.7,"
"##MN-00 00 06 0071 01671 4951 444392 205123 197"
"172.660567"
"$GPRMC,155110,A,2423.4016,N,08133.7584,W,1.8,338.4,210615,5.7,"
"##MN-00 00 06 0072 01673 4954 444400 205123 197"
"172.660613"
"$GPRMC,155114,A,2423.4037,N,08133.7595,W,1.8,337.8,210615,5.7,"
"##MN+00 00 06 0073 01672 4958 444399 205122 197"
"172.66066"
"$GPRMC,155118,A,2423.4059,N,08133.7608,W,1.7,337.3,210615,5.7,"
"##MN+00 00 06 0074 01670 4961 444408 205122 197"
"172.660706"
"$GPRMC,155122,A,2423.4077,N,08133.7619,W,1.7,336.6,210615,5.7,"
"##MN+00 00 06 0075 01676 4965 444413 205122 197"
"172.660752"
"#increment_net"
"$GPRMC,155126,A,2423.4097,N,08133.7630,W,1.7,335.6,210615,5.7,"
"##MN-00 00 06 0076 01674 4968 444415 205121 197"
"172.660799"
"$GPRMC,155130,A,2423.4115,N,08133.7638,W,1.7,334.8,210615,5.7,"
"##MN-00 00 06 0078 01673 4971 444404 205121 197"
"172.660845"
"$GPRMC,155134,A,2423.4131,N,08133.7646,W,1.7,333.9,210615,5.7,"
"##MN-00 00 06 0079 01674 4974 444405 205121 197"
"172.660891"
"$GPRMC,155138,A,2423.4149,N,08133.7653,W,1.7,333.3,210615,5.7,"
"##MN-00 00 06 0080 01672 4977 444385 205121 197"
"172.660938"
"$GPRMC,155142,A,2423.4166,N,08133.7663,W,1.7,332.7,210615,5.7,"
"##MN-00 00 06 0081 01671 4981 444362 205120 197"
"172.660984"
"$GPRMC,155146,A,2423.4178,N,08133.7666,W,1.7,332.6,210615,5.7,"
"##MN-00 00 06 0082 01671 4984 444324 205116 197"
"172.66103"
"$GPRMC,155150,A,2423.4200,N,08133.7681,W,1.7,332.8,210615,5.7,"
"##MN+00 00 06 0083 01672 4987 444294 205112 197"
"172.661076"
"$GPRMC,155154,A,2423.4221,N,08133.7696,W,1.7,332.8,210615,5.7,"
"##MN+00 00 06 0085 01668 4990 444281 205108 197"
"172.661123"
"$GPRMC,155158,A,2423.4239,N,08133.7706,W,1.7,333.3,210615,5.7,"
"##MN+00 00 06 0086 01667 4994 444267 205110 197"
"172.661169"
"$GPRMC,155202,A,2423.4257,N,08133.7714,W,1.7,333.8,210615,5.7,"
"##MN-00 00 06 0087 01669 4997 444255 205105 197"
"172.661215"
"$GPRMC,155206,A,2423.4276,N,08133.7727,W,1.7,334.3,210615,5.7,"
"##MN-00 00 06 0088 01665 5000 444252 205105 197"
"172.661262"
"$GPRMC,155210,A,2423.4297,N,08133.7736,W,1.7,335.0,210615,5.7,"
"##MN+00 00 06 0089 01667 5003 444253 205111 197"
"172.661308"
"$GPRMC,155214,A,2423.4315,N,08133.7746,W,1.7,335.3,210615,5.7,"
"##MN+00 00 06 0091 01665 5007 444249 205117 197"
"172.661354"
"$GPRMC,155218,A,2423.4333,N,08133.7756,W,1.7,335.4,210615,5.7,"
"##MN+00 00 06 0092 01669 5010 444256 205115 197"
"172.6614"
"#increment_net"
"$GPRMC,155222,A,2423.4351,N,08133.7765,W,1.7,335.6,210615,5.7,"
"##MN-00 00 06 0093 01668 5013 444254 205114 197"
"172.661447"
"$GPRMC,155226,A,2423.4369,N,08133.7772,W,1.7,335.7,210615,5.7,"
"##MN-00 00 06 0094 01668 5016 444249 205114 197"
"172.661493"
"$GPRMC,155230,A,2423.4388,N,08133.7782,W,1.7,336.0,210615,5.7,"
"##MN-00 00 06 0095 01667 5020 444247 205113 197"
"172.661539"
"$GPRMC,155234,A,2423.4402,N,08133.7783,W,1.7,336.3,210615,5.7,"
"##MN-00 00 06 0096 01665 5023 444243 205112 197"
"172.661586"
"$GPRMC,155238,A,2423.4422,N,08133.7796,W,1.8,335.7,210615,5.7,"
"##MN-00 00 06 0098 01665 5026 444232 205112 197"
"172.661632"
"$GPRMC,155242,A,2423.4441,N,08133.7807,W,1.8,335.5,210615,5.7,"
"##MN-00 00 06 0099 01666 5029 444235 205110 197"
"172.661678"
"$GPRMC,155246,A,2423.4460,N,08133.7818,W,1.7,335.1,210615,5.7,"
"##MN-00 00 06 0100 01664 5032 444230 205109 197"
"172.661725"
"$GPRMC,155250,A,2423.4473,N,08133.7820,W,1.7,334.5,210615,5.7,"
"##MN+00 00 06 0101 01664 5035 444221 205106 197"
"172.661771"
"$GPRMC,155254,A,2423.4489,N,08133.7829,W,1.7,334.0,210615,5.7,"
"##MN+00 00 06 0102 01664 5039 444198 205105 197"
"172.661829"
"$GPRMC,155258,A,2423.4507,N,08133.7835,W,1.7,334.5,210615,5.7,"
"##MN+00 00 06 0104 01665 5042 444190 205103 197"
"172.661875"
"$GPRMC,155302,A,2423.4525,N,08133.7845,W,1.7,335.0,210615,5.7,"
"##MN-00 00 06 0105 01664 5045 444188 205100 197"
"172.661921"
"$GPRMC,155306,A,2423.4543,N,08133.7854,W,1.7,335.3,210615,5.7,"
"##MN+00 00 06 0106 01664 5048 444194 205097 197"
"172.661968"
"$GPRMC,155310,A,2423.4561,N,08133.7865,W,1.7,335.2,210615,5.7,"
"##MN+00 00 06 0107 01664 5051 444183 205096 197"
"172.662014"
"$GPRMC,155314,A,2423.4572,N,08133.7866,W,1.7,334.7,210615,5.7,"
"##MN+00 00 06 0108 01669 5054 444202 205095 197"
"172.66206"
"#increment_net"
"$GPRMC,155318,A,2423.4587,N,08133.7873,W,1.7,333.9,210615,5.7,"
"##MN-00 00 06 0109 01665 5057 444194 205096 197"
"172.662106"
"$GPRMC,155322,A,2423.4603,N,08133.7879,W,1.7,333.9,210615,5.7,"
"##MN-00 00 06 0111 01664 5061 444193 205096 197"
"172.662153"
"$GPRMC,155326,A,2423.4618,N,08133.7887,W,1.7,333.7,210615,5.7,"
"##MN-00 00 06 0112 01665 5064 444187 205095 197"
"172.662199"
"$GPRMC,155330,A,2423.4640,N,08133.7904,W,1.7,333.7,210615,5.7,"
"##MN-00 00 06 0113 01664 5067 444185 205090 197"
"172.662245"
"$GPRMC,155334,A,2423.4658,N,08133.7913,W,1.7,333.6,210615,5.7,"
"##MN-00 00 06 0114 01664 5070 444161 205086 197"
"172.662292"
"$GPRMC,155339,A,2423.4680,N,08133.7926,W,1.7,333.1,210615,5.7,"
"##MN-00 00 06 0115 01665 5074 444155 205084 197"
"172.662338"
"$GPRMC,155342,A,2423.4693,N,08133.7931,W,1.7,333.3,210615,5.7,"
"##MN+00 00 06 0117 01664 5077 444145 205082 197"
"172.662384"
"$GPRMC,155346,A,2423.4709,N,08133.7938,W,1.7,333.3,210615,5.7,"
"##MN+00 00 06 0118 01662 5080 444135 205081 197"
"172.662431"
"$GPRMC,155350,A,2423.4727,N,08133.7948,W,1.6,333.5,210615,5.7,"
"##MN+00 00 06 0119 01666 5083 444115 205076 197"
"172.662477"
"$GPRMC,155354,A,2423.4742,N,08133.7953,W,1.6,333.7,210615,5.7,"
"##MN-00 00 06 0120 01664 5086 444109 205070 197"
"172.662523"
"$GPRMC,155358,A,2423.4758,N,08133.7959,W,1.6,334.2,210615,5.7,"
"##MN-00 00 06 0121 01664 5089 444089 205066 197"
"172.662569"
"$GPRMC,155402,A,2423.4773,N,08133.7966,W,1.6,334.6,210615,5.7,"
"##MN+00 00 06 0123 01666 5092 444076 205065 197"
"172.662616"
"$GPRMC,155407,A,2423.4796,N,08133.7978,W,1.7,335.0,210615,5.7,"
"##MN+00 00 06 0124 01664 5096 444083 205063 197"
"172.662662"
"$GPRMC,155411,A,2423.4816,N,08133.7991,W,1.6,335.7,210615,5.7,"
"##MN+00 00 06 0125 01669 5099 444089 205061 197"
"172.662708"
"#increment_net"
"$GPRMC,155415,A,2423.4832,N,08133.7998,W,1.7,336.2,210615,5.7,"
"##MN-00 00 06 0126 01671 5102 444090 205060 197"
"172.662755"
"$GPRMC,155418,A,2423.4843,N,08133.8001,W,1.7,336.0,210615,5.7,"
"##MN-00 00 06 0128 01676 5105 444091 205060 197"
"172.662801"
"$GPRMC,155423,A,2423.4868,N,08133.8017,W,1.7,335.8,210615,5.7,"
"##MN-00 00 06 0129 01683 5108 444101 205061 197"
"172.662847"
"$GPRMC,155427,A,2423.4885,N,08133.8025,W,1.8,335.4,210615,5.7,"
"##MN-00 00 06 0131 01690 5111 444128 205063 197"
"172.662894"
"$GPRMC,155431,A,2423.4901,N,08133.8033,W,1.8,334.2,210615,5.7,"
"##MN-00 00 06 0132 01689 5114 444177 205073 197"
"172.66294"
"$GPRMC,155435,A,2423.4919,N,08133.8042,W,1.9,333.3,210615,5.7,"
"##MN-00 00 06 0134 01689 5117 444242 205084 197"
"172.662986"
"$GPRMC,155439,A,2423.4939,N,08133.8053,W,1.9,332.5,210615,5.7,"
"##MN-00 00 06 0136 01687 5120 444264 205088 197"
"172.663032"
"$GPRMC,155443,A,2423.4957,N,08133.8064,W,1.9,331.9,210615,5.7,"
"##MN-00 00 05 0137 01685 5124 444264 205089 197"
"172.663079"
"$GPRMC,155447,A,2423.4977,N,08133.8078,W,1.9,331.4,210615,5.7,"
"##MN-00 00 05 0139 01684 5126 444269 205087 197"
"172.663125"
"$GPRMC,155451,A,2423.4995,N,08133.8090,W,1.9,331.0,210615,5.7,"
"##MN-00 00 05 0140 01682 5129 444242 205083 197"
"172.663171"
"$GPRMC,155455,A,2423.5015,N,08133.8103,W,1.9,330.2,210615,5.7,"
"##MN-00 00 05 0142 01678 5132 444196 205072 197"
"172.663218"
"$GPRMC,155459,A,2423.5027,N,08133.8114,W,1.9,329.4,210615,5.7,"
"##MN-00 00 05 0143 01677 5136 444162 205066 197"
"172.663264"
"$GPRMC,155503,A,2423.5047,N,08133.8126,W,1.9,329.0,210615,5.7,"
"##MN-00 00 05 0145 01672 5139 444138 205066 197"
"172.66331"
"$GPRMC,155507,A,2423.5070,N,08133.8144,W,1.9,328.4,210615,5.7,"
"##MN-00 00 05 0147 01666 5142 444106 205062 197"
"172.663356"
"$GPRMC,155511,A,2423.5088,N,08133.8158,W,1.9,327.8,210615,5.7,"
"##MN-00 00 06 0148 01666 5144 444102 205059 197"
"172.663403"
"$GPRMC,155515,A,2423.5107,N,08133.8172,W,1.9,327.5,210615,5.7,"
"##MN-00 00 05 0150 01661 5148 444096 205056 197"
"172.663449"
"$GPRMC,155519,A,2423.5125,N,08133.8186,W,1.9,327.3,210615,5.7,"
"##MN-00 00 05 0151 01658 5151 444061 205052 197"
"172.663495"
"$GPRMC,155523,A,2423.5143,N,08133.8199,W,1.9,327.2,210615,5.7,"
"##MN-00 00 05 0153 01654 5154 444029 205048 197"
"172.663542"
"$GPRMC,155527,A,2423.5163,N,08133.8215,W,1.9,326.9,210615,5.7,"
"##MN-00 00 06 0155 01650 5157 444005 205043 197"
"172.663588"
"$GPRMC,155531,A,2423.5182,N,08133.8228,W,1.9,327.0,210615,5.7,"
"##MN-00 00 05 0156 01646 5160 443982 205039 197"
"172.663634"
"$GPRMC,155535,A,2423.5200,N,08133.8241,W,1.9,327.1,210615,5.7,"
"##MN-00 00 05 0158 01641 5162 443963 205037 197"
"172.663681"
"$GPRMC,155539,A,2423.5219,N,08133.8255,W,1.9,327.4,210615,5.7,"
"##MN-00 00 06 0159 01638 5165 443927 205030 197"
"172.663727"
"$GPRMC,155543,A,2423.5239,N,08133.8266,W,1.9,328.3,210615,5.7,"
"##MN-00 00 06 0161 01631 5168 443887 205023 197"
"172.663773"
"$GPRMC,155547,A,2423.5257,N,08133.8277,W,1.9,328.9,210615,5.7,"
"##MN-00 00 05 0163 01631 5171 443845 205018 197"
"172.663819"
"$GPRMC,155551,A,2423.5276,N,08133.8287,W,1.9,329.4,210615,5.7,"
"##MN-00 00 05 0164 01628 5174 443825 205013 197"
"172.663866"
"$GPRMC,155555,A,2423.5294,N,08133.8298,W,1.9,330.5,210615,5.7,"
"##MN-00 00 06 0166 01620 5177 443797 205004 197"
"172.663912"
"$GPRMC,155559,A,2423.5315,N,08133.8307,W,1.9,331.8,210615,5.7,"
"##MN-00 00 06 0167 01619 5180 443757 204996 197"
"172.663958"
"$GPRMC,155603,A,2423.5334,N,08133.8316,W,1.9,332.5,210615,5.7,"
"##MN-00 00 06 0169 01613 5183 443712 204990 197"
"172.664005"
"$GPRMC,155607,A,2423.5358,N,08133.8327,W,1.9,333.0,210615,5.7,"
"##MN-00 00 06 0171 01610 5186 443673 204984 197"
"172.664051"
"$GPRMC,155611,A,2423.5378,N,08133.8338,W,1.9,333.9,210615,5.7,"
"##MN-00 00 06 0172 01605 5189 443647 204979 197"
"172.664097"
"$GPRMC,155615,A,2423.5398,N,08133.8345,W,2.0,334.9,210615,5.7,"
"##MN-00 00 06 0174 01601 5192 443597 204969 197"
"172.664144"
"$GPRMC,155619,A,2423.5417,N,08133.8354,W,2.1,335.1,210615,5.7,"
"##MN-00 00 06 0175 01599 5194 443526 204954 197"
"172.66419"
"$GPRMC,155623,A,2423.5436,N,08133.8365,W,2.0,335.3,210615,5.7,"
"##MN-00 00 06 0177 01596 5197 443473 204946 197"
"172.664236"
"$GPRMC,155627,A,2423.5459,N,08133.8378,W,2.0,335.3,210615,5.7,"
"##MN-00 00 06 0179 01591 5200 443412 204934 197"
"172.664282"
"$GPRMC,155631,A,2423.5481,N,08133.8389,W,2.0,335.5,210615,5.7,"
"##MN-00 00 06 0180 01588 5203 443364 204927 197"
"172.664329"
"$GPRMC,155635,A,2423.5500,N,08133.8399,W,2.0,335.4,210615,5.7,"
"##MN-00 00 06 0182 01585 5206 443326 204921 197"
"172.664375"
"$GPRMC,155639,A,2423.5519,N,08133.8410,W,2.0,334.6,210615,5.7,"
"##MN-00 00 06 0183 01582 5209 443253 204907 197"
"172.664421"
"$GPRMC,155643,A,2423.5540,N,08133.8421,W,2.0,333.9,210615,5.7,"
"##MN-00 00 06 0185 01578 5211 443184 204895 197"
"172.664468"
"$GPRMC,155647,A,2423.5558,N,08133.8430,W,1.9,333.3,210615,5.7,"
"##MN-00 00 06 0186 01574 5215 443125 204888 197"
"172.664514"
"$GPRMC,155651,A,2423.5578,N,08133.8441,W,1.9,332.7,210615,5.7,"
"##MN-00 00 06 0188 01570 5217 443072 204872 197"
"172.66456"
"$GPRMC,155655,A,2423.5596,N,08133.8451,W,1.9,332.6,210615,5.7,"
"##MN-00 00 06 0189 01567 5220 442686 204769 197"
"172.664606"
"$GPRMC,155659,A,2423.5615,N,08133.8461,W,1.9,332.5,210615,5.7,"
"##MN-00 00 06 0191 01563 5223 441945 204674 197"
"172.664653"
"$GPRMC,155703,A,2423.5634,N,08133.8472,W,1.9,332.2,210615,5.7,"
"##MN-00 00 06 0193 01557 5225 441485 204592 197"
"172.664699"
"$GPRMC,155707,A,2423.5652,N,08133.8483,W,1.9,331.9,210615,5.7,"
"##MN-00 00 06 0194 01557 5228 441109 204470 197"
"172.664745"
"$GPRMC,155711,A,2423.5670,N,08133.8494,W,1.9,331.5,210615,5.7,"
"##MN-00 00 07 0196 01554 5231 440893 204462 197"
"172.664792"
"$GPRMC,155715,A,2423.5691,N,08133.8506,W,1.9,331.1,210615,5.7,"
"##MN-00 00 07 0197 01552 5234 440896 204472 197"
