" Tow: 9WS-B   RVWS/WS15161"
" Date: 21/06/2015"
" Temperature Probe #  4762    Conductivity Probe #  710"
" Pressure Probe #  159"
" Flow Meter Calibration  4.71 (m/count)  "
"172.68934"
"$GPRMC,163235,A,2425.6269,N,08134.8480,W,2.9,339.3,210615,5.7,"
"##MN-00 00 87 0000 01544 5198 415270 827622 197"
"172.689387"
"$GPRMC,163240,A,2425.6308,N,08134.8494,W,2.9,339.9,210615,5.7,"
"##MN-00 00 87 0000 01546 5200 414774 827832 197"
"172.689433"
"$GPRMC,163244,A,2425.6339,N,08134.8505,W,2.9,341.7,210615,5.7,"
"##MN-00 00 87 0000 01544 5202 413252 827832 197"
"172.689479"
"$GPRMC,163248,A,2425.6371,N,08134.8516,W,2.9,342.2,210615,5.7,"
"##MN-00 00 87 0000 01542 5203 411568 827832 197"
"172.689525"
"$GPRMC,163252,A,2425.6403,N,08134.8527,W,2.9,342.6,210615,5.7,"
"##MN-00 00 87 0000 01544 5205 412627 827832 197"
"172.689572"
"$GPRMC,163256,A,2425.6435,N,08134.8537,W,2.9,343.0,210615,5.7,"
"##MN-00 00 87 0000 01545 5206 413739 827832 197"
"172.689618"
"$GPRMC,163300,A,2425.6472,N,08134.8542,W,2.9,343.3,210615,5.7,"
"##MN-00 00 82 0000 01543 5208 414828 827832 197"
"172.689664"
"$GPRMC,163304,A,2425.6505,N,08134.8548,W,2.9,344.2,210615,5.7,"
"##MN-00 00 74 0000 01542 5209 415696 827769 197"
"172.689711"
"$GPRMC,163308,A,2425.6537,N,08134.8559,W,3.0,343.8,210615,5.7,"
"##MN-00 00 74 0000 01543 5210 415622 827834 197"
"172.689757"
"$GPRMC,163312,A,2425.6568,N,08134.8567,W,2.9,344.0,210615,5.7,"
"##MN-00 00 72 0000 01544 5212 414970 827831 197"
"172.689803"
"$GPRMC,163316,A,2425.6599,N,08134.8578,W,3.0,343.7,210615,5.7,"
"##MN-00 00 73 0000 01543 5213 415487 827831 197"
"172.68985"
"$GPRMC,163320,A,2425.6631,N,08134.8589,W,3.0,343.5,210615,5.7,"
"##MN-00 00 73 0000 01543 5214 417063 827763 197"
"172.689896"
"$GPRMC,163324,A,2425.6660,N,08134.8602,W,3.0,343.6,210615,5.7,"
"##MN-00 00 73 0000 01544 5216 418071 827830 197"
"172.689942"
"$GPRMC,163328,A,2425.6691,N,08134.8613,W,2.9,343.3,210615,5.7,"
"##MN-00 00 73 0000 01545 5217 419934 827762 197"
"172.689988"
"$GPRMC,163332,A,2425.6721,N,08134.8625,W,2.9,342.7,210615,5.7,"
"##MN-00 00 73 0000 01543 5218 419620 827830 197"
"172.690035"
"$GPRMC,163336,A,2425.6753,N,08134.8638,W,2.9,342.1,210615,5.7,"
"##MN-00 00 73 0000 01542 5220 418697 827829 197"
"172.690081"
"$GPRMC,163340,A,2425.6782,N,08134.8647,W,2.9,341.8,210615,5.7,"
"##MN-00 00 70 0001 01542 5221 435055 211976 197"
"172.690127"
"$GPRMC,163344,A,2425.6811,N,08134.8657,W,2.8,342.1,210615,5.7,"
"##MN-00 00 07 0002 01545 5222 439081 203843 197"
"172.690174"
"$GPRMC,163348,A,2425.6837,N,08134.8667,W,2.7,342.3,210615,5.7,"
"##MN-00 00 07 0003 01546 5224 439618 204218 197"
"172.69022"
"$GPRMC,163352,A,2425.6862,N,08134.8675,W,2.6,342.7,210615,5.7,"
"##MN-00 00 08 0004 01548 5225 439770 204191 197"
"172.690266"
"$GPRMC,163356,A,2425.6888,N,08134.8685,W,2.6,343.2,210615,5.7,"
"##MN-00 00 08 0005 01548 5226 439924 204244 197"
"172.690312"
"$GPRMC,163400,A,2425.6913,N,08134.8692,W,2.5,343.2,210615,5.7,"
"##MN-00 00 08 0006 01550 5228 440047 204269 197"
"172.690359"
"$GPRMC,163404,A,2425.6933,N,08134.8699,W,2.4,343.6,210615,5.7,"
"##MN-00 00 08 0007 01553 5229 440246 204361 197"
"172.690405"
"$GPRMC,163408,A,2425.6958,N,08134.8704,W,2.4,344.2,210615,5.7,"
"##MN-00 00 07 0008 01555 5231 440626 204358 197"
"172.690451"
"$GPRMC,163412,A,2425.6988,N,08134.8714,W,2.3,344.3,210615,5.7,"
"##MN-00 00 08 0009 01560 5232 441089 204473 197"
"172.690498"
"$GPRMC,163416,A,2425.7010,N,08134.8719,W,2.2,344.4,210615,5.7,"
"##MN-00 00 08 0010 01561 5234 441483 204552 197"
"172.690544"
"$GPRMC,163420,A,2425.7034,N,08134.8725,W,2.2,345.0,210615,5.7,"
"##MN-00 00 07 0011 01563 5235 441759 204689 197"
"172.69059"
"$GPRMC,163424,A,2425.7057,N,08134.8729,W,2.2,345.6,210615,5.7,"
"##MN-00 00 07 0012 01568 5237 441915 204684 197"
"172.690637"
"$GPRMC,163428,A,2425.7082,N,08134.8736,W,2.2,346.3,210615,5.7,"
"##MN-00 00 07 0013 01570 5239 442323 204733 197"
"172.690683"
"$GPRMC,163432,A,2425.7107,N,08134.8741,W,2.2,346.7,210615,5.7,"
"##MN-00 00 07 0015 01573 5240 442803 204792 197"
"172.690729"
"$GPRMC,163436,A,2425.7130,N,08134.8746,W,2.1,347.4,210615,5.7,"
"##MN-00 00 07 0016 01577 5242 442979 204838 197"
"172.690775"
"$GPRMC,163440,A,2425.7155,N,08134.8751,W,2.1,347.4,210615,5.7,"
"##MN-00 00 07 0017 01580 5244 443195 204882 197"
"172.690822"
"$GPRMC,163444,A,2425.7179,N,08134.8757,W,2.1,347.8,210615,5.7,"
"##MN-00 00 07 0018 01583 5246 443369 204938 197"
"172.690868"
"$GPRMC,163448,A,2425.7202,N,08134.8762,W,2.1,347.9,210615,5.7,"
"##MN-00 00 07 0019 01587 5248 443086 204932 196"
"172.690914"
"$GPRMC,163452,A,2425.7227,N,08134.8768,W,2.1,348.0,210615,5.7,"
"##MN-00 00 07 0020 01589 5250 443071 204917 197"
"172.690961"
"$GPRMC,163456,A,2425.7249,N,08134.8772,W,2.1,348.2,210615,5.7,"
"##MN-00 00 07 0021 01595 5252 443352 204976 197"
"172.691007"
"$GPRMC,163500,A,2425.7271,N,08134.8779,W,2.1,348.4,210615,5.7,"
"##MN-00 00 07 0022 01596 5254 443496 204996 197"
"172.691053"
"$GPRMC,163504,A,2425.7294,N,08134.8783,W,2.1,348.1,210615,5.7,"
"##MN-00 00 07 0023 01600 5256 443575 205002 197"
"172.6911"
"$GPRMC,163508,A,2425.7316,N,08134.8787,W,2.1,348.0,210615,5.7,"
"##MN-00 00 07 0024 01601 5258 443612 205001 197"
"172.691146"
"$GPRMC,163512,A,2425.7339,N,08134.8793,W,2.1,348.5,210615,5.7,"
"##MN-00 00 07 0025 01604 5260 443632 205009 197"
"172.691204"
"$GPRMC,163516,A,2425.7360,N,08134.8797,W,2.1,348.0,210615,5.7,"
"##MN-00 00 07 0026 01610 5262 443652 205012 197"
"172.69125"
"$GPRMC,163520,A,2425.7385,N,08134.8804,W,2.1,347.6,210615,5.7,"
"##MN-00 00 07 0027 01611 5264 443652 205011 197"
"172.691296"
"$GPRMC,163524,A,2425.7407,N,08134.8808,W,2.1,346.7,210615,5.7,"
"##MN-00 00 07 0028 01614 5266 443668 205017 197"
"172.691343"
"$GPRMC,163528,A,2425.7429,N,08134.8815,W,2.1,346.2,210615,5.7,"
"##MN-00 00 07 0029 01618 5269 443684 205014 197"
"172.691389"
"$GPRMC,163532,A,2425.7450,N,08134.8820,W,2.1,346.8,210615,5.7,"
"##MN-00 00 07 0030 01619 5271 443694 205015 197"
"172.691435"
"$GPRMC,163536,A,2425.7473,N,08134.8826,W,2.1,347.6,210615,5.7,"
"##MN-00 00 07 0031 01625 5272 443697 205017 197"
"172.691482"
"$GPRMC,163540,A,2425.7495,N,08134.8833,W,2.1,347.2,210615,5.7,"
"##MN-00 00 07 0033 01630 5274 443701 205015 197"
"172.691528"
"$GPRMC,163544,A,2425.7516,N,08134.8840,W,2.1,347.2,210615,5.7,"
"##MN-00 00 07 0034 01631 5277 443714 205012 197"
"172.691574"
"$GPRMC,163548,A,2425.7540,N,08134.8847,W,2.1,346.4,210615,5.7,"
"##MN-00 00 06 0035 01633 5279 443723 205008 197"
"172.69162"
"$GPRMC,163552,A,2425.7562,N,08134.8853,W,2.1,346.3,210615,5.7,"
"##MN-00 00 06 0036 01636 5281 443724 205005 197"
"172.691667"
"$GPRMC,163556,A,2425.7585,N,08134.8860,W,2.1,346.1,210615,5.7,"
"##MN-00 00 06 0037 01638 5283 443729 205005 197"
"172.691713"
"$GPRMC,163600,A,2425.7607,N,08134.8866,W,2.2,345.9,210615,5.7,"
"##MN-00 00 06 0038 01641 5285 443747 205004 197"
"172.691759"
"$GPRMC,163604,A,2425.7632,N,08134.8873,W,2.2,345.8,210615,5.7,"
"##MN-00 00 06 0039 01644 5288 443764 205001 197"
"172.691806"
"$GPRMC,163608,A,2425.7656,N,08134.8880,W,2.2,345.8,210615,5.7,"
"##MN-00 00 06 0040 01645 5289 443783 205003 197"
"172.691852"
"$GPRMC,163612,A,2425.7679,N,08134.8887,W,2.2,345.9,210615,5.7,"
"##MN-00 00 06 0041 01649 5292 443838 205001 196"
"172.691898"
"$GPRMC,163616,A,2425.7704,N,08134.8894,W,2.2,345.9,210615,5.7,"
"##MN-00 00 06 0042 01652 5294 443890 205004 197"
"172.691944"
"$GPRMC,163620,A,2425.7729,N,08134.8899,W,2.2,346.4,210615,5.7,"
"##MN-00 00 06 0043 01656 5296 443930 205003 197"
"172.691991"
"$GPRMC,163625,A,2425.7760,N,08134.8906,W,2.2,346.8,210615,5.7,"
"##MN-00 00 06 0044 01660 5298 443973 205005 197"
"172.692037"
"$GPRMC,163628,A,2425.7777,N,08134.8910,W,2.2,346.8,210615,5.7,"
"##MN+00 00 06 0045 01660 5301 444010 205005 197"
"172.692083"
"$GPRMC,163633,A,2425.7807,N,08134.8920,W,2.2,346.9,210615,5.7,"
"##MN+00 00 06 0046 01662 5303 444048 205010 197"
"172.69213"
"$GPRMC,163636,A,2425.7824,N,08134.8923,W,2.2,345.8,210615,5.7,"
"##MN+00 00 06 0047 01662 5305 444056 205006 197"
"172.692176"
"$GPRMC,163640,A,2425.7847,N,08134.8930,W,2.1,345.6,210615,5.7,"
"##MN-00 00 06 0048 01661 5307 444063 205008 197"
"172.692222"
"$GPRMC,163644,A,2425.7867,N,08134.8936,W,2.1,345.5,210615,5.7,"
"##MN+00 00 06 0049 01662 5309 444070 205007 197"
"172.692269"
"$GPRMC,163649,A,2425.7895,N,08134.8945,W,2.1,344.6,210615,5.7,"
"##MN+00 00 06 0051 01662 5311 444092 205007 197"
"172.692315"
"$GPRMC,163653,A,2425.7917,N,08134.8952,W,2.1,344.8,210615,5.7,"
"##MN+00 00 06 0052 01665 5314 444110 205008 197"
"172.692361"
"$GPRMC,163657,A,2425.7941,N,08134.8959,W,2.1,345.1,210615,5.7,"
"##MN-00 00 06 0053 01666 5316 444120 205009 197"
"172.692407"
"#increment_net"
"$GPRMC,163701,A,2425.7964,N,08134.8967,W,2.1,344.7,210615,5.7,"
"##MN-00 00 06 0054 01665 5318 444125 205009 197"
"172.692454"
"$GPRMC,163705,A,2425.7986,N,08134.8974,W,2.1,344.6,210615,5.7,"
"##MN-00 00 06 0055 01664 5320 444123 205009 197"
"172.6925"
"$GPRMC,163709,A,2425.8011,N,08134.8979,W,2.1,345.1,210615,5.7,"
"##MN-00 00 06 0056 01665 5322 444120 205008 197"
"172.692546"
"$GPRMC,163713,A,2425.8033,N,08134.8986,W,2.1,345.9,210615,5.7,"
"##MN-00 00 06 0057 01666 5324 444127 205009 197"
"172.692593"
"$GPRMC,163717,A,2425.8057,N,08134.8992,W,2.1,346.1,210615,5.7,"
"##MN-00 00 06 0058 01665 5326 444143 205010 197"
"172.692639"
"$GPRMC,163721,A,2425.8083,N,08134.8999,W,2.1,346.1,210615,5.7,"
"##MN-00 00 07 0059 01666 5328 444158 205011 197"
"172.692685"
"$GPRMC,163725,A,2425.8109,N,08134.9004,W,2.1,345.9,210615,5.7,"
"##MN+00 00 07 0060 01665 5331 444164 205011 197"
"172.692731"
"$GPRMC,163729,A,2425.8134,N,08134.9010,W,2.1,345.9,210615,5.7,"
"##MN+00 00 06 0061 01664 5333 444176 205011 197"
"172.692778"
"$GPRMC,163733,A,2425.8159,N,08134.9017,W,2.1,346.3,210615,5.7,"
"##MN+00 00 06 0063 01663 5335 444172 205011 197"
"172.692824"
"$GPRMC,163737,A,2425.8181,N,08134.9022,W,2.1,346.5,210615,5.7,"
"##MN-00 00 06 0064 01662 5336 444175 205012 197"
"172.69287"
"$GPRMC,163741,A,2425.8206,N,08134.9028,W,2.1,346.8,210615,5.7,"
"##MN-00 00 06 0065 01665 5339 444177 205012 197"
"172.692917"
"$GPRMC,163745,A,2425.8228,N,08134.9035,W,2.1,346.7,210615,5.7,"
"##MN+00 00 06 0066 01664 5341 444171 205012 197"
"172.692963"
"$GPRMC,163749,A,2425.8253,N,08134.9042,W,2.1,346.5,210615,5.7,"
"##MN+00 00 06 0067 01664 5343 444169 205010 197"
"172.693009"
"$GPRMC,163753,A,2425.8275,N,08134.9048,W,2.1,345.4,210615,5.7,"
"##MN+00 00 06 0068 01670 5345 444131 205004 197"
"172.693056"
"$GPRMC,163757,A,2425.8297,N,08134.9055,W,2.1,345.0,210615,5.7,"
"##MN-00 00 06 0069 01667 5347 444110 204999 197"
"172.693102"
"#increment_net"
"$GPRMC,163801,A,2425.8320,N,08134.9062,W,2.1,344.5,210615,5.7,"
"##MN-00 00 06 0070 01666 5350 444102 204990 197"
"172.693148"
"$GPRMC,163805,A,2425.8336,N,08134.9068,W,2.1,344.3,210615,5.7,"
"##MN-00 00 06 0071 01667 5352 444043 204974 197"
"172.693194"
"$GPRMC,163809,A,2425.8364,N,08134.9076,W,2.1,344.1,210615,5.7,"
"##MN-00 00 06 0072 01666 5354 443996 204969 197"
"172.693241"
"$GPRMC,163813,A,2425.8387,N,08134.9084,W,2.1,343.9,210615,5.7,"
"##MN-00 00 07 0073 01664 5356 443976 204966 197"
"172.693287"
"$GPRMC,163817,A,2425.8408,N,08134.9090,W,2.1,343.7,210615,5.7,"
"##MN-00 00 07 0075 01663 5358 443968 204968 197"
"172.693333"
"$GPRMC,163821,A,2425.8430,N,08134.9097,W,2.1,343.6,210615,5.7,"
"##MN-00 00 06 0076 01664 5360 443983 204970 197"
"172.69338"
"$GPRMC,163825,A,2425.8451,N,08134.9103,W,2.1,344.1,210615,5.7,"
"##MN+00 00 06 0077 01662 5362 443986 204969 197"
"172.693426"
"$GPRMC,163829,A,2425.8472,N,08134.9111,W,2.1,344.7,210615,5.7,"
"##MN+00 00 06 0078 01663 5364 443989 204968 197"
"172.693472"
"$GPRMC,163833,A,2425.8494,N,08134.9116,W,2.1,345.1,210615,5.7,"
"##MN+00 00 06 0079 01662 5367 443985 204967 197"
"172.693518"
"$GPRMC,163837,A,2425.8516,N,08134.9123,W,2.1,345.4,210615,5.7,"
"##MN-00 00 06 0080 01663 5368 443977 204965 197"
"172.693565"
"$GPRMC,163841,A,2425.8539,N,08134.9129,W,2.1,345.4,210615,5.7,"
"##MN-00 00 06 0081 01661 5370 443980 204963 197"
"172.693611"
"$GPRMC,163845,A,2425.8561,N,08134.9136,W,2.1,345.0,210615,5.7,"
"##MN-00 00 06 0082 01661 5372 443969 204961 197"
"172.693657"
"$GPRMC,163849,A,2425.8585,N,08134.9142,W,2.1,345.1,210615,5.7,"
"##MN+00 00 06 0083 01662 5375 443962 204959 197"
"172.693704"
"$GPRMC,163853,A,2425.8607,N,08134.9148,W,2.1,345.6,210615,5.7,"
"##MN+00 00 06 0084 01662 5377 443947 204958 197"
"172.69375"
"$GPRMC,163857,A,2425.8631,N,08134.9155,W,2.1,346.3,210615,5.7,"
"##MN+00 00 06 0086 01665 5378 443940 204954 197"
"172.693796"
"#increment_net"
"$GPRMC,163901,A,2425.8653,N,08134.9160,W,2.1,346.2,210615,5.7,"
"##MN-00 00 06 0087 01663 5381 443940 204952 197"
"172.693843"
"$GPRMC,163905,A,2425.8676,N,08134.9167,W,2.1,345.5,210615,5.7,"
"##MN-00 00 06 0088 01664 5383 443933 204950 197"
"172.693889"
"$GPRMC,163909,A,2425.8698,N,08134.9174,W,2.1,345.3,210615,5.7,"
"##MN-00 00 06 0089 01663 5385 443914 204950 197"
"172.693935"
"$GPRMC,163913,A,2425.8719,N,08134.9181,W,2.1,344.6,210615,5.7,"
"##MN-00 00 06 0090 01661 5387 443901 204959 197"
"172.693981"
"$GPRMC,163917,A,2425.8741,N,08134.9188,W,2.1,344.3,210615,5.7,"
"##MN-00 00 06 0091 01661 5389 443877 204964 197"
"172.694028"
"$GPRMC,163921,A,2425.8763,N,08134.9196,W,2.1,344.3,210615,5.7,"
"##MN-00 00 06 0092 01660 5391 443854 204966 197"
"172.694074"
"$GPRMC,163925,A,2425.8786,N,08134.9203,W,2.1,343.6,210615,5.7,"
"##MN-00 00 06 0094 01659 5393 443835 204968 197"
"172.69412"
"$GPRMC,163929,A,2425.8810,N,08134.9210,W,2.1,343.0,210615,5.7,"
"##MN+00 00 06 0095 01658 5395 443833 204972 197"
"172.694167"
"$GPRMC,163933,A,2425.8831,N,08134.9219,W,2.1,342.5,210615,5.7,"
"##MN+00 00 06 0096 01660 5397 443834 204974 197"
"172.694213"
"$GPRMC,163937,A,2425.8853,N,08134.9227,W,2.1,342.2,210615,5.7,"
"##MN+00 00 06 0097 01660 5399 443829 204974 197"
"172.694259"
"$GPRMC,163941,A,2425.8875,N,08134.9235,W,2.1,342.5,210615,5.7,"
"##MN-00 00 06 0098 01659 5401 443828 204975 197"
"172.694306"
"$GPRMC,163945,A,2425.8896,N,08134.9242,W,2.1,342.4,210615,5.7,"
"##MN+00 00 06 0099 01659 5403 443820 204975 197"
"172.694363"
"$GPRMC,163949,A,2425.8918,N,08134.9250,W,2.1,342.2,210615,5.7,"
"##MN+00 00 06 0100 01659 5405 443827 204976 197"
"172.69441"
"$GPRMC,163953,A,2425.8939,N,08134.9259,W,2.0,341.8,210615,5.7,"
"##MN+00 00 06 0102 01662 5407 443841 204976 197"
"172.694456"
"#increment_net"
"$GPRMC,163957,A,2425.8960,N,08134.9267,W,2.0,341.0,210615,5.7,"
"##MN-00 00 06 0103 01661 5409 443837 204977 197"
"172.694502"
"$GPRMC,164001,A,2425.8982,N,08134.9274,W,2.0,341.1,210615,5.7,"
"##MN-00 00 06 0104 01660 5411 443826 204975 197"
"172.694549"
"$GPRMC,164005,A,2425.9004,N,08134.9283,W,2.0,341.4,210615,5.7,"
"##MN-00 00 06 0105 01659 5413 443836 204975 197"
"172.694595"
"$GPRMC,164009,A,2425.9026,N,08134.9292,W,2.1,342.0,210615,5.7,"
"##MN-00 00 06 0106 01656 5415 443845 204981 197"
"172.694641"
"$GPRMC,164013,A,2425.9047,N,08134.9303,W,2.1,342.1,210615,5.7,"
"##MN-00 00 06 0108 01658 5417 443854 204985 197"
"172.694688"
"$GPRMC,164017,A,2425.9068,N,08134.9313,W,2.1,342.2,210615,5.7,"
"##MN-00 00 06 0109 01658 5419 443842 204985 197"
"172.694734"
"$GPRMC,164021,A,2425.9090,N,08134.9321,W,2.1,342.4,210615,5.7,"
"##MN-00 00 06 0110 01657 5421 443849 204982 197"
"172.69478"
"$GPRMC,164025,A,2425.9110,N,08134.9329,W,2.1,342.7,210615,5.7,"
"##MN+00 00 06 0111 01656 5423 443862 204979 197"
"172.694826"
"$GPRMC,164029,A,2425.9133,N,08134.9337,W,2.1,342.6,210615,5.7,"
"##MN+00 00 06 0112 01656 5425 443854 204986 197"
"172.694873"
"$GPRMC,164033,A,2425.9155,N,08134.9346,W,2.1,342.5,210615,5.7,"
"##MN+00 00 06 0114 01656 5427 443851 204988 197"
"172.694919"
"$GPRMC,164037,A,2425.9175,N,08134.9353,W,2.1,342.9,210615,5.7,"
"##MN-00 00 06 0115 01657 5429 443850 204988 197"
"172.694965"
"$GPRMC,164041,A,2425.9198,N,08134.9361,W,2.1,342.8,210615,5.7,"
"##MN+00 00 06 0116 01657 5431 443856 204988 197"
"172.695012"
"$GPRMC,164045,A,2425.9221,N,08134.9368,W,2.1,343.0,210615,5.7,"
"##MN+00 00 06 0117 01655 5432 443849 204989 197"
"172.695058"
"$GPRMC,164049,A,2425.9243,N,08134.9376,W,2.1,342.7,210615,5.7,"
"##MN+00 00 06 0118 01658 5434 443853 204992 197"
"172.695104"
"#increment_net"
"$GPRMC,164053,A,2425.9265,N,08134.9383,W,2.1,343.0,210615,5.7,"
"##MN-00 00 06 0120 01660 5437 443852 204991 197"
"172.69515"
"$GPRMC,164057,A,2425.9287,N,08134.9391,W,2.1,342.8,210615,5.7,"
"##MN-00 00 06 0121 01667 5439 443852 204989 197"
"172.695197"
"$GPRMC,164101,A,2425.9311,N,08134.9400,W,2.1,342.1,210615,5.7,"
"##MN-00 00 06 0123 01672 5440 443864 204981 197"
"172.695243"
"$GPRMC,164105,A,2425.9334,N,08134.9408,W,2.2,341.5,210615,5.7,"
"##MN-00 00 06 0124 01679 5442 443902 204962 197"
"172.695289"
"$GPRMC,164109,A,2425.9359,N,08134.9415,W,2.2,341.6,210615,5.7,"
"##MN-00 00 06 0126 01681 5445 443948 204944 197"
"172.695336"
"$GPRMC,164114,A,2425.9388,N,08134.9426,W,2.3,341.2,210615,5.7,"
"##MN-00 00 06 0127 01685 5446 444008 204937 197"
"172.695382"
"$GPRMC,164118,A,2425.9413,N,08134.9436,W,2.3,340.6,210615,5.7,"
"##MN-00 00 06 0129 01685 5448 444077 204935 197"
"172.695428"
"$GPRMC,164122,A,2425.9437,N,08134.9447,W,2.3,339.7,210615,5.7,"
"##MN-00 00 06 0130 01684 5450 444092 204934 197"
"172.695475"
"$GPRMC,164126,A,2425.9460,N,08134.9458,W,2.3,339.1,210615,5.7,"
"##MN-00 00 06 0132 01682 5452 444081 204936 197"
"172.695521"
"$GPRMC,164130,A,2425.9485,N,08134.9469,W,2.3,338.5,210615,5.7,"
"##MN-00 00 06 0133 01680 5454 444046 204942 197"
"172.695567"
"$GPRMC,164134,A,2425.9509,N,08134.9480,W,2.3,337.9,210615,5.7,"
"##MN-00 00 06 0135 01679 5455 444037 204945 197"
"172.695613"
"$GPRMC,164138,A,2425.9534,N,08134.9490,W,2.3,338.3,210615,5.7,"
"##MN-00 00 06 0136 01677 5458 444042 204946 197"
"172.69566"
"$GPRMC,164142,A,2425.9558,N,08134.9499,W,2.4,338.8,210615,5.7,"
"##MN-00 00 06 0138 01675 5460 444018 204948 197"
"172.695706"
"$GPRMC,164146,A,2425.9583,N,08134.9509,W,2.4,339.4,210615,5.7,"
"##MN-00 00 06 0139 01669 5461 444008 204949 197"
"172.695752"
"$GPRMC,164150,A,2425.9608,N,08134.9519,W,2.4,339.7,210615,5.7,"
"##MN-00 00 05 0141 01665 5463 444019 204947 197"
"172.695799"
"$GPRMC,164154,A,2425.9635,N,08134.9528,W,2.4,340.4,210615,5.7,"
"##MN-00 00 06 0142 01663 5465 444007 204948 197"
"172.695845"
"$GPRMC,164158,A,2425.9659,N,08134.9538,W,2.4,340.6,210615,5.7,"
"##MN-00 00 05 0144 01660 5467 444005 204951 197"
"172.695891"
"$GPRMC,164202,A,2425.9686,N,08134.9548,W,2.4,341.4,210615,5.7,"
"##MN-00 00 05 0145 01653 5469 443992 204955 197"
"172.695937"
"$GPRMC,164206,A,2425.9712,N,08134.9555,W,2.4,341.4,210615,5.7,"
"##MN-00 00 04 0147 01650 5471 443919 204966 197"
"172.695984"
"$GPRMC,164210,A,2425.9735,N,08134.9566,W,2.4,341.1,210615,5.7,"
"##MN-00 00 05 0149 01649 5472 443852 204976 197"
"172.69603"
"$GPRMC,164214,A,2425.9760,N,08134.9577,W,2.4,340.3,210615,5.7,"
"##MN-00 00 05 0150 01644 5474 443854 204976 197"
"172.696076"
"$GPRMC,164218,A,2425.9785,N,08134.9588,W,2.4,339.6,210615,5.7,"
"##MN-00 00 05 0152 01641 5476 443839 204981 197"
"172.696123"
"$GPRMC,164222,A,2425.9810,N,08134.9599,W,2.4,339.3,210615,5.7,"
"##MN-00 00 05 0153 01635 5478 443813 204991 197"
"172.696169"
"$GPRMC,164226,A,2425.9836,N,08134.9608,W,2.4,338.8,210615,5.7,"
"##MN-00 00 05 0155 01634 5480 443798 205001 197"
"172.696215"
"$GPRMC,164230,A,2425.9863,N,08134.9618,W,2.4,339.0,210615,5.7,"
"##MN-00 00 05 0156 01629 5481 443787 205006 197"
"172.696262"
"$GPRMC,164234,A,2425.9888,N,08134.9629,W,2.4,339.5,210615,5.7,"
"##MN-00 00 05 0158 01623 5483 443774 205010 197"
"172.696308"
"$GPRMC,164238,A,2425.9911,N,08134.9639,W,2.3,339.1,210615,5.7,"
"##MN-00 00 05 0159 01623 5485 443741 205011 197"
"172.696354"
"$GPRMC,164242,A,2425.9936,N,08134.9650,W,2.3,339.1,210615,5.7,"
"##MN-00 00 05 0161 01617 5487 443669 205013 197"
"172.6964"
"$GPRMC,164246,A,2425.9964,N,08134.9657,W,2.3,339.4,210615,5.7,"
"##MN-00 00 05 0163 01613 5489 443649 205015 197"
"172.696447"
"$GPRMC,164250,A,2425.9988,N,08134.9668,W,2.4,339.7,210615,5.7,"
"##MN-00 00 05 0164 01611 5490 443613 205017 197"
"172.696493"
"$GPRMC,164254,A,2426.0016,N,08134.9678,W,2.4,340.4,210615,5.7,"
"##MN-00 00 05 0166 01605 5492 443572 205018 197"
"172.696539"
"$GPRMC,164258,A,2426.0041,N,08134.9689,W,2.4,340.6,210615,5.7,"
"##MN-00 00 06 0167 01598 5494 443519 205019 197"
"172.696586"
"$GPRMC,164302,A,2426.0062,N,08134.9704,W,2.4,340.4,210615,5.7,"
"##MN-00 00 06 0169 01600 5496 443477 205024 197"
"172.696632"
"$GPRMC,164306,A,2426.0087,N,08134.9714,W,2.4,340.1,210615,5.7,"
"##MN-00 00 05 0171 01596 5497 443455 205017 197"
"172.696678"
"$GPRMC,164310,A,2426.0113,N,08134.9723,W,2.4,340.2,210615,5.7,"
"##MN-00 00 06 0172 01591 5499 443335 205002 197"
"172.696725"
"$GPRMC,164314,A,2426.0138,N,08134.9733,W,2.4,340.4,210615,5.7,"
"##MN-00 00 06 0174 01587 5501 443237 204979 197"
"172.696771"
"$GPRMC,164318,A,2426.0167,N,08134.9741,W,2.4,340.6,210615,5.7,"
"##MN-00 00 06 0175 01584 5503 443166 204969 197"
"172.696817"
"$GPRMC,164322,A,2426.0193,N,08134.9751,W,2.4,340.3,210615,5.7,"
"##MN-00 00 06 0177 01579 5504 443124 204961 197"
"172.696863"
"$GPRMC,164326,A,2426.0222,N,08134.9761,W,2.4,340.4,210615,5.7,"
"##MN-00 00 06 0179 01574 5506 443073 204951 197"
"172.69691"
"$GPRMC,164330,A,2426.0247,N,08134.9770,W,2.4,340.2,210615,5.7,"
"##MN-00 00 06 0180 01571 5508 443029 204943 197"
"172.696956"
"$GPRMC,164334,A,2426.0272,N,08134.9780,W,2.4,339.6,210615,5.7,"
"##MN-00 00 06 0182 01568 5510 442954 204928 197"
"172.697002"
"$GPRMC,164338,A,2426.0300,N,08134.9790,W,2.4,339.3,210615,5.7,"
"##MN-00 00 06 0183 01565 5512 442849 204902 197"
"172.697049"
"$GPRMC,164342,A,2426.0323,N,08134.9799,W,2.4,339.4,210615,5.7,"
"##MN-00 00 06 0185 01560 5513 442743 204879 197"
"172.697095"
"$GPRMC,164346,A,2426.0349,N,08134.9809,W,2.4,339.0,210615,5.7,"
"##MN-00 00 06 0187 01556 5515 442528 204827 197"
"172.697141"
"$GPRMC,164350,A,2426.0374,N,08134.9819,W,2.3,339.4,210615,5.7,"
"##MN-00 00 06 0188 01555 5517 441834 204689 197"
"172.697188"
"$GPRMC,164354,A,2426.0396,N,08134.9827,W,2.3,339.5,210615,5.7,"
"##MN-00 00 06 0190 01556 5519 441125 204523 197"
"172.697234"
"$GPRMC,164358,A,2426.0421,N,08134.9835,W,2.3,340.2,210615,5.7,"
"##MN-00 00 06 0191 01554 5520 441047 204519 197"
"172.69728"
"$GPRMC,164402,A,2426.0443,N,08134.9845,W,2.3,340.1,210615,5.7,"
"##MN-00 00 06 0193 01555 5522 441106 204494 197"
"172.697326"
"$GPRMC,164406,A,2426.0470,N,08134.9852,W,2.3,340.3,210615,5.7,"
"##MN-00 00 07 0194 01553 5524 440903 204499 197"
