" Tow: 9WS   RVWS/WS15161"
" Date: 21/06/2015"
" Temperature Probe #  4762    Conductivity Probe #  710"
" Pressure Probe #  188"
" Flow Meter Calibration  4.71 (m/count)  "
"172.790023"
"$GPRMC,185734,A,2424.8198,N,08132.1167,W,3.2,349.1,210615,5.8,"
"##MN-00 00 47 0011 02673 6534 406934 046009 201"
"172.790069"
"$GPRMC,185739,A,2424.8241,N,08132.1174,W,3.1,349.9,210615,5.8,"
"##MN-00 00 47 0012 02673 6530 399264 023899 200"
"172.790116"
"$GPRMC,185743,A,2424.8274,N,08132.1181,W,3.1,349.6,210615,5.8,"
"##MN-00 00 47 0013 02673 6525 409448 023897 201"
"172.790162"
"$GPRMC,185747,A,2424.8307,N,08132.1189,W,3.1,350.0,210615,5.8,"
"##MN-00 00 47 0014 02674 6521 152240 023891 201"
"172.790324"
"$GPRMC,185800,A,2424.8416,N,08132.1208,W,3.1,350.6,210615,5.8,"
"##MN-00 00 48 0017 02675 6507 368642 023895 200"
"172.79037"
"$GPRMC,185805,A,2424.8459,N,08132.1217,W,3.1,350.6,210615,5.8,"
"##MN-00 00 48 0018 02674 6503 150160 023914 201"
"172.790417"
"$GPRMC,185809,A,2424.8494,N,08132.1223,W,3.0,350.6,210615,5.8,"
"##MN-00 00 48 0019 02676 6499 152648 023910 200"
"172.790463"
"$GPRMC,185813,A,2424.8526,N,08132.1228,W,3.0,350.3,210615,5.8,"
"##MN-00 00 48 0020 02673 6495 161784 023907 200"
"172.790509"
"$GPRMC,185817,A,2424.8560,N,08132.1236,W,3.1,349.9,210615,5.8,"
"##MN-00 00 48 0021 02675 6491 166480 023905 201"
"172.790556"
"$GPRMC,185821,A,2424.8592,N,08132.1240,W,3.1,349.6,210615,5.8,"
"##MN-00 00 48 0022 02676 6487 169464 023905 201"
"172.790602"
"$GPRMC,185825,A,2424.8624,N,08132.1247,W,3.0,349.3,210615,5.8,"
"##MN-00 00 48 0023 02677 6484 957280 023895 200"
"172.790648"
"$GPRMC,185829,A,2424.8658,N,08132.1255,W,3.1,348.7,210615,5.8,"
"##MN-00 00 48 0024 02675 6480 183480 023912 200"
"172.790694"
"$GPRMC,185833,A,2424.8683,N,08132.1261,W,3.1,348.3,210615,5.8,"
"##MN-00 00 48 0025 02675 6476 165056 023905 201"
"172.790752"
"$GPRMC,185837,A,2424.8725,N,08132.1272,W,3.1,347.8,210615,5.8,"
"##MN-00 00 48 0026 02676 6473 182336 023902 201"
"172.790799"
"$GPRMC,185841,A,2424.8759,N,08132.1279,W,3.1,347.9,210615,5.8,"
"##MN-00 00 48 0027 02676 6469 709824 023912 201"
"172.790845"
"$GPRMC,185845,A,2424.8791,N,08132.1287,W,3.0,348.0,210615,5.8,"
"##MN-00 00 48 0028 02675 6466 186624 023905 201"
"172.790891"
"$GPRMC,185849,A,2424.8821,N,08132.1294,W,3.0,347.8,210615,5.8,"
"##MN-00 00 48 0030 02676 6462 190472 023901 200"
"172.790938"
"$GPRMC,185853,A,2424.8853,N,08132.1302,W,3.0,347.2,210615,5.8,"
"##MN-00 00 48 0031 02677 6459 191280 023896 200"
"172.790984"
"$GPRMC,185857,A,2424.8885,N,08132.1312,W,3.0,346.9,210615,5.8,"
"##MN-00 00 48 0032 02677 6456 194272 023895 200"
"172.79103"
"$GPRMC,185901,A,2424.8918,N,08132.1320,W,3.0,347.1,210615,5.8,"
"##MN-00 00 48 0033 02675 6453 196384 023896 200"
"172.791076"
"$GPRMC,185905,A,2424.8949,N,08132.1329,W,3.0,347.2,210615,5.8,"
"##MN-00 00 48 0034 02678 6450 201216 023892 200"
"172.791123"
"$GPRMC,185909,A,2424.8980,N,08132.1337,W,3.0,347.3,210615,5.8,"
"##MN-00 00 48 0035 02677 6446 205152 023899 201"
"172.791273"
"$GPRMC,185922,A,2424.9088,N,08132.1362,W,2.9,348.0,210615,5.8,"
"##MN-00 00 48 0038 02680 6436 204933 023910 201"
"172.791319"
"$GPRMC,185927,A,2424.9128,N,08132.1369,W,3.0,348.8,210615,5.8,"
"##MN-00 00 49 0039 02678 6433 204688 023910 201"
"172.791366"
"$GPRMC,185931,A,2424.9162,N,08132.1376,W,3.0,349.5,210615,5.8,"
"##MN-00 00 49 0040 02683 6430 204632 023905 200"
"172.791424"
"$GPRMC,185935,A,2424.9198,N,08132.1384,W,3.0,349.6,210615,5.8,"
"##MN-00 00 50 0041 02682 6427 204592 023907 200"
"172.79147"
"$GPRMC,185939,A,2424.9238,N,08132.1389,W,3.0,349.5,210615,5.8,"
"##MN-00 00 50 0042 02683 6424 204488 023929 200"
"172.791516"
"$GPRMC,185943,A,2424.9274,N,08132.1398,W,3.0,349.3,210615,5.8,"
"##MN-00 00 50 0043 02682 6422 204392 023934 201"
"172.791562"
"$GPRMC,185947,A,2424.9305,N,08132.1405,W,2.9,348.9,210615,5.8,"
"##MN-00 00 50 0044 02683 6419 204304 023927 201"
"172.791609"
"$GPRMC,185951,A,2424.9337,N,08132.1410,W,2.9,349.0,210615,5.8,"
"##MN-00 00 50 0045 02686 6416 204232 023922 200"
"172.791655"
"$GPRMC,185955,A,2424.9369,N,08132.1416,W,2.9,349.1,210615,5.8,"
"##MN-00 00 50 0046 02686 6413 204128 023929 200"
"172.791701"
"$GPRMC,185959,A,2424.9401,N,08132.1423,W,2.9,349.2,210615,5.8,"
"##MN-00 00 50 0047 02686 6411 204056 023925 200"
"172.791748"
"$GPRMC,190003,A,2424.9431,N,08132.1430,W,2.9,348.8,210615,5.8,"
"##MN-00 00 51 0048 02687 6408 987056 023929 201"
"172.791794"
"$GPRMC,190007,A,2424.9463,N,08132.1438,W,2.9,348.0,210615,5.8,"
"##MN-00 00 52 0049 02689 6406 214648 023928 201"
"172.79184"
"$GPRMC,190011,A,2424.9492,N,08132.1445,W,2.9,348.1,210615,5.8,"
"##MN-00 00 52 0050 02690 6404 204280 023927 201"
"172.791887"
"$GPRMC,190015,A,2424.9524,N,08132.1453,W,2.9,348.1,210615,5.8,"
"##MN-00 00 52 0051 02690 6401 186832 023930 200"
"172.791933"
"$GPRMC,190019,A,2424.9554,N,08132.1460,W,2.9,347.8,210615,5.8,"
"##MN-00 00 51 0052 02694 6398 217112 023927 201"
"172.791979"
"$GPRMC,190024,A,2424.9594,N,08132.1470,W,2.9,347.8,210615,5.8,"
"##MN-00 00 51 0054 02695 6396 713040 023919 200"
"172.792025"
"$GPRMC,190028,A,2424.9623,N,08132.1477,W,2.9,347.5,210615,5.8,"
"##MN-00 00 51 0055 02695 6393 211656 023920 200"
"172.792072"
"$GPRMC,190031,A,2424.9647,N,08132.1482,W,2.9,347.4,210615,5.8,"
"##MN+00 00 51 0056 02699 6391 211600 023915 200"
"172.792118"
"$GPRMC,190036,A,2424.9683,N,08132.1492,W,2.8,347.8,210615,5.8,"
"##MN+00 00 51 0057 02699 6389 605296 023920 200"
"172.792164"
"$GPRMC,190039,A,2424.9706,N,08132.1497,W,2.8,347.8,210615,5.8,"
"##MN+00 00 57 0058 02700 6387 228448 023919 200"
"172.792211"
"$GPRMC,190043,A,2424.9737,N,08132.1504,W,2.8,347.2,210615,5.8,"
"##MN-00 00 55 0059 02700 6384 212320 023919 200"
"172.792257"
"$GPRMC,190047,A,2424.9764,N,08132.1512,W,2.8,347.3,210615,5.8,"
"##MN-00 00 53 0060 02703 6382 229616 023915 201"
"172.792303"
"#increment_net"
"$GPRMC,190051,A,2424.9796,N,08132.1521,W,2.8,347.6,210615,5.8,"
"##MN-00 00 53 0061 02704 6380 215760 023910 201"
"172.792349"
"#increment_net"
"$GPRMC,190056,A,2424.9834,N,08132.1529,W,2.8,347.3,210615,5.8,"
"##MN-00 00 52 0062 02704 6378 214408 023925 201"
"172.792396"
"$GPRMC,190100,A,2424.9864,N,08132.1536,W,2.8,347.1,210615,5.8,"
"##MN-00 00 52 0063 02705 6376 221936 023925 201"
"172.792442"
"$GPRMC,190104,A,2424.9896,N,08132.1543,W,2.8,347.0,210615,5.8,"
"##MN-00 00 52 0064 02708 6374 222304 023921 201"
"172.792488"
"$GPRMC,190108,A,2424.9925,N,08132.1546,W,2.8,347.6,210615,5.8,"
"##MN-00 00 52 0066 02708 6372 222736 023919 201"
"172.792535"
"$GPRMC,190112,A,2424.9955,N,08132.1551,W,2.8,347.8,210615,5.8,"
"##MN-00 00 52 0067 02708 6370 231608 023920 201"
"172.792581"
"$GPRMC,190116,A,2424.9986,N,08132.1557,W,2.8,347.9,210615,5.8,"
"##MN-00 00 52 0068 02710 6368 225296 023906 200"
"172.792627"
"$GPRMC,190120,A,2425.0016,N,08132.1564,W,2.8,347.9,210615,5.8,"
"##MN-00 00 52 0069 02713 6366 226976 023917 200"
"172.792674"
"$GPRMC,190124,A,2425.0048,N,08132.1571,W,2.8,348.3,210615,5.8,"
"##MN-00 00 52 0070 02714 6363 480728 023918 200"
"172.79272"
"$GPRMC,190128,A,2425.0080,N,08132.1579,W,2.8,348.5,210615,5.8,"
"##MN-00 00 52 0071 02714 6362 229584 023922 201"
"172.792766"
"$GPRMC,190132,A,2425.0110,N,08132.1586,W,2.9,348.9,210615,5.8,"
"##MN-00 00 52 0072 02718 6360 230000 023920 201"
"172.792813"
"$GPRMC,190136,A,2425.0143,N,08132.1591,W,2.9,348.9,210615,5.8,"
"##MN-00 00 52 0073 02719 6358 230384 023912 200"
"172.792859"
"$GPRMC,190140,A,2425.0174,N,08132.1598,W,2.9,349.4,210615,5.8,"
"##MN-00 00 52 0074 02722 6356 229880 023927 200"
"172.792905"
"$GPRMC,190144,A,2425.0206,N,08132.1604,W,2.9,349.8,210615,5.8,"
"##MN-00 00 52 0075 02722 6354 026720 023921 200"
"172.792951"
"$GPRMC,190148,A,2425.0237,N,08132.1611,W,2.9,349.6,210615,5.8,"
"##MN-00 00 52 0076 02722 6353 228456 023919 200"
"172.792998"
"$GPRMC,190152,A,2425.0271,N,08132.1618,W,2.9,349.5,210615,5.8,"
"##MN-00 00 52 0078 02723 6351 238200 023928 200"
"172.793044"
"$GPRMC,190156,A,2425.0305,N,08132.1624,W,2.9,349.1,210615,5.8,"
"##MN-00 00 51 0079 02725 6349 207840 023921 201"
"172.79309"
"$GPRMC,190200,A,2425.0334,N,08132.1631,W,2.9,349.0,210615,5.8,"
"##MN-00 00 52 0080 02729 6347 237216 023922 201"
"172.793137"
"$GPRMC,190204,A,2425.0367,N,08132.1638,W,2.8,349.2,210615,5.8,"
"##MN-00 00 52 0081 02729 6346 218464 023924 200"
"172.793183"
"$GPRMC,190208,A,2425.0398,N,08132.1645,W,2.9,349.6,210615,5.8,"
"##MN-00 00 52 0082 02731 6344 231392 023927 200"
"172.793229"
"$GPRMC,190212,A,2425.0436,N,08132.1652,W,2.9,349.6,210615,5.8,"
"##MN-00 00 52 0083 02731 6342 251392 023925 200"
"172.793275"
"$GPRMC,190216,A,2425.0471,N,08132.1660,W,2.9,349.4,210615,5.8,"
"##MN-00 00 52 0084 02733 6341 220160 023914 200"
"172.793322"
"$GPRMC,190220,A,2425.0503,N,08132.1667,W,2.9,349.0,210615,5.8,"
"##MN-00 00 52 0085 02735 6339 890424 023919 200"
"172.793368"
"$GPRMC,190224,A,2425.0536,N,08132.1676,W,2.9,348.6,210615,5.8,"
"##MN-00 00 52 0086 02736 6337 219248 023920 200"
"172.793414"
"$GPRMC,190228,A,2425.0566,N,08132.1683,W,2.9,348.5,210615,5.8,"
"##MN-00 00 52 0087 02737 6335 238784 023928 201"
"172.793461"
"$GPRMC,190232,A,2425.0598,N,08132.1691,W,2.9,347.7,210615,5.8,"
"##MN-00 00 52 0089 02739 6334 222688 023921 200"
"172.793507"
"$GPRMC,190236,A,2425.0627,N,08132.1698,W,2.8,347.2,210615,5.8,"
"##MN-00 00 52 0090 02738 6332 226672 023911 201"
"172.793553"
"$GPRMC,190240,A,2425.0656,N,08132.1705,W,2.9,347.1,210615,5.8,"
"##MN-00 00 52 0091 02740 6331 230656 023915 201"
"172.7936"
"$GPRMC,190244,A,2425.0685,N,08132.1714,W,2.8,347.3,210615,5.8,"
"##MN-00 00 52 0092 02744 6329 492896 023922 200"
"172.793646"
"$GPRMC,190248,A,2425.0716,N,08132.1721,W,2.8,347.9,210615,5.8,"
"##MN-00 00 52 0093 02745 6328 218160 023924 201"
"172.793692"
"$GPRMC,190252,A,2425.0745,N,08132.1728,W,2.8,347.5,210615,5.8,"
"##MN-00 00 51 0094 02746 6326 635056 023921 201"
"172.793738"
"$GPRMC,190256,A,2425.0773,N,08132.1735,W,2.8,347.2,210615,5.8,"
"##MN-00 00 52 0095 02749 6325 227432 023925 200"
"172.793785"
"$GPRMC,190300,A,2425.0802,N,08132.1743,W,2.8,346.8,210615,5.8,"
"##MN+00 00 52 0096 02747 6324 225200 023923 200"
"172.793831"
"$GPRMC,190304,A,2425.0833,N,08132.1752,W,2.8,347.5,210615,5.8,"
"##MN+00 00 51 0097 02750 6322 231424 023926 200"
"172.793877"
"$GPRMC,190308,A,2425.0865,N,08132.1759,W,2.8,347.8,210615,5.8,"
"##MN+00 00 57 0098 02750 6320 231424 023926 200"
"172.793924"
"$GPRMC,190312,A,2425.0896,N,08132.1764,W,2.8,348.0,210615,5.8,"
"##MN-00 00 54 0099 02752 6319 238088 023926 200"
"172.79397"
"#increment_net"
"$GPRMC,190316,A,2425.0926,N,08132.1770,W,2.8,348.4,210615,5.8,"
"##MN-00 00 54 0100 02753 6318 234944 023918 201"
"172.794016"
"$GPRMC,190320,A,2425.0956,N,08132.1777,W,2.8,348.7,210615,5.8,"
"##MN-00 00 52 0101 02753 6316 237200 023932 201"
"172.794063"
"$GPRMC,190324,A,2425.0990,N,08132.1785,W,2.8,348.6,210615,5.8,"
"##MN-00 00 52 0103 02756 6315 224176 023922 200"
"172.794109"
"$GPRMC,190328,A,2425.1024,N,08132.1790,W,2.8,348.8,210615,5.8,"
"##MN-00 00 52 0104 02757 6313 250000 023922 200"
"172.794155"
"$GPRMC,190332,A,2425.1059,N,08132.1796,W,2.9,349.2,210615,5.8,"
"##MN-00 00 52 0105 02758 6312 226784 023925 200"
"172.794201"
"$GPRMC,190336,A,2425.1091,N,08132.1803,W,2.9,349.4,210615,5.8,"
"##MN-00 00 52 0106 02759 6311 257984 023925 201"
"172.794248"
"$GPRMC,190340,A,2425.1122,N,08132.1810,W,2.9,349.2,210615,5.8,"
"##MN-00 00 52 0107 02761 6310 221448 023921 200"
"172.794294"
"$GPRMC,190344,A,2425.1147,N,08132.1824,W,2.9,349.3,210615,5.8,"
"##MN-00 00 52 0108 02759 6309 254448 023922 200"
"172.79434"
"$GPRMC,190348,A,2425.1180,N,08132.1833,W,2.9,349.1,210615,5.8,"
"##MN-00 00 52 0109 02761 6307 224480 023927 200"
"172.794387"
"$GPRMC,190352,A,2425.1205,N,08132.1840,W,2.9,349.0,210615,5.8,"
"##MN-00 00 52 0110 02764 6306 251680 023923 200"
"172.794433"
"$GPRMC,190356,A,2425.1234,N,08132.1846,W,2.9,349.3,210615,5.8,"
"##MN-00 00 52 0111 02762 6305 489848 023926 200"
"172.794479"
"$GPRMC,190400,A,2425.1263,N,08132.1853,W,2.9,349.0,210615,5.8,"
"##MN-00 00 52 0113 02762 6303 232472 023923 200"
"172.794525"
"$GPRMC,190404,A,2425.1298,N,08132.1861,W,2.9,348.5,210615,5.8,"
"##MN-00 00 52 0114 02765 6302 239200 023928 200"
"172.794572"
"$GPRMC,190408,A,2425.1338,N,08132.1868,W,2.9,348.3,210615,5.8,"
"##MN-00 00 52 0115 02764 6301 624448 023914 200"
"172.794618"
"$GPRMC,190412,A,2425.1373,N,08132.1875,W,2.9,348.4,210615,5.8,"
"##MN-00 00 52 0116 02766 6299 254304 023936 200"
"172.794676"
"$GPRMC,190416,A,2425.1407,N,08132.1882,W,3.0,348.4,210615,5.8,"
"##MN-00 00 52 0117 02765 6298 615280 023928 200"
"172.794722"
"$GPRMC,190420,A,2425.1439,N,08132.1889,W,3.0,348.4,210615,5.8,"
"##MN-00 00 52 0118 02768 6297 233760 023916 201"
"172.794768"
"$GPRMC,190424,A,2425.1472,N,08132.1897,W,3.0,348.4,210615,5.8,"
"##MN-00 00 52 0119 02767 6296 235504 023926 200"
"172.794815"
"$GPRMC,190428,A,2425.1504,N,08132.1904,W,3.0,348.3,210615,5.8,"
"##MN-00 00 52 0120 02768 6295 234648 023927 200"
"172.794861"
"$GPRMC,190432,A,2425.1534,N,08132.1911,W,3.0,348.4,210615,5.8,"
"##MN-00 00 52 0121 02767 6294 233680 023926 201"
"172.794907"
"$GPRMC,190436,A,2425.1566,N,08132.1918,W,2.9,348.0,210615,5.8,"
"##MN-00 00 52 0122 02770 6293 624328 023935 200"
"172.794954"
"$GPRMC,190440,A,2425.1595,N,08132.1926,W,2.9,347.7,210615,5.8,"
"##MN-00 00 52 0124 02771 6291 231888 023923 200"
"172.795"
"$GPRMC,190444,A,2425.1626,N,08132.1931,W,2.9,347.2,210615,5.8,"
"##MN-00 00 52 0125 02772 6290 494136 023934 201"
"172.795046"
"$GPRMC,190448,A,2425.1655,N,08132.1937,W,2.9,347.7,210615,5.8,"
"##MN-00 00 52 0126 02769 6289 230080 023924 200"
"172.795093"
"$GPRMC,190452,A,2425.1685,N,08132.1944,W,2.9,347.8,210615,5.8,"
"##MN-00 00 52 0127 02772 6288 233664 023928 200"
"172.795139"
"$GPRMC,190456,A,2425.1713,N,08132.1949,W,2.9,348.7,210615,5.8,"
"##MN-00 00 52 0128 02774 6287 232768 023931 200"
"172.795185"
"$GPRMC,190500,A,2425.1750,N,08132.1955,W,2.9,349.0,210615,5.8,"
"##MN-00 00 52 0129 02771 6286 629616 023930 200"
"172.795232"
"$GPRMC,190504,A,2425.1786,N,08132.1962,W,2.9,349.3,210615,5.8,"
"##MN-00 00 52 0130 02773 6285 227360 023936 200"
"172.795278"
"$GPRMC,190508,A,2425.1815,N,08132.1969,W,2.9,349.8,210615,5.8,"
"##MN-00 00 52 0131 02776 6284 756304 023923 200"
"172.795324"
"$GPRMC,190512,A,2425.1852,N,08132.1976,W,2.9,350.1,210615,5.8,"
"##MN+00 00 52 0132 02776 6283 629120 023925 200"
"172.79537"
"$GPRMC,190516,A,2425.1888,N,08132.1981,W,2.9,350.4,210615,5.8,"
"##MN+00 00 52 0133 02775 6282 222864 023932 200"
"172.795417"
"$GPRMC,190520,A,2425.1913,N,08132.1987,W,2.9,350.0,210615,5.8,"
"##MN+00 00 58 0134 02777 6281 493056 023941 200"
"172.795463"
"$GPRMC,190524,A,2425.1940,N,08132.1994,W,2.9,350.3,210615,5.8,"
"##MN-00 00 56 0135 02777 6280 017472 023930 200"
"172.795509"
"$GPRMC,190528,A,2425.1969,N,08132.1999,W,2.9,350.0,210615,5.8,"
"##MN-00 00 55 0137 02777 6279 891752 023930 200"
"172.795556"
"#increment_net"
"$GPRMC,190532,A,2425.2003,N,08132.2008,W,2.9,349.5,210615,5.8,"
"##MN-00 00 55 0138 02779 6278 481944 023933 200"
"172.795602"
"$GPRMC,190536,A,2425.2036,N,08132.2014,W,2.9,349.4,210615,5.8,"
"##MN-00 00 54 0139 02779 6277 232624 023942 200"
"172.795648"
"$GPRMC,190540,A,2425.2067,N,08132.2020,W,2.9,349.8,210615,5.8,"
"##MN-00 00 55 0140 02780 6276 620600 023938 200"
"172.795694"
"$GPRMC,190544,A,2425.2096,N,08132.2027,W,2.9,348.9,210615,5.8,"
"##MN-00 00 54 0141 02778 6275 239728 023949 200"
"172.795741"
"$GPRMC,190549,A,2425.2133,N,08132.2035,W,2.9,348.7,210615,5.8,"
"##MN-00 00 54 0142 02780 6274 231296 023938 200"
"172.795787"
"$GPRMC,190553,A,2425.2164,N,08132.2041,W,2.9,348.9,210615,5.8,"
"##MN-00 00 54 0143 02779 6273 220144 023932 200"
"172.795833"
"$GPRMC,190557,A,2425.2195,N,08132.2048,W,2.9,348.9,210615,5.8,"
"##MN-00 00 54 0144 02782 6272 881480 023941 200"
"172.79588"
"$GPRMC,190601,A,2425.2227,N,08132.2055,W,2.9,348.9,210615,5.8,"
"##MN-00 00 54 0145 02780 6271 366576 023943 200"
"172.795926"
"$GPRMC,190605,A,2425.2259,N,08132.2060,W,2.9,348.6,210615,5.8,"
"##MN-00 00 54 0146 02781 6270 214768 023937 200"
"172.795972"
"$GPRMC,190609,A,2425.2292,N,08132.2067,W,2.9,348.6,210615,5.8,"
"##MN-00 00 54 0147 02782 6269 229888 023940 200"
"172.796019"
"$GPRMC,190613,A,2425.2325,N,08132.2074,W,2.9,348.3,210615,5.8,"
"##MN-00 00 54 0148 02781 6268 228992 023937 200"
"172.796065"
"$GPRMC,190617,A,2425.2360,N,08132.2081,W,2.9,348.7,210615,5.8,"
"##MN-00 00 54 0149 02781 6267 229464 023941 201"
"172.796111"
"$GPRMC,190621,A,2425.2396,N,08132.2088,W,2.9,348.8,210615,5.8,"
"##MN-00 00 54 0150 02782 6266 245968 023938 200"
"172.796157"
"$GPRMC,190625,A,2425.2425,N,08132.2095,W,2.9,348.6,210615,5.8,"
"##MN-00 00 54 0151 02783 6265 221432 023940 200"
"172.796204"
"$GPRMC,190629,A,2425.2455,N,08132.2100,W,2.9,348.6,210615,5.8,"
"##MN-00 00 54 0153 02783 6265 221856 023939 200"
"172.79625"
"$GPRMC,190633,A,2425.2491,N,08132.2107,W,2.9,348.8,210615,5.8,"
"##MN-00 00 54 0154 02782 6264 487704 023937 200"
"172.796296"
"$GPRMC,190637,A,2425.2527,N,08132.2115,W,2.9,348.6,210615,5.8,"
"##MN-00 00 54 0155 02784 6263 745136 023934 200"
"172.796343"
"$GPRMC,190641,A,2425.2560,N,08132.2122,W,2.9,348.6,210615,5.8,"
"##MN-00 00 54 0156 02784 6262 224512 023937 200"
"172.796389"
"$GPRMC,190645,A,2425.2585,N,08132.2128,W,2.9,348.7,210615,5.8,"
"##MN-00 00 54 0157 02784 6261 222752 023937 200"
"172.796435"
"$GPRMC,190649,A,2425.2627,N,08132.2135,W,2.9,348.6,210615,5.8,"
"##MN-00 00 54 0158 02785 6260 223632 023935 200"
"172.796481"
"$GPRMC,190653,A,2425.2659,N,08132.2143,W,2.9,348.4,210615,5.8,"
"##MN-00 00 54 0159 02784 6259 222272 023937 201"
"172.796528"
"$GPRMC,190657,A,2425.2693,N,08132.2150,W,2.9,348.6,210615,5.8,"
"##MN-00 00 54 0160 02784 6258 747184 023933 200"
"172.796574"
"$GPRMC,190701,A,2425.2726,N,08132.2157,W,3.0,348.7,210615,5.8,"
"##MN-00 00 54 0161 02785 6257 613736 023941 200"
"172.79662"
"$GPRMC,190705,A,2425.2760,N,08132.2164,W,3.0,349.0,210615,5.8,"
"##MN-00 00 54 0162 02786 6257 223120 023931 200"
"172.796667"
"$GPRMC,190709,A,2425.2791,N,08132.2171,W,3.0,349.2,210615,5.8,"
"##MN-00 00 54 0163 02786 6256 487872 023939 200"
"172.796713"
"$GPRMC,190713,A,2425.2824,N,08132.2178,W,2.9,349.5,210615,5.8,"
"##MN-00 00 55 0164 02789 6255 481368 023943 200"
"172.796759"
"$GPRMC,190717,A,2425.2855,N,08132.2183,W,2.9,349.6,210615,5.8,"
"##MN-00 00 54 0165 02785 6254 221808 023939 200"
"172.796806"
"$GPRMC,190721,A,2425.2888,N,08132.2191,W,3.0,349.8,210615,5.8,"
"##MN-00 00 54 0167 02786 6253 221336 023937 200"
"172.796852"
"$GPRMC,190725,A,2425.2920,N,08132.2198,W,2.9,349.9,210615,5.8,"
"##MN+00 00 54 0168 02784 6253 019120 023942 200"
"172.796898"
"$GPRMC,190729,A,2425.2950,N,08132.2204,W,2.9,349.8,210615,5.8,"
"##MN+00 00 54 0169 02785 6252 212416 023947 200"
"172.796944"
"$GPRMC,190733,A,2425.2979,N,08132.2208,W,2.9,349.4,210615,5.8,"
"##MN+00 00 58 0170 02786 6251 219504 023934 200"
"172.796991"
"$GPRMC,190737,A,2425.3008,N,08132.2215,W,2.9,349.5,210615,5.8,"
"##MN-00 00 57 0171 02786 6250 217312 023935 200"
"172.797037"
"#increment_net"
"$GPRMC,190741,A,2425.3037,N,08132.2222,W,2.9,349.6,210615,5.8,"
"##MN-00 00 56 0172 02788 6250 227576 023941 200"
"172.797083"
"$GPRMC,190745,A,2425.3073,N,08132.2230,W,2.9,349.3,210615,5.8,"
"##MN-00 00 55 0173 02788 6248 726672 023951 200"
"172.79713"
"$GPRMC,190749,A,2425.3101,N,08132.2236,W,2.9,348.8,210615,5.8,"
"##MN-00 00 55 0174 02787 6248 218680 023945 200"
"172.797176"
"$GPRMC,190753,A,2425.3129,N,08132.2243,W,2.9,348.6,210615,5.8,"
"##MN-00 00 55 0175 02789 6247 216496 023941 200"
"172.797222"
"$GPRMC,190757,A,2425.3161,N,08132.2251,W,2.9,348.8,210615,5.8,"
"##MN-00 00 55 0176 02787 6246 610680 023938 200"
"172.797269"
"$GPRMC,190801,A,2425.3195,N,08132.2258,W,2.9,348.7,210615,5.8,"
"##MN-00 00 54 0177 02790 6246 211056 023960 200"
"172.797315"
"$GPRMC,190805,A,2425.3224,N,08132.2263,W,2.9,348.8,210615,5.8,"
"##MN-00 00 54 0178 02789 6245 211536 023945 200"
"172.797361"
"$GPRMC,190809,A,2425.3257,N,08132.2270,W,2.9,348.9,210615,5.8,"
"##MN-00 00 54 0179 02790 6244 213336 023951 200"
"172.797407"
"$GPRMC,190813,A,2425.3289,N,08132.2276,W,2.9,348.8,210615,5.8,"
"##MN-00 00 54 0181 02788 6243 736560 023935 200"
"172.797454"
"$GPRMC,190817,A,2425.3318,N,08132.2283,W,2.9,348.3,210615,5.8,"
"##MN-00 00 54 0182 02789 6242 212448 023944 200"
"172.7975"
"$GPRMC,190821,A,2425.3347,N,08132.2290,W,2.9,348.3,210615,5.8,"
"##MN-00 00 54 0183 02787 6242 212000 023947 200"
"172.797546"
"$GPRMC,190825,A,2425.3383,N,08132.2298,W,2.9,348.8,210615,5.8,"
"##MN-00 00 53 0184 02790 6241 603976 023950 200"
"172.797593"
"$GPRMC,190829,A,2425.3418,N,08132.2305,W,2.9,348.6,210615,5.8,"
"##MN-00 00 53 0185 02791 6240 732928 023957 200"
"172.797639"
"$GPRMC,190833,A,2425.3451,N,08132.2312,W,2.9,348.9,210615,5.8,"
"##MN-00 00 54 0186 02791 6239 207592 023949 200"
"172.797685"
"$GPRMC,190837,A,2425.3485,N,08132.2319,W,2.9,349.0,210615,5.8,"
"##MN-00 00 54 0187 02789 6239 599072 023951 200"
"172.797731"
"$GPRMC,190841,A,2425.3520,N,08132.2327,W,2.9,349.1,210615,5.8,"
"##MN-00 00 53 0188 02789 6238 732064 023956 200"
"172.797778"
"$GPRMC,190845,A,2425.3552,N,08132.2334,W,2.9,349.1,210615,5.8,"
"##MN-00 00 53 0189 02792 6237 597304 023946 200"
"172.797824"
"$GPRMC,190849,A,2425.3582,N,08132.2339,W,2.9,348.9,210615,5.8,"
"##MN-00 00 53 0190 02788 6237 212016 023958 200"
"172.79787"
"$GPRMC,190853,A,2425.3610,N,08132.2345,W,2.9,349.1,210615,5.8,"
"##MN-00 00 53 0191 02790 6236 464904 023951 200"
"172.797928"
"$GPRMC,190857,A,2425.3644,N,08132.2352,W,2.9,349.4,210615,5.8,"
"##MN-00 00 53 0193 02789 6235 203168 023962 200"
"172.797975"
"$GPRMC,190901,A,2425.3676,N,08132.2359,W,2.9,350.1,210615,5.8,"
"##MN-00 00 53 0194 02788 6235 201712 023972 200"
"172.798021"
"$GPRMC,190905,A,2425.3708,N,08132.2364,W,2.9,350.0,210615,5.8,"
"##MN-00 00 53 0195 02790 6234 201728 023963 200"
"172.798067"
"$GPRMC,190909,A,2425.3737,N,08132.2370,W,2.9,349.7,210615,5.8,"
"##MN-00 00 54 0196 02793 6233 983488 023959 200"
"172.798113"
"$GPRMC,190913,A,2425.3770,N,08132.2377,W,2.9,349.3,210615,5.8,"
"##MN-00 00 53 0197 02791 6232 201296 023965 200"
"172.79816"
"$GPRMC,190917,A,2425.3802,N,08132.2384,W,2.9,349.1,210615,5.8,"
"##MN-00 00 54 0198 02790 6232 213760 023962 200"
"172.798206"
"$GPRMC,190921,A,2425.3835,N,08132.2392,W,2.9,348.9,210615,5.8,"
"##MN-00 00 53 0199 02790 6231 848816 023970 200"
"172.798252"
"$GPRMC,190925,A,2425.3867,N,08132.2399,W,2.9,348.5,210615,5.8,"
"##MN-00 00 53 0200 02790 6230 201248 023967 200"
"172.798299"
"$GPRMC,190929,A,2425.3899,N,08132.2406,W,2.9,348.3,210615,5.8,"
"##MN-00 00 54 0201 02791 6230 201264 023958 200"
"172.798345"
"$GPRMC,190933,A,2425.3929,N,08132.2411,W,2.9,348.6,210615,5.8,"
"##MN-00 00 53 0202 02790 6229 213744 023966 200"
"172.798391"
"$GPRMC,190937,A,2425.3964,N,08132.2420,W,2.9,348.7,210615,5.8,"
"##MN-00 00 54 0203 02790 6228 195008 023966 200"
"172.798438"
"$GPRMC,190941,A,2425.3996,N,08132.2426,W,2.9,348.5,210615,5.8,"
"##MN-00 00 53 0205 02790 6228 201264 023965 200"
"172.798484"
"$GPRMC,190945,A,2425.4027,N,08132.2433,W,3.0,348.0,210615,5.8,"
"##MN-00 00 54 0206 02789 6227 725792 023966 200"
"172.79853"
"$GPRMC,190949,A,2425.4058,N,08132.2439,W,2.9,348.0,210615,5.8,"
"##MN-00 00 54 0207 02789 6226 201392 023970 200"
"172.798576"
"$GPRMC,190953,A,2425.4090,N,08132.2446,W,3.0,347.8,210615,5.8,"
"##MN-00 00 53 0208 02790 6226 201152 023969 200"
"172.798623"
"$GPRMC,190957,A,2425.4116,N,08132.2453,W,3.0,347.1,210615,5.8,"
"##MN-00 00 53 0209 02792 6225 201320 023970 200"
"172.798669"
"$GPRMC,191001,A,2425.4153,N,08132.2462,W,3.0,347.2,210615,5.8,"
"##MN-00 00 53 0210 02788 6224 202112 023972 200"
"172.798715"
"$GPRMC,191005,A,2425.4188,N,08132.2471,W,2.9,346.5,210615,5.8,"
"##MN-00 00 53 0211 02790 6224 201312 023973 200"
"172.798762"
"$GPRMC,191010,A,2425.4229,N,08132.2482,W,3.0,346.2,210615,5.8,"
"##MN-00 00 54 0212 02792 6223 200872 023967 200"
"172.798808"
"$GPRMC,191014,A,2425.4258,N,08132.2489,W,3.0,346.5,210615,5.8,"
"##MN-00 00 54 0213 02792 6223 201392 023957 200"
"172.798854"
"$GPRMC,191018,A,2425.4292,N,08132.2497,W,3.0,346.6,210615,5.8,"
"##MN-00 00 54 0214 02789 6222 201296 023951 200"
"172.7989"
"$GPRMC,191022,A,2425.4328,N,08132.2507,W,2.9,347.1,210615,5.8,"
"##MN-00 00 54 0215 02791 6221 201232 023945 200"
"172.798947"
"$GPRMC,191026,A,2425.4363,N,08132.2514,W,2.9,347.6,210615,5.8,"
"##MN-00 00 54 0217 02793 6221 201280 023948 200"
"172.798993"
"$GPRMC,191030,A,2425.4395,N,08132.2522,W,2.9,347.9,210615,5.8,"
"##MN-00 00 54 0218 02789 6220 202224 023941 200"
"172.799039"
"$GPRMC,191034,A,2425.4419,N,08132.2526,W,2.9,348.3,210615,5.8,"
"##MN-00 00 53 0219 02790 6220 592368 023951 200"
"172.799086"
"$GPRMC,191038,A,2425.4456,N,08132.2536,W,2.9,348.8,210615,5.8,"
"##MN-00 00 54 0220 02790 6219 201264 023938 200"
"172.799132"
"$GPRMC,191042,A,2425.4495,N,08132.2544,W,2.9,348.9,210615,5.8,"
"##MN-00 00 54 0221 02789 6218 206208 023923 200"
"172.799178"
"$GPRMC,191046,A,2425.4529,N,08132.2552,W,2.9,349.3,210615,5.8,"
"##MN-00 00 53 0222 02790 6218 207152 023944 200"
"172.799225"
"$GPRMC,191050,A,2425.4561,N,08132.2559,W,3.0,350.2,210615,5.8,"
"##MN-00 00 54 0223 02789 6217 189776 023934 200"
"172.799271"
"$GPRMC,191054,A,2425.4592,N,08132.2566,W,2.9,350.5,210615,5.8,"
"##MN-00 00 53 0224 02790 6216 196408 023938 200"
"172.799317"
"$GPRMC,191058,A,2425.4617,N,08132.2572,W,2.9,351.1,210615,5.8,"
"##MN-00 00 53 0225 02791 6216 216416 023947 200"
"172.799363"
"$GPRMC,191102,A,2425.4651,N,08132.2579,W,2.9,350.6,210615,5.8,"
"##MN-00 00 53 0226 02792 6215 455104 023947 200"
"172.79941"
"$GPRMC,191106,A,2425.4680,N,08132.2583,W,2.9,350.5,210615,5.8,"
"##MN-00 00 54 0227 02791 6215 203984 023944 200"
"172.799456"
"$GPRMC,191110,A,2425.4715,N,08132.2590,W,2.9,350.6,210615,5.8,"
"##MN-00 00 53 0228 02790 6214 599992 023950 200"
"172.799502"
"$GPRMC,191114,A,2425.4745,N,08132.2597,W,2.9,350.2,210615,5.8,"
"##MN-00 00 54 0230 02790 6214 193728 023948 200"
"172.799549"
"$GPRMC,191118,A,2425.4778,N,08132.2603,W,2.9,349.5,210615,5.8,"
"##MN-00 00 53 0231 02791 6213 218272 023944 200"
"172.799595"
"$GPRMC,191122,A,2425.4810,N,08132.2610,W,2.9,348.8,210615,5.8,"
"##MN-00 00 53 0232 02789 6212 192864 023953 200"
"172.799641"
"$GPRMC,191126,A,2425.4841,N,08132.2617,W,2.9,348.5,210615,5.8,"
"##MN-00 00 53 0233 02793 6212 201280 023943 200"
"172.799687"
"$GPRMC,191130,A,2425.4872,N,08132.2623,W,2.9,348.3,210615,5.8,"
"##MN+00 00 53 0234 02791 6211 206224 023951 200"
"172.799734"
"$GPRMC,191134,A,2425.4899,N,08132.2630,W,2.9,347.7,210615,5.8,"
"##MN+00 00 53 0235 02791 6211 204032 023950 200"
"172.79978"
"$GPRMC,191138,A,2425.4926,N,08132.2635,W,2.9,347.4,210615,5.8,"
"##MN+00 00 57 0236 02791 6210 187520 023945 200"
"172.799826"
"$GPRMC,191142,A,2425.4964,N,08132.2645,W,2.9,347.0,210615,5.8,"
"##MN-00 00 56 0237 02792 6210 456520 023947 200"
"172.799873"
"#increment_net"
"$GPRMC,191146,A,2425.4998,N,08132.2655,W,2.9,346.5,210615,5.8,"
"##MN-00 00 56 0238 02792 6209 193376 023949 200"
"172.799919"
"$GPRMC,191150,A,2425.5034,N,08132.2664,W,2.9,346.3,210615,5.8,"
"##MN-00 00 55 0239 02791 6208 589824 023953 200"
"172.799965"
"$GPRMC,191154,A,2425.5067,N,08132.2671,W,2.9,346.0,210615,5.8,"
"##MN-00 00 55 0240 02792 6208 177296 023952 200"
"172.800012"
"$GPRMC,191158,A,2425.5099,N,08132.2681,W,2.9,346.3,210615,5.8,"
"##MN-00 00 55 0241 02792 6207 192472 023955 200"
"172.800058"
"$GPRMC,191202,A,2425.5131,N,08132.2688,W,2.9,346.6,210615,5.8,"
"##MN-00 00 55 0243 02790 6207 190672 023951 200"
"172.800104"
"$GPRMC,191206,A,2425.5159,N,08132.2696,W,2.9,346.9,210615,5.8,"
"##MN-00 00 55 0244 02793 6206 453816 023952 200"
"172.80015"
"$GPRMC,191210,A,2425.5190,N,08132.2703,W,2.9,347.0,210615,5.8,"
"##MN-00 00 55 0245 02792 6206 971984 023952 200"
"172.800197"
"$GPRMC,191214,A,2425.5221,N,08132.2711,W,2.9,347.5,210615,5.8,"
"##MN-00 00 55 0246 02792 6205 188888 023957 200"
"172.800243"
"$GPRMC,191218,A,2425.5248,N,08132.2717,W,2.9,347.5,210615,5.8,"
"##MN-00 00 55 0247 02793 6205 450696 023950 200"
"172.800289"
"$GPRMC,191222,A,2425.5280,N,08132.2722,W,2.9,347.7,210615,5.8,"
"##MN-00 00 55 0248 02794 6204 987136 023955 200"
"172.800336"
"$GPRMC,191226,A,2425.5309,N,08132.2728,W,2.9,347.7,210615,5.8,"
"##MN-00 00 55 0249 02793 6203 187592 023962 200"
"172.800382"
"$GPRMC,191230,A,2425.5345,N,08132.2738,W,2.9,348.0,210615,5.8,"
"##MN-00 00 55 0250 02793 6203 424752 023950 200"
"172.800428"
"$GPRMC,191234,A,2425.5378,N,08132.2745,W,2.9,347.9,210615,5.8,"
"##MN-00 00 54 0251 02793 6203 189864 023956 200"
"172.800475"
"$GPRMC,191238,A,2425.5412,N,08132.2751,W,2.9,348.2,210615,5.8,"
"##MN-00 00 54 0252 02791 6202 177408 023953 200"
"172.800521"
"$GPRMC,191242,A,2425.5446,N,08132.2758,W,2.9,348.5,210615,5.8,"
"##MN-00 00 55 0253 02793 6202 183584 023958 200"
"172.800567"
"$GPRMC,191246,A,2425.5478,N,08132.2767,W,2.9,348.8,210615,5.8,"
"##MN-00 00 55 0254 02794 6201 191168 023954 200"
"172.800613"
"$GPRMC,191250,A,2425.5511,N,08132.2774,W,2.9,348.7,210615,5.8,"
"##MN-00 00 55 0255 02794 6200 686704 023959 200"
"172.80066"
"$GPRMC,191254,A,2425.5542,N,08132.2779,W,2.9,348.7,210615,5.8,"
"##MN-00 00 55 0257 02794 6200 182328 023958 200"
"172.800706"
"$GPRMC,191258,A,2425.5578,N,08132.2789,W,2.9,348.1,210615,5.8,"
"##MN-00 00 54 0258 02795 6199 964672 023961 200"
"172.800752"
"$GPRMC,191302,A,2425.5607,N,08132.2794,W,2.9,347.8,210615,5.8,"
"##MN-00 00 54 0259 02793 6199 182712 023956 200"
"172.800799"
"$GPRMC,191306,A,2425.5641,N,08132.2803,W,2.9,347.4,210615,5.8,"
"##MN-00 00 54 0260 02794 6198 196928 023967 200"
"172.800845"
"$GPRMC,191310,A,2425.5674,N,08132.2812,W,2.9,347.2,210615,5.8,"
"##MN-00 00 54 0261 02794 6198 181768 023955 200"
"172.800891"
"$GPRMC,191314,A,2425.5708,N,08132.2822,W,2.9,347.2,210615,5.8,"
"##MN-00 00 54 0262 02795 6197 175544 023961 200"
"172.800937"
"$GPRMC,191318,A,2425.5742,N,08132.2830,W,2.9,347.1,210615,5.8,"
"##MN-00 00 54 0263 02795 6196 181792 023951 200"
"172.800984"
"$GPRMC,191322,A,2425.5774,N,08132.2839,W,2.9,347.2,210615,5.8,"
"##MN-00 00 54 0264 02794 6196 181800 023968 200"
"172.80103"
"$GPRMC,191326,A,2425.5804,N,08132.2845,W,2.9,347.7,210615,5.8,"
"##MN-00 00 54 0265 02794 6196 179104 023967 200"
"172.801076"
"$GPRMC,191330,A,2425.5835,N,08132.2852,W,2.9,347.7,210615,5.8,"
"##MN-00 00 54 0266 02794 6195 179600 023962 200"
"172.801123"
"$GPRMC,191334,A,2425.5865,N,08132.2858,W,2.9,347.5,210615,5.8,"
"##MN-00 00 54 0267 02794 6195 701856 023971 200"
"172.801181"
"$GPRMC,191338,A,2425.5893,N,08132.2865,W,2.9,347.4,210615,5.8,"
"##MN-00 00 54 0268 02795 6194 176904 023968 200"
"172.801227"
"$GPRMC,191342,A,2425.5922,N,08132.2870,W,2.9,347.3,210615,5.8,"
"##MN+00 00 54 0269 02797 6194 178224 023961 200"
"172.801273"
"$GPRMC,191346,A,2425.5952,N,08132.2879,W,2.9,346.8,210615,5.8,"
"##MN+00 00 54 0271 02794 6193 178272 023966 200"
"172.801319"
"$GPRMC,191350,A,2425.5984,N,08132.2887,W,2.9,346.6,210615,5.8,"
"##MN+00 00 57 0272 02796 6192 175560 023963 200"
"172.801366"
"$GPRMC,191354,A,2425.6013,N,08132.2894,W,2.9,346.4,210615,5.8,"
"##MN-00 00 55 0273 02796 6192 177376 023977 200"
"172.801412"
"#increment_net"
"$GPRMC,191358,A,2425.6045,N,08132.2904,W,2.9,346.4,210615,5.8,"
"##MN-00 00 55 0274 02795 6191 175560 023955 200"
"172.801458"
"$GPRMC,191402,A,2425.6077,N,08132.2912,W,2.9,346.7,210615,5.8,"
"##MN-00 00 55 0275 02793 6191 955968 023958 200"
"172.801505"
"$GPRMC,191406,A,2425.6107,N,08132.2920,W,2.8,346.8,210615,5.8,"
"##MN-00 00 55 0276 02794 6191 180920 023963 200"
"172.801551"
"$GPRMC,191410,A,2425.6139,N,08132.2930,W,2.8,346.6,210615,5.8,"
"##MN-00 00 55 0277 02795 6190 164848 023968 200"
"172.801597"
"$GPRMC,191414,A,2425.6171,N,08132.2938,W,2.8,346.7,210615,5.8,"
"##MN-00 00 55 0278 02796 6190 432920 023963 200"
"172.801644"
"$GPRMC,191418,A,2425.6191,N,08132.2942,W,2.8,346.9,210615,5.8,"
"##MN-00 00 55 0279 02797 6189 172888 023964 200"
"172.80169"
"$GPRMC,191422,A,2425.6229,N,08132.2952,W,2.8,347.0,210615,5.8,"
"##MN-00 00 54 0280 02795 6189 172864 023969 200"
"172.801736"
"$GPRMC,191426,A,2425.6256,N,08132.2959,W,2.9,347.3,210615,5.8,"
"##MN-00 00 54 0281 02797 6188 172912 023966 200"
"172.801782"
"$GPRMC,191430,A,2425.6292,N,08132.2967,W,2.9,346.9,210615,5.8,"
"##MN-00 00 54 0282 02797 6188 172896 023974 200"
"172.801829"
"$GPRMC,191434,A,2425.6326,N,08132.2977,W,2.9,346.5,210615,5.8,"
"##MN-00 00 54 0283 02795 6187 563984 023964 200"
"172.801875"
"$GPRMC,191438,A,2425.6360,N,08132.2986,W,2.9,346.1,210615,5.8,"
"##MN-00 00 54 0284 02795 6187 172912 023970 200"
"172.801921"
"$GPRMC,191443,A,2425.6395,N,08132.2995,W,2.9,346.2,210615,5.8,"
"##MN-00 00 54 0286 02797 6187 827144 023973 200"
"172.801968"
"$GPRMC,191447,A,2425.6421,N,08132.3003,W,2.9,346.4,210615,5.8,"
"##MN-00 00 54 0287 02796 6186 172912 023974 200"
"172.802014"
"$GPRMC,191450,A,2425.6435,N,08132.3006,W,2.9,346.5,210615,5.8,"
"##MN-00 00 54 0288 02795 6186 697456 023977 200"
"172.80206"
"$GPRMC,191454,A,2425.6480,N,08132.3018,W,2.9,346.6,210615,5.8,"
"##MN-00 00 53 0289 02796 6185 564016 023972 200"
"172.802106"
"$GPRMC,191459,A,2425.6521,N,08132.3027,W,2.9,347.1,210615,5.8,"
"##MN-00 00 54 0290 02794 6185 172928 023972 200"
"172.802153"
"$GPRMC,191502,A,2425.6547,N,08132.3031,W,2.9,347.4,210615,5.8,"
"##MN-00 00 54 0291 02793 6184 171624 023968 200"
"172.802199"
"$GPRMC,191507,A,2425.6584,N,08132.3042,W,2.9,347.6,210615,5.8,"
"##MN-00 00 54 0292 02795 6184 176528 023966 200"
"172.802245"
"$GPRMC,191511,A,2425.6615,N,08132.3049,W,2.9,348.1,210615,5.8,"
"##MN-00 00 54 0293 02794 6184 165872 023979 200"
"172.802292"
"$GPRMC,191515,A,2425.6649,N,08132.3054,W,2.9,348.4,210615,5.8,"
"##MN-00 00 54 0294 02793 6183 177456 023963 200"
"172.802338"
"$GPRMC,191519,A,2425.6682,N,08132.3061,W,3.0,348.2,210615,5.8,"
"##MN-00 00 54 0295 02792 6182 162704 023975 200"
"172.802384"
"$GPRMC,191523,A,2425.6716,N,08132.3068,W,3.0,348.3,210615,5.8,"
"##MN-00 00 54 0297 02795 6182 166272 023974 200"
"172.802431"
"$GPRMC,191527,A,2425.6750,N,08132.3075,W,2.9,348.8,210615,5.8,"
"##MN-00 00 54 0298 02792 6181 174752 023986 200"
"172.802477"
"$GPRMC,191531,A,2425.6785,N,08132.3083,W,3.0,348.6,210615,5.8,"
"##MN-00 00 54 0299 02794 6181 158712 023974 200"
"172.802523"
"$GPRMC,191535,A,2425.6816,N,08132.3090,W,2.9,348.2,210615,5.8,"
"##MN-00 00 54 0300 02794 6180 690320 023974 200"
"172.802569"
"$GPRMC,191539,A,2425.6844,N,08132.3097,W,2.9,348.1,210615,5.8,"
"##MN-00 00 54 0301 02795 6180 556008 023982 200"
"172.802616"
"$GPRMC,191543,A,2425.6880,N,08132.3107,W,3.0,347.6,210615,5.8,"
"##MN-00 00 54 0302 02795 6180 163136 023979 200"
"172.802662"
"$GPRMC,191547,A,2425.6915,N,08132.3116,W,2.9,347.1,210615,5.8,"
"##MN-00 00 54 0303 02792 6179 164056 023981 200"
"172.802708"
"$GPRMC,191551,A,2425.6948,N,08132.3125,W,2.9,346.9,210615,5.8,"
"##MN+00 00 54 0304 02795 6179 426328 023980 200"
"172.802755"
"$GPRMC,191555,A,2425.6981,N,08132.3132,W,2.9,347.0,210615,5.8,"
"##MN+00 00 54 0305 02793 6179 163216 023973 200"
"172.802801"
"$GPRMC,191559,A,2425.7011,N,08132.3140,W,2.9,347.0,210615,5.8,"
"##MN+00 00 49 0306 02794 6178 552968 023980 200"
"172.802847"
"$GPRMC,191603,A,2425.7043,N,08132.3148,W,2.8,346.5,210615,5.8,"
"##MN-00 00 49 0307 02794 6177 178384 023990 200"
"172.802893"
"#increment_net"
"$GPRMC,191607,A,2425.7072,N,08132.3155,W,2.8,346.0,210615,5.8,"
"##MN-00 00 49 0308 02794 6177 413000 023973 200"
"172.80294"
"$GPRMC,191611,A,2425.7101,N,08132.3162,W,2.9,345.8,210615,5.8,"
"##MN-00 00 49 0309 02791 6177 159664 023980 200"
"172.802986"
"$GPRMC,191615,A,2425.7133,N,08132.3172,W,2.9,345.4,210615,5.8,"
"##MN-00 00 49 0311 02793 6176 153400 023978 200"
"172.803032"
"$GPRMC,191619,A,2425.7159,N,08132.3179,W,2.8,345.5,210615,5.8,"
"##MN-00 00 49 0312 02793 6176 158784 023990 200"
"172.803079"
"$GPRMC,191623,A,2425.7190,N,08132.3188,W,2.8,345.6,210615,5.8,"
"##MN-00 00 49 0313 02792 6175 155168 023978 200"
"172.803125"
"$GPRMC,191627,A,2425.7217,N,08132.3197,W,2.8,345.3,210615,5.8,"
"##MN-00 00 49 0314 02792 6175 152024 023991 200"
"172.803171"
"$GPRMC,191631,A,2425.7247,N,08132.3204,W,2.8,345.4,210615,5.8,"
"##MN-00 00 49 0315 02795 6174 153408 023994 200"
"172.803218"
"$GPRMC,191635,A,2425.7273,N,08132.3212,W,2.9,345.6,210615,5.8,"
"##MN-00 00 49 0316 02792 6174 150296 023988 200"
"172.803264"
"$GPRMC,191639,A,2425.7299,N,08132.3219,W,2.9,345.9,210615,5.8,"
"##MN-00 00 49 0317 02793 6173 156144 023991 200"
"172.80331"
"$GPRMC,191643,A,2425.7335,N,08132.3228,W,2.9,345.9,210615,5.8,"
"##MN-00 00 49 0318 02791 6173 150776 023995 200"
"172.803356"
"$GPRMC,191647,A,2425.7372,N,08132.3237,W,2.9,346.4,210615,5.8,"
"##MN-00 00 50 0319 02795 6173 947184 024000 200"
"172.803403"
"$GPRMC,191651,A,2425.7404,N,08132.3244,W,2.9,346.8,210615,5.8,"
"##MN-00 00 49 0320 02794 6172 144944 023976 200"
"172.803449"
"$GPRMC,191655,A,2425.7440,N,08132.3252,W,2.9,346.8,210615,5.8,"
"##MN-00 00 49 0321 02794 6172 151648 023987 200"
"172.803495"
"$GPRMC,191659,A,2425.7473,N,08132.3259,W,2.9,347.1,210615,5.8,"
"##MN-00 00 49 0322 02793 6171 151664 023983 200"
"172.803542"
"$GPRMC,191703,A,2425.7505,N,08132.3265,W,2.9,347.7,210615,5.8,"
"##MN-00 00 49 0324 02793 6171 149896 023997 200"
"172.803588"
"$GPRMC,191707,A,2425.7537,N,08132.3273,W,2.9,348.0,210615,5.8,"
"##MN-00 00 49 0325 02794 6171 148976 023990 200"
"172.803634"
"$GPRMC,191711,A,2425.7569,N,08132.3278,W,2.9,348.6,210615,5.8,"
"##MN-00 00 49 0326 02794 6170 145872 024007 200"
"172.803681"
"$GPRMC,191715,A,2425.7602,N,08132.3285,W,2.9,348.8,210615,5.8,"
"##MN-00 00 49 0327 02793 6170 148992 023994 200"
"172.803727"
"$GPRMC,191719,A,2425.7635,N,08132.3291,W,2.9,349.1,210615,5.8,"
"##MN-00 00 49 0328 02792 6169 407672 024013 200"
"172.803773"
"$GPRMC,191723,A,2425.7668,N,08132.3298,W,3.0,349.3,210615,5.8,"
"##MN-00 00 49 0329 02793 6169 144576 024007 200"
"172.803819"
"$GPRMC,191727,A,2425.7700,N,08132.3302,W,3.0,349.8,210615,5.8,"
"##MN-00 00 49 0330 02792 6169 144560 024006 200"
"172.803866"
"$GPRMC,191731,A,2425.7730,N,08132.3307,W,3.0,350.2,210615,5.8,"
"##MN-00 00 49 0331 02795 6168 144560 024004 200"
"172.803912"
"$GPRMC,191735,A,2425.7764,N,08132.3313,W,3.0,350.1,210615,5.8,"
"##MN-00 00 49 0332 02794 6168 144560 024009 200"
"172.803958"
"$GPRMC,191739,A,2425.7793,N,08132.3320,W,3.0,350.2,210615,5.8,"
"##MN-00 00 49 0334 02793 6167 144600 024003 200"
"172.804005"
"$GPRMC,191743,A,2425.7826,N,08132.3327,W,3.0,350.1,210615,5.8,"
"##MN-00 00 49 0335 02795 6167 144528 024003 200"
"172.804051"
"$GPRMC,191747,A,2425.7860,N,08132.3332,W,3.0,350.5,210615,5.8,"
"##MN+00 00 49 0336 02794 6166 144568 024006 200"
"172.804097"
"$GPRMC,191751,A,2425.7892,N,08132.3338,W,3.0,350.4,210615,5.8,"
"##MN+00 00 49 0337 02793 6166 144704 024001 200"
"172.804144"
"$GPRMC,191755,A,2425.7928,N,08132.3346,W,2.9,350.4,210615,5.8,"
"##MN+00 00 55 0338 02795 6165 144568 024023 200"
"172.80419"
"$GPRMC,191759,A,2425.7963,N,08132.3352,W,3.0,350.0,210615,5.8,"
"##MN-00 00 55 0339 02794 6165 144616 023987 200"
"172.804236"
"#increment_net"
"$GPRMC,191803,A,2425.7997,N,08132.3361,W,3.0,349.4,210615,5.8,"
"##MN-00 00 54 0340 02793 6165 144592 023991 200"
"172.804282"
"$GPRMC,191807,A,2425.8031,N,08132.3368,W,3.0,348.6,210615,5.8,"
"##MN-00 00 54 0341 02794 6165 143712 023998 200"
"172.804329"
"$GPRMC,191811,A,2425.8064,N,08132.3376,W,3.0,348.0,210615,5.8,"
"##MN-00 00 54 0342 02792 6164 146400 023989 200"
"172.804387"
"$GPRMC,191815,A,2425.8097,N,08132.3383,W,2.9,347.9,210615,5.8,"
"##MN-00 00 54 0343 02792 6164 144192 023979 200"
"172.804433"
"$GPRMC,191819,A,2425.8127,N,08132.3392,W,2.9,347.4,210615,5.8,"
"##MN-00 00 54 0344 02792 6163 145520 023984 200"
"172.804479"
"$GPRMC,191823,A,2425.8159,N,08132.3401,W,2.9,346.4,210615,5.8,"
"##MN-00 00 54 0346 02794 6163 144168 023981 200"
"172.804525"
"$GPRMC,191827,A,2425.8188,N,08132.3408,W,2.9,345.9,210615,5.8,"
"##MN-00 00 54 0347 02793 6162 145048 023983 200"
"172.804572"
"$GPRMC,191831,A,2425.8219,N,08132.3417,W,2.9,346.2,210615,5.8,"
"##MN-00 00 54 0348 02794 6162 144624 023982 200"
"172.804618"
"$GPRMC,191835,A,2425.8249,N,08132.3423,W,2.9,346.5,210615,5.8,"
"##MN-00 00 54 0349 02793 6162 535656 023980 200"
"172.804664"
"$GPRMC,191839,A,2425.8279,N,08132.3432,W,2.9,346.1,210615,5.8,"
"##MN-00 00 54 0350 02792 6161 151728 023974 200"
"172.804711"
"$GPRMC,191843,A,2425.8311,N,08132.3439,W,2.9,346.2,210615,5.8,"
"##MN-00 00 54 0351 02790 6161 141032 023987 200"
"172.804757"
"$GPRMC,191847,A,2425.8340,N,08132.3447,W,2.9,346.5,210615,5.8,"
"##MN-00 00 54 0352 02793 6160 144560 023977 200"
"172.804803"
"$GPRMC,191851,A,2425.8372,N,08132.3454,W,2.9,347.1,210615,5.8,"
"##MN-00 00 54 0353 02792 6160 407744 023970 200"
"172.80485"
"$GPRMC,191855,A,2425.8402,N,08132.3464,W,2.9,347.0,210615,5.8,"
"##MN-00 00 54 0354 02793 6160 144592 023975 200"
"172.804896"
"$GPRMC,191859,A,2425.8436,N,08132.3472,W,2.9,347.3,210615,5.8,"
"##MN-00 00 54 0355 02791 6159 144592 023966 200"
"172.804942"
"$GPRMC,191903,A,2425.8467,N,08132.3483,W,2.9,346.7,210615,5.8,"
"##MN-00 00 54 0356 02790 6159 144584 023972 200"
"172.804988"
"$GPRMC,191907,A,2425.8499,N,08132.3490,W,2.9,346.7,210615,5.8,"
"##MN-00 00 54 0358 02792 6159 144592 023975 200"
"172.805035"
"$GPRMC,191911,A,2425.8528,N,08132.3497,W,2.9,346.3,210615,5.8,"
"##MN-00 00 54 0359 02791 6158 144576 023972 200"
"172.805081"
"$GPRMC,191916,A,2425.8570,N,08132.3508,W,2.9,346.6,210615,5.8,"
"##MN-00 00 54 0360 02791 6158 144608 023972 200"
"172.805127"
"$GPRMC,191920,A,2425.8603,N,08132.3516,W,3.0,346.7,210615,5.8,"
"##MN-00 00 54 0361 02790 6158 144616 023976 200"
"172.805174"
"$GPRMC,191924,A,2425.8636,N,08132.3526,W,3.0,347.0,210615,5.8,"
"##MN-00 00 54 0362 02792 6157 144656 023986 200"
"172.80522"
"$GPRMC,191928,A,2425.8672,N,08132.3534,W,3.0,347.7,210615,5.8,"
"##MN-00 00 54 0363 02789 6157 144680 023968 200"
"172.805266"
"$GPRMC,191932,A,2425.8705,N,08132.3542,W,3.0,348.3,210615,5.8,"
"##MN-00 00 54 0364 02790 6156 144640 023981 200"
"172.805312"
"$GPRMC,191935,A,2425.8730,N,08132.3548,W,3.0,348.4,210615,5.8,"
"##MN-00 00 54 0365 02789 6156 144640 023989 200"
"172.805359"
"$GPRMC,191939,A,2425.8763,N,08132.3554,W,3.0,348.4,210615,5.8,"
"##MN-00 00 54 0366 02788 6156 144640 023992 200"
"172.805405"
"$GPRMC,191943,A,2425.8794,N,08132.3560,W,3.0,348.6,210615,5.8,"
"##MN-00 00 54 0368 02788 6155 144624 023992 200"
"172.805451"
"$GPRMC,191947,A,2425.8827,N,08132.3567,W,3.0,348.6,210615,5.8,"
"##MN-00 00 54 0369 02789 6155 144648 024010 200"
"172.805498"
"$GPRMC,191952,A,2425.8867,N,08132.3577,W,3.0,349.2,210615,5.8,"
"##MN+00 00 54 0370 02789 6155 926800 024000 200"
"172.805544"
"$GPRMC,191956,A,2425.8904,N,08132.3584,W,3.0,349.1,210615,5.8,"
"##MN+00 00 54 0371 02788 6155 144168 024000 200"
"172.80559"
"$GPRMC,192000,A,2425.8940,N,08132.3589,W,3.0,349.0,210615,5.8,"
"##MN+00 00 60 0372 02787 6154 144192 024005 200"
"172.805637"
"$GPRMC,192004,A,2425.8976,N,08132.3598,W,3.0,348.8,210615,5.8,"
"##MN-00 00 57 0373 02786 6154 142880 023983 200"
"172.805683"
"#increment_net"
"$GPRMC,192008,A,2425.9011,N,08132.3605,W,3.0,348.5,210615,5.8,"
"##MN-00 00 55 0375 02789 6153 406000 024005 200"
"172.805729"
"$GPRMC,192012,A,2425.9044,N,08132.3613,W,3.1,348.6,210615,5.8,"
"##MN-00 00 54 0376 02788 6153 140192 023996 200"
"172.805775"
"$GPRMC,192016,A,2425.9077,N,08132.3620,W,3.1,347.9,210615,5.8,"
"##MN-00 00 53 0377 02789 6153 531736 024000 200"
"172.805822"
"$GPRMC,192020,A,2425.9109,N,08132.3627,W,3.0,347.7,210615,5.8,"
"##MN-00 00 51 0378 02790 6152 147344 024011 200"
"172.805868"
"$GPRMC,192024,A,2425.9142,N,08132.3634,W,3.0,347.5,210615,5.8,"
"##MN-00 00 52 0380 02790 6152 137520 023999 200"
"172.805914"
"$GPRMC,192028,A,2425.9174,N,08132.3642,W,3.0,347.2,210615,5.8,"
"##MN-00 00 51 0381 02786 6151 392656 024002 200"
"172.805961"
"$GPRMC,192032,A,2425.9207,N,08132.3650,W,3.0,346.9,210615,5.8,"
"##MN-00 00 50 0382 02790 6151 133968 024007 200"
"172.806007"
"$GPRMC,192036,A,2425.9240,N,08132.3657,W,3.0,346.7,210615,5.8,"
"##MN-00 00 48 0383 02791 6151 134016 024010 200"
"172.806053"
"$GPRMC,192040,A,2425.9274,N,08132.3667,W,3.0,347.0,210615,5.8,"
"##MN-00 00 49 0384 02792 6151 133088 023990 200"
"172.8061"
"$GPRMC,192044,A,2425.9307,N,08132.3674,W,3.0,347.3,210615,5.8,"
"##MN-00 00 49 0386 02792 6150 133104 024012 200"
"172.806146"
"$GPRMC,192048,A,2425.9341,N,08132.3685,W,3.0,347.0,210615,5.8,"
"##MN-00 00 48 0387 02795 6150 133984 024013 200"
"172.806192"
"$GPRMC,192052,A,2425.9376,N,08132.3693,W,3.1,347.3,210615,5.8,"
"##MN-00 00 47 0388 02795 6149 133584 023999 200"
"172.806238"
"$GPRMC,192056,A,2425.9409,N,08132.3703,W,3.0,347.2,210615,5.8,"
"##MN-00 00 47 0390 02795 6149 131392 024008 200"
"172.806285"
"$GPRMC,192100,A,2425.9442,N,08132.3711,W,3.0,347.6,210615,5.8,"
"##MN-00 00 47 0391 02796 6149 130928 024017 200"
"172.806331"
"$GPRMC,192104,A,2425.9475,N,08132.3718,W,3.0,348.0,210615,5.8,"
"##MN-00 00 47 0392 02796 6149 130512 024002 200"
"172.806377"
"$GPRMC,192108,A,2425.9509,N,08132.3726,W,3.0,348.3,210615,5.8,"
"##MN-00 00 46 0393 02796 6148 127840 024020 200"
"172.806424"
"$GPRMC,192112,A,2425.9542,N,08132.3732,W,3.0,348.7,210615,5.8,"
"##MN-00 00 47 0394 02797 6148 130096 024003 200"
"172.80647"
"$GPRMC,192116,A,2425.9578,N,08132.3743,W,3.0,348.5,210615,5.8,"
"##MN-00 00 47 0396 02797 6148 121600 024017 200"
"172.806516"
"$GPRMC,192120,A,2425.9612,N,08132.3750,W,3.1,348.3,210615,5.8,"
"##MN-00 00 47 0397 02797 6147 521176 024015 200"
"172.806563"
"$GPRMC,192124,A,2425.9644,N,08132.3758,W,3.1,348.1,210615,5.8,"
"##MN-00 00 48 0398 02797 6147 128736 024003 200"
"172.806609"
"$GPRMC,192128,A,2425.9677,N,08132.3766,W,3.1,348.1,210615,5.8,"
"##MN-00 00 47 0400 02799 6146 389648 024018 200"
"172.806655"
"$GPRMC,192132,A,2425.9709,N,08132.3773,W,3.1,348.1,210615,5.8,"
"##MN-00 00 48 0401 02797 6146 126048 024008 200"
"172.806701"
"$GPRMC,192136,A,2425.9748,N,08132.3784,W,3.1,348.2,210615,5.8,"
"##MN-00 00 48 0402 02796 6146 126080 024009 200"
"172.806748"
"$GPRMC,192140,A,2425.9785,N,08132.3797,W,3.1,347.6,210615,5.8,"
"##MN-00 00 48 0403 02792 6145 125672 024017 200"
"172.806794"
"$GPRMC,192144,A,2425.9816,N,08132.3804,W,3.1,347.3,210615,5.8,"
"##MN-00 00 48 0405 02795 6145 912752 024015 200"
"172.80684"
"$GPRMC,192148,A,2425.9847,N,08132.3809,W,3.1,347.1,210615,5.8,"
"##MN-00 00 48 0406 02796 6145 132768 024015 200"
"172.806887"
"$GPRMC,192152,A,2425.9879,N,08132.3815,W,3.1,347.0,210615,5.8,"
"##MN-00 00 48 0407 02794 6145 106432 024018 200"
"172.806933"
"$GPRMC,192156,A,2425.9915,N,08132.3824,W,3.1,347.0,210615,5.8,"
"##MN-00 00 49 0409 02790 6144 132736 024017 200"
"172.806979"
"$GPRMC,192200,A,2425.9944,N,08132.3831,W,3.1,346.8,210615,5.8,"
"##MN-00 00 49 0410 02791 6144 118040 024026 200"
"172.807025"
"$GPRMC,192204,A,2425.9984,N,08132.3841,W,3.2,346.5,210615,5.8,"
"##MN-00 00 49 0411 02793 6143 120752 024025 200"
"172.807072"
"$GPRMC,192208,A,2426.0022,N,08132.3851,W,3.2,346.2,210615,5.8,"
"##MN-00 00 49 0413 02787 6143 386544 024032 200"
"172.807118"
"$GPRMC,192212,A,2426.0060,N,08132.3862,W,3.2,346.0,210615,5.8,"
"##MN-00 00 49 0414 02787 6143 122528 024030 200"
"172.807164"
"$GPRMC,192216,A,2426.0096,N,08132.3873,W,3.2,345.6,210615,5.8,"
"##MN-00 00 49 0415 02787 6143 123840 024026 200"
"172.807211"
"$GPRMC,192220,A,2426.0134,N,08132.3884,W,3.2,345.6,210615,5.8,"
"##MN-00 00 49 0417 02785 6142 121600 024029 200"
"172.807257"
"$GPRMC,192224,A,2426.0168,N,08132.3892,W,3.2,345.6,210615,5.8,"
"##MN-00 00 49 0418 02786 6142 120696 024019 200"
"172.807303"
"$GPRMC,192228,A,2426.0199,N,08132.3900,W,3.2,345.3,210615,5.8,"
"##MN-00 00 49 0419 02782 6142 380576 024035 200"
"172.80735"
"$GPRMC,192232,A,2426.0229,N,08132.3909,W,3.2,345.3,210615,5.8,"
"##MN-00 00 49 0420 02782 6141 120624 024027 200"
"172.807396"
"$GPRMC,192236,A,2426.0262,N,08132.3920,W,3.2,345.1,210615,5.8,"
"##MN-00 00 49 0422 02782 6141 120128 024034 200"
"172.807442"
"$GPRMC,192240,A,2426.0295,N,08132.3931,W,3.2,345.4,210615,5.8,"
"##MN-00 00 49 0423 02779 6140 905344 024029 200"
"172.8075"
"$GPRMC,192244,A,2426.0331,N,08132.3941,W,3.3,345.8,210615,5.8,"
"##MN-00 00 49 0424 02778 6140 380872 024030 200"
"172.807546"
"$GPRMC,192248,A,2426.0367,N,08132.3949,W,3.2,346.1,210615,5.8,"
"##MN-00 00 49 0425 02780 6140 122096 024031 200"
"172.807593"
"$GPRMC,192252,A,2426.0403,N,08132.3960,W,3.2,346.5,210615,5.8,"
"##MN-00 00 49 0427 02778 6140 122048 024019 200"
"172.807639"
"$GPRMC,192256,A,2426.0441,N,08132.3970,W,3.2,347.1,210615,5.8,"
"##MN-00 00 49 0428 02776 6139 122880 024023 200"
"172.807685"
"$GPRMC,192300,A,2426.0477,N,08132.3978,W,3.2,346.9,210615,5.8,"
"##MN-00 00 49 0429 02774 6139 779720 024023 200"
"172.807731"
"$GPRMC,192304,A,2426.0511,N,08132.3983,W,3.2,347.3,210615,5.8,"
"##MN-00 00 49 0430 02773 6139 515568 024024 200"
"172.807778"
"$GPRMC,192308,A,2426.0546,N,08132.3992,W,3.2,347.9,210615,5.8,"
"##MN-00 00 49 0432 02771 6138 125328 024015 200"
"172.807824"
"$GPRMC,192312,A,2426.0580,N,08132.4003,W,3.2,348.1,210615,5.8,"
"##MN-00 00 49 0433 02770 6138 124784 024015 200"
"172.80787"
"$GPRMC,192316,A,2426.0616,N,08132.4010,W,3.2,347.7,210615,5.8,"
"##MN-00 00 49 0434 02769 6138 125184 024019 200"
"172.807917"
"$GPRMC,192320,A,2426.0651,N,08132.4019,W,3.1,347.4,210615,5.8,"
"##MN-00 00 49 0435 02767 6137 125976 024017 200"
"172.807963"
"$GPRMC,192324,A,2426.0684,N,08132.4026,W,3.1,347.2,210615,5.8,"
"##MN-00 00 49 0437 02767 6137 653152 024026 200"
"172.808009"
"$GPRMC,192328,A,2426.0721,N,08132.4035,W,3.1,347.2,210615,5.8,"
"##MN-00 00 49 0438 02765 6137 129032 024017 200"
"172.808056"
"$GPRMC,192332,A,2426.0755,N,08132.4043,W,3.1,347.3,210615,5.8,"
"##MN-00 00 49 0439 02762 6137 130312 024021 200"
"172.808102"
"$GPRMC,192336,A,2426.0788,N,08132.4050,W,3.1,347.0,210615,5.8,"
"##MN-00 00 49 0440 02762 6136 128464 024005 200"
"172.808148"
"$GPRMC,192340,A,2426.0822,N,08132.4059,W,3.1,347.1,210615,5.8,"
"##MN-00 00 49 0441 02759 6136 526696 024026 200"
"172.808194"
"$GPRMC,192344,A,2426.0855,N,08132.4068,W,3.1,346.8,210615,5.8,"
"##MN-00 00 49 0442 02760 6136 121232 024010 200"
"172.808241"
"$GPRMC,192348,A,2426.0886,N,08132.4073,W,3.1,346.8,210615,5.8,"
"##MN-00 00 49 0443 02757 6136 132360 024008 200"
"172.808287"
"$GPRMC,192352,A,2426.0919,N,08132.4082,W,3.1,346.6,210615,5.8,"
"##MN-00 00 49 0443 02755 6136 131008 024030 200"
"172.808333"
"$GPRMC,192356,A,2426.0952,N,08132.4089,W,3.1,346.7,210615,5.8,"
"##MN-00 00 48 0444 02756 6135 395928 024008 200"
"172.80838"
"$GPRMC,192400,A,2426.0984,N,08132.4098,W,3.1,346.7,210615,5.8,"
"##MN-00 00 48 0444 02756 6135 134512 024014 200"
"172.808426"
"$GPRMC,192404,A,2426.1019,N,08132.4108,W,3.1,346.4,210615,5.8,"
"##MN-00 00 48 0444 02754 6135 135376 024025 200"
"172.808472"
"$GPRMC,192408,A,2426.1053,N,08132.4118,W,3.1,346.4,210615,5.8,"
"##MN-00 00 40 0444 02752 6134 136640 024006 200"
"172.808518"
"$GPRMC,192412,A,2426.1089,N,08132.4127,W,3.1,346.1,210615,5.8,"
"##MN-00 00 24 0444 02753 6135 137952 024008 200"
"172.808565"
"$GPRMC,192416,A,2426.1125,N,08132.4138,W,3.2,345.9,210615,5.8,"
"##MN-00 00 25 0444 02750 6134 140136 024015 200"
"172.808611"
"$GPRMC,192420,A,2426.1161,N,08132.4149,W,3.2,345.8,210615,5.8,"
"##MN-00 00 07 0444 02750 6134 141408 024005 200"
