" Tow: test   RVWS/WS15161"
" Date: 10/06/2015"
" Temperature Probe #  2089    Conductivity Probe #  2870"
" Pressure Probe #  159"
" Flow Meter Calibration  4.71 (m/count)  "
"161.891933"
"$GPRMC,212419,A,2437.6272,N,08042.2576,W,8.0,240.3,100615,6.4,"
"##MN-00 00 89 0000 01507 7540 426612 825653 198"
"161.891979"
"$GPRMC,212424,A,2437.6219,N,08042.2685,W,8.0,241.7,100615,6.4,"
"##MN-00 00 89 0000 01510 7540 421839 826425 198"
"161.892025"
"$GPRMC,212428,A,2437.6176,N,08042.2772,W,8.1,242.2,100615,6.4,"
"##MN-00 00 89 0000 01509 7541 421641 826036 198"
"161.892072"
"$GPRMC,212432,A,2437.6131,N,08042.2858,W,8.0,242.0,100615,6.4,"
"##MN-00 00 89 0000 01509 7541 421704 825472 198"
"161.892118"
"$GPRMC,212436,A,2437.6088,N,08042.2944,W,8.0,241.3,100615,6.4,"
"##MN-00 00 89 0000 01510 7542 421810 826153 198"
"161.892164"
"$GPRMC,212440,A,2437.6046,N,08042.3031,W,8.0,241.5,100615,6.4,"
"##MN-00 00 89 0000 01506 7542 422093 825968 198"
"161.892211"
"$GPRMC,212444,A,2437.6006,N,08042.3119,W,8.0,241.7,100615,6.4,"
"##MN-00 00 89 0000 01509 7542 422047 825676 198"
"161.892268"
"$GPRMC,212448,A,2437.5961,N,08042.3205,W,8.0,241.2,100615,6.4,"
"##MN-00 00 89 0000 01508 7542 422275 826054 198"
"161.892315"
"$GPRMC,212452,A,2437.5916,N,08042.3291,W,8.0,240.8,100615,6.4,"
"##MN-00 00 89 0000 01510 7542 422675 825833 198"
"161.892361"
"$GPRMC,212456,A,2437.5871,N,08042.3376,W,8.0,240.2,100615,6.4,"
"##MN-00 00 89 0000 01508 7543 422424 826220 198"
"161.892407"
"$GPRMC,212500,A,2437.5827,N,08042.3461,W,8.0,240.0,100615,6.4,"
"##MN-00 00 89 0000 01508 7543 422709 826152 198"
"161.892454"
"$GPRMC,212504,A,2437.5783,N,08042.3544,W,8.0,240.3,100615,6.4,"
"##MN-00 00 89 0000 01508 7543 422855 825631 198"
"161.8925"
"$GPRMC,212508,A,2437.5735,N,08042.3627,W,8.0,239.6,100615,6.4,"
"##MN-00 00 89 0000 01509 7542 422748 826561 198"
"161.892546"
"$GPRMC,212512,A,2437.5689,N,08042.3710,W,8.0,239.1,100615,6.4,"
"##MN-00 00 89 0000 01508 7543 422210 826372 198"
"161.892593"
"$GPRMC,212516,A,2437.5641,N,08042.3793,W,8.0,238.7,100615,6.4,"
"##MN-00 00 89 0000 01510 7542 422085 826220 198"
"161.892639"
"$GPRMC,212520,A,2437.5595,N,08042.3876,W,8.0,238.4,100615,6.4,"
"##MN-00 00 89 0000 01509 7543 420919 825947 198"
"161.892685"
"$GPRMC,212524,A,2437.5546,N,08042.3960,W,7.9,238.5,100615,6.4,"
"##MN-00 00 89 0000 01508 7542 420303 826573 198"
"161.892732"
"$GPRMC,212528,A,2437.5502,N,08042.4046,W,8.0,239.4,100615,6.4,"
"##MN-00 00 89 0000 01508 7542 419951 826696 198"
"161.892778"
"$GPRMC,212532,A,2437.5458,N,08042.4131,W,8.0,240.5,100615,6.4,"
"##MN-00 00 89 0000 01508 7542 419746 826253 198"
"161.892824"
"$GPRMC,212536,A,2437.5416,N,08042.4219,W,8.0,241.4,100615,6.4,"
"##MN-00 00 89 0000 01506 7542 420008 826083 198"
"161.89287"
"$GPRMC,212540,A,2437.5372,N,08042.4306,W,8.1,241.3,100615,6.4,"
"##MN-00 00 89 0000 01509 7542 420436 826101 198"
"161.892917"
"$GPRMC,212544,A,2437.5331,N,08042.4393,W,8.0,241.5,100615,6.4,"
"##MN-00 00 89 0000 01509 7542 420801 826016 198"
"161.892963"
"$GPRMC,212548,A,2437.5288,N,08042.4481,W,8.1,242.0,100615,6.4,"
"##MN-00 00 89 0000 01510 7541 420556 826236 198"
"161.893009"
"$GPRMC,212552,A,2437.5244,N,08042.4566,W,8.1,241.5,100615,6.4,"
"##MN-00 00 89 0000 01508 7541 420487 826422 198"
"161.893056"
"$GPRMC,212557,A,2437.5187,N,08042.4671,W,8.0,240.8,100615,6.4,"
"##MN-00 00 89 0000 01509 7541 421043 826150 198"
"161.893102"
"$GPRMC,212601,A,2437.5141,N,08042.4756,W,8.1,239.8,100615,6.4,"
"##MN-00 00 89 0000 01509 7540 421397 825899 198"
"161.893148"
"$GPRMC,212605,A,2437.5094,N,08042.4841,W,8.0,239.1,100615,6.4,"
"##MN-00 00 89 0000 01509 7540 421244 826082 198"
"161.893194"
"$GPRMC,212609,A,2437.5047,N,08042.4925,W,8.0,239.0,100615,6.4,"
"##MN-00 00 89 0000 01509 7540 420829 826235 198"
"161.893241"
"$GPRMC,212612,A,2437.5015,N,08042.4990,W,8.0,238.7,100615,6.4,"
"##MN-00 00 89 0000 01509 7539 421333 826491 198"
"161.893287"
"$GPRMC,212617,A,2437.4958,N,08042.5095,W,8.0,238.9,100615,6.4,"
"##MN-00 00 89 0000 01509 7539 421509 826694 198"
"161.893333"
"$GPRMC,212621,A,2437.4912,N,08042.5181,W,8.0,239.0,100615,6.4,"
"##MN-00 00 89 0000 01506 7539 421843 826585 198"
"161.89338"
"$GPRMC,212625,A,2437.4866,N,08042.5264,W,8.0,239.0,100615,6.4,"
"##MN-00 00 89 0000 01507 7538 421496 826234 198"
"161.893426"
"$GPRMC,212629,A,2437.4820,N,08042.5348,W,8.0,239.8,100615,6.4,"
"##MN-00 00 89 0000 01509 7538 421342 826558 198"
"161.893472"
"$GPRMC,212633,A,2437.4776,N,08042.5437,W,8.0,240.4,100615,6.4,"
"##MN-00 00 89 0000 01509 7537 420989 826762 198"
"161.893519"
"$GPRMC,212637,A,2437.4732,N,08042.5524,W,8.0,240.5,100615,6.4,"
"##MN-00 00 89 0000 01509 7537 421263 826840 198"
"161.893565"
"$GPRMC,212641,A,2437.4686,N,08042.5611,W,8.1,241.3,100615,6.4,"
"##MN-00 00 89 0000 01508 7536 421559 826421 198"
"161.893611"
"$GPRMC,212645,A,2437.4646,N,08042.5698,W,8.1,241.7,100615,6.4,"
"##MN-00 00 89 0000 01508 7536 421245 826898 198"
"161.893657"
"$GPRMC,212649,A,2437.4606,N,08042.5787,W,8.1,241.7,100615,6.4,"
"##MN-00 00 89 0000 01511 7536 421234 826234 198"
"161.893704"
"$GPRMC,212653,A,2437.4561,N,08042.5872,W,8.1,241.6,100615,6.4,"
"##MN-00 00 89 0000 01509 7535 421542 826148 198"
"161.89375"
"$GPRMC,212657,A,2437.4518,N,08042.5958,W,8.2,241.1,100615,6.4,"
"##MN-00 00 89 0000 01508 7535 421745 826436 198"
"161.893796"
"$GPRMC,212701,A,2437.4472,N,08042.6042,W,8.1,240.1,100615,6.4,"
"##MN-00 00 00 0000 01510 7534 422282 826080 198"
"161.893843"
"$GPRMC,212705,A,2437.4431,N,08042.6128,W,8.1,239.5,100615,6.4,"
"##MN-00 00 00 0000 01510 7534 422615 826584 198"
"161.893889"
"$GPRMC,212709,A,2437.4382,N,08042.6211,W,8.1,238.6,100615,6.4,"
"##MN-00 00 00 0000 01509 7533 422508 827101 198"
"161.893935"
"$GPRMC,212713,A,2437.4337,N,08042.6295,W,8.1,238.4,100615,6.4,"
"##MN-00 00 00 0000 01510 7533 422252 826435 198"
"161.893981"
"$GPRMC,212717,A,2437.4290,N,08042.6378,W,8.1,238.1,100615,6.4,"
"##MN-00 00 00 0000 01510 7532 422315 826489 198"
"161.894028"
"$GPRMC,212721,A,2437.4242,N,08042.6459,W,8.0,238.0,100615,6.4,"
"##MN-00 00 00 0000 01509 7532 421623 826829 198"
"161.894074"
"$GPRMC,212725,A,2437.4193,N,08042.6536,W,8.0,237.9,100615,6.4,"
"##MN-00 00 00 0000 01511 7531 421660 826625 198"
"161.89412"
"$GPRMC,212729,A,2437.4144,N,08042.6622,W,8.0,237.8,100615,6.4,"
"##MN-00 00 00 0000 01508 7531 422115 826166 198"
"161.894167"
"$GPRMC,212733,A,2437.4099,N,08042.6705,W,8.0,238.5,100615,6.4,"
"##MN-00 00 00 0000 01509 7531 422407 827033 198"
"161.894213"
"$GPRMC,212737,A,2437.4052,N,08042.6789,W,8.0,239.2,100615,6.4,"
"##MN-00 00 00 0000 01508 7530 422863 826300 198"
"161.894259"
"$GPRMC,212741,A,2437.4012,N,08042.6876,W,8.0,239.8,100615,6.4,"
"##MN-00 00 00 0000 01509 7529 422998 826147 198"
"161.894306"
"$GPRMC,212745,A,2437.3970,N,08042.6962,W,7.9,241.2,100615,6.4,"
"##MN-00 00 00 0000 01509 7529 422569 826353 198"
"161.894352"
"$GPRMC,212749,A,2437.3929,N,08042.7050,W,7.9,242.0,100615,6.4,"
"##MN-00 00 00 0000 01509 7529 422605 826249 198"
"161.894398"
"$GPRMC,212753,A,2437.3886,N,08042.7139,W,7.9,243.4,100615,6.4,"
"##MN-00 00 00 0000 01509 7528 422659 826569 198"
"161.894444"
"$GPRMC,212757,A,2437.3846,N,08042.7225,W,8.0,243.0,100615,6.4,"
"##MN-00 00 00 0000 01510 7528 422586 827032 198"
"161.894491"
"$GPRMC,212801,A,2437.3801,N,08042.7312,W,8.0,241.9,100615,6.4,"
"##MN-00 00 00 0000 01510 7528 422514 826760 198"
"161.894537"
"$GPRMC,212805,A,2437.3756,N,08042.7396,W,8.0,241.4,100615,6.4,"
"##MN-00 00 00 0000 01511 7527 422740 827040 198"
"161.894583"
"$GPRMC,212809,A,2437.3712,N,08042.7483,W,8.1,240.2,100615,6.4,"
"##MN-00 00 00 0000 01509 7527 422497 826827 198"
"161.89463"
"$GPRMC,212813,A,2437.3671,N,08042.7569,W,8.0,239.9,100615,6.4,"
"##MN-00 00 00 0000 01508 7526 423176 826759 198"
"161.894676"
"$GPRMC,212817,A,2437.3626,N,08042.7652,W,8.0,239.1,100615,6.4,"
"##MN-00 00 00 0000 01509 7526 423210 826839 198"
"161.894722"
"$GPRMC,212821,A,2437.3583,N,08042.7736,W,7.9,238.7,100615,6.4,"
"##MN-00 00 00 0000 01511 7526 423671 826895 198"
"161.894769"
"$GPRMC,212825,A,2437.3537,N,08042.7821,W,8.0,239.1,100615,6.4,"
"##MN-00 00 00 0000 01510 7526 423445 826759 198"
"161.894815"
"$GPRMC,212829,A,2437.3492,N,08042.7905,W,8.0,239.4,100615,6.4,"
"##MN-00 00 68 0000 01508 7526 423156 826636 198"
"161.894861"
"$GPRMC,212833,A,2437.3450,N,08042.7991,W,8.0,239.8,100615,6.4,"
"##MN-00 00 78 0000 01511 7525 422954 827310 198"
"161.894907"
"$GPRMC,212837,A,2437.3401,N,08042.8075,W,8.0,239.7,100615,6.4,"
"##MN-00 00 76 0000 01510 7524 423408 826366 198"
"161.894954"
"$GPRMC,212841,A,2437.3352,N,08042.8159,W,8.0,240.0,100615,6.4,"
"##MN-00 00 77 0000 01507 7524 423729 826419 198"
"161.895"
"$GPRMC,212845,A,2437.3308,N,08042.8246,W,8.0,240.2,100615,6.4,"
"##MN-00 00 77 0000 01509 7524 423783 826232 198"
"161.895046"
"$GPRMC,212849,A,2437.3264,N,08042.8331,W,8.0,240.4,100615,6.4,"
"##MN-00 00 76 0000 01509 7524 423834 826419 198"
"161.895093"
"$GPRMC,212853,A,2437.3221,N,08042.8418,W,8.0,240.7,100615,6.4,"
"##MN-00 00 76 0000 01510 7523 423789 826963 198"
"161.895139"
"$GPRMC,212857,A,2437.3177,N,08042.8506,W,8.1,241.3,100615,6.4,"
"##MN-00 00 75 0000 01510 7523 424033 826635 198"
"161.895185"
"$GPRMC,212901,A,2437.3134,N,08042.8592,W,8.0,241.2,100615,6.4,"
"##MN-00 00 75 0000 01512 7523 423755 826691 198"
"161.895231"
"$GPRMC,212905,A,2437.3092,N,08042.8678,W,8.0,241.2,100615,6.4,"
"##MN-00 00 76 0000 01510 7522 423706 826501 198"
"161.895278"
"$GPRMC,212909,A,2437.3060,N,08042.8741,W,8.0,241.0,100615,6.4,"
"##MN-00 00 76 0000 01511 7522 424082 827303 198"
"161.895324"
"$GPRMC,212913,A,2437.3009,N,08042.8851,W,8.0,241.3,100615,6.4,"
"##MN-00 00 75 0000 01510 7522 424297 825941 198"
"161.89537"
"$GPRMC,212917,A,2437.2975,N,08042.8916,W,8.1,241.2,100615,6.4,"
"##MN-00 00 75 0000 01512 7521 424047 826365 198"
"161.895428"
"$GPRMC,212921,A,2437.2915,N,08042.9022,W,8.1,240.7,100615,6.4,"
"##MN-00 00 74 0000 01512 7521 423580 826567 198"
"161.895475"
"$GPRMC,212925,A,2437.2867,N,08042.9108,W,8.0,240.0,100615,6.4,"
"##MN-00 00 74 0000 01510 7520 423484 826568 198"
"161.895521"
"$GPRMC,212929,A,2437.2827,N,08042.9194,W,8.1,240.0,100615,6.4,"
"##MN-00 00 73 0000 01510 7520 423615 826826 198"
"161.895567"
"$GPRMC,212933,A,2437.2786,N,08042.9281,W,8.0,239.6,100615,6.4,"
"##MN-00 00 73 0000 01509 7519 424254 826281 198"
"161.895613"
"$GPRMC,212937,A,2437.2741,N,08042.9365,W,8.0,239.5,100615,6.4,"
"##MN-00 00 73 0000 01511 7519 424528 826366 198"
"161.89566"
"$GPRMC,212941,A,2437.2693,N,08042.9449,W,8.0,239.0,100615,6.4,"
"##MN-00 00 75 0000 01511 7519 424202 826010 198"
"161.895706"
"$GPRMC,212945,A,2437.2646,N,08042.9534,W,8.0,238.9,100615,6.4,"
"##MN-00 00 74 0000 01510 7518 424276 827032 198"
"161.895752"
"$GPRMC,212949,A,2437.2601,N,08042.9617,W,8.0,239.0,100615,6.4,"
"##MN-00 00 73 0000 01507 7517 423633 826568 198"
"161.895799"
"$GPRMC,212953,A,2437.2557,N,08042.9702,W,8.0,239.1,100615,6.4,"
"##MN-00 00 73 0000 01510 7517 423536 826297 198"
"161.895845"
"$GPRMC,212957,A,2437.2511,N,08042.9787,W,8.0,239.8,100615,6.4,"
"##MN-00 00 73 0000 01510 7516 423796 826623 198"
"161.895891"
"$GPRMC,213001,A,2437.2469,N,08042.9871,W,8.0,239.8,100615,6.4,"
"##MN-00 00 72 0000 01510 7516 423371 826418 198"
"161.895938"
"$GPRMC,213005,A,2437.2424,N,08042.9956,W,8.0,240.0,100615,6.4,"
"##MN-00 00 72 0000 01510 7515 423098 826247 198"
"161.895984"
"$GPRMC,213009,A,2437.2379,N,08043.0040,W,8.0,239.9,100615,6.4,"
"##MN-00 00 72 0000 01510 7514 422983 826486 198"
"161.89603"
"$GPRMC,213014,A,2437.2326,N,08043.0148,W,8.0,240.9,100615,6.4,"
"##MN-00 00 72 0000 01511 7514 423655 826634 198"
"161.896076"
"$GPRMC,213018,A,2437.2280,N,08043.0235,W,8.0,240.6,100615,6.4,"
"##MN-00 00 73 0000 01510 7514 423565 826350 198"
"161.896123"
"$GPRMC,213022,A,2437.2236,N,08043.0321,W,8.0,240.8,100615,6.4,"
"##MN-00 00 72 0000 01510 7513 423297 826418 198"
"161.896169"
"$GPRMC,213026,A,2437.2192,N,08043.0406,W,8.0,241.2,100615,6.4,"
"##MN-00 00 70 0000 01509 7512 423161 826297 198"
"161.896215"
"$GPRMC,213030,A,2437.2156,N,08043.0491,W,8.0,241.8,100615,6.4,"
"##MN-00 00 69 0000 01509 7512 423004 826962 198"
"161.896262"
"$GPRMC,213034,A,2437.2110,N,08043.0578,W,8.0,241.7,100615,6.4,"
"##MN-00 00 69 0000 01511 7512 422756 826635 198"
"161.896308"
"$GPRMC,213038,A,2437.2068,N,08043.0665,W,8.0,241.3,100615,6.4,"
"##MN-00 00 68 0000 01508 7511 422835 827031 198"
"161.896354"
"$GPRMC,213042,A,2437.2025,N,08043.0749,W,8.0,241.2,100615,6.4,"
"##MN-00 00 68 0000 01510 7510 423317 827234 198"
"161.8964"
"$GPRMC,213046,A,2437.1980,N,08043.0834,W,8.0,240.5,100615,6.4,"
"##MN-00 00 65 0000 01510 7509 423691 826567 198"
"161.896447"
"$GPRMC,213050,A,2437.1935,N,08043.0918,W,8.0,240.5,100615,6.4,"
"##MN-00 00 67 0000 01509 7508 423656 826904 198"
"161.896493"
"$GPRMC,213054,A,2437.1885,N,08043.1002,W,8.0,240.2,100615,6.4,"
"##MN-00 00 68 0000 01510 7508 423547 826904 198"
"161.896539"
"$GPRMC,213058,A,2437.1838,N,08043.1087,W,8.0,239.2,100615,6.4,"
"##MN-00 00 67 0000 01511 7507 423226 826690 198"
"161.896586"
"$GPRMC,213102,A,2437.1794,N,08043.1171,W,8.0,239.5,100615,6.4,"
"##MN-00 00 67 0000 01512 7506 423323 826417 198"
"161.896632"
"$GPRMC,213106,A,2437.1750,N,08043.1255,W,7.9,240.0,100615,6.4,"
"##MN-00 00 66 0000 01510 7505 423511 826635 198"
"161.896678"
"$GPRMC,213110,A,2437.1705,N,08043.1340,W,7.9,240.1,100615,6.4,"
"##MN-00 00 67 0000 01511 7504 423210 826145 198"
"161.896725"
"$GPRMC,213114,A,2437.1658,N,08043.1424,W,7.9,240.7,100615,6.4,"
"##MN-00 00 66 0000 01510 7504 423269 826500 198"
"161.896771"
"$GPRMC,213118,A,2437.1617,N,08043.1510,W,8.0,240.1,100615,6.4,"
"##MN-00 00 72 0000 01510 7503 423479 826621 198"
"161.896817"
"$GPRMC,213122,A,2437.1573,N,08043.1597,W,8.0,240.0,100615,6.4,"
"##MN-00 00 67 0000 01511 7502 423510 826894 198"
"161.896863"
"$GPRMC,213126,A,2437.1530,N,08043.1680,W,7.9,240.9,100615,6.4,"
"##MN-00 00 65 0000 01511 7501 423568 826971 198"
"161.89691"
"$GPRMC,213130,A,2437.1485,N,08043.1764,W,7.9,241.1,100615,6.4,"
"##MN-00 00 64 0000 01509 7501 423763 827098 198"
"161.896956"
"$GPRMC,213134,A,2437.1440,N,08043.1853,W,8.0,241.2,100615,6.4,"
"##MN-00 00 63 0000 01510 7500 423922 826769 198"
"161.897002"
"$GPRMC,213138,A,2437.1398,N,08043.1937,W,8.0,241.0,100615,6.4,"
"##MN-00 00 64 0000 01512 7500 423712 826634 198"
"161.897049"
"$GPRMC,213142,A,2437.1354,N,08043.2023,W,8.0,241.1,100615,6.4,"
"##MN-00 00 64 0000 01510 7499 424122 826758 198"
"161.897095"
"$GPRMC,213146,A,2437.1308,N,08043.2107,W,8.0,240.3,100615,6.4,"
"##MN-00 00 63 0000 01509 7499 424435 826836 198"
"161.897141"
"$GPRMC,213150,A,2437.1264,N,08043.2193,W,8.0,239.8,100615,6.4,"
"##MN-00 00 64 0000 01511 7499 423758 826553 198"
"161.897187"
"$GPRMC,213154,A,2437.1218,N,08043.2279,W,8.0,240.6,100615,6.4,"
"##MN-00 00 62 0000 01512 7499 423094 826825 198"
"161.897234"
"$GPRMC,213158,A,2437.1173,N,08043.2363,W,8.0,240.7,100615,6.4,"
"##MN-00 00 62 0000 01510 7498 423240 827038 198"
"161.89728"
"$GPRMC,213202,A,2437.1129,N,08043.2447,W,8.0,240.3,100615,6.4,"
"##MN-00 00 58 0000 01511 7498 422894 827438 198"
"161.897326"
"$GPRMC,213206,A,2437.1086,N,08043.2530,W,8.0,240.6,100615,6.4,"
"##MN-00 00 61 0000 01510 7497 422931 827098 198"
"161.897373"
"$GPRMC,213210,A,2437.1042,N,08043.2615,W,7.9,240.1,100615,6.4,"
"##MN-00 00 59 0000 01510 7497 423378 826971 198"
"161.897419"
"$GPRMC,213214,A,2437.0997,N,08043.2700,W,8.0,240.7,100615,6.4,"
"##MN-00 00 58 0000 01513 7497 423638 826690 198"
"161.897465"
"$GPRMC,213218,A,2437.0952,N,08043.2786,W,8.0,241.0,100615,6.4,"
"##MN-00 00 57 0000 01510 7497 423843 826913 198"
"161.897512"
"$GPRMC,213222,A,2437.0907,N,08043.2870,W,8.0,240.7,100615,6.4,"
"##MN-00 00 57 0000 01510 7497 424030 827233 198"
"161.897558"
"$GPRMC,213226,A,2437.0863,N,08043.2955,W,8.0,241.0,100615,6.4,"
"##MN-00 00 59 0000 01510 7496 424233 827097 198"
"161.897604"
"$GPRMC,213230,A,2437.0819,N,08043.3040,W,8.0,240.8,100615,6.4,"
"##MN-00 00 59 0000 01510 7496 424418 827165 198"
"161.89765"
"$GPRMC,213234,A,2437.0775,N,08043.3125,W,8.0,240.6,100615,6.4,"
"##MN-00 00 58 0000 01511 7496 424468 826633 198"
"161.897697"
"$GPRMC,213238,A,2437.0733,N,08043.3210,W,8.0,241.0,100615,6.4,"
"##MN-00 00 61 0000 01511 7496 424410 826758 198"
"161.897743"
"$GPRMC,213242,A,2437.0689,N,08043.3295,W,7.9,240.5,100615,6.4,"
"##MN-00 00 64 0000 01510 7496 424469 827038 198"
"161.897789"
"$GPRMC,213246,A,2437.0645,N,08043.3381,W,7.9,240.1,100615,6.4,"
"##MN-00 00 58 0000 01512 7495 424455 826961 198"
"161.897836"
"$GPRMC,213250,A,2437.0602,N,08043.3470,W,8.0,240.9,100615,6.4,"
"##MN-00 00 54 0000 01511 7495 424733 827165 198"
"161.897882"
"$GPRMC,213254,A,2437.0557,N,08043.3559,W,8.1,241.1,100615,6.4,"
"##MN-00 00 61 0000 01511 7494 424910 826566 198"
"161.897928"
"$GPRMC,213258,A,2437.0515,N,08043.3645,W,8.0,240.8,100615,6.4,"
"##MN-00 00 61 0000 01511 7494 425141 826757 198"
"161.897975"
"$GPRMC,213302,A,2437.0471,N,08043.3728,W,8.0,240.9,100615,6.4,"
"##MN-00 00 58 0000 01509 7494 425026 826825 198"
"161.898021"
"$GPRMC,213306,A,2437.0424,N,08043.3808,W,8.0,240.3,100615,6.4,"
"##MN-00 00 58 0000 01512 7493 425764 826713 198"
"161.898067"
"$GPRMC,213310,A,2437.0379,N,08043.3891,W,8.0,240.0,100615,6.4,"
"##MN-00 00 55 0000 01512 7492 425753 826553 198"
"161.898113"
"$GPRMC,213314,A,2437.0334,N,08043.3978,W,8.0,240.2,100615,6.4,"
"##MN-00 00 57 0000 01510 7492 425383 826431 198"
"161.89816"
"$GPRMC,213318,A,2437.0289,N,08043.4064,W,8.0,239.9,100615,6.4,"
"##MN-00 00 57 0000 01512 7491 425235 826689 198"
"161.898206"
"$GPRMC,213322,A,2437.0245,N,08043.4148,W,8.0,239.9,100615,6.4,"
"##MN-00 00 58 0000 01512 7490 425492 826096 198"
"161.898252"
"$GPRMC,213326,A,2437.0201,N,08043.4234,W,8.0,239.7,100615,6.4,"
"##MN-00 00 57 0000 01512 7490 425670 826417 198"
"161.898299"
"$GPRMC,213330,A,2437.0158,N,08043.4318,W,7.9,239.9,100615,6.4,"
"##MN-00 00 57 0000 01511 7489 425565 826008 198"
"161.898345"
"$GPRMC,213334,A,2437.0114,N,08043.4400,W,7.9,239.9,100615,6.4,"
"##MN-00 00 58 0000 01511 7488 425139 826499 198"
"161.898391"
"$GPRMC,213338,A,2437.0068,N,08043.4481,W,7.9,240.0,100615,6.4,"
"##MN-00 00 57 0000 01511 7487 425302 826076 198"
"161.898438"
"$GPRMC,213342,A,2437.0024,N,08043.4563,W,8.0,240.3,100615,6.4,"
"##MN-00 00 58 0000 01511 7486 424996 825825 198"
"161.898484"
"$GPRMC,213346,A,2436.9980,N,08043.4649,W,8.0,240.5,100615,6.4,"
"##MN-00 00 59 0000 01511 7485 425490 826689 198"
"161.898542"
"$GPRMC,213350,A,2436.9933,N,08043.4736,W,8.0,240.9,100615,6.4,"
"##MN-00 00 60 0000 01511 7485 425289 826179 198"
"161.898588"
"$GPRMC,213354,A,2436.9890,N,08043.4824,W,8.0,240.9,100615,6.4,"
"##MN-00 00 60 0000 01511 7484 425143 826689 198"
"161.898634"
"$GPRMC,213358,A,2436.9850,N,08043.4915,W,8.1,241.2,100615,6.4,"
"##MN-00 00 67 0000 01511 7484 425060 826701 198"
"161.898681"
"$GPRMC,213402,A,2436.9807,N,08043.5004,W,8.1,242.3,100615,6.4,"
"##MN-00 00 61 0000 01512 7483 425005 826553 198"
"161.898727"
"$GPRMC,213406,A,2436.9765,N,08043.5092,W,8.1,242.3,100615,6.4,"
"##MN-00 00 61 0000 01512 7482 425202 826756 198"
"161.898773"
"$GPRMC,213410,A,2436.9720,N,08043.5181,W,8.1,242.0,100615,6.4,"
"##MN-00 00 63 0000 01512 7481 425163 826634 198"
"161.898819"
"$GPRMC,213414,A,2436.9675,N,08043.5272,W,8.1,241.6,100615,6.4,"
"##MN-00 00 63 0000 01511 7481 425333 826553 198"
"161.898866"
"$GPRMC,213418,A,2436.9633,N,08043.5359,W,8.0,241.6,100615,6.4,"
"##MN-00 00 65 0000 01511 7481 425930 827029 198"
"161.898912"
"$GPRMC,213422,A,2436.9590,N,08043.5445,W,8.0,240.8,100615,6.4,"
"##MN-00 00 66 0000 01512 7480 425748 826364 198"
"161.898958"
"$GPRMC,213426,A,2436.9547,N,08043.5531,W,8.0,240.1,100615,6.4,"
"##MN-00 00 67 0000 01513 7480 425635 826484 198"
"161.899005"
"$GPRMC,213430,A,2436.9503,N,08043.5615,W,8.0,240.1,100615,6.4,"
"##MN-00 00 66 0000 01513 7480 425693 826904 198"
"161.899051"
"$GPRMC,213434,A,2436.9457,N,08043.5701,W,8.0,240.1,100615,6.4,"
"##MN-00 00 67 0000 01511 7479 425558 827239 198"
"161.899097"
"$GPRMC,213439,A,2436.9402,N,08043.5807,W,8.0,239.3,100615,6.4,"
"##MN-00 00 67 0000 01512 7478 425338 826757 198"
"161.899144"
"$GPRMC,213443,A,2436.9356,N,08043.5892,W,8.0,239.5,100615,6.4,"
"##MN-00 00 67 0000 01510 7478 425010 826634 198"
"161.89919"
"$GPRMC,213446,A,2436.9323,N,08043.5955,W,8.0,239.8,100615,6.4,"
"##MN-00 00 74 0000 01512 7477 424902 826962 198"
"161.899236"
"$GPRMC,213450,A,2436.9278,N,08043.6041,W,8.0,240.0,100615,6.4,"
"##MN-00 00 60 0000 01512 7477 425346 826961 198"
"161.899282"
"$GPRMC,213454,A,2436.9234,N,08043.6127,W,8.0,240.3,100615,6.4,"
"##MN-00 00 56 0000 01512 7476 425620 827038 198"
"161.899329"
"$GPRMC,213458,A,2436.9194,N,08043.6214,W,8.0,241.1,100615,6.4,"
"##MN-00 00 59 0000 01511 7476 425552 826621 198"
"161.899375"
"$GPRMC,213502,A,2436.9153,N,08043.6302,W,8.1,241.9,100615,6.4,"
"##MN-00 00 57 0000 01511 7476 425913 826894 198"
"161.899421"
"$GPRMC,213506,A,2436.9111,N,08043.6389,W,8.1,242.2,100615,6.4,"
"##MN-00 00 60 0000 01511 7476 426442 827308 198"
"161.899468"
"$GPRMC,213511,A,2436.9059,N,08043.6500,W,8.1,242.0,100615,6.4,"
"##MN-00 00 59 0000 01510 7475 425857 826757 198"
"161.899514"
"$GPRMC,213515,A,2436.9013,N,08043.6589,W,8.2,241.7,100615,6.4,"
"##MN-00 00 59 0000 01513 7475 425936 827370 198"
"161.89956"
"$GPRMC,213519,A,2436.8967,N,08043.6674,W,8.1,241.0,100615,6.4,"
"##MN-00 00 57 0000 01511 7475 425952 827179 198"
"161.899606"
"$GPRMC,213523,A,2436.8920,N,08043.6760,W,8.1,240.2,100615,6.4,"
"##MN-00 00 58 0000 01510 7475 425729 827029 198"
"161.899653"
"$GPRMC,213527,A,2436.8876,N,08043.6846,W,8.1,240.2,100615,6.4,"
"##MN-00 00 58 0000 01512 7475 425802 827307 198"
"161.899699"
"$GPRMC,213531,A,2436.8830,N,08043.6929,W,8.0,240.0,100615,6.4,"
"##MN-00 00 90 0000 01511 7475 426439 826893 198"
"161.899745"
"$GPRMC,213535,A,2436.8784,N,08043.7014,W,8.0,239.7,100615,6.4,"
"##MN-00 00 90 0000 01512 7475 427081 827165 198"
"161.899792"
"$GPRMC,213539,A,2436.8738,N,08043.7102,W,8.1,239.8,100615,6.4,"
"##MN-00 00 90 0000 01512 7474 426500 826297 198"
"161.899838"
"$GPRMC,213543,A,2436.8691,N,08043.7186,W,8.1,239.5,100615,6.4,"
"##MN-00 00 90 0000 01511 7474 425836 826689 198"
"161.899884"
"$GPRMC,213547,A,2436.8645,N,08043.7273,W,8.2,239.6,100615,6.4,"
"##MN-00 00 90 0000 01512 7474 425404 826893 198"
"161.899931"
"$GPRMC,213551,A,2436.8600,N,08043.7359,W,8.2,239.8,100615,6.4,"
"##MN-00 00 90 0000 01512 7473 425530 826768 198"
"161.899977"
"$GPRMC,213555,A,2436.8553,N,08043.7446,W,8.2,239.4,100615,6.4,"
"##MN-00 00 90 0000 01511 7473 425672 827165 198"
"161.900023"
"$GPRMC,213559,A,2436.8508,N,08043.7533,W,8.2,239.6,100615,6.4,"
"##MN-00 00 90 0000 01509 7473 425729 826961 198"
"161.900069"
"$GPRMC,213603,A,2436.8464,N,08043.7617,W,8.1,240.3,100615,6.4,"
"##MN-00 00 90 0000 01512 7473 425761 826971 198"
"161.900116"
"$GPRMC,213607,A,2436.8420,N,08043.7703,W,8.1,240.3,100615,6.4,"
"##MN-00 00 90 0000 01512 7472 425518 827307 198"
"161.900162"
"$GPRMC,213611,A,2436.8376,N,08043.7790,W,8.1,240.4,100615,6.4,"
"##MN-00 00 89 0000 01512 7472 425811 826970 198"
"161.900208"
"$GPRMC,213615,A,2436.8334,N,08043.7876,W,8.0,240.4,100615,6.4,"
"##MN-00 00 90 0000 01510 7472 426797 826621 198"
"161.900255"
"$GPRMC,213619,A,2436.8291,N,08043.7963,W,8.1,241.0,100615,6.4,"
"##MN-00 00 90 0000 01512 7471 426362 827166 198"
"161.900301"
"$GPRMC,213623,A,2436.8246,N,08043.8049,W,8.0,240.5,100615,6.4,"
"##MN-00 00 90 0000 01513 7471 425874 826904 198"
"161.900347"
"$GPRMC,213627,A,2436.8200,N,08043.8133,W,8.1,240.0,100615,6.4,"
"##MN-00 00 90 0000 01512 7471 425989 827165 198"
"161.900393"
"$GPRMC,213631,A,2436.8156,N,08043.8219,W,8.1,240.0,100615,6.4,"
"##MN-00 00 90 0000 01511 7470 425762 826903 198"
"161.90044"
"$GPRMC,213635,A,2436.8110,N,08043.8306,W,8.1,240.1,100615,6.4,"
"##MN-00 00 00 0000 01512 7470 425267 826077 198"
"161.900486"
"$GPRMC,213639,A,2436.8063,N,08043.8392,W,8.1,239.6,100615,6.4,"
"##MN-00 00 00 0000 01511 7469 424952 826757 198"
"161.900532"
"$GPRMC,213643,A,2436.8028,N,08043.8457,W,8.2,239.4,100615,6.4,"
"##MN-00 00 00 0000 01512 7469 425351 827165 198"
"161.900579"
"$GPRMC,213647,A,2436.7970,N,08043.8564,W,8.2,239.5,100615,6.4,"
"##MN-00 00 00 0000 01510 7469 426022 826701 198"
"161.900625"
"$GPRMC,213651,A,2436.7924,N,08043.8649,W,8.1,239.7,100615,6.4,"
"##MN-00 00 00 0000 01511 7468 426376 827307 197"
"161.900671"
"$GPRMC,213655,A,2436.7882,N,08043.8737,W,8.1,240.7,100615,6.4,"
"##MN-00 00 00 0000 01513 7467 426270 826634 198"
"161.900718"
"$GPRMC,213659,A,2436.7838,N,08043.8823,W,8.1,240.8,100615,6.4,"
"##MN-00 00 00 0000 01511 7467 426728 827097 198"
"161.900764"
"$GPRMC,213703,A,2436.7794,N,08043.8909,W,8.1,240.7,100615,6.4,"
"##MN-00 00 00 0000 01512 7466 426734 827370 198"
"161.90081"
"$GPRMC,213707,A,2436.7762,N,08043.8972,W,8.1,240.7,100615,6.4,"
"##MN-00 00 00 0000 01510 7466 426301 827038 198"
"161.900856"
"$GPRMC,213711,A,2436.7705,N,08043.9079,W,8.0,240.2,100615,6.4,"
"##MN-00 00 00 0000 01512 7465 426256 827165 198"
"161.900903"
"$GPRMC,213715,A,2436.7661,N,08043.9165,W,8.1,240.3,100615,6.4,"
"##MN-00 00 00 0000 01513 7465 427168 826757 198"
"161.900949"
"$GPRMC,213719,A,2436.7614,N,08043.9249,W,8.1,240.0,100615,6.4,"
"##MN-00 00 00 0000 01512 7464 426793 826498 198"
"161.900995"
"$GPRMC,213723,A,2436.7568,N,08043.9333,W,8.1,239.9,100615,6.4,"
"##MN-00 00 00 0000 01511 7464 426387 827164 198"
"161.901042"
"$GPRMC,213727,A,2436.7527,N,08043.9420,W,8.1,239.6,100615,6.4,"
"##MN-00 00 00 0000 01510 7463 425850 827241 198"
"161.901088"
"$GPRMC,213731,A,2436.7481,N,08043.9506,W,8.2,239.9,100615,6.4,"
"##MN-00 00 00 0000 01513 7462 425768 826144 198"
"161.901134"
"$GPRMC,213735,A,2436.7435,N,08043.9592,W,8.1,240.1,100615,6.4,"
"##MN-00 00 00 0000 01513 7461 425003 826904 198"
"161.901181"
"$GPRMC,213739,A,2436.7390,N,08043.9678,W,8.1,239.9,100615,6.4,"
"##MN-00 00 00 0000 01512 7460 424433 826162 198"
"161.901227"
"$GPRMC,213743,A,2436.7345,N,08043.9762,W,8.1,240.1,100615,6.4,"
"##MN-00 00 00 0000 01513 7458 424592 827165 198"
"161.901273"
"$GPRMC,213747,A,2436.7301,N,08043.9848,W,8.1,240.9,100615,6.4,"
"##MN-00 00 00 0000 01514 7458 424546 826825 198"
"161.901319"
"$GPRMC,213751,A,2436.7258,N,08043.9935,W,8.0,241.1,100615,6.4,"
"##MN-00 00 00 0000 01512 7457 424225 826634 197"
"161.901366"
"$GPRMC,213755,A,2436.7213,N,08044.0022,W,8.1,241.0,100615,6.4,"
"##MN-00 00 00 0000 01514 7456 424482 826280 198"
"161.901412"
"$GPRMC,213759,A,2436.7166,N,08044.0108,W,8.1,241.1,100615,6.4,"
"##MN-00 00 00 0000 01512 7455 424305 826229 198"
"161.901458"
"$GPRMC,213803,A,2436.7121,N,08044.0195,W,8.1,240.6,100615,6.4,"
"##MN-00 00 00 0000 01513 7454 424847 827030 198"
"161.901505"
"$GPRMC,213807,A,2436.7077,N,08044.0282,W,8.0,239.6,100615,6.4,"
"##MN-00 00 00 0000 01511 7453 425304 826825 198"
"161.901551"
"$GPRMC,213811,A,2436.7032,N,08044.0366,W,8.0,240.3,100615,6.4,"
"##MN-00 00 00 0000 01512 7452 424825 826095 198"
"161.901597"
"$GPRMC,213815,A,2436.6984,N,08044.0452,W,8.1,240.2,100615,6.4,"
"##MN-00 00 00 0000 01512 7451 424463 826620 198"
"161.901644"
"$GPRMC,213819,A,2436.6937,N,08044.0536,W,8.0,239.5,100615,6.4,"
"##MN-00 00 00 0000 01511 7450 425102 826980 198"
"161.90169"
"$GPRMC,213823,A,2436.6890,N,08044.0619,W,8.1,239.4,100615,6.4,"
"##MN-00 00 00 0000 01513 7449 424746 826689 197"
"161.901736"
"$GPRMC,213827,A,2436.6842,N,08044.0704,W,8.1,238.9,100615,6.4,"
"##MN-00 00 00 0000 01512 7448 423922 826701 197"
"161.901794"
"$GPRMC,213831,A,2436.6795,N,08044.0788,W,8.2,238.6,100615,6.4,"
"##MN-00 00 00 0000 01515 7448 423607 826417 198"
"161.90184"
"$GPRMC,213835,A,2436.6749,N,08044.0872,W,8.1,239.2,100615,6.4,"
"##MN-00 00 00 0000 01512 7447 423708 826757 197"
"161.901887"
"$GPRMC,213839,A,2436.6701,N,08044.0957,W,8.1,239.4,100615,6.4,"
"##MN-00 00 00 0000 01512 7446 424287 827104 198"
"161.901933"
"$GPRMC,213843,A,2436.6656,N,08044.1042,W,8.0,239.4,100615,6.4,"
"##MN-00 00 00 0000 01513 7445 424792 826758 198"
"161.901979"
"$GPRMC,213847,A,2436.6613,N,08044.1128,W,8.1,240.1,100615,6.4,"
"##MN-00 00 00 0000 01513 7444 424889 826621 197"
"161.902025"
"$GPRMC,213851,A,2436.6570,N,08044.1221,W,8.1,241.1,100615,6.4,"
"##MN-00 00 02 0000 01511 7443 424944 827037 197"
"161.902072"
"$GPRMC,213855,A,2436.6530,N,08044.1308,W,8.1,241.5,100615,6.4,"
"##MN-00 00 02 0000 01511 7442 424607 827097 198"
"161.902118"
"$GPRMC,213859,A,2436.6489,N,08044.1394,W,8.1,241.3,100615,6.4,"
"##MN-00 00 02 0000 01512 7442 424612 826701 198"
"161.902164"
"$GPRMC,213903,A,2436.6447,N,08044.1478,W,8.1,241.5,100615,6.4,"
"##MN-00 00 02 0000 01513 7441 424763 826970 197"
"161.902211"
"$GPRMC,213908,A,2436.6393,N,08044.1587,W,8.1,241.1,100615,6.4,"
"##MN-00 00 02 0000 01511 7441 424885 827029 197"
"161.902257"
"$GPRMC,213911,A,2436.6358,N,08044.1651,W,8.2,240.4,100615,6.4,"
"##MN-00 00 02 0000 01513 7441 425473 827172 198"
"161.902303"
"$GPRMC,213916,A,2436.6300,N,08044.1759,W,8.2,239.4,100615,6.4,"
"##MN-00 00 02 0000 01512 7440 425755 827097 197"
"161.90235"
"$GPRMC,213920,A,2436.6253,N,08044.1843,W,8.2,239.1,100615,6.4,"
"##MN-00 00 02 0000 01512 7441 425808 827438 198"
"161.902396"
"$GPRMC,213923,A,2436.6217,N,08044.1908,W,8.2,239.1,100615,6.4,"
"##MN-00 00 90 0000 01510 7440 425841 826836 198"
"161.902442"
"$GPRMC,213928,A,2436.6158,N,08044.2012,W,8.1,238.6,100615,6.4,"
"##MN-00 00 90 0000 01512 7440 425703 826757 198"
"161.902488"
"$GPRMC,213932,A,2436.6111,N,08044.2097,W,8.1,238.7,100615,6.4,"
"##MN-00 00 90 0000 01512 7440 425381 827370 197"
"161.902535"
"$GPRMC,213936,A,2436.6064,N,08044.2183,W,8.1,239.3,100615,6.4,"
"##MN-00 00 90 0000 01514 7440 425073 827644 198"
"161.902581"
"$GPRMC,213940,A,2436.6021,N,08044.2272,W,8.1,240.3,100615,6.4,"
"##MN-00 00 90 0000 01512 7440 424960 827301 197"
"161.902627"
"$GPRMC,213944,A,2436.5976,N,08044.2357,W,8.1,241.6,100615,6.4,"
"##MN-00 00 90 0000 01512 7439 425194 827370 198"
"161.902674"
"$GPRMC,213948,A,2436.5936,N,08044.2443,W,8.1,242.6,100615,6.4,"
"##MN-00 00 90 0000 01512 7439 425339 827097 198"
"161.90272"
"$GPRMC,213952,A,2436.5900,N,08044.2532,W,8.0,244.5,100615,6.4,"
"##MN-00 00 90 0000 01512 7439 425143 827113 198"
"161.902766"
"$GPRMC,213956,A,2436.5864,N,08044.2624,W,8.1,245.7,100615,6.4,"
"##MN-00 00 90 0000 01513 7439 425048 826757 198"
"161.902812"
"$GPRMC,214000,A,2436.5829,N,08044.2717,W,8.2,246.6,100615,6.4,"
"##MN-00 00 90 0000 01513 7439 424888 826970 198"
"161.902859"
"$GPRMC,214004,A,2436.5795,N,08044.2809,W,8.2,247.1,100615,6.4,"
"##MN-00 00 90 0000 01511 7439 424621 826962 197"
"161.902905"
"$GPRMC,214008,A,2436.5758,N,08044.2904,W,8.2,247.1,100615,6.4,"
"##MN-00 00 90 0000 01512 7438 425101 826417 197"
"161.902951"
"$GPRMC,214012,A,2436.5722,N,08044.2999,W,8.3,246.9,100615,6.4,"
"##MN-00 00 90 0000 01514 7438 425193 827441 198"
"161.902998"
"$GPRMC,214016,A,2436.5685,N,08044.3092,W,8.2,247.0,100615,6.4,"
"##MN-00 00 90 0000 01512 7438 425711 827029 197"
"161.903044"
"$GPRMC,214020,A,2436.5645,N,08044.3186,W,8.3,246.3,100615,6.4,"
"##MN-00 00 90 0000 01513 7438 425431 827301 198"
"161.90309"
"$GPRMC,214024,A,2436.5603,N,08044.3275,W,8.2,245.1,100615,6.4,"
"##MN-00 00 90 0000 01510 7437 425179 827172 197"
"161.903137"
"$GPRMC,214028,A,2436.5562,N,08044.3365,W,8.2,244.2,100615,6.4,"
"##MN-00 00 90 0000 01512 7437 425368 827166 197"
"161.903183"
"$GPRMC,214032,A,2436.5522,N,08044.3457,W,8.3,243.2,100615,6.4,"
"##MN-00 00 48 0000 01512 7437 424283 827165 197"
"161.903229"
"$GPRMC,214036,A,2436.5480,N,08044.3544,W,8.2,242.8,100615,6.4,"
"##MN-00 00 63 0000 01512 7437 423529 826512 197"
"161.903275"
"$GPRMC,214040,A,2436.5437,N,08044.3634,W,8.2,242.5,100615,6.4,"
"##MN-00 00 65 0000 01513 7437 423092 827301 197"
"161.903322"
"$GPRMC,214044,A,2436.5394,N,08044.3722,W,8.2,241.6,100615,6.4,"
"##MN-00 00 68 0000 01513 7437 423587 827443 198"
"161.903368"
"$GPRMC,214048,A,2436.5351,N,08044.3809,W,8.1,241.4,100615,6.4,"
"##MN-00 00 67 0000 01512 7437 424234 827301 197"
"161.903414"
"$GPRMC,214052,A,2436.5309,N,08044.3895,W,8.1,241.5,100615,6.4,"
"##MN-00 00 68 0000 01514 7437 424036 827029 198"
"161.903461"
"$GPRMC,214056,A,2436.5267,N,08044.3982,W,8.0,242.4,100615,6.4,"
"##MN-00 00 70 0000 01512 7437 423589 827505 197"
"161.903507"
"$GPRMC,214100,A,2436.5229,N,08044.4071,W,8.0,243.6,100615,6.4,"
"##MN-00 00 72 0000 01512 7436 423491 827307 198"
"161.903553"
"$GPRMC,214104,A,2436.5190,N,08044.4158,W,8.2,244.1,100615,6.4,"
"##MN-00 00 70 0000 01513 7436 423328 827369 197"
"161.9036"
"$GPRMC,214108,A,2436.5151,N,08044.4249,W,8.2,244.7,100615,6.4,"
"##MN-00 00 71 0000 01512 7436 423348 827165 197"
"161.903646"
"$GPRMC,214112,A,2436.5115,N,08044.4340,W,8.2,245.8,100615,6.4,"
"##MN-00 00 72 0000 01512 7436 423611 827105 198"
"161.903692"
"$GPRMC,214116,A,2436.5078,N,08044.4433,W,8.2,245.9,100615,6.4,"
"##MN-00 00 73 0000 01511 7436 424254 826962 197"
"161.903738"
"$GPRMC,214120,A,2436.5042,N,08044.4527,W,8.2,245.9,100615,6.4,"
"##MN-00 00 73 0000 01513 7436 424391 826846 197"
"161.903785"
"$GPRMC,214124,A,2436.5003,N,08044.4617,W,8.2,245.7,100615,6.4,"
"##MN-00 00 75 0000 01512 7436 424401 827370 197"
"161.903831"
"$GPRMC,214128,A,2436.4962,N,08044.4702,W,8.2,245.2,100615,6.4,"
"##MN-00 00 73 0000 01512 7435 423921 826960 197"
"161.903877"
"$GPRMC,214132,A,2436.4919,N,08044.4792,W,8.2,244.2,100615,6.4,"
"##MN-00 00 90 0000 01510 7435 423682 826903 198"
"161.903924"
"$GPRMC,214136,A,2436.4880,N,08044.4884,W,8.2,243.9,100615,6.4,"
"##MN-00 00 90 0000 01511 7435 423663 827506 197"
"161.90397"
"$GPRMC,214140,A,2436.4838,N,08044.4972,W,8.1,243.4,100615,6.4,"
"##MN-00 00 90 0000 01513 7435 423381 827098 197"
"161.904016"
"$GPRMC,214144,A,2436.4796,N,08044.5061,W,8.2,242.7,100615,6.4,"
"##MN-00 00 90 0000 01511 7435 423009 827307 197"
"161.904063"
"$GPRMC,214148,A,2436.4753,N,08044.5145,W,8.2,241.9,100615,6.4,"
"##MN-00 00 90 0000 01512 7435 422842 826689 197"
"161.904109"
"$GPRMC,214152,A,2436.4709,N,08044.5233,W,8.1,241.2,100615,6.4,"
"##MN-00 00 90 0000 01514 7435 422974 827234 197"
"161.904155"
"$GPRMC,214156,A,2436.4666,N,08044.5325,W,8.2,241.7,100615,6.4,"
"##MN-00 00 90 0000 01511 7435 423067 827577 197"
"161.904201"
"$GPRMC,214200,A,2436.4630,N,08044.5417,W,8.2,243.1,100615,6.4,"
"##MN-00 00 90 0000 01512 7434 423220 827234 197"
"161.904248"
"$GPRMC,214204,A,2436.4592,N,08044.5511,W,8.2,244.2,100615,6.4,"
"##MN-00 00 90 0000 01511 7434 423030 827173 198"
"161.904294"
"$GPRMC,214208,A,2436.4554,N,08044.5600,W,8.2,244.5,100615,6.4,"
"##MN-00 00 90 0000 01511 7434 422949 826970 197"
"161.90434"
"$GPRMC,214212,A,2436.4520,N,08044.5691,W,8.2,244.9,100615,6.4,"
"##MN-00 00 90 0000 01513 7434 422856 826484 197"
"161.904387"
"$GPRMC,214216,A,2436.4483,N,08044.5784,W,8.2,245.7,100615,6.4,"
"##MN-00 00 90 0000 01514 7434 422640 826553 197"
"161.904433"
"$GPRMC,214220,A,2436.4446,N,08044.5878,W,8.2,245.6,100615,6.4,"
"##MN-00 00 90 0000 01512 7434 422224 827105 197"
"161.904479"
"$GPRMC,214224,A,2436.4410,N,08044.5970,W,8.2,245.7,100615,6.4,"
"##MN-00 00 90 0000 01512 7433 422400 826961 197"
"161.904525"
"$GPRMC,214228,A,2436.4372,N,08044.6062,W,8.2,245.8,100615,6.4,"
"##MN-00 00 90 0000 01511 7433 422544 827098 197"
"161.904572"
"$GPRMC,214232,A,2436.4335,N,08044.6149,W,8.2,245.3,100615,6.4,"
"##MN-00 00 90 0000 01513 7433 421993 827106 197"
"161.904618"
"$GPRMC,214236,A,2436.4294,N,08044.6239,W,8.2,244.7,100615,6.4,"
"##MN-00 00 90 0000 01510 7433 422196 827166 197"
"161.904664"
"$GPRMC,214240,A,2436.4250,N,08044.6329,W,8.2,244.0,100615,6.4,"
"##MN-00 00 90 0000 01512 7433 422543 826893 197"
"161.904711"
"$GPRMC,214244,A,2436.4207,N,08044.6413,W,8.2,243.1,100615,6.4,"
"##MN-00 00 90 0000 01513 7433 422500 826836 197"
"161.904757"
"$GPRMC,214248,A,2436.4164,N,08044.6503,W,8.2,242.2,100615,6.4,"
"##MN-00 00 90 0000 01511 7433 421717 827302 197"
"161.904803"
"$GPRMC,214252,A,2436.4120,N,08044.6587,W,8.2,241.8,100615,6.4,"
"##MN-00 00 90 0000 01513 7433 421663 827047 197"
"161.90485"
"$GPRMC,214256,A,2436.4077,N,08044.6673,W,8.1,242.2,100615,6.4,"
"##MN-00 00 57 0000 01513 7432 421495 826893 197"
"161.904896"
"$GPRMC,214300,A,2436.4034,N,08044.6759,W,8.1,242.4,100615,6.4,"
"##MN-00 00 59 0000 01511 7432 421424 827165 197"
"161.904942"
"$GPRMC,214304,A,2436.3990,N,08044.6848,W,8.1,242.6,100615,6.4,"
"##MN-00 00 61 0000 01513 7432 421531 827442 197"
"161.904988"
"$GPRMC,214308,A,2436.3951,N,08044.6947,W,8.2,242.8,100615,6.4,"
"##MN-00 00 61 0000 01513 7432 422787 827232 197"
"161.905046"
"$GPRMC,214312,A,2436.3909,N,08044.7038,W,8.3,243.8,100615,6.4,"
"##MN-00 00 58 0000 01512 7432 422848 827098 197"
"161.905093"
"$GPRMC,214316,A,2436.3868,N,08044.7125,W,8.3,244.6,100615,6.4,"
"##MN-00 00 63 0000 01511 7432 422490 827375 197"
" Tow: test   RVWS/WS15161"
" Date: 11/06/2015"
" Temperature Probe #  4762    Conductivity Probe #  710"
" Pressure Probe #  159"
" Flow Meter Calibration  4.71 (m/count)  "
"163.039595"
"$GPRMC,005658,A,2429.8971,N,08114.8956,W,2.0,219.7,120615,6.0,"
"##MN-00 00 90 0134 01539 5845 456601 645223 195"
"163.039641"
"$GPRMC,005702,A,2429.8954,N,08114.8968,W,1.9,218.2,120615,6.0,"
"##MN-00 00 90 0134 01538 5845 455675 827850 195"
"163.039687"
"$GPRMC,005706,A,2429.8940,N,08114.8981,W,1.8,216.6,120615,6.0,"
"##MN-00 00 90 0134 01537 5846 455707 827919 195"
"163.039734"
"$GPRMC,005710,A,2429.8924,N,08114.8995,W,1.8,215.5,120615,6.0,"
"##MN-00 00 90 0134 01537 5846 455762 827918 195"
"163.03978"
"$GPRMC,005714,A,2429.8908,N,08114.9007,W,1.8,214.0,120615,6.0,"
"##MN-00 00 90 0134 01538 5846 455928 827918 195"
"163.039826"
"$GPRMC,005718,A,2429.8891,N,08114.9021,W,1.8,213.0,120615,6.0,"
"##MN-00 00 90 0134 01538 5846 456058 827918 195"
"163.039873"
"$GPRMC,005722,A,2429.8875,N,08114.9032,W,1.8,214.3,120615,6.0,"
"##MN-00 00 90 0134 01538 5846 456218 827919 195"
"163.039919"
"$GPRMC,005726,A,2429.8857,N,08114.9041,W,1.8,214.5,120615,6.0,"
"##MN-00 00 90 0134 01538 5846 456220 827918 195"
"163.039965"
"$GPRMC,005730,A,2429.8840,N,08114.9051,W,1.9,213.7,120615,6.0,"
"##MN-00 00 90 0134 01539 5846 456178 827782 195"
"163.040012"
"$GPRMC,005734,A,2429.8822,N,08114.9062,W,1.9,211.6,120615,6.0,"
"##MN-00 00 90 0134 01538 5846 456248 827918 195"
"163.040058"
"$GPRMC,005738,A,2429.8804,N,08114.9073,W,1.8,209.3,120615,6.0,"
"##MN-00 00 90 0134 01539 5846 456171 827919 195"
"163.040104"
"$GPRMC,005742,A,2429.8788,N,08114.9082,W,1.8,207.6,120615,6.0,"
"##MN-00 00 90 0134 01540 5846 456176 827919 195"
"163.04015"
"$GPRMC,005746,A,2429.8767,N,08114.9093,W,1.9,206.5,120615,6.0,"
"##MN-00 00 90 0134 01539 5846 456267 827919 195"
"163.040197"
"$GPRMC,005750,A,2429.8747,N,08114.9102,W,1.9,206.3,120615,6.0,"
"##MN-00 00 89 0134 01539 5847 456389 827919 195"
"163.040243"
"$GPRMC,005754,A,2429.8728,N,08114.9113,W,1.9,205.5,120615,6.0,"
"##MN-00 00 89 0134 01538 5847 456665 827919 195"
"163.040289"
"$GPRMC,005758,A,2429.8712,N,08114.9124,W,1.9,203.8,120615,6.0,"
"##MN-00 00 89 0134 01538 5847 456673 827919 195"
"163.040336"
"$GPRMC,005802,A,2429.8694,N,08114.9131,W,1.8,204.1,120615,6.0,"
"##MN-00 00 90 0134 01538 5847 456457 827919 195"
"163.040382"
"$GPRMC,005806,A,2429.8676,N,08114.9138,W,1.8,206.1,120615,6.0,"
"##MN-00 00 90 0134 01538 5847 456388 827919 195"
"163.040428"
"$GPRMC,005810,A,2429.8660,N,08114.9147,W,1.7,206.6,120615,6.0,"
"##MN-00 00 90 0134 01538 5847 456221 827919 195"
"163.040475"
"$GPRMC,005814,A,2429.8643,N,08114.9155,W,1.6,206.6,120615,6.0,"
"##MN-00 00 90 0134 01538 5847 456115 827919 195"
"163.040532"
"$GPRMC,005818,A,2429.8627,N,08114.9169,W,1.7,206.9,120615,6.0,"
"##MN-00 00 90 0134 01538 5847 456259 827919 195"
"163.040579"
"$GPRMC,005822,A,2429.8609,N,08114.9178,W,1.7,207.6,120615,6.0,"
"##MN-00 00 90 0134 01538 5847 456475 827919 195"
"163.040625"
"$GPRMC,005826,A,2429.8590,N,08114.9189,W,1.7,207.7,120615,6.0,"
"##MN-00 00 90 0134 01538 5847 456548 827919 195"
"163.040671"
"$GPRMC,005830,A,2429.8572,N,08114.9201,W,1.8,208.5,120615,6.0,"
"##MN-00 00 90 0134 01537 5847 456167 827919 195"
"163.040718"
"$GPRMC,005834,A,2429.8553,N,08114.9213,W,1.9,209.1,120615,6.0,"
"##MN-00 00 89 0134 01540 5847 456294 827919 195"
"163.040764"
"$GPRMC,005838,A,2429.8533,N,08114.9224,W,2.0,208.0,120615,6.0,"
"##MN-00 00 89 0134 01538 5847 456512 827920 195"
"163.04081"
"$GPRMC,005842,A,2429.8514,N,08114.9235,W,1.9,207.3,120615,6.0,"
"##MN-00 00 90 0134 01537 5847 456739 827919 195"
"163.040856"
"$GPRMC,005846,A,2429.8495,N,08114.9245,W,1.9,207.4,120615,6.0,"
"##MN-00 00 90 0134 01538 5847 456917 827919 195"
"163.040903"
"$GPRMC,005850,A,2429.8476,N,08114.9256,W,1.8,206.6,120615,6.0,"
"##MN-00 00 90 0134 01539 5847 456761 827919 195"
"163.040949"
"$GPRMC,005854,A,2429.8457,N,08114.9267,W,1.8,206.5,120615,6.0,"
"##MN-00 00 90 0134 01537 5847 456613 827851 195"
"163.040995"
"$GPRMC,005858,A,2429.8438,N,08114.9277,W,1.9,206.8,120615,6.0,"
"##MN-00 00 90 0134 01539 5847 456334 827920 195"
"163.041042"
"$GPRMC,005902,A,2429.8423,N,08114.9286,W,1.9,206.6,120615,6.0,"
"##MN-00 00 90 0134 01537 5848 456183 827919 195"
"163.041088"
"$GPRMC,005906,A,2429.8405,N,08114.9295,W,1.9,205.2,120615,6.0,"
"##MN-00 00 90 0134 01539 5847 455778 827919 195"
"163.041134"
"$GPRMC,005910,A,2429.8387,N,08114.9303,W,1.8,203.7,120615,6.0,"
"##MN-00 00 90 0134 01539 5847 455150 827919 195"
"163.041181"
"$GPRMC,005914,A,2429.8366,N,08114.9310,W,1.8,203.6,120615,6.0,"
"##MN-00 00 89 0134 01538 5848 455071 827919 195"
"163.041227"
"$GPRMC,005918,A,2429.8346,N,08114.9321,W,1.8,203.5,120615,6.0,"
"##MN-00 00 89 0134 01537 5848 455369 827851 195"
"163.041273"
"$GPRMC,005922,A,2429.8326,N,08114.9333,W,1.8,204.2,120615,6.0,"
"##MN-00 00 90 0134 01539 5848 455715 827920 195"
"163.041319"
"$GPRMC,005926,A,2429.8305,N,08114.9344,W,1.9,205.1,120615,6.0,"
"##MN-00 00 90 0134 01540 5848 455956 827919 195"
"163.041366"
"$GPRMC,005930,A,2429.8286,N,08114.9354,W,1.9,205.4,120615,6.0,"
"##MN-00 00 90 0134 01539 5848 456220 827919 195"
"163.041412"
"$GPRMC,005935,A,2429.8261,N,08114.9365,W,1.8,205.1,120615,6.0,"
"##MN-00 00 90 0134 01539 5848 456427 827920 195"
"163.041458"
"$GPRMC,005938,A,2429.8246,N,08114.9373,W,1.8,204.9,120615,6.0,"
"##MN-00 00 90 0134 01538 5848 456490 827920 195"
"163.041505"
"$GPRMC,005943,A,2429.8221,N,08114.9383,W,1.8,203.3,120615,6.0,"
"##MN-00 00 90 0134 01538 5848 456611 827919 195"
"163.041551"
"$GPRMC,005947,A,2429.8201,N,08114.9393,W,1.8,203.0,120615,6.0,"
"##MN-00 00 90 0134 01540 5848 456779 827919 195"
"163.041597"
"$GPRMC,005951,A,2429.8181,N,08114.9401,W,1.9,202.4,120615,6.0,"
"##MN-00 00 90 0134 01539 5848 456947 827919 195"
"163.041644"
"$GPRMC,005955,A,2429.8161,N,08114.9408,W,1.9,201.9,120615,6.0,"
"##MN-00 00 90 0134 01538 5848 456869 827920 195"
"163.04169"
"$GPRMC,005959,A,2429.8141,N,08114.9415,W,1.9,201.8,120615,6.0,"
"##MN-00 00 90 0134 01537 5848 456640 827920 195"
"163.041736"
"$GPRMC,010003,A,2429.8123,N,08114.9425,W,1.9,202.2,120615,6.0,"
"##MN-00 00 90 0134 01539 5848 455907 827920 195"
"163.041782"
"$GPRMC,010007,A,2429.8105,N,08114.9433,W,1.8,201.0,120615,6.0,"
"##MN-00 00 90 0134 01537 5848 455741 827919 195"
"163.041829"
"$GPRMC,010011,A,2429.8087,N,08114.9440,W,1.8,200.2,120615,6.0,"
"##MN-00 00 90 0134 01537 5848 455942 827920 195"
"163.041875"
"$GPRMC,010015,A,2429.8069,N,08114.9445,W,1.8,200.4,120615,6.0,"
"##MN-00 00 90 0134 01538 5849 456226 827919 195"
"163.041921"
"$GPRMC,010019,A,2429.8049,N,08114.9451,W,1.8,200.3,120615,6.0,"
"##MN-00 00 90 0134 01537 5849 456451 827919 195"
"163.041968"
"$GPRMC,010023,A,2429.8031,N,08114.9458,W,1.8,200.6,120615,6.0,"
"##MN-00 00 90 0134 01536 5849 456522 827919 195"
"163.042014"
"$GPRMC,010027,A,2429.8011,N,08114.9463,W,1.8,202.4,120615,6.0,"
"##MN-00 00 89 0134 01541 5849 456538 827920 195"
"163.04206"
"$GPRMC,010031,A,2429.7995,N,08114.9470,W,1.7,204.5,120615,6.0,"
"##MN-00 00 89 0134 01538 5849 456546 827920 195"
"163.042106"
"$GPRMC,010035,A,2429.7979,N,08114.9480,W,1.7,205.5,120615,6.0,"
"##MN-00 00 89 0134 01539 5849 456637 827920 195"
"163.042153"
"$GPRMC,010039,A,2429.7962,N,08114.9490,W,1.7,205.5,120615,6.0,"
"##MN-00 00 90 0134 01539 5849 456743 827853 195"
"163.042199"
"$GPRMC,010043,A,2429.7944,N,08114.9501,W,1.8,206.6,120615,6.0,"
"##MN-00 00 89 0134 01540 5849 456716 827919 195"
"163.042245"
"$GPRMC,010047,A,2429.7925,N,08114.9516,W,1.9,208.9,120615,6.0,"
"##MN-00 00 90 0134 01540 5849 456579 827920 195"
"163.042292"
"$GPRMC,010051,A,2429.7906,N,08114.9530,W,2.1,211.9,120615,6.0,"
"##MN-00 00 90 0134 01538 5849 456515 827919 195"
"163.042338"
"$GPRMC,010055,A,2429.7887,N,08114.9548,W,2.2,215.4,120615,6.0,"
"##MN-00 00 90 0134 01538 5849 456541 827851 195"
"163.042384"
"$GPRMC,010059,A,2429.7867,N,08114.9568,W,2.3,218.4,120615,6.0,"
"##MN-00 00 90 0134 01538 5849 456788 827920 195"
"163.042431"
"$GPRMC,010103,A,2429.7849,N,08114.9592,W,2.4,221.6,120615,6.0,"
"##MN-00 00 90 0134 01541 5849 456991 827920 195"
"163.042477"
"$GPRMC,010107,A,2429.7832,N,08114.9620,W,2.6,225.4,120615,6.0,"
"##MN-00 00 90 0134 01539 5849 457113 827919 195"
"163.042523"
"$GPRMC,010111,A,2429.7816,N,08114.9649,W,2.8,229.1,120615,6.0,"
"##MN-00 00 90 0134 01537 5849 457171 827920 195"
"163.042569"
"$GPRMC,010115,A,2429.7791,N,08114.9680,W,2.9,233.0,120615,6.0,"
"##MN-00 00 90 0134 01538 5849 457244 827852 195"
"163.042616"
"$GPRMC,010119,A,2429.7774,N,08114.9716,W,3.1,237.4,120615,6.0,"
"##MN-00 00 90 0134 01539 5849 457338 827920 195"
"163.042662"
"$GPRMC,010123,A,2429.7755,N,08114.9762,W,3.3,242.7,120615,6.0,"
"##MN-00 00 90 0134 01539 5849 457411 827920 195"
"163.042708"
"$GPRMC,010127,A,2429.7742,N,08114.9805,W,3.3,247.1,120615,6.0,"
"##MN-00 00 90 0134 01539 5849 457479 827920 195"
"163.042755"
"$GPRMC,010131,A,2429.7734,N,08114.9853,W,3.5,251.6,120615,6.0,"
"##MN-00 00 89 0134 01539 5849 457492 827920 195"
"163.042801"
"$GPRMC,010135,A,2429.7733,N,08114.9899,W,3.7,256.2,120615,6.0,"
"##MN-00 00 89 0134 01538 5849 457456 827919 195"
"163.042847"
"$GPRMC,010139,A,2429.7729,N,08114.9950,W,4.2,259.6,120615,6.0,"
"##MN-00 00 90 0134 01537 5849 457464 827920 195"
"163.042894"
"$GPRMC,010143,A,2429.7728,N,08115.0007,W,4.5,262.9,120615,6.0,"
"##MN-00 00 90 0134 01537 5849 457450 827919 195"
"163.04294"
"$GPRMC,010147,A,2429.7728,N,08115.0079,W,5.1,265.9,120615,6.0,"
"##MN-00 00 90 0134 01539 5849 457386 827920 195"
"163.042986"
"$GPRMC,010151,A,2429.7731,N,08115.0145,W,5.3,268.0,120615,6.0,"
"##MN-00 00 89 0134 01537 5849 457405 827920 195"
"163.043032"
"$GPRMC,010155,A,2429.7737,N,08115.0224,W,5.9,270.9,120615,6.0,"
"##MN-00 00 89 0134 01537 5849 457339 827920 195"
"163.043079"
"$GPRMC,010159,A,2429.7743,N,08115.0296,W,6.0,272.5,120615,6.0,"
"##MN-00 00 90 0134 01539 5849 457307 827920 195"
"163.043125"
"$GPRMC,010203,A,2429.7751,N,08115.0390,W,6.9,274.6,120615,6.0,"
"##MN-00 00 89 0134 01537 5849 457561 827919 195"
"163.043171"
"$GPRMC,010207,A,2429.7755,N,08115.0473,W,6.9,273.9,120615,6.0,"
"##MN-00 00 90 0134 01538 5849 457655 827920 195"
"163.043218"
"$GPRMC,010211,A,2429.7753,N,08115.0574,W,7.5,271.8,120615,6.0,"
"##MN-00 00 89 0134 01539 5849 457626 827920 195"
"163.043264"
"$GPRMC,010215,A,2429.7747,N,08115.0669,W,7.7,268.2,120615,6.0,"
"##MN-00 00 90 0134 01538 5849 457764 827920 195"
"163.04331"
"$GPRMC,010219,A,2429.7733,N,08115.0766,W,7.8,264.2,120615,6.0,"
"##MN-00 00 90 0134 01540 5849 457827 827920 195"
"163.043356"
"$GPRMC,010223,A,2429.7705,N,08115.0870,W,8.2,259.6,120615,6.0,"
"##MN-00 00 90 0134 01539 5850 457792 827920 195"
"163.043403"
"$GPRMC,010227,A,2429.7675,N,08115.0961,W,8.0,255.2,120615,6.0,"
"##MN-00 00 90 0134 01538 5849 457825 827921 195"
"163.043449"
"$GPRMC,010231,A,2429.7639,N,08115.1062,W,8.3,252.1,120615,6.0,"
"##MN-00 00 90 0134 01539 5850 457802 827920 195"
"163.043495"
"$GPRMC,010235,A,2429.7607,N,08115.1153,W,8.2,250.0,120615,6.0,"
"##MN-00 00 90 0134 01536 5849 457775 827920 195"
"163.043542"
"$GPRMC,010239,A,2429.7578,N,08115.1246,W,8.2,250.5,120615,6.0,"
"##MN-00 00 90 0134 01539 5849 457882 827920 195"
"163.043588"
"$GPRMC,010243,A,2429.7553,N,08115.1349,W,8.3,252.5,120615,6.0,"
"##MN-00 00 90 0134 01537 5850 457968 827920 195"
"163.043634"
"$GPRMC,010247,A,2429.7538,N,08115.1449,W,8.3,256.1,120615,6.0,"
"##MN-00 00 90 0134 01537 5849 457885 827920 195"
"163.043692"
"$GPRMC,010251,A,2429.7529,N,08115.1547,W,8.0,259.7,120615,6.0,"
"##MN-00 00 90 0134 01539 5849 457956 827920 195"
"163.043738"
"$GPRMC,010255,A,2429.7525,N,08115.1654,W,8.4,264.1,120615,6.0,"
"##MN-00 00 90 0134 01537 5849 458083 827920 195"
"163.043785"
"$GPRMC,010259,A,2429.7530,N,08115.1746,W,8.1,267.8,120615,6.0,"
"##MN-00 00 90 0134 01537 5849 458138 827920 195"
"163.043831"
"$GPRMC,010303,A,2429.7538,N,08115.1853,W,8.3,271.7,120615,6.0,"
"##MN-00 00 90 0134 01540 5849 458039 827920 195"
"163.043877"
"$GPRMC,010307,A,2429.7545,N,08115.1952,W,8.5,273.2,120615,6.0,"
"##MN-00 00 90 0134 01537 5850 458023 827920 195"
"163.043924"
"$GPRMC,010311,A,2429.7549,N,08115.2052,W,8.4,272.5,120615,6.0,"
"##MN-00 00 90 0134 01539 5850 458037 827852 195"
"163.04397"
"$GPRMC,010315,A,2429.7549,N,08115.2162,W,8.7,271.3,120615,6.0,"
"##MN-00 00 90 0134 01538 5849 458093 827921 195"
"163.044016"
"$GPRMC,010319,A,2429.7544,N,08115.2262,W,8.5,269.4,120615,6.0,"
"##MN-00 00 90 0134 01539 5849 458035 827920 195"
"163.044063"
"$GPRMC,010323,A,2429.7540,N,08115.2363,W,8.5,267.0,120615,6.0,"
"##MN-00 00 90 0134 01538 5849 457823 827853 195"
"163.044109"
"$GPRMC,010327,A,2429.7532,N,08115.2469,W,8.7,264.5,120615,6.0,"
"##MN-00 00 89 0134 01539 5849 457605 827920 195"
"163.044155"
"$GPRMC,010331,A,2429.7513,N,08115.2569,W,8.4,261.2,120615,6.0,"
"##MN-00 00 90 0134 01536 5849 457490 827921 195"
"163.044201"
"$GPRMC,010335,A,2429.7484,N,08115.2675,W,8.6,258.2,120615,6.0,"
"##MN-00 00 90 0134 01539 5849 457495 827853 195"
"163.044248"
"$GPRMC,010339,A,2429.7455,N,08115.2774,W,8.5,255.2,120615,6.0,"
"##MN-00 00 90 0134 01539 5849 457440 827920 195"
"163.044294"
"$GPRMC,010344,A,2429.7413,N,08115.2894,W,8.3,253.1,120615,6.0,"
"##MN-00 00 90 0134 01537 5849 457392 827920 195"
"163.04434"
"$GPRMC,010348,A,2429.7381,N,08115.2996,W,8.5,252.4,120615,6.0,"
"##MN-00 00 90 0134 01539 5850 457383 827920 195"
"163.044387"
"$GPRMC,010352,A,2429.7354,N,08115.3093,W,8.4,252.3,120615,6.0,"
"##MN-00 00 90 0134 01538 5850 457383 827851 195"
"163.044433"
"$GPRMC,010356,A,2429.7326,N,08115.3194,W,8.5,253.1,120615,6.0,"
"##MN-00 00 90 0134 01539 5850 457347 827920 195"
"163.044479"
"$GPRMC,010400,A,2429.7299,N,08115.3296,W,8.6,253.6,120615,6.0,"
"##MN-00 00 90 0134 01539 5849 457388 827920 195"
"163.044525"
"$GPRMC,010404,A,2429.7272,N,08115.3392,W,8.4,253.1,120615,6.0,"
"##MN-00 00 90 0134 01540 5849 457525 827921 195"
"163.044572"
"$GPRMC,010408,A,2429.7243,N,08115.3493,W,8.5,253.2,120615,6.0,"
"##MN-00 00 90 0134 01536 5849 457616 827920 195"
"163.044618"
"$GPRMC,010412,A,2429.7218,N,08115.3589,W,8.6,253.1,120615,6.0,"
"##MN-00 00 90 0134 01540 5849 457357 827852 195"
"163.044664"
"$GPRMC,010416,A,2429.7185,N,08115.3692,W,8.4,253.2,120615,6.0,"
"##MN-00 00 90 0134 01537 5849 457307 827919 195"
"163.044711"
"$GPRMC,010420,A,2429.7157,N,08115.3793,W,8.5,252.9,120615,6.0,"
"##MN-00 00 90 0134 01535 5849 457251 827920 195"
"163.044757"
"$GPRMC,010424,A,2429.7131,N,08115.3891,W,8.5,252.9,120615,6.0,"
"##MN-00 00 90 0134 01539 5849 457054 827920 195"
"163.044803"
"$GPRMC,010428,A,2429.7110,N,08115.3985,W,8.5,253.5,120615,6.0,"
"##MN-00 00 90 0134 01537 5849 457038 827921 195"
"163.04485"
"$GPRMC,010432,A,2429.7077,N,08115.4095,W,8.6,253.6,120615,6.0,"
"##MN-00 00 90 0134 01538 5849 457081 827851 195"
"163.044896"
"$GPRMC,010436,A,2429.7050,N,08115.4188,W,8.6,253.1,120615,6.0,"
"##MN-00 00 90 0134 01539 5850 457126 827920 195"
"163.044942"
"$GPRMC,010440,A,2429.7027,N,08115.4285,W,8.5,253.7,120615,6.0,"
"##MN-00 00 90 0134 01538 5849 457235 827920 195"
"163.044988"
"$GPRMC,010444,A,2429.7001,N,08115.4387,W,8.6,254.5,120615,6.0,"
"##MN-00 00 90 0134 01539 5849 457387 827919 195"
"163.045035"
"$GPRMC,010448,A,2429.6975,N,08115.4490,W,8.6,254.8,120615,6.0,"
"##MN-00 00 90 0134 01540 5849 457577 827920 195"
"163.045081"
"$GPRMC,010452,A,2429.6951,N,08115.4593,W,8.6,255.6,120615,6.0,"
"##MN-00 00 90 0134 01537 5849 457673 827920 195"
"163.045127"
"$GPRMC,010456,A,2429.6931,N,08115.4693,W,8.5,256.3,120615,6.0,"
"##MN-00 00 90 0134 01537 5849 457658 827920 195"
"163.045174"
"$GPRMC,010500,A,2429.6909,N,08115.4796,W,8.6,256.6,120615,6.0,"
"##MN-00 00 90 0134 01538 5849 457581 827920 195"
"163.04522"
"$GPRMC,010504,A,2429.6884,N,08115.4902,W,8.5,257.2,120615,6.0,"
"##MN-00 00 90 0134 01539 5849 457518 827920 195"
"163.045266"
"$GPRMC,010508,A,2429.6861,N,08115.5005,W,8.6,256.8,120615,6.0,"
"##MN-00 00 90 0134 01540 5849 457424 827920 195"
"163.045312"
"$GPRMC,010512,A,2429.6837,N,08115.5112,W,8.6,257.3,120615,6.0,"
"##MN-00 00 90 0134 01538 5849 457401 827919 195"
"163.045359"
"$GPRMC,010516,A,2429.6816,N,08115.5214,W,8.5,257.3,120615,6.0,"
"##MN-00 00 90 0134 01541 5850 457350 827920 195"
"163.045405"
"$GPRMC,010520,A,2429.6805,N,08115.5309,W,8.5,257.7,120615,6.0,"
"##MN-00 00 90 0134 01538 5849 457345 827920 195"
"163.045451"
"$GPRMC,010524,A,2429.6787,N,08115.5410,W,8.5,257.7,120615,6.0,"
"##MN-00 00 90 0134 01538 5849 457395 827920 195"
"163.045498"
"$GPRMC,010528,A,2429.6766,N,08115.5509,W,8.3,258.0,120615,6.0,"
"##MN-00 00 90 0134 01539 5849 457458 827920 195"
"163.045544"
"$GPRMC,010532,A,2429.6744,N,08115.5614,W,8.4,258.2,120615,6.0,"
"##MN-00 00 90 0134 01539 5849 457508 827920 195"
"163.04559"
"$GPRMC,010536,A,2429.6722,N,08115.5715,W,8.5,258.1,120615,6.0,"
"##MN-00 00 90 0134 01539 5849 457610 827920 195"
"163.045637"
"$GPRMC,010540,A,2429.6703,N,08115.5816,W,8.4,257.8,120615,6.0,"
"##MN-00 00 90 0134 01537 5849 457586 827920 195"
"163.045683"
"$GPRMC,010544,A,2429.6680,N,08115.5925,W,8.7,257.7,120615,6.0,"
"##MN-00 00 89 0134 01538 5849 457563 827920 195"
"163.045729"
"$GPRMC,010548,A,2429.6660,N,08115.6023,W,8.5,257.4,120615,6.0,"
"##MN-00 00 90 0134 01537 5849 457636 827919 195"
"163.045775"
"$GPRMC,010552,A,2429.6642,N,08115.6123,W,8.5,257.1,120615,6.0,"
"##MN-00 00 90 0134 01539 5849 457737 827920 195"
"163.045822"
"$GPRMC,010556,A,2429.6617,N,08115.6222,W,8.5,256.5,120615,6.0,"
"##MN-00 00 90 0134 01538 5849 457875 827920 195"
"163.045868"
"$GPRMC,010600,A,2429.6595,N,08115.6319,W,8.4,255.7,120615,6.0,"
"##MN-00 00 90 0134 01539 5849 457972 827920 195"
"163.045914"
"$GPRMC,010604,A,2429.6570,N,08115.6425,W,8.5,256.0,120615,6.0,"
"##MN-00 00 90 0134 01537 5849 458076 827920 195"
"163.045961"
"$GPRMC,010608,A,2429.6548,N,08115.6528,W,8.6,256.7,120615,6.0,"
"##MN-00 00 90 0134 01539 5849 458151 827920 195"
"163.046007"
"$GPRMC,010612,A,2429.6524,N,08115.6627,W,8.4,257.3,120615,6.0,"
"##MN-00 00 90 0134 01538 5849 458216 827852 195"
"163.046053"
"$GPRMC,010616,A,2429.6502,N,08115.6732,W,8.5,257.5,120615,6.0,"
"##MN-00 00 90 0134 01537 5849 458300 827920 195"
"163.0461"
"$GPRMC,010620,A,2429.6485,N,08115.6825,W,8.3,257.8,120615,6.0,"
"##MN-00 00 90 0134 01539 5849 458326 827920 195"
"163.046146"
"$GPRMC,010624,A,2429.6466,N,08115.6930,W,8.5,258.4,120615,6.0,"
"##MN-00 00 90 0134 01538 5849 458209 827920 195"
"163.046192"
"$GPRMC,010628,A,2429.6447,N,08115.7030,W,8.5,257.8,120615,6.0,"
"##MN-00 00 90 0134 01540 5849 458066 827921 195"
"163.046238"
"$GPRMC,010632,A,2429.6426,N,08115.7128,W,8.5,257.2,120615,6.0,"
"##MN-00 00 90 0134 01539 5849 457862 827921 195"
"163.046285"
"$GPRMC,010636,A,2429.6401,N,08115.7233,W,8.6,256.7,120615,6.0,"
"##MN-00 00 90 0134 01537 5849 457589 827920 195"
"163.046331"
"$GPRMC,010640,A,2429.6382,N,08115.7337,W,8.7,256.5,120615,6.0,"
"##MN-00 00 90 0134 01537 5849 457243 827921 195"
"163.046377"
"$GPRMC,010644,A,2429.6366,N,08115.7432,W,8.7,256.1,120615,6.0,"
"##MN-00 00 90 0134 01539 5849 456962 827920 195"
"163.046424"
"$GPRMC,010648,A,2429.6344,N,08115.7534,W,8.6,256.2,120615,6.0,"
"##MN-00 00 90 0134 01537 5849 456835 827921 195"
"163.04647"
"$GPRMC,010652,A,2429.6321,N,08115.7631,W,8.5,255.7,120615,6.0,"
"##MN-00 00 90 0134 01539 5849 456696 827920 195"
"163.046516"
"$GPRMC,010656,A,2429.6300,N,08115.7735,W,8.5,256.6,120615,6.0,"
"##MN-00 00 90 0134 01538 5849 456558 827920 195"
"163.046562"
"$GPRMC,010700,A,2429.6285,N,08115.7829,W,8.3,258.2,120615,6.0,"
"##MN-00 00 90 0134 01540 5849 456374 827920 195"
"163.046609"
"$GPRMC,010704,A,2429.6274,N,08115.7926,W,8.3,260.4,120615,6.0,"
"##MN-00 00 90 0134 01539 5849 456257 827920 195"
"163.046655"
"$GPRMC,010708,A,2429.6263,N,08115.8029,W,8.4,262.2,120615,6.0,"
"##MN-00 00 89 0134 01537 5849 456194 827921 195"
"163.046701"
"$GPRMC,010712,A,2429.6254,N,08115.8128,W,8.3,263.1,120615,6.0,"
"##MN-00 00 90 0134 01538 5849 456105 827920 195"
"163.046748"
"$GPRMC,010716,A,2429.6242,N,08115.8233,W,8.5,263.2,120615,6.0,"
"##MN-00 00 90 0134 01539 5849 456041 827921 195"
"163.046794"
"$GPRMC,010720,A,2429.6234,N,08115.8335,W,8.4,263.7,120615,6.0,"
"##MN-00 00 90 0134 01537 5849 456091 827920 195"
"163.046852"
"$GPRMC,010724,A,2429.6223,N,08115.8434,W,8.3,263.6,120615,6.0,"
"##MN-00 00 90 0134 01538 5849 456153 827921 195"
"163.046898"
"$GPRMC,010728,A,2429.6212,N,08115.8545,W,8.6,264.0,120615,6.0,"
"##MN-00 00 90 0134 01539 5849 456224 827920 195"
"163.046944"
"$GPRMC,010732,A,2429.6199,N,08115.8647,W,8.5,263.7,120615,6.0,"
"##MN-00 00 90 0134 01537 5849 456262 827921 195"
"163.046991"
"$GPRMC,010736,A,2429.6185,N,08115.8751,W,8.6,262.8,120615,6.0,"
"##MN-00 00 90 0134 01539 5849 456218 827851 195"
"163.047037"
"$GPRMC,010740,A,2429.6169,N,08115.8856,W,8.7,261.9,120615,6.0,"
"##MN-00 00 90 0134 01539 5849 456245 827919 195"
"163.047083"
"$GPRMC,010744,A,2429.6155,N,08115.8960,W,8.6,261.9,120615,6.0,"
"##MN-00 00 90 0134 01539 5849 456298 827920 195"
"163.04713"
"$GPRMC,010748,A,2429.6140,N,08115.9062,W,8.6,260.7,120615,6.0,"
"##MN-00 00 90 0134 01538 5849 456316 827920 195"
"163.047176"
"$GPRMC,010752,A,2429.6124,N,08115.9167,W,8.6,259.7,120615,6.0,"
"##MN-00 00 90 0134 01538 5849 456347 827852 195"
"163.047222"
"$GPRMC,010756,A,2429.6106,N,08115.9261,W,8.4,259.0,120615,6.0,"
"##MN-00 00 90 0134 01538 5849 456367 827920 195"
"163.047269"
"$GPRMC,010800,A,2429.6084,N,08115.9368,W,8.6,258.4,120615,6.0,"
"##MN-00 00 90 0134 01538 5849 456315 827920 195"
"163.047315"
"$GPRMC,010804,A,2429.6064,N,08115.9469,W,8.6,258.8,120615,6.0,"
"##MN-00 00 90 0134 01538 5849 456241 827920 195"
"163.047361"
"$GPRMC,010808,A,2429.6046,N,08115.9570,W,8.4,259.5,120615,6.0,"
"##MN-00 00 90 0134 01537 5849 456083 827920 195"
"163.047407"
"$GPRMC,010812,A,2429.6035,N,08115.9675,W,8.6,260.4,120615,6.0,"
"##MN-00 00 90 0134 01538 5849 456004 827920 195"
"163.047454"
"$GPRMC,010816,A,2429.6019,N,08115.9776,W,8.3,261.0,120615,6.0,"
"##MN-00 00 90 0134 01540 5849 455967 827920 195"
"163.0475"
"$GPRMC,010820,A,2429.6004,N,08115.9882,W,8.6,261.5,120615,6.0,"
"##MN-00 00 90 0134 01538 5849 455889 827920 195"
"163.047546"
"$GPRMC,010824,A,2429.5988,N,08115.9986,W,8.5,261.6,120615,6.0,"
"##MN-00 00 90 0134 01537 5849 455930 827920 195"
"163.047593"
"$GPRMC,010828,A,2429.5972,N,08116.0094,W,8.5,261.9,120615,6.0,"
"##MN-00 00 90 0134 01536 5849 456031 827920 195"
"163.047639"
"$GPRMC,010832,A,2429.5957,N,08116.0196,W,8.6,262.1,120615,6.0,"
"##MN-00 00 90 0134 01538 5849 456222 827920 195"
"163.047685"
"$GPRMC,010836,A,2429.5942,N,08116.0296,W,8.3,262.2,120615,6.0,"
"##MN-00 00 90 0134 01539 5849 456310 827921 195"
"163.047731"
"$GPRMC,010840,A,2429.5929,N,08116.0402,W,8.6,262.6,120615,6.0,"
"##MN-00 00 90 0134 01539 5849 456400 827920 195"
"163.047778"
"$GPRMC,010844,A,2429.5917,N,08116.0503,W,8.4,262.9,120615,6.0,"
"##MN-00 00 90 0134 01537 5848 456453 827920 195"
"163.047824"
"$GPRMC,010849,A,2429.5903,N,08116.0633,W,8.4,263.3,120615,6.0,"
"##MN-00 00 90 0134 01537 5848 456437 827921 195"
"163.04787"
"$GPRMC,010853,A,2429.5894,N,08116.0730,W,8.5,262.6,120615,6.0,"
"##MN-00 00 90 0134 01537 5848 456419 827920 195"
"163.047917"
"$GPRMC,010857,A,2429.5882,N,08116.0831,W,8.4,261.3,120615,6.0,"
"##MN-00 00 90 0134 01538 5849 456487 827918 195"
"163.047963"
"$GPRMC,010901,A,2429.5869,N,08116.0934,W,8.5,261.6,120615,6.0,"
"##MN-00 00 90 0134 01540 5849 456650 827916 195"
"163.048009"
"$GPRMC,010905,A,2429.5856,N,08116.1034,W,8.5,261.7,120615,6.0,"
"##MN-00 00 90 0134 01539 5849 456566 827916 195"
"163.048056"
