" Tow: test   RVWS/WS15161"
" Date: 11/06/2015"
" Temperature Probe #  2089    Conductivity Probe #  2870"
" Pressure Probe #  188"
" Flow Meter Calibration  4.71 (m/count)  "
"163.257998"
"$GPRMC,054826,A,2427.3542,N,08126.7686,W,1.6,281.6,120615,5.8,"
"##MN-00 00 90 0800 02712 5671 505127 000009 197"
"163.258044"
"$GPRMC,061131,A,2427.5625,N,08126.3133,W,6.2,78.1,120615,5.8,W"
"##MN-00 00 90 0800 02713 5671 560680 024281 197"
"163.25809"
"$GPRMC,061135,A,2427.5638,N,08126.3060,W,6.2,78.1,120615,5.8,W"
"##MN-00 00 90 0800 02716 5671 560240 024282 197"
"163.258137"
"$GPRMC,061139,A,2427.5654,N,08126.2983,W,6.3,78.2,120615,5.8,W"
"##MN-00 00 90 0800 02714 5672 561616 024290 197"
"163.258183"
"$GPRMC,061143,A,2427.5669,N,08126.2905,W,6.3,77.4,120615,5.8,W"
"##MN-00 00 90 0800 02715 5672 561152 024285 197"
"163.258229"
"$GPRMC,061147,A,2427.5683,N,08126.2829,W,6.4,77.4,120615,5.8,W"
"##MN-00 00 90 0800 02715 5672 561584 024279 197"
"163.258275"
"$GPRMC,061151,A,2427.5695,N,08126.2754,W,6.4,77.7,120615,5.8,W"
"##MN-00 00 90 0800 02714 5672 561096 024280 197"
"163.258322"
"$GPRMC,061155,A,2427.5712,N,08126.2676,W,6.4,78.6,120615,5.8,W"
"##MN-00 00 90 0800 02713 5673 561112 024290 197"
"163.258368"
"$GPRMC,061159,A,2427.5730,N,08126.2599,W,6.4,78.2,120615,5.8,W"
"##MN-00 00 90 0800 02715 5673 561536 024295 197"
"163.258414"
"$GPRMC,061203,A,2427.5748,N,08126.2521,W,6.4,77.1,120615,5.8,W"
"##MN-00 00 90 0800 02714 5673 425616 024269 197"
"163.258461"
"$GPRMC,061207,A,2427.5766,N,08126.2446,W,6.4,76.3,120615,5.8,W"
"##MN-00 00 90 0800 02715 5674 561552 024282 197"
"163.258507"
"$GPRMC,061211,A,2427.5782,N,08126.2369,W,6.4,76.8,120615,5.8,W"
"##MN-00 00 90 0800 02714 5674 560632 024295 197"
"163.258553"
"$GPRMC,061215,A,2427.5797,N,08126.2296,W,6.3,76.5,120615,5.8,W"
"##MN-00 00 90 0800 02711 5674 561584 024271 197"
"163.2586"
"$GPRMC,061219,A,2427.5813,N,08126.2219,W,6.3,76.9,120615,5.8,W"
"##MN-00 00 90 0800 02713 5674 560680 024274 197"
"163.258646"
"$GPRMC,061223,A,2427.5828,N,08126.2142,W,6.3,78.0,120615,5.8,W"
"##MN-00 00 90 0800 02713 5675 561136 024293 197"
"163.258692"
"$GPRMC,061227,A,2427.5844,N,08126.2068,W,6.4,77.3,120615,5.8,W"
"##MN-00 00 90 0800 02716 5675 559776 024283 197"
"163.258738"
"$GPRMC,061231,A,2427.5860,N,08126.1996,W,6.3,77.3,120615,5.8,W"
"##MN-00 00 90 0800 02712 5675 559448 024297 197"
"163.258785"
"$GPRMC,061236,A,2427.5879,N,08126.1902,W,6.3,77.4,120615,5.8,W"
"##MN-00 00 90 0800 02713 5675 554688 024269 197"
"163.258831"
"$GPRMC,061240,A,2427.5894,N,08126.1824,W,6.4,77.5,120615,5.8,W"
"##MN-00 00 84 0800 02712 5675 305432 024279 197"
"163.258877"
"$GPRMC,061244,A,2427.5909,N,08126.1745,W,6.4,77.9,120615,5.8,W"
"##MN-00 00 83 0800 02714 5675 558064 024275 197"
"163.258924"
"$GPRMC,061248,A,2427.5923,N,08126.1668,W,6.4,78.0,120615,5.8,W"
"##MN-00 00 80 0800 02713 5676 559808 024274 197"
"163.25897"
"$GPRMC,061252,A,2427.5936,N,08126.1592,W,6.5,77.5,120615,5.8,W"
"##MN-00 00 80 0800 02714 5676 560232 024284 197"
"163.259016"
"$GPRMC,061256,A,2427.5951,N,08126.1514,W,6.5,78.0,120615,5.8,W"
"##MN-00 00 79 0800 02714 5676 561600 024278 197"
"163.259063"
"$GPRMC,061300,A,2427.5967,N,08126.1439,W,6.4,77.2,120615,5.8,W"
"##MN-00 00 77 0800 02712 5676 564232 024308 197"
"163.259109"
"$GPRMC,061304,A,2427.5984,N,08126.1365,W,6.3,76.5,120615,5.8,W"
"##MN-00 00 70 0800 02713 5677 564224 024278 197"
"163.259155"
"$GPRMC,061308,A,2427.6001,N,08126.1290,W,6.3,76.5,120615,5.8,W"
"##MN-00 00 64 0800 02712 5677 566432 024288 197"
"163.259201"
"$GPRMC,061312,A,2427.6017,N,08126.1214,W,6.3,76.6,120615,5.8,W"
"##MN-00 00 63 0800 02714 5677 567280 024276 197"
"163.259248"
"$GPRMC,061316,A,2427.6028,N,08126.1160,W,6.2,76.5,120615,5.8,W"
"##MN-00 00 60 0800 02713 5677 570368 024275 197"
"163.259294"
"$GPRMC,061320,A,2427.6049,N,08126.1067,W,6.2,76.8,120615,5.8,W"
"##MN-00 00 62 0800 02713 5678 570424 024267 197"
"163.25934"
"$GPRMC,061324,A,2427.6064,N,08126.0994,W,6.3,77.1,120615,5.8,W"
"##MN-00 00 59 0800 02712 5678 573072 024267 197"
"163.259387"
"$GPRMC,061328,A,2427.6077,N,08126.0938,W,6.3,77.0,120615,5.8,W"
"##MN-00 00 42 0800 02712 5678 574808 024258 197"
"163.259433"
"$GPRMC,061332,A,2427.6096,N,08126.0867,W,6.2,75.6,120615,5.8,W"
"##MN-00 00 41 0800 02712 5678 576168 024263 197"
"163.259479"
"$GPRMC,061336,A,2427.6118,N,08126.0792,W,6.2,74.7,120615,5.8,W"
"##MN-00 00 19 0800 02712 5678 474832 024255 197"
"163.259525"
"$GPRMC,061340,A,2427.6135,N,08126.0720,W,6.2,74.9,120615,5.8,W"
"##MN-00 00 20 0800 02713 5679 488376 024256 197"
"163.259572"
"$GPRMC,061344,A,2427.6156,N,08126.0626,W,6.2,75.1,120615,5.8,W"
"##MN-00 00 15 0800 02713 5679 575584 024268 197"
"163.259618"
"$GPRMC,061348,A,2427.6171,N,08126.0554,W,6.2,75.2,120615,5.8,W"
"##MN-00 00 15 0800 02711 5679 575608 024267 197"
"163.259664"
"$GPRMC,061352,A,2427.6186,N,08126.0479,W,6.3,75.9,120615,5.8,W"
"##MN-00 00 13 0800 02711 5679 323264 024307 197"
"163.259711"
"$GPRMC,061356,A,2427.6198,N,08126.0404,W,6.4,76.8,120615,5.8,W"
"##MN-00 00 14 0800 02712 5680 575504 024313 197"
"163.259757"
"$GPRMC,061400,A,2427.6212,N,08126.0327,W,6.3,77.9,120615,5.8,W"
"##MN-00 00 16 0800 02712 5680 438296 024320 197"
"163.259803"
"$GPRMC,061404,A,2427.6225,N,08126.0249,W,6.4,78.9,120615,5.8,W"
"##MN-00 00 16 0800 02713 5680 845056 024318 197"
"163.25985"
"$GPRMC,061408,A,2427.6237,N,08126.0173,W,6.4,79.7,120615,5.8,W"
"##MN-00 00 16 0800 02712 5680 575504 024319 197"
"163.259896"
"$GPRMC,061412,A,2427.6250,N,08126.0098,W,6.4,79.5,120615,5.8,W"
"##MN-00 00 16 0800 02713 5680 575504 024305 197"
"163.259942"
"$GPRMC,061416,A,2427.6261,N,08126.0024,W,6.4,78.9,120615,5.8,W"
"##MN-00 00 19 0800 02712 5681 575488 024321 197"
"163.259988"
"$GPRMC,061420,A,2427.6273,N,08125.9946,W,6.3,77.7,120615,5.8,W"
"##MN-00 00 18 0800 02712 5681 575488 024343 197"
"163.260035"
"$GPRMC,061424,A,2427.6290,N,08125.9870,W,6.4,76.4,120615,5.8,W"
"##MN-00 00 17 0800 02713 5681 575488 024316 197"
"163.260093"
"$GPRMC,061428,A,2427.6306,N,08125.9798,W,6.4,76.2,120615,5.8,W"
"##MN-00 00 14 0800 02712 5681 323192 024297 197"
"163.260139"
"$GPRMC,061432,A,2427.6320,N,08125.9729,W,6.2,76.0,120615,5.8,W"
"##MN-00 00 16 0800 02711 5682 576368 024301 197"
"163.260185"
"$GPRMC,061436,A,2427.6337,N,08125.9654,W,6.2,76.1,120615,5.8,W"
"##MN-00 00 15 0800 02714 5682 575048 024345 197"
"163.260231"
"$GPRMC,061440,A,2427.6355,N,08125.9578,W,6.3,76.3,120615,5.8,W"
"##MN-00 00 14 0800 02713 5682 575440 024319 197"
"163.260278"
"$GPRMC,061444,A,2427.6371,N,08125.9501,W,6.4,75.7,120615,5.8,W"
"##MN-00 00 16 0800 02713 5682 300976 024298 197"
"163.260324"
"$GPRMC,061448,A,2427.6391,N,08125.9419,W,6.5,75.9,120615,5.8,W"
"##MN-00 00 15 0800 02712 5682 269584 024300 197"
"163.26037"
"$GPRMC,061452,A,2427.6409,N,08125.9342,W,6.5,75.7,120615,5.8,W"
"##MN-00 00 19 0800 02712 5683 683408 024345 197"
"163.260417"
"$GPRMC,061456,A,2427.6429,N,08125.9262,W,6.5,75.4,120615,5.8,W"
"##MN-00 00 15 0800 02710 5683 574976 024299 197"
"163.260463"
"$GPRMC,061500,A,2427.6446,N,08125.9187,W,6.5,75.6,120615,5.8,W"
"##MN-00 00 15 0800 02713 5683 567392 024301 197"
"163.260509"
"$GPRMC,061504,A,2427.6461,N,08125.9110,W,6.5,76.8,120615,5.8,W"
"##MN-00 00 15 0800 02713 5683 579392 024314 197"
"163.260556"
"$GPRMC,061508,A,2427.6478,N,08125.9031,W,6.5,77.9,120615,5.8,W"
"##MN-00 00 15 0800 02712 5683 575440 024286 197"
"163.260602"
"$GPRMC,061512,A,2427.6492,N,08125.8953,W,6.5,78.4,120615,5.8,W"
"##MN-00 00 17 0800 02712 5684 300880 024304 197"
"163.260648"
"$GPRMC,061516,A,2427.6508,N,08125.8874,W,6.4,78.7,120615,5.8,W"
"##MN-00 00 18 0800 02712 5684 575336 024306 197"
"163.260694"
"$GPRMC,061520,A,2427.6519,N,08125.8797,W,6.4,78.8,120615,5.8,W"
"##MN-00 00 15 0800 02712 5684 575344 024304 197"
"163.260741"
"$GPRMC,061524,A,2427.6533,N,08125.8721,W,6.5,78.9,120615,5.8,W"
"##MN-00 00 15 0800 02711 5684 575320 024304 197"
"163.260787"
"$GPRMC,061528,A,2427.6548,N,08125.8642,W,6.5,79.6,120615,5.8,W"
"##MN-00 00 15 0800 02712 5684 322992 024299 197"
"163.260833"
"$GPRMC,061532,A,2427.6562,N,08125.8565,W,6.5,79.5,120615,5.8,W"
"##MN-00 00 16 0800 02713 5685 300736 024293 197"
"163.26088"
"$GPRMC,061536,A,2427.6577,N,08125.8485,W,6.5,78.3,120615,5.8,W"
"##MN-00 00 16 0800 02713 5685 575240 024294 197"
"163.260926"
"$GPRMC,061540,A,2427.6597,N,08125.8405,W,6.6,78.0,120615,5.8,W"
"##MN-00 00 15 0800 02712 5685 575232 024292 197"
"163.260972"
"$GPRMC,061544,A,2427.6616,N,08125.8326,W,6.6,77.3,120615,5.8,W"
"##MN-00 00 16 0800 02711 5685 575224 024340 197"
"163.261019"
"$GPRMC,061548,A,2427.6634,N,08125.8245,W,6.6,76.4,120615,5.8,W"
"##MN-00 00 18 0800 02710 5686 575184 024291 197"
"163.261065"
"$GPRMC,061552,A,2427.6652,N,08125.8167,W,6.5,76.1,120615,5.8,W"
"##MN-00 00 17 0800 02712 5686 575200 024327 197"
"163.261111"
"$GPRMC,061556,A,2427.6670,N,08125.8090,W,6.5,76.2,120615,5.8,W"
"##MN-00 00 17 0800 02711 5686 575200 024294 197"
"163.261157"
"$GPRMC,061600,A,2427.6685,N,08125.8014,W,6.4,76.3,120615,5.8,W"
"##MN-00 00 16 0800 02713 5686 575200 024291 197"
"163.261204"
"$GPRMC,061604,A,2427.6704,N,08125.7937,W,6.4,76.2,120615,5.8,W"
"##MN-00 00 15 0800 02712 5686 575168 024300 197"
"163.26125"
"$GPRMC,061608,A,2427.6722,N,08125.7859,W,6.5,76.4,120615,5.8,W"
"##MN-00 00 17 0800 02711 5687 575152 024322 197"
"163.261296"
"$GPRMC,061612,A,2427.6740,N,08125.7780,W,6.5,76.1,120615,5.8,W"
"##MN-00 00 16 0800 02711 5687 322888 024345 197"
"163.261343"
"$GPRMC,061616,A,2427.6757,N,08125.7701,W,6.5,76.1,120615,5.8,W"
"##MN-00 00 19 0800 02711 5687 574712 024342 197"
"163.261389"
"$GPRMC,061620,A,2427.6774,N,08125.7621,W,6.5,75.6,120615,5.8,W"
"##MN-00 00 16 0800 02711 5687 576000 024285 197"
"163.261435"
"$GPRMC,061624,A,2427.6789,N,08125.7543,W,6.5,75.8,120615,5.8,W"
"##MN-00 00 16 0800 02712 5687 574704 024345 197"
"163.261481"
"$GPRMC,061628,A,2427.6803,N,08125.7467,W,6.6,77.2,120615,5.8,W"
"##MN-00 00 15 0800 02713 5688 576864 024333 197"
"163.261528"
"$GPRMC,061632,A,2427.6814,N,08125.7390,W,6.6,78.2,120615,5.8,W"
"##MN-00 00 15 0800 02712 5688 574256 024294 197"
"163.261574"
"$GPRMC,061636,A,2427.6832,N,08125.7311,W,6.6,77.6,120615,5.8,W"
"##MN-00 00 16 0800 02712 5688 575104 024346 197"
"163.26162"
"$GPRMC,061640,A,2427.6848,N,08125.7234,W,6.5,77.2,120615,5.8,W"
"##MN-00 00 18 0800 02712 5688 575536 024309 197"
"163.261667"
"$GPRMC,061644,A,2427.6863,N,08125.7156,W,6.4,77.4,120615,5.8,W"
"##MN-00 00 20 0800 02711 5688 574680 024314 197"
"163.261713"
"$GPRMC,061648,A,2427.6877,N,08125.7082,W,6.4,77.3,120615,5.8,W"
"##MN-00 00 18 0800 02711 5688 576000 024294 197"
"163.261759"
"$GPRMC,061652,A,2427.6891,N,08125.7007,W,6.4,77.6,120615,5.8,W"
"##MN-00 00 16 0800 02711 5689 575104 024317 197"
"163.261806"
"$GPRMC,061656,A,2427.6908,N,08125.6933,W,6.3,77.3,120615,5.8,W"
"##MN-00 00 16 0800 02711 5689 575104 024291 197"
"163.261852"
"$GPRMC,061700,A,2427.6922,N,08125.6860,W,6.2,76.9,120615,5.8,W"
"##MN-00 00 18 0800 02710 5689 574664 024301 197"
"163.261898"
"$GPRMC,061704,A,2427.6940,N,08125.6781,W,6.3,77.0,120615,5.8,W"
"##MN-00 00 15 0800 02711 5689 575512 024347 197"
"163.261944"
"$GPRMC,061708,A,2427.6958,N,08125.6703,W,6.4,77.5,120615,5.8,W"
"##MN-00 00 15 0800 02710 5689 575088 024285 197"
"163.261991"
"$GPRMC,061713,A,2427.6981,N,08125.6613,W,6.2,76.0,120615,5.8,W"
"##MN-00 00 16 0800 02711 5690 575120 024342 197"
"163.262037"
"$GPRMC,061716,A,2427.6992,N,08125.6556,W,6.2,76.2,120615,5.8,W"
"##MN-00 00 19 0800 02712 5690 300576 024342 197"
"163.262083"
"$GPRMC,061720,A,2427.7010,N,08125.6481,W,6.3,75.7,120615,5.8,W"
"##MN-00 00 20 0800 02710 5690 575120 024334 197"
"163.26213"
"$GPRMC,061724,A,2427.7028,N,08125.6407,W,6.3,75.5,120615,5.8,W"
"##MN-00 00 16 0800 02712 5690 575104 024300 197"
"163.262176"
"$GPRMC,061729,A,2427.7050,N,08125.6319,W,6.0,75.5,120615,5.8,W"
"##MN-00 00 17 0800 02711 5690 575088 024310 197"
"163.262222"
"$GPRMC,061733,A,2427.7070,N,08125.6245,W,6.1,75.3,120615,5.8,W"
"##MN-00 00 17 0800 02710 5691 575976 024313 197"
"163.262269"
"$GPRMC,061737,A,2427.7086,N,08125.6169,W,6.2,76.6,120615,5.8,W"
"##MN-00 00 19 0800 02711 5691 575936 024289 197"
"163.262315"
"$GPRMC,061741,A,2427.7101,N,08125.6095,W,6.3,77.1,120615,5.8,W"
"##MN-00 00 16 0800 02710 5691 574160 024295 197"
"163.262361"
"$GPRMC,061745,A,2427.7114,N,08125.6022,W,6.3,77.3,120615,5.8,W"
"##MN-00 00 17 0800 02710 5691 575056 024305 197"
"163.262407"
"$GPRMC,061749,A,2427.7126,N,08125.5947,W,6.3,77.6,120615,5.8,W"
"##MN-00 00 15 0800 02711 5692 575464 024309 197"
"163.262454"
"$GPRMC,061753,A,2427.7144,N,08125.5870,W,6.4,77.6,120615,5.8,W"
"##MN-00 00 15 0800 02710 5692 575936 024304 197"
"163.2625"
"$GPRMC,061757,A,2427.7157,N,08125.5794,W,6.4,78.0,120615,5.8,W"
"##MN-00 00 17 0800 02712 5692 573232 024301 197"
"163.262546"
"$GPRMC,061801,A,2427.7176,N,08125.5715,W,6.4,78.0,120615,5.8,W"
"##MN-00 00 17 0800 02712 5692 576408 024296 197"
"163.262593"
"$GPRMC,061805,A,2427.7197,N,08125.5634,W,6.5,76.9,120615,5.8,W"
"##MN-00 00 18 0800 02711 5692 574176 024297 197"
"163.262639"
"$GPRMC,061809,A,2427.7215,N,08125.5555,W,6.6,76.8,120615,5.8,W"
"##MN-00 00 17 0800 02711 5692 575000 024287 197"
"163.262685"
"$GPRMC,061813,A,2427.7233,N,08125.5476,W,6.6,77.0,120615,5.8,W"
"##MN-00 00 19 0800 02710 5693 575920 024283 197"
"163.262731"
"$GPRMC,061817,A,2427.7251,N,08125.5397,W,6.6,77.1,120615,5.8,W"
"##MN-00 00 15 0800 02711 5693 575480 024298 197"
" Tow: TEST   RVWS/WS15161"
" Date: 14/06/2015"
" Temperature Probe #  4762    Conductivity Probe #  710"
" Pressure Probe #  188"
" Flow Meter Calibration  4.71 (m/count)  "
"165.632998"
"$GPRMC,151123,A,2434.4460,N,08054.8342,W,6.4,65.2,140615,6.2,W"
"##MN-00 00 79 0000 02716 6844 453784 023957 215"
"165.633044"
"$GPRMC,151128,A,2434.4500,N,08054.8254,W,6.4,63.8,140615,6.2,W"
"##MN-00 00 79 0000 02718 6847 405664 023920 214"
"165.63309"
"$GPRMC,151132,A,2434.4532,N,08054.8183,W,6.4,64.0,140615,6.2,W"
"##MN-00 00 80 0000 02718 6849 509664 023914 214"
"165.633137"
"$GPRMC,151136,A,2434.4565,N,08054.8111,W,6.5,63.3,140615,6.2,W"
"##MN-00 00 80 0000 02718 6852 367600 023886 214"
"165.633183"
"$GPRMC,151140,A,2434.4601,N,08054.8040,W,6.5,62.9,140615,6.2,W"
"##MN-00 00 80 0000 02718 6854 856704 023889 215"
"165.633229"
"$GPRMC,151144,A,2434.4635,N,08054.7974,W,6.3,62.7,140615,6.2,W"
"##MN-00 00 80 0000 02719 6857 414976 023929 215"
" Tow: TEST   RVWS/WS15161"
" Date: 15/06/2015"
" Temperature Probe #  4762    Conductivity Probe #  710"
" Pressure Probe #  159"
" Flow Meter Calibration  4.71 (m/count)  "
"166.341204"
"$GPRMC,081111,A,2420.8387,N,08049.5177,W,6.3,302.9,150615,6.2,"
"##MN-00 00 90 0000 01536 5717 452266 827580 207"
"166.34125"
"$GPRMC,081116,A,2420.8433,N,08049.5258,W,6.3,301.7,150615,6.2,"
"##MN-00 00 90 0000 01536 5717 452197 827766 207"
"166.341296"
"$GPRMC,081120,A,2420.8469,N,08049.5322,W,6.2,301.9,150615,6.2,"
"##MN-00 00 90 0001 01535 5718 452117 827431 207"
"166.341343"
"$GPRMC,081124,A,2420.8506,N,08049.5387,W,6.3,302.2,150615,6.2,"
"##MN-00 00 90 0002 01535 5718 452523 827698 207"
"166.341389"
"$GPRMC,081128,A,2420.8545,N,08049.5452,W,6.3,302.7,150615,6.2,"
"##MN-00 00 90 0002 01533 5719 452181 827701 207"
"166.341435"
"$GPRMC,081132,A,2420.8571,N,08049.5498,W,6.3,303.1,150615,6.2,"
"##MN-00 00 90 0002 01535 5719 451673 827494 207"
"166.341481"
"$GPRMC,081136,A,2420.8622,N,08049.5575,W,6.3,304.2,150615,6.2,"
"##MN-00 00 90 0002 01534 5720 451397 827630 207"
"166.341528"
"$GPRMC,081140,A,2420.8664,N,08049.5636,W,6.3,305.2,150615,6.2,"
"##MN-00 00 90 0002 01533 5720 451279 827835 207"
"166.341574"
"$GPRMC,081144,A,2420.8708,N,08049.5697,W,6.3,306.4,150615,6.2,"
"##MN-00 00 90 0002 01536 5720 451276 827426 207"
"166.34162"
"$GPRMC,081148,A,2420.8752,N,08049.5763,W,6.5,306.4,150615,6.2,"
"##MN-00 00 90 0002 01535 5720 451454 827632 207"
"166.341667"
"$GPRMC,081152,A,2420.8795,N,08049.5828,W,6.5,306.6,150615,6.2,"
"##MN-00 00 90 0002 01537 5721 451462 827562 207"
"166.341713"
"$GPRMC,081156,A,2420.8841,N,08049.5892,W,6.4,306.5,150615,6.2,"
"##MN-00 00 90 0003 01534 5721 451473 827017 206"
"166.341759"
"$GPRMC,081200,A,2420.8888,N,08049.5957,W,6.5,306.9,150615,6.2,"
"##MN-00 00 90 0003 01535 5722 451575 827094 207"
"166.341806"
"$GPRMC,081204,A,2420.8929,N,08049.6020,W,6.5,306.7,150615,6.2,"
"##MN-00 00 90 0003 01534 5722 451770 827425 207"
"166.341852"
"$GPRMC,081208,A,2420.8971,N,08049.6085,W,6.4,306.2,150615,6.2,"
"##MN-00 00 90 0003 01534 5722 451884 827635 207"
"166.341898"
"$GPRMC,081212,A,2420.9012,N,08049.6147,W,6.5,304.9,150615,6.2,"
"##MN-00 00 90 0003 01534 5722 451867 827289 207"
"166.341944"
"$GPRMC,081216,A,2420.9050,N,08049.6204,W,6.3,305.5,150615,6.2,"
"##MN-00 00 90 0003 01535 5723 452014 827085 207"
"166.341991"
"$GPRMC,081220,A,2420.9090,N,08049.6272,W,6.5,304.7,150615,6.2,"
"##MN-00 00 90 0003 01536 5723 452043 827425 207"
"166.342037"
"$GPRMC,081224,A,2420.9128,N,08049.6337,W,6.3,305.0,150615,6.2,"
"##MN-00 00 90 0003 01533 5724 452078 827363 206"
"166.342083"
"$GPRMC,081228,A,2420.9166,N,08049.6405,W,6.4,304.1,150615,6.2,"
"##MN-00 00 90 0003 01536 5724 452095 827357 207"
