" Tow: TEST2   RVWS/WS15161"
" Date: 15/06/2015"
" Temperature Probe #  4762    Conductivity Probe #  710"
" Pressure Probe #  159"
" Flow Meter Calibration  4.71 (m/count)  "
"166.587627"
"$GPRMC,133944,A,2425.7299,N,08056.6286,W,2.7,125.6,150615,6.1,"
"##MN-00 00 90 0000 01530 5962 436997 827281 202"
"166.587674"
"$GPRMC,140612,A,2424.9207,N,08055.2589,W,3.7,118.2,150615,6.1,"
"##MN-00 00 90 0000 01531 5965 428369 827824 202"
"166.58772"
"$GPRMC,140616,A,2424.9187,N,08055.2548,W,3.8,117.1,150615,6.1,"
"##MN-00 00 90 0000 01529 5967 428268 827894 201"
"166.587766"
"$GPRMC,140620,A,2424.9167,N,08055.2506,W,3.8,116.0,150615,6.1,"
"##MN-00 00 90 0000 01530 5970 427845 827826 201"
"166.587813"
"$GPRMC,140624,A,2424.9148,N,08055.2462,W,3.8,116.1,150615,6.1,"
"##MN-00 00 90 0000 01531 5972 428014 827893 201"
"166.587859"
"$GPRMC,140628,A,2424.9129,N,08055.2420,W,3.8,116.2,150615,6.1,"
"##MN-00 00 90 0000 01530 5974 428409 827893 201"
"166.587905"
"$GPRMC,140632,A,2424.9113,N,08055.2382,W,3.7,116.3,150615,6.1,"
"##MN-00 00 90 0000 01531 5976 428179 827893 201"
"166.587951"
"$GPRMC,140636,A,2424.9093,N,08055.2344,W,3.7,116.8,150615,6.1,"
"##MN-00 00 90 0000 01531 5978 428021 827893 201"
"166.587998"
"$GPRMC,140640,A,2424.9073,N,08055.2304,W,3.6,117.1,150615,6.1,"
"##MN-00 00 90 0000 01530 5980 428248 827892 201"
"166.588044"
"$GPRMC,140644,A,2424.9052,N,08055.2264,W,3.6,117.8,150615,6.1,"
"##MN-00 00 90 0000 01531 5982 428481 827893 201"
"166.58809"
"$GPRMC,140648,A,2424.9035,N,08055.2228,W,3.6,119.5,150615,6.1,"
"##MN-00 00 67 0000 01529 5985 428586 827892 201"
"166.588137"
"$GPRMC,140652,A,2424.9018,N,08055.2197,W,3.5,121.4,150615,6.1,"
"##MN-00 00 00 0000 01529 5986 428384 827892 201"
"166.588183"
"$GPRMC,140656,A,2424.8998,N,08055.2161,W,3.5,122.3,150615,6.1,"
"##MN-00 00 00 0000 01529 5988 428231 827892 201"
"166.588229"
"$GPRMC,140700,A,2424.8974,N,08055.2126,W,3.5,122.8,150615,6.1,"
"##MN-00 00 00 0000 01530 5990 428426 827892 201"
"166.588275"
"$GPRMC,140704,A,2424.8949,N,08055.2090,W,3.3,123.7,150615,6.1,"
"##MN-00 00 18 0000 01530 5992 428435 827891 201"
"166.588322"
"$GPRMC,140708,A,2424.8926,N,08055.2054,W,3.3,123.6,150615,6.1,"
"##MN-00 00 69 0000 01530 5994 428140 827891 201"
"166.588368"
"$GPRMC,140712,A,2424.8904,N,08055.2016,W,3.4,123.8,150615,6.1,"
"##MN-00 00 90 0000 01529 5996 427890 827891 201"
"166.588414"
"$GPRMC,140716,A,2424.8879,N,08055.1978,W,3.5,123.6,150615,6.1,"
"##MN-00 00 90 0000 01532 5998 427762 827891 201"
"166.588461"
"$GPRMC,140720,A,2424.8857,N,08055.1942,W,3.5,122.4,150615,6.1,"
"##MN-00 00 90 0000 01529 6000 427818 827891 201"
"166.588507"
"$GPRMC,140724,A,2424.8836,N,08055.1907,W,3.5,121.4,150615,6.1,"
"##MN-00 00 90 0000 01530 6001 427527 827891 201"
"166.588553"
"$GPRMC,140728,A,2424.8817,N,08055.1869,W,3.6,122.1,150615,6.1,"
"##MN-00 00 90 0000 01531 6003 427466 827890 201"
"166.5886"
"$GPRMC,140732,A,2424.8794,N,08055.1830,W,3.6,121.3,150615,6.1,"
"##MN-00 00 89 0000 01532 6005 427280 827890 201"
"166.588646"
"$GPRMC,140736,A,2424.8771,N,08055.1790,W,3.7,120.9,150615,6.1,"
"##MN-00 00 89 0000 01528 6006 427159 827890 201"
"166.588692"
"$GPRMC,140740,A,2424.8752,N,08055.1753,W,3.7,120.6,150615,6.1,"
"##MN-00 00 89 0000 01528 6008 426969 827890 201"
"166.588738"
"$GPRMC,140744,A,2424.8731,N,08055.1712,W,3.7,120.6,150615,6.1,"
"##MN-00 00 89 0000 01532 6009 426677 827889 201"
"166.588785"
"$GPRMC,140748,A,2424.8712,N,08055.1672,W,3.7,119.8,150615,6.1,"
"##MN-00 00 90 0000 01529 6011 426465 827889 201"
"166.588831"
"$GPRMC,140752,A,2424.8694,N,08055.1635,W,3.7,119.5,150615,6.1,"
"##MN-00 00 89 0000 01528 6013 426402 827821 201"
"166.588877"
"$GPRMC,140756,A,2424.8673,N,08055.1594,W,3.7,118.8,150615,6.1,"
"##MN-00 00 90 0000 01527 6014 426627 827889 201"
"166.588924"
"$GPRMC,140800,A,2424.8653,N,08055.1553,W,3.7,118.4,150615,6.1,"
"##MN-00 00 90 0000 01531 6016 426915 827889 201"
"166.58897"
"$GPRMC,140804,A,2424.8635,N,08055.1514,W,3.6,117.7,150615,6.1,"
"##MN-00 00 87 0000 01530 6018 427121 827888 201"
"166.589016"
"$GPRMC,140808,A,2424.8616,N,08055.1475,W,3.6,117.7,150615,6.1,"
"##MN-00 00 88 0000 01531 6019 427314 827888 201"
"166.589062"
"$GPRMC,140812,A,2424.8600,N,08055.1435,W,3.7,116.2,150615,6.1,"
"##MN-00 00 88 0000 01531 6021 427500 827888 201"
"166.589109"
"$GPRMC,140816,A,2424.8580,N,08055.1394,W,3.7,116.1,150615,6.1,"
"##MN-00 00 88 0000 01530 6023 427795 827887 201"
"166.589155"
"$GPRMC,140820,A,2424.8561,N,08055.1353,W,3.7,115.4,150615,6.1,"
"##MN-00 00 90 0000 01530 6024 428023 827751 201"
"166.589201"
"$GPRMC,140824,A,2424.8542,N,08055.1312,W,3.8,115.3,150615,6.1,"
"##MN-00 00 90 0000 01529 6025 428052 827887 201"
"166.589248"
"$GPRMC,140828,A,2424.8522,N,08055.1269,W,3.8,115.2,150615,6.1,"
"##MN-00 00 90 0000 01529 6026 428187 827888 201"
"166.589294"
"$GPRMC,140832,A,2424.8504,N,08055.1230,W,3.7,114.8,150615,6.1,"
"##MN-00 00 90 0000 01529 6028 428002 827887 201"
"166.589352"
"$GPRMC,140836,A,2424.8490,N,08055.1193,W,3.6,114.8,150615,6.1,"
"##MN-00 00 90 0000 01530 6029 427999 827887 201"
"166.589398"
"$GPRMC,140840,A,2424.8475,N,08055.1156,W,3.6,115.6,150615,6.1,"
"##MN-00 00 90 0000 01531 6030 427847 827886 201"
"166.589444"
"$GPRMC,140844,A,2424.8456,N,08055.1116,W,3.5,116.9,150615,6.1,"
"##MN-00 00 90 0000 01532 6032 428239 827887 201"
"166.589491"
"$GPRMC,140848,A,2424.8438,N,08055.1078,W,3.5,117.7,150615,6.1,"
"##MN-00 00 90 0000 01528 6033 428459 827886 201"
"166.589537"
"$GPRMC,140852,A,2424.8416,N,08055.1039,W,3.5,117.5,150615,6.1,"
"##MN-00 00 90 0000 01530 6034 428460 827886 201"
"166.589583"
"$GPRMC,140856,A,2424.8396,N,08055.1005,W,3.5,119.0,150615,6.1,"
"##MN-00 00 90 0000 01529 6036 428444 827886 201"
"166.58963"
"$GPRMC,140900,A,2424.8376,N,08055.0971,W,3.5,120.4,150615,6.1,"
"##MN-00 00 90 0000 01529 6038 428282 827886 201"
"166.589676"
"$GPRMC,140904,A,2424.8353,N,08055.0937,W,3.5,122.8,150615,6.1,"
"##MN-00 00 90 0000 01530 6039 427829 827885 201"
"166.589722"
"$GPRMC,140908,A,2424.8330,N,08055.0902,W,3.5,124.7,150615,6.1,"
"##MN-00 00 90 0000 01530 6040 427629 827751 201"
"166.589769"
"$GPRMC,140912,A,2424.8307,N,08055.0868,W,3.5,125.4,150615,6.1,"
"##MN-00 00 88 0000 01530 6041 427615 827885 201"
"166.589815"
"$GPRMC,140916,A,2424.8284,N,08055.0832,W,3.5,125.1,150615,6.1,"
"##MN-00 00 90 0000 01531 6042 427492 827885 201"
"166.589861"
"$GPRMC,140920,A,2424.8257,N,08055.0794,W,3.5,124.4,150615,6.1,"
"##MN-00 00 89 0000 01529 6044 427273 827884 201"
"166.589907"
"$GPRMC,140924,A,2424.8234,N,08055.0759,W,3.5,123.5,150615,6.1,"
"##MN-00 00 88 0000 01530 6045 427270 827884 201"
"166.589954"
"$GPRMC,140928,A,2424.8211,N,08055.0722,W,3.4,123.9,150615,6.1,"
"##MN-00 00 88 0000 01529 6046 427117 827884 201"
"166.59"
"$GPRMC,140932,A,2424.8199,N,08055.0696,W,3.5,122.7,150615,6.1,"
"##MN-00 00 88 0000 01530 6048 427152 827884 201"
"166.590046"
"$GPRMC,140936,A,2424.8175,N,08055.0658,W,3.5,121.3,150615,6.1,"
"##MN-00 00 88 0000 01531 6049 427051 827884 201"
"166.590093"
"$GPRMC,140940,A,2424.8156,N,08055.0622,W,3.5,121.0,150615,6.1,"
"##MN-00 00 88 0000 01530 6050 427127 827885 201"
"166.590139"
"$GPRMC,140944,A,2424.8139,N,08055.0587,W,3.4,121.1,150615,6.1,"
"##MN-00 00 88 0000 01530 6052 426943 827883 201"
"166.590185"
"$GPRMC,140948,A,2424.8120,N,08055.0549,W,3.5,121.1,150615,6.1,"
"##MN-00 00 88 0000 01531 6054 426993 827884 201"
"166.590231"
"$GPRMC,140952,A,2424.8103,N,08055.0512,W,3.5,120.7,150615,6.1,"
"##MN-00 00 90 0000 01530 6055 427365 827883 201"
"166.590278"
"$GPRMC,140956,A,2424.8087,N,08055.0476,W,3.6,119.3,150615,6.1,"
"##MN-00 00 90 0000 01528 6055 427833 827883 201"
"166.590324"
"$GPRMC,141000,A,2424.8069,N,08055.0438,W,3.6,116.6,150615,6.1,"
"##MN-00 00 90 0000 01529 6057 428221 827884 201"
"166.59037"
"$GPRMC,141005,A,2424.8048,N,08055.0389,W,3.5,114.8,150615,6.1,"
"##MN-00 00 90 0000 01533 6058 428180 827883 201"
"166.590417"
"$GPRMC,141009,A,2424.8031,N,08055.0346,W,3.6,112.7,150615,6.1,"
"##MN-00 00 90 0000 01528 6059 428039 827883 201"
"166.590463"
"$GPRMC,141013,A,2424.8017,N,08055.0306,W,3.5,111.9,150615,6.1,"
"##MN-00 00 90 0000 01529 6060 428008 827882 202"
"166.590509"
"$GPRMC,141017,A,2424.8004,N,08055.0266,W,3.5,111.2,150615,6.1,"
"##MN-00 00 90 0000 01530 6062 427699 827882 202"
"166.590556"
"$GPRMC,141021,A,2424.7990,N,08055.0227,W,3.5,111.0,150615,6.1,"
"##MN-00 00 89 0000 01528 6063 427584 827814 201"
"166.590602"
"$GPRMC,141025,A,2424.7975,N,08055.0188,W,3.5,110.3,150615,6.1,"
"##MN-00 00 90 0000 01529 6064 427521 827882 202"
"166.590648"
"$GPRMC,141029,A,2424.7959,N,08055.0148,W,3.4,110.8,150615,6.1,"
"##MN-00 00 88 0000 01530 6066 427494 827882 201"
"166.590694"
"$GPRMC,141033,A,2424.7941,N,08055.0108,W,3.4,111.8,150615,6.1,"
"##MN-00 00 90 0000 01530 6067 427363 827882 201"
"166.590741"
"$GPRMC,141037,A,2424.7926,N,08055.0071,W,3.4,113.5,150615,6.1,"
"##MN-00 00 90 0000 01529 6068 427415 827813 201"
"166.590787"
"$GPRMC,141041,A,2424.7912,N,08055.0036,W,3.4,115.1,150615,6.1,"
"##MN-00 00 89 0000 01531 6069 427609 827882 201"
"166.590833"
"$GPRMC,141045,A,2424.7898,N,08055.0005,W,3.4,116.7,150615,6.1,"
"##MN-00 00 89 0000 01529 6070 427681 827882 202"
"166.59088"
"$GPRMC,141049,A,2424.7880,N,08054.9973,W,3.3,118.6,150615,6.1,"
"##MN-00 00 89 0000 01530 6071 427494 827881 202"
"166.590926"
"$GPRMC,141053,A,2424.7858,N,08054.9940,W,3.2,120.6,150615,6.1,"
"##MN-00 00 90 0000 01529 6071 427188 827812 201"
"166.590972"
"$GPRMC,141057,A,2424.7838,N,08054.9909,W,3.1,122.7,150615,6.1,"
"##MN-00 00 90 0000 01530 6072 426903 827881 201"
"166.591019"
"$GPRMC,141101,A,2424.7816,N,08054.9878,W,3.1,124.3,150615,6.1,"
"##MN-00 00 90 0000 01529 6073 427063 827880 201"
"166.591065"
"$GPRMC,141105,A,2424.7795,N,08054.9848,W,3.0,125.4,150615,6.1,"
"##MN-00 00 90 0000 01530 6074 426972 827880 201"
"166.591111"
"$GPRMC,141109,A,2424.7774,N,08054.9820,W,3.0,125.8,150615,6.1,"
"##MN-00 00 88 0000 01529 6076 427250 827812 202"
"166.591157"
"$GPRMC,141113,A,2424.7755,N,08054.9792,W,3.0,126.8,150615,6.1,"
"##MN-00 00 72 0000 01530 6077 427549 827880 201"
"166.591204"
"$GPRMC,141117,A,2424.7734,N,08054.9763,W,3.0,127.7,150615,6.1,"
"##MN-00 00 21 0000 01532 6078 427579 827814 201"
"166.59125"
"$GPRMC,141121,A,2424.7715,N,08054.9733,W,3.0,128.2,150615,6.1,"
"##MN-00 00 12 0000 01532 6079 427728 827880 201"
"166.591296"
"$GPRMC,141125,A,2424.7692,N,08054.9702,W,3.1,127.7,150615,6.1,"
"##MN-00 00 12 0000 01531 6080 427728 827880 201"
"166.591343"
"$GPRMC,141129,A,2424.7669,N,08054.9667,W,3.1,127.3,150615,6.1,"
"##MN-00 00 12 0000 01530 6081 427438 827812 201"
"166.591389"
"$GPRMC,141133,A,2424.7647,N,08054.9633,W,3.2,125.6,150615,6.1,"
"##MN-00 00 12 0000 01531 6082 427201 827879 201"
"166.591435"
"$GPRMC,141137,A,2424.7626,N,08054.9598,W,3.3,124.7,150615,6.1,"
"##MN-00 00 51 0000 01529 6084 426667 827879 201"
"166.591481"
"$GPRMC,141141,A,2424.7608,N,08054.9563,W,3.3,123.7,150615,6.1,"
"##MN-00 00 51 0000 01531 6084 426568 827879 201"
"166.591528"
"$GPRMC,141145,A,2424.7585,N,08054.9523,W,3.4,122.4,150615,6.1,"
"##MN-00 00 52 0000 01530 6086 426398 827879 201"
"166.591574"
"$GPRMC,141149,A,2424.7561,N,08054.9483,W,3.5,122.3,150615,6.1,"
"##MN-00 00 52 0000 01531 6087 426790 827879 201"
"166.59162"
"$GPRMC,141153,A,2424.7542,N,08054.9447,W,3.4,122.6,150615,6.1,"
"##MN-00 00 79 0000 01531 6088 427335 827879 201"
"166.591667"
"$GPRMC,141157,A,2424.7520,N,08054.9410,W,3.4,123.2,150615,6.1,"
"##MN-00 00 80 0000 01530 6089 427328 827878 202"
"166.591713"
"$GPRMC,141201,A,2424.7497,N,08054.9373,W,3.5,122.7,150615,6.1,"
"##MN-00 00 80 0000 01529 6090 427452 827878 202"
"166.591759"
"$GPRMC,141205,A,2424.7474,N,08054.9338,W,3.4,122.1,150615,6.1,"
"##MN-00 00 80 0000 01531 6091 427890 827878 201"
"166.591806"
"$GPRMC,141209,A,2424.7456,N,08054.9305,W,3.3,121.6,150615,6.1,"
"##MN-00 00 80 0000 01529 6092 428068 827810 201"
"166.591852"
"$GPRMC,141213,A,2424.7435,N,08054.9270,W,3.3,121.3,150615,6.1,"
"##MN-00 00 82 0000 01530 6093 428392 827810 201"
"166.591898"
"$GPRMC,141217,A,2424.7415,N,08054.9235,W,3.2,121.8,150615,6.1,"
"##MN-00 00 78 0000 01533 6094 428269 827878 202"
"166.591944"
"$GPRMC,141221,A,2424.7397,N,08054.9203,W,3.3,123.3,150615,6.1,"
"##MN-00 00 82 0000 01530 6095 428083 827878 202"
"166.591991"
"$GPRMC,141225,A,2424.7376,N,08054.9171,W,3.3,124.0,150615,6.1,"
"##MN-00 00 82 0000 01529 6096 428150 827877 201"
"166.592037"
"$GPRMC,141229,A,2424.7357,N,08054.9141,W,3.3,123.8,150615,6.1,"
"##MN-00 00 82 0000 01532 6097 427905 827809 202"
"166.592083"
"$GPRMC,141233,A,2424.7336,N,08054.9110,W,3.3,124.1,150615,6.1,"
"##MN-00 00 82 0000 01530 6098 427837 827877 202"
"166.59213"
"$GPRMC,141237,A,2424.7315,N,08054.9078,W,3.4,125.4,150615,6.1,"
"##MN-00 00 82 0000 01528 6099 427993 827877 201"
"166.592176"
"$GPRMC,141241,A,2424.7293,N,08054.9047,W,3.4,127.1,150615,6.1,"
"##MN-00 00 82 0000 01532 6100 427550 827877 202"
"166.592222"
"$GPRMC,141245,A,2424.7271,N,08054.9017,W,3.3,128.6,150615,6.1,"
"##MN-00 00 82 0000 01529 6101 427217 827877 201"
"166.592269"
"$GPRMC,141249,A,2424.7246,N,08054.8985,W,3.3,129.5,150615,6.1,"
"##MN-00 00 82 0000 01528 6102 427343 827877 201"
"166.592315"
"$GPRMC,141253,A,2424.7224,N,08054.8954,W,3.3,129.9,150615,6.1,"
"##MN-00 00 82 0000 01531 6103 427435 827877 202"
"166.592361"
"$GPRMC,141257,A,2424.7200,N,08054.8922,W,3.3,127.8,150615,6.1,"
"##MN-00 00 82 0000 01530 6104 427277 827877 201"
"166.592407"
"$GPRMC,141301,A,2424.7177,N,08054.8892,W,3.2,128.1,150615,6.1,"
"##MN-00 00 82 0000 01530 6105 427232 827877 201"
"166.592454"
"$GPRMC,141305,A,2424.7155,N,08054.8863,W,3.2,128.7,150615,6.1,"
"##MN-00 00 90 0000 01528 6106 427540 827876 201"
"166.5925"
"$GPRMC,141309,A,2424.7134,N,08054.8834,W,3.2,129.1,150615,6.1,"
"##MN-00 00 90 0000 01530 6108 427392 827877 202"
"166.592546"
"$GPRMC,141313,A,2424.7112,N,08054.8804,W,3.3,129.4,150615,6.1,"
"##MN-00 00 90 0000 01530 6109 427343 827876 202"
"166.592604"
"$GPRMC,141317,A,2424.7090,N,08054.8772,W,3.3,128.6,150615,6.1,"
"##MN-00 00 90 0000 01529 6110 427597 827876 202"
"166.59265"
"$GPRMC,141321,A,2424.7065,N,08054.8739,W,3.3,127.6,150615,6.1,"
"##MN-00 00 90 0000 01528 6111 427927 827876 201"
"166.592697"
"$GPRMC,141325,A,2424.7045,N,08054.8708,W,3.3,126.5,150615,6.1,"
"##MN-00 00 90 0000 01529 6113 427886 827876 201"
"166.592743"
"$GPRMC,141329,A,2424.7021,N,08054.8673,W,3.3,125.5,150615,6.1,"
"##MN-00 00 90 0000 01531 6114 427624 827876 201"
"166.592789"
"$GPRMC,141333,A,2424.7000,N,08054.8637,W,3.3,124.8,150615,6.1,"
"##MN-00 00 90 0000 01528 6116 427162 827875 201"
"166.592836"
"$GPRMC,141337,A,2424.6978,N,08054.8602,W,3.4,124.0,150615,6.1,"
"##MN-00 00 90 0000 01530 6117 426827 827876 201"
"166.592882"
"$GPRMC,141341,A,2424.6955,N,08054.8565,W,3.5,123.2,150615,6.1,"
"##MN-00 00 90 0000 01529 6119 426351 827875 201"
"166.592928"
"$GPRMC,141345,A,2424.6932,N,08054.8528,W,3.5,123.1,150615,6.1,"
"##MN-00 00 90 0000 01530 6120 425985 827875 201"
"166.592975"
"$GPRMC,141349,A,2424.6913,N,08054.8494,W,3.3,123.5,150615,6.1,"
"##MN-00 00 90 0000 01530 6121 425816 827875 202"
"166.593021"
"$GPRMC,141353,A,2424.6896,N,08054.8466,W,3.3,122.7,150615,6.1,"
"##MN-00 00 90 0000 01529 6121 425842 827875 201"
"166.593067"
"$GPRMC,141357,A,2424.6875,N,08054.8432,W,3.3,122.9,150615,6.1,"
"##MN-00 00 90 0000 01529 6123 425985 827875 202"
"166.593113"
"$GPRMC,141401,A,2424.6855,N,08054.8397,W,3.3,121.9,150615,6.1,"
"##MN-00 00 89 0000 01532 6124 426558 827875 202"
"166.59316"
"$GPRMC,141405,A,2424.6830,N,08054.8360,W,3.2,122.1,150615,6.1,"
"##MN-00 00 89 0000 01533 6124 427286 827875 201"
"166.593206"
"$GPRMC,141409,A,2424.6810,N,08054.8325,W,3.3,122.9,150615,6.1,"
"##MN-00 00 88 0000 01530 6126 427346 827875 201"
"166.593252"
"$GPRMC,141413,A,2424.6790,N,08054.8294,W,3.2,124.2,150615,6.1,"
"##MN-00 00 88 0000 01528 6127 427034 827875 201"
"166.593299"
"$GPRMC,141418,A,2424.6763,N,08054.8252,W,3.3,125.4,150615,6.1,"
"##MN-00 00 89 0000 01529 6128 426793 827874 201"
"166.593345"
"$GPRMC,141422,A,2424.6741,N,08054.8219,W,3.3,125.5,150615,6.1,"
"##MN-00 00 88 0000 01528 6129 426769 827806 202"
"166.593391"
"$GPRMC,141426,A,2424.6720,N,08054.8188,W,3.3,126.1,150615,6.1,"
"##MN-00 00 88 0000 01528 6130 426481 827874 201"
"166.593438"
"$GPRMC,141430,A,2424.6700,N,08054.8158,W,3.2,127.0,150615,6.1,"
"##MN-00 00 88 0000 01530 6131 426678 827874 201"
"166.593484"
"$GPRMC,141434,A,2424.6676,N,08054.8127,W,3.2,127.7,150615,6.1,"
"##MN-00 00 88 0000 01530 6132 426394 827874 201"
"166.59353"
"$GPRMC,141437,A,2424.6658,N,08054.8104,W,3.2,127.7,150615,6.1,"
"##MN-00 00 88 0000 01532 6133 426555 827875 201"
"166.593576"
"$GPRMC,141442,A,2424.6628,N,08054.8064,W,3.2,129.3,150615,6.1,"
"##MN-00 00 88 0000 01528 6134 426755 827874 201"
"166.593623"
"$GPRMC,141446,A,2424.6602,N,08054.8033,W,3.2,130.6,150615,6.1,"
"##MN-00 00 90 0000 01529 6135 427345 827874 201"
"166.593669"
"$GPRMC,141450,A,2424.6577,N,08054.8001,W,3.3,131.1,150615,6.1,"
"##MN-00 00 90 0000 01531 6136 427241 827873 201"
"166.593715"
"$GPRMC,141454,A,2424.6552,N,08054.7968,W,3.4,130.8,150615,6.1,"
"##MN-00 00 78 0000 01529 6137 427698 827805 201"
"166.593762"
"$GPRMC,141458,A,2424.6527,N,08054.7936,W,3.4,129.9,150615,6.1,"
"##MN-00 00 77 0000 01530 6137 428000 827873 201"
"166.593808"
"$GPRMC,141502,A,2424.6502,N,08054.7902,W,3.4,129.6,150615,6.1,"
"##MN-00 00 72 0000 01532 6138 428040 827873 202"
"166.593854"
"$GPRMC,141506,A,2424.6478,N,08054.7870,W,3.3,129.3,150615,6.1,"
"##MN-00 00 71 0000 01529 6140 427745 827873 201"
"166.5939"
"$GPRMC,141510,A,2424.6459,N,08054.7840,W,3.3,128.4,150615,6.1,"
"##MN-00 00 71 0000 01528 6140 427111 827805 202"
"166.593947"
"$GPRMC,141514,A,2424.6436,N,08054.7804,W,3.3,126.7,150615,6.1,"
"##MN-00 00 71 0000 01530 6141 426666 827873 201"
"166.593993"
"$GPRMC,141518,A,2424.6414,N,08054.7769,W,3.4,125.1,150615,6.1,"
"##MN-00 00 71 0000 01529 6142 426280 827872 202"
"166.594039"
"$GPRMC,141522,A,2424.6394,N,08054.7736,W,3.5,124.7,150615,6.1,"
"##MN-00 00 71 0000 01529 6144 426013 827872 202"
"166.594086"
"$GPRMC,141526,A,2424.6367,N,08054.7694,W,3.5,123.9,150615,6.1,"
"##MN-00 00 75 0000 01530 6144 425754 827804 202"
"166.594132"
"$GPRMC,141530,A,2424.6343,N,08054.7653,W,3.6,122.9,150615,6.1,"
"##MN-00 00 75 0000 01530 6145 425838 827872 202"
"166.594178"
"$GPRMC,141534,A,2424.6321,N,08054.7613,W,3.6,122.2,150615,6.1,"
"##MN-00 00 80 0000 01530 6146 425228 827872 201"
"166.594225"
"$GPRMC,141538,A,2424.6299,N,08054.7574,W,3.6,122.1,150615,6.1,"
"##MN-00 00 81 0000 01529 6148 425232 827871 202"
"166.594271"
"$GPRMC,141542,A,2424.6277,N,08054.7537,W,3.6,121.9,150615,6.1,"
"##MN-00 00 81 0000 01529 6149 425311 827872 201"
"166.594317"
"$GPRMC,141546,A,2424.6255,N,08054.7500,W,3.5,121.5,150615,6.1,"
"##MN-00 00 82 0000 01531 6150 425123 827872 202"
"166.594363"
"$GPRMC,141550,A,2424.6238,N,08054.7468,W,3.5,121.8,150615,6.1,"
"##MN-00 00 81 0000 01530 6151 424856 827871 202"
"166.59441"
"$GPRMC,141554,A,2424.6223,N,08054.7435,W,3.5,120.9,150615,6.1,"
"##MN-00 00 79 0000 01530 6152 424730 827871 201"
"166.594456"
"$GPRMC,141558,A,2424.6205,N,08054.7400,W,3.5,122.5,150615,6.1,"
"##MN-00 00 81 0000 01529 6153 424787 827871 201"
"166.594502"
"$GPRMC,141602,A,2424.6184,N,08054.7364,W,3.5,122.7,150615,6.1,"
"##MN-00 00 79 0000 01531 6153 424925 827871 201"
"166.594549"
"$GPRMC,141606,A,2424.6162,N,08054.7328,W,3.5,123.1,150615,6.1,"
"##MN-00 00 79 0000 01531 6155 424764 827803 201"
"166.594595"
"$GPRMC,141610,A,2424.6140,N,08054.7292,W,3.5,122.8,150615,6.1,"
"##MN-00 00 79 0000 01528 6156 424766 827871 201"
"166.594641"
"$GPRMC,141614,A,2424.6119,N,08054.7260,W,3.5,123.1,150615,6.1,"
"##MN-00 00 79 0000 01529 6157 425105 827871 202"
"166.594688"
"$GPRMC,141618,A,2424.6100,N,08054.7225,W,3.5,123.3,150615,6.1,"
"##MN-00 00 79 0000 01530 6158 425166 827803 202"
"166.594734"
"$GPRMC,141622,A,2424.6078,N,08054.7192,W,3.5,124.3,150615,6.1,"
"##MN-00 00 79 0000 01531 6159 424903 827870 202"
"166.59478"
"$GPRMC,141626,A,2424.6055,N,08054.7156,W,3.5,125.3,150615,6.1,"
"##MN-00 00 79 0000 01531 6160 424510 827870 201"
"166.594826"
"$GPRMC,141630,A,2424.6031,N,08054.7118,W,3.6,125.7,150615,6.1,"
"##MN-00 00 79 0000 01531 6161 424527 827871 201"
"166.594873"
"$GPRMC,141634,A,2424.6006,N,08054.7080,W,3.6,126.0,150615,6.1,"
"##MN-00 00 79 0000 01528 6162 424153 827870 201"
"166.594919"
"$GPRMC,141638,A,2424.5982,N,08054.7048,W,3.6,126.3,150615,6.1,"
"##MN-00 00 79 0000 01527 6163 424634 827802 202"
"166.594965"
"$GPRMC,141642,A,2424.5959,N,08054.7016,W,3.5,126.8,150615,6.1,"
"##MN-00 00 79 0000 01531 6164 424632 827870 202"
"166.595012"
"$GPRMC,141646,A,2424.5934,N,08054.6982,W,3.5,127.4,150615,6.1,"
"##MN-00 00 43 0000 01530 6165 424345 827870 202"
"166.595058"
"$GPRMC,141650,A,2424.5909,N,08054.6947,W,3.5,127.7,150615,6.1,"
"##MN-00 00 44 0000 01530 6166 423979 827870 201"
"166.595104"
"$GPRMC,141654,A,2424.5884,N,08054.6912,W,3.5,127.8,150615,6.1,"
"##MN-00 00 44 0000 01529 6167 424407 827870 201"
"166.59515"
"$GPRMC,141658,A,2424.5858,N,08054.6876,W,3.5,128.0,150615,6.1,"
"##MN-00 00 44 0000 01531 6169 424345 827871 201"
"166.595197"
"$GPRMC,141702,A,2424.5834,N,08054.6841,W,3.5,127.5,150615,6.1,"
"##MN-00 00 44 0000 01530 6170 424361 827869 201"
"166.595243"
"$GPRMC,141706,A,2424.5812,N,08054.6807,W,3.5,126.9,150615,6.1,"
"##MN-00 00 44 0000 01531 6171 424832 827870 201"
"166.595289"
"$GPRMC,141710,A,2424.5790,N,08054.6773,W,3.5,126.4,150615,6.1,"
"##MN-00 00 43 0000 01531 6172 424542 827869 201"
"166.595336"
"$GPRMC,141714,A,2424.5768,N,08054.6735,W,3.5,125.3,150615,6.1,"
"##MN-00 00 46 0000 01531 6173 424586 827870 201"
"166.595382"
"$GPRMC,141718,A,2424.5747,N,08054.6696,W,3.5,123.3,150615,6.1,"
"##MN-00 00 43 0000 01531 6174 424758 827869 201"
"166.595428"
"$GPRMC,141722,A,2424.5726,N,08054.6657,W,3.6,122.2,150615,6.1,"
"##MN-00 00 56 0000 01530 6176 424667 827869 201"
"166.595475"
"$GPRMC,141726,A,2424.5708,N,08054.6623,W,3.5,122.2,150615,6.1,"
"##MN-00 00 56 0000 01531 6177 424827 827869 201"
"166.595521"
"$GPRMC,141730,A,2424.5693,N,08054.6595,W,3.6,120.9,150615,6.1,"
"##MN-00 00 57 0000 01529 6178 425231 827869 201"
"166.595567"
"$GPRMC,141734,A,2424.5667,N,08054.6547,W,3.6,119.3,150615,6.1,"
"##MN-00 00 55 0000 01529 6179 425300 827801 201"
"166.595613"
"$GPRMC,141738,A,2424.5647,N,08054.6508,W,3.6,118.8,150615,6.1,"
"##MN-00 00 56 0000 01531 6180 425872 827869 201"
"166.59566"
"$GPRMC,141742,A,2424.5627,N,08054.6470,W,3.6,119.2,150615,6.1,"
"##MN-00 00 66 0000 01531 6181 426074 827868 201"
"166.595706"
"$GPRMC,141746,A,2424.5606,N,08054.6431,W,3.5,119.9,150615,6.1,"
"##MN-00 00 66 0000 01530 6182 426237 827868 201"
"166.595752"
"$GPRMC,141750,A,2424.5587,N,08054.6396,W,3.5,120.1,150615,6.1,"
"##MN-00 00 66 0000 01531 6183 426421 827869 201"
"166.595799"
"$GPRMC,141754,A,2424.5569,N,08054.6368,W,3.5,120.7,150615,6.1,"
"##MN-00 00 66 0000 01529 6184 426698 827868 201"
"166.595856"
"$GPRMC,141758,A,2424.5547,N,08054.6331,W,3.5,121.0,150615,6.1,"
"##MN-00 00 75 0000 01529 6186 426381 827868 202"
"166.595903"
"$GPRMC,141802,A,2424.5526,N,08054.6297,W,3.6,122.3,150615,6.1,"
"##MN-00 00 75 0000 01531 6187 425866 827868 202"
"166.595949"
"$GPRMC,141806,A,2424.5504,N,08054.6264,W,3.5,123.6,150615,6.1,"
"##MN-00 00 75 0000 01529 6188 425717 827868 202"
"166.595995"
"$GPRMC,141810,A,2424.5481,N,08054.6232,W,3.5,125.1,150615,6.1,"
"##MN-00 00 75 0000 01531 6189 425428 827868 202"
"166.596042"
"$GPRMC,141814,A,2424.5459,N,08054.6198,W,3.5,126.5,150615,6.1,"
"##MN-00 00 71 0000 01529 6191 425362 827868 201"
"166.596088"
"$GPRMC,141818,A,2424.5435,N,08054.6167,W,3.4,127.2,150615,6.1,"
"##MN-00 00 71 0000 01531 6192 424796 827868 201"
"166.596134"
"$GPRMC,141822,A,2424.5412,N,08054.6134,W,3.4,128.5,150615,6.1,"
"##MN-00 00 72 0000 01530 6193 424354 827867 201"
"166.596181"
"$GPRMC,141826,A,2424.5388,N,08054.6100,W,3.3,129.1,150615,6.1,"
"##MN-00 00 71 0000 01528 6194 424484 827867 201"
"166.596227"
"$GPRMC,141830,A,2424.5364,N,08054.6067,W,3.2,129.7,150615,6.1,"
"##MN-00 00 71 0000 01530 6195 424125 827867 202"
"166.596273"
"$GPRMC,141834,A,2424.5341,N,08054.6035,W,3.3,129.6,150615,6.1,"
"##MN-00 00 71 0000 01528 6196 424201 827867 201"
"166.596319"
"$GPRMC,141838,A,2424.5320,N,08054.6003,W,3.3,129.1,150615,6.1,"
"##MN-00 00 71 0000 01530 6198 424040 827866 201"
"166.596366"
"$GPRMC,141842,A,2424.5295,N,08054.5969,W,3.3,127.9,150615,6.1,"
"##MN-00 00 72 0000 01530 6199 423682 827866 201"
"166.596412"
"$GPRMC,141846,A,2424.5273,N,08054.5936,W,3.3,127.2,150615,6.1,"
"##MN-00 00 71 0000 01531 6200 423406 827867 201"
"166.596458"
"$GPRMC,141850,A,2424.5255,N,08054.5908,W,3.3,126.4,150615,6.1,"
"##MN-00 00 71 0000 01529 6201 423171 827798 201"
"166.596505"
"$GPRMC,141854,A,2424.5233,N,08054.5874,W,3.4,124.2,150615,6.1,"
"##MN-00 00 72 0000 01530 6202 422880 827798 202"
"166.596551"
"$GPRMC,141859,A,2424.5205,N,08054.5826,W,3.4,123.0,150615,6.1,"
"##MN-00 00 72 0000 01531 6204 422873 827866 202"
"166.596597"
"$GPRMC,141903,A,2424.5183,N,08054.5786,W,3.5,121.9,150615,6.1,"
"##MN-00 00 72 0000 01531 6205 422871 827866 201"
"166.596644"
"$GPRMC,141906,A,2424.5168,N,08054.5754,W,3.5,122.5,150615,6.1,"
"##MN-00 00 72 0000 01528 6206 422897 827866 202"
"166.59669"
"$GPRMC,141910,A,2424.5147,N,08054.5718,W,3.5,121.7,150615,6.1,"
"##MN-00 00 73 0000 01529 6207 422829 827866 201"
"166.596736"
"$GPRMC,141914,A,2424.5126,N,08054.5682,W,3.6,121.1,150615,6.1,"
"##MN-00 00 73 0000 01531 6208 423226 827866 202"
"166.596782"
"$GPRMC,141919,A,2424.5101,N,08054.5632,W,3.5,121.4,150615,6.1,"
"##MN-00 00 73 0000 01529 6209 422874 827865 201"
"166.596829"
"$GPRMC,141923,A,2424.5080,N,08054.5594,W,3.6,121.7,150615,6.1,"
"##MN-00 00 73 0000 01530 6211 422875 827865 201"
"166.596875"
"$GPRMC,141927,A,2424.5058,N,08054.5556,W,3.6,121.7,150615,6.1,"
"##MN-00 00 73 0000 01528 6213 422563 827866 201"
"166.596921"
"$GPRMC,141931,A,2424.5038,N,08054.5522,W,3.6,121.6,150615,6.1,"
"##MN-00 00 73 0000 01530 6214 422434 827865 202"
"166.596968"
"$GPRMC,141935,A,2424.5017,N,08054.5484,W,3.6,121.7,150615,6.1,"
"##MN-00 00 73 0000 01531 6215 422898 827865 201"
"166.597014"
"$GPRMC,141939,A,2424.4995,N,08054.5447,W,3.6,122.3,150615,6.1,"
"##MN-00 00 72 0000 01528 6216 423085 827865 201"
"166.59706"
"$GPRMC,141943,A,2424.4973,N,08054.5412,W,3.6,123.0,150615,6.1,"
"##MN-00 00 90 0000 01530 6217 423791 827865 202"
"166.597106"
"$GPRMC,141947,A,2424.4948,N,08054.5376,W,3.5,123.0,150615,6.1,"
"##MN-00 00 90 0000 01530 6218 424035 827864 202"
"166.597153"
"$GPRMC,141951,A,2424.4926,N,08054.5340,W,3.5,123.9,150615,6.1,"
"##MN-00 00 90 0000 01532 6220 423792 827865 201"
"166.597199"
"$GPRMC,141955,A,2424.4902,N,08054.5305,W,3.5,124.9,150615,6.1,"
"##MN-00 00 90 0000 01530 6221 423778 827864 201"
"166.597245"
"$GPRMC,141959,A,2424.4880,N,08054.5274,W,3.5,125.4,150615,6.1,"
"##MN-00 00 90 0000 01529 6223 423742 827865 202"
"166.597292"
"$GPRMC,142003,A,2424.4856,N,08054.5242,W,3.3,126.6,150615,6.1,"
"##MN-00 00 90 0000 01529 6224 423753 827864 201"
"166.597338"
"$GPRMC,142007,A,2424.4833,N,08054.5212,W,3.3,127.7,150615,6.1,"
"##MN-00 00 89 0000 01531 6225 423792 827864 201"
"166.597384"
"$GPRMC,142011,A,2424.4809,N,08054.5178,W,3.3,127.7,150615,6.1,"
"##MN-00 00 90 0000 01531 6226 423571 827865 202"
"166.597431"
"$GPRMC,142015,A,2424.4785,N,08054.5145,W,3.3,126.9,150615,6.1,"
"##MN-00 00 90 0000 01529 6228 424083 827864 201"
"166.597477"
"$GPRMC,142019,A,2424.4763,N,08054.5112,W,3.3,126.5,150615,6.1,"
"##MN-00 00 90 0000 01528 6229 423466 827864 201"
"166.597523"
"$GPRMC,142023,A,2424.4740,N,08054.5076,W,3.4,126.3,150615,6.1,"
"##MN-00 00 90 0000 01529 6230 423593 827864 202"
"166.597569"
"$GPRMC,142027,A,2424.4718,N,08054.5039,W,3.4,125.3,150615,6.1,"
"##MN-00 00 90 0000 01528 6232 423479 827864 201"
"166.597616"
"$GPRMC,142031,A,2424.4696,N,08054.5003,W,3.5,124.3,150615,6.1,"
"##MN-00 00 75 0000 01530 6233 423355 827796 201"
"166.597662"
"$GPRMC,142035,A,2424.4674,N,08054.4968,W,3.5,124.0,150615,6.1,"
"##MN-00 00 56 0000 01529 6234 423683 827864 201"
"166.597708"
"$GPRMC,142039,A,2424.4657,N,08054.4933,W,3.5,124.1,150615,6.1,"
"##MN-00 00 60 0000 01530 6235 424169 827863 201"
"166.597755"
"$GPRMC,142043,A,2424.4638,N,08054.4899,W,3.6,122.5,150615,6.1,"
"##MN-00 00 61 0000 01530 6237 424034 827864 201"
"166.597801"
"$GPRMC,142047,A,2424.4619,N,08054.4862,W,3.6,121.9,150615,6.1,"
"##MN-00 00 61 0000 01533 6238 424146 827863 201"
"166.597847"
"$GPRMC,142051,A,2424.4598,N,08054.4824,W,3.5,121.4,150615,6.1,"
"##MN-00 00 61 0000 01531 6239 424258 827863 201"
"166.597894"
"$GPRMC,142055,A,2424.4579,N,08054.4785,W,3.5,120.9,150615,6.1,"
"##MN-00 00 61 0000 01529 6241 424304 827863 202"
"166.59794"
"$GPRMC,142059,A,2424.4558,N,08054.4746,W,3.6,120.3,150615,6.1,"
"##MN-00 00 61 0000 01529 6242 424483 827863 202"
"166.597986"
"$GPRMC,142103,A,2424.4538,N,08054.4708,W,3.6,119.7,150615,6.1,"
"##MN-00 00 61 0000 01530 6244 424808 827795 202"
"166.598032"
"$GPRMC,142107,A,2424.4518,N,08054.4668,W,3.7,119.0,150615,6.1,"
"##MN-00 00 61 0000 01530 6245 424857 827863 201"
"166.598079"
"$GPRMC,142111,A,2424.4496,N,08054.4628,W,3.7,119.3,150615,6.1,"
"##MN-00 00 77 0000 01530 6246 425123 827796 202"
"166.598125"
"$GPRMC,142115,A,2424.4474,N,08054.4590,W,3.7,120.6,150615,6.1,"
"##MN-00 00 77 0000 01529 6248 425740 827863 201"
"166.598171"
"$GPRMC,142119,A,2424.4454,N,08054.4552,W,3.6,120.7,150615,6.1,"
"##MN-00 00 76 0000 01529 6249 425969 827863 201"
"166.598218"
"$GPRMC,142123,A,2424.4435,N,08054.4514,W,3.6,119.1,150615,6.1,"
"##MN-00 00 86 0000 01530 6251 426477 827863 202"
"166.598264"
"$GPRMC,142127,A,2424.4415,N,08054.4477,W,3.5,119.8,150615,6.1,"
"##MN-00 00 86 0000 01528 6252 426591 827862 201"
"166.59831"
"$GPRMC,142131,A,2424.4397,N,08054.4442,W,3.5,119.2,150615,6.1,"
"##MN-00 00 86 0000 01529 6253 426192 827863 201"
"166.598356"
"$GPRMC,142135,A,2424.4377,N,08054.4402,W,3.5,119.8,150615,6.1,"
"##MN-00 00 86 0000 01529 6255 426450 827862 201"
"166.598403"
"$GPRMC,142139,A,2424.4355,N,08054.4366,W,3.5,120.9,150615,6.1,"
"##MN-00 00 86 0000 01528 6256 426798 827863 201"
"166.598449"
"$GPRMC,142143,A,2424.4333,N,08054.4331,W,3.5,122.3,150615,6.1,"
"##MN-00 00 86 0000 01529 6257 426474 827862 201"
"166.598495"
"$GPRMC,142147,A,2424.4312,N,08054.4297,W,3.5,123.5,150615,6.1,"
"##MN-00 00 75 0000 01529 6259 425946 827862 201"
"166.598542"
"$GPRMC,142151,A,2424.4290,N,08054.4264,W,3.5,123.8,150615,6.1,"
"##MN-00 00 75 0000 01531 6260 425795 827863 201"
"166.598588"
"$GPRMC,142155,A,2424.4267,N,08054.4229,W,3.5,124.3,150615,6.1,"
"##MN-00 00 74 0000 01528 6261 425459 827862 202"
"166.598634"
"$GPRMC,142159,A,2424.4245,N,08054.4194,W,3.5,125.3,150615,6.1,"
"##MN-00 00 73 0000 01529 6263 425232 827861 201"
"166.598681"
"$GPRMC,142203,A,2424.4225,N,08054.4159,W,3.5,126.2,150615,6.1,"
"##MN-00 00 74 0000 01530 6264 425268 827794 202"
"166.598727"
"$GPRMC,142207,A,2424.4202,N,08054.4124,W,3.5,126.1,150615,6.1,"
"##MN-00 00 78 0000 01528 6265 425350 827861 202"
"166.598773"
"$GPRMC,142211,A,2424.4180,N,08054.4093,W,3.5,125.9,150615,6.1,"
"##MN-00 00 89 0000 01529 6267 425942 827794 202"
"166.598819"
"$GPRMC,142215,A,2424.4157,N,08054.4061,W,3.5,125.1,150615,6.1,"
"##MN-00 00 89 0000 01529 6268 425635 827861 202"
"166.598866"
"$GPRMC,142219,A,2424.4135,N,08054.4028,W,3.4,125.2,150615,6.1,"
"##MN-00 00 90 0000 01528 6270 425523 827861 201"
"166.598912"
"$GPRMC,142223,A,2424.4113,N,08054.3996,W,3.3,126.1,150615,6.1,"
"##MN-00 00 90 0000 01529 6271 425534 827861 202"
"166.598958"
"$GPRMC,142227,A,2424.4090,N,08054.3960,W,3.3,126.9,150615,6.1,"
"##MN-00 00 90 0000 01530 6273 425105 827861 202"
"166.599016"
"$GPRMC,142231,A,2424.4070,N,08054.3929,W,3.2,127.0,150615,6.1,"
"##MN-00 00 90 0000 01530 6274 424895 827860 201"
"166.599062"
"$GPRMC,142235,A,2424.4050,N,08054.3899,W,3.3,125.8,150615,6.1,"
"##MN-00 00 89 0000 01528 6276 424819 827861 201"
"166.599109"
"$GPRMC,142239,A,2424.4030,N,08054.3865,W,3.3,125.0,150615,6.1,"
"##MN-00 00 89 0000 01527 6277 424881 827861 201"
"166.599155"
"$GPRMC,142243,A,2424.4013,N,08054.3826,W,3.4,123.2,150615,6.1,"
"##MN-00 00 88 0000 01531 6278 425183 827860 201"
"166.599201"
"$GPRMC,142247,A,2424.3994,N,08054.3787,W,3.5,121.9,150615,6.1,"
"##MN-00 00 87 0000 01530 6280 424997 827793 201"
"166.599248"
"$GPRMC,142251,A,2424.3976,N,08054.3752,W,3.6,121.6,150615,6.1,"
"##MN-00 00 83 0000 01528 6281 425188 827724 201"
"166.599294"
"$GPRMC,142255,A,2424.3955,N,08054.3713,W,3.6,121.2,150615,6.1,"
"##MN-00 00 83 0000 01529 6282 424936 827860 202"
"166.59934"
"$GPRMC,142259,A,2424.3934,N,08054.3674,W,3.6,121.0,150615,6.1,"
"##MN-00 00 83 0000 01531 6284 425288 827860 202"
"166.599387"
"$GPRMC,142303,A,2424.3912,N,08054.3635,W,3.7,119.9,150615,6.1,"
"##MN-00 00 81 0000 01527 6285 425476 827860 201"
"166.599433"
"$GPRMC,142307,A,2424.3893,N,08054.3593,W,3.7,118.0,150615,6.1,"
"##MN-00 00 85 0000 01530 6287 425534 827860 201"
"166.599479"
"$GPRMC,142311,A,2424.3872,N,08054.3550,W,3.7,116.2,150615,6.1,"
"##MN-00 00 84 0000 01528 6288 425814 827860 201"
"166.599525"
"$GPRMC,142315,A,2424.3854,N,08054.3507,W,3.7,114.9,150615,6.1,"
"##MN-00 00 87 0000 01529 6290 425393 827860 201"
"166.599572"
"$GPRMC,142319,A,2424.3837,N,08054.3466,W,3.8,114.4,150615,6.1,"
"##MN-00 00 87 0000 01527 6291 424819 827860 202"
"166.599618"
"$GPRMC,142323,A,2424.3821,N,08054.3424,W,3.7,113.6,150615,6.1,"
"##MN-00 00 87 0000 01528 6293 424837 827860 201"
"166.599664"
"$GPRMC,142327,A,2424.3804,N,08054.3383,W,3.7,113.5,150615,6.1,"
"##MN-00 00 79 0000 01530 6294 424686 827860 201"
"166.599711"
"$GPRMC,142331,A,2424.3788,N,08054.3345,W,3.6,113.5,150615,6.1,"
"##MN-00 00 79 0000 01529 6296 424365 827792 202"
"166.599757"
"$GPRMC,142336,A,2424.3765,N,08054.3297,W,3.3,114.7,150615,6.1,"
"##MN-00 00 76 0000 01530 6297 424085 827860 202"
"166.599803"
"$GPRMC,142339,A,2424.3753,N,08054.3272,W,3.3,114.1,150615,6.1,"
"##MN-00 00 76 0000 01531 6298 423659 827859 201"
"166.59985"
"$GPRMC,142344,A,2424.3734,N,08054.3229,W,3.2,116.3,150615,6.1,"
"##MN-00 00 76 0000 01529 6300 423534 827859 201"
"166.599896"
"$GPRMC,142347,A,2424.3719,N,08054.3201,W,3.3,118.3,150615,6.1,"
"##MN-00 00 76 0000 01529 6302 423554 827723 202"
"166.599942"
"$GPRMC,142351,A,2424.3699,N,08054.3168,W,3.2,120.1,150615,6.1,"
"##MN-00 00 76 0000 01530 6303 423888 827859 201"
"166.599988"
"$GPRMC,142355,A,2424.3680,N,08054.3134,W,3.2,121.5,150615,6.1,"
"##MN-00 00 76 0000 01529 6304 424122 827792 201"
"166.600035"
"$GPRMC,142359,A,2424.3659,N,08054.3103,W,3.2,122.8,150615,6.1,"
"##MN-00 00 76 0000 01530 6306 424401 827793 201"
"166.600081"
"$GPRMC,142404,A,2424.3633,N,08054.3064,W,3.2,125.7,150615,6.1,"
"##MN-00 00 83 0000 01529 6307 423908 827859 202"
"166.600127"
"$GPRMC,142408,A,2424.3611,N,08054.3033,W,3.2,126.5,150615,6.1,"
"##MN-00 00 84 0000 01529 6309 423684 827859 201"
"166.600174"
"$GPRMC,142412,A,2424.3588,N,08054.3000,W,3.3,126.9,150615,6.1,"
"##MN-00 00 85 0000 01528 6311 423728 827859 202"
"166.60022"
"$GPRMC,142416,A,2424.3565,N,08054.2968,W,3.3,127.2,150615,6.1,"
"##MN-00 00 84 0000 01530 6312 424004 827790 202"
"166.600266"
"$GPRMC,142420,A,2424.3542,N,08054.2935,W,3.3,127.1,150615,6.1,"
"##MN-00 00 86 0000 01529 6313 424114 827858 201"
"166.600313"
"$GPRMC,142424,A,2424.3518,N,08054.2900,W,3.4,127.3,150615,6.1,"
"##MN-00 00 87 0000 01528 6315 423790 827858 201"
"166.600359"
"$GPRMC,142428,A,2424.3497,N,08054.2870,W,3.3,127.5,150615,6.1,"
"##MN-00 00 86 0000 01528 6316 423443 827790 201"
"166.600405"
"$GPRMC,142432,A,2424.3475,N,08054.2835,W,3.3,126.7,150615,6.1,"
"##MN-00 00 84 0000 01530 6318 423183 827858 201"
"166.600451"
"$GPRMC,142436,A,2424.3453,N,08054.2800,W,3.3,125.6,150615,6.1,"
"##MN-00 00 87 0000 01529 6320 422447 827858 202"
"166.600498"
"$GPRMC,142440,A,2424.3431,N,08054.2763,W,3.4,124.5,150615,6.1,"
"##MN-00 00 87 0000 01529 6321 422331 827859 201"
"166.600544"
"$GPRMC,142444,A,2424.3412,N,08054.2731,W,3.5,122.8,150615,6.1,"
"##MN-00 00 87 0000 01527 6323 422326 827789 201"
"166.60059"
"$GPRMC,142448,A,2424.3392,N,08054.2695,W,3.5,122.4,150615,6.1,"
"##MN-00 00 87 0000 01529 6325 422376 827857 201"
"166.600637"
"$GPRMC,142452,A,2424.3373,N,08054.2660,W,3.4,122.0,150615,6.1,"
"##MN-00 00 68 0000 01530 6326 422487 827858 201"
"166.600683"
"$GPRMC,142456,A,2424.3353,N,08054.2624,W,3.3,121.0,150615,6.1,"
"##MN-00 00 68 0000 01528 6327 422838 827858 201"
"166.600729"
"$GPRMC,142500,A,2424.3335,N,08054.2587,W,3.3,120.1,150615,6.1,"
"##MN-00 00 68 0000 01528 6329 422526 827790 201"
"166.600775"
"$GPRMC,142504,A,2424.3318,N,08054.2551,W,3.3,118.7,150615,6.1,"
"##MN-00 00 73 0000 01527 6330 422409 827857 201"
"166.600822"
"$GPRMC,142508,A,2424.3300,N,08054.2514,W,3.2,118.0,150615,6.1,"
"##MN-00 00 73 0000 01528 6332 422703 827858 201"
"166.600868"
"$GPRMC,142512,A,2424.3286,N,08054.2479,W,3.2,117.6,150615,6.1,"
"##MN-00 00 80 0000 01530 6334 423157 827857 201"
"166.600914"
"$GPRMC,142516,A,2424.3268,N,08054.2440,W,3.2,117.0,150615,6.1,"
"##MN-00 00 80 0000 01525 6335 423073 827858 201"
"166.600961"
"$GPRMC,142520,A,2424.3250,N,08054.2406,W,3.2,117.3,150615,6.1,"
"##MN-00 00 83 0000 01527 6337 423543 827857 202"
"166.601007"
"$GPRMC,142524,A,2424.3232,N,08054.2372,W,3.2,117.0,150615,6.1,"
"##MN-00 00 82 0000 01530 6338 423697 827857 201"
"166.601053"
"$GPRMC,142528,A,2424.3217,N,08054.2345,W,3.2,118.4,150615,6.1,"
"##MN-00 00 74 0000 01527 6340 423857 827857 201"
"166.6011"
"$GPRMC,142532,A,2424.3200,N,08054.2311,W,3.2,120.0,150615,6.1,"
"##MN-00 00 73 0000 01528 6341 423909 827790 202"
"166.601146"
"$GPRMC,142536,A,2424.3181,N,08054.2276,W,3.2,120.8,150615,6.1,"
"##MN-00 00 73 0000 01529 6343 424202 827857 201"
"166.601192"
"$GPRMC,142540,A,2424.3160,N,08054.2241,W,3.2,121.6,150615,6.1,"
"##MN-00 00 73 0000 01526 6345 424137 827857 201"
"166.601238"
"$GPRMC,142544,A,2424.3139,N,08054.2204,W,3.3,122.7,150615,6.1,"
"##MN-00 00 86 0000 01527 6346 424071 827857 202"
"166.601285"
"$GPRMC,142548,A,2424.3118,N,08054.2169,W,3.4,122.7,150615,6.1,"
"##MN-00 00 86 0000 01528 6348 423818 827857 201"
"166.601331"
"$GPRMC,142552,A,2424.3095,N,08054.2134,W,3.4,123.5,150615,6.1,"
"##MN-00 00 85 0000 01528 6349 423473 827857 201"
"166.601377"
"$GPRMC,142556,A,2424.3074,N,08054.2102,W,3.4,124.6,150615,6.1,"
"##MN-00 00 86 0000 01527 6351 423093 827857 201"
"166.601424"
"$GPRMC,142600,A,2424.3052,N,08054.2067,W,3.4,125.1,150615,6.1,"
"##MN-00 00 87 0000 01529 6352 422754 827788 201"
"166.60147"
"$GPRMC,142604,A,2424.3029,N,08054.2032,W,3.4,125.4,150615,6.1,"
"##MN-00 00 87 0000 01528 6354 422628 827789 201"
"166.601516"
"$GPRMC,142608,A,2424.3008,N,08054.1996,W,3.5,124.4,150615,6.1,"
"##MN-00 00 87 0000 01528 6356 423119 827856 201"
"166.601563"
"$GPRMC,142612,A,2424.2986,N,08054.1962,W,3.5,123.1,150615,6.1,"
"##MN-00 00 87 0000 01528 6357 423618 827856 201"
"166.601609"
"$GPRMC,142616,A,2424.2963,N,08054.1926,W,3.5,123.5,150615,6.1,"
"##MN-00 00 87 0000 01527 6359 423062 827790 202"
"166.601655"
"$GPRMC,142620,A,2424.2941,N,08054.1889,W,3.5,123.6,150615,6.1,"
"##MN-00 00 84 0000 01530 6360 423613 827788 201"
"166.601701"
"$GPRMC,142624,A,2424.2921,N,08054.1857,W,3.5,123.3,150615,6.1,"
"##MN-00 00 82 0000 01527 6362 423314 827856 201"
"166.601748"
"$GPRMC,142628,A,2424.2898,N,08054.1817,W,3.6,123.2,150615,6.1,"
"##MN-00 00 87 0000 01529 6363 423096 827787 201"
"166.601794"
"$GPRMC,142632,A,2424.2878,N,08054.1782,W,3.5,122.7,150615,6.1,"
"##MN-00 00 87 0000 01527 6365 422715 827856 201"
"166.60184"
"$GPRMC,142636,A,2424.2856,N,08054.1743,W,3.5,122.5,150615,6.1,"
"##MN-00 00 87 0000 01528 6367 422687 827721 201"
"166.601887"
"$GPRMC,142640,A,2424.2838,N,08054.1711,W,3.4,122.6,150615,6.1,"
"##MN-00 00 87 0000 01528 6368 422340 827855 201"
"166.601933"
"$GPRMC,142644,A,2424.2817,N,08054.1677,W,3.3,121.1,150615,6.1,"
"##MN-00 00 87 0000 01529 6370 422498 827719 201"
"166.601979"
"$GPRMC,142648,A,2424.2800,N,08054.1643,W,3.2,119.7,150615,6.1,"
"##MN-00 00 87 0000 01528 6372 422617 827855 201"
"166.602025"
"$GPRMC,142652,A,2424.2784,N,08054.1610,W,3.2,119.7,150615,6.1,"
"##MN-00 00 90 0000 01528 6373 422912 827855 201"
"166.602072"
"$GPRMC,142656,A,2424.2767,N,08054.1575,W,3.2,120.3,150615,6.1,"
"##MN-00 00 90 0000 01528 6375 423099 827855 201"
"166.60213"
"$GPRMC,142700,A,2424.2748,N,08054.1541,W,3.2,120.5,150615,6.1,"
"##MN-00 00 84 0000 01526 6377 423129 827788 201"
"166.602176"
"$GPRMC,142704,A,2424.2729,N,08054.1505,W,3.3,121.6,150615,6.1,"
"##MN-00 00 86 0000 01528 6378 422910 827854 201"
"166.602222"
"$GPRMC,142708,A,2424.2710,N,08054.1471,W,3.2,122.0,150615,6.1,"
"##MN-00 00 87 0000 01527 6380 423190 827855 201"
"166.602269"
"$GPRMC,142712,A,2424.2690,N,08054.1434,W,3.3,121.4,150615,6.1,"
"##MN-00 00 85 0000 01526 6382 423490 827855 201"
"166.602315"
"$GPRMC,142716,A,2424.2672,N,08054.1400,W,3.3,121.2,150615,6.1,"
"##MN-00 00 87 0000 01526 6383 423694 827854 201"
"166.602361"
"$GPRMC,142720,A,2424.2652,N,08054.1366,W,3.3,121.4,150615,6.1,"
"##MN-00 00 87 0000 01529 6385 423562 827855 202"
"166.602407"
"$GPRMC,142724,A,2424.2632,N,08054.1330,W,3.3,122.1,150615,6.1,"
"##MN-00 00 87 0000 01527 6386 423274 827855 202"
"166.602454"
"$GPRMC,142728,A,2424.2612,N,08054.1294,W,3.3,122.6,150615,6.1,"
"##MN-00 00 87 0000 01527 6388 423366 827718 201"
"166.6025"
"$GPRMC,142732,A,2424.2593,N,08054.1261,W,3.3,121.9,150615,6.1,"
"##MN-00 00 87 0000 01527 6390 423505 827855 201"
"166.602546"
"$GPRMC,142736,A,2424.2574,N,08054.1229,W,3.3,121.8,150615,6.1,"
"##MN-00 00 87 0000 01527 6391 424137 827854 201"
"166.602593"
"$GPRMC,142740,A,2424.2556,N,08054.1195,W,3.4,120.9,150615,6.1,"
"##MN-00 00 87 0000 01529 6393 424367 827786 201"
"166.602639"
"$GPRMC,142744,A,2424.2538,N,08054.1158,W,3.4,119.6,150615,6.1,"
"##MN-00 00 87 0000 01526 6395 424150 827787 201"
"166.602685"
"$GPRMC,142748,A,2424.2518,N,08054.1121,W,3.5,118.9,150615,6.1,"
"##MN-00 00 87 0000 01528 6396 424105 827854 201"
"166.602731"
"$GPRMC,142752,A,2424.2500,N,08054.1084,W,3.5,118.7,150615,6.1,"
"##MN-00 00 87 0000 01528 6398 424257 827854 201"
"166.602778"
"$GPRMC,142756,A,2424.2480,N,08054.1046,W,3.5,119.4,150615,6.1,"
"##MN-00 00 87 0000 01528 6400 424215 827854 201"
"166.602824"
"$GPRMC,142800,A,2424.2459,N,08054.1009,W,3.5,120.3,150615,6.1,"
"##MN-00 00 87 0000 01527 6401 424177 827786 202"
"166.60287"
"$GPRMC,142804,A,2424.2440,N,08054.0974,W,3.5,120.9,150615,6.1,"
"##MN-00 00 87 0000 01528 6403 423737 827854 201"
"166.602917"
"$GPRMC,142808,A,2424.2420,N,08054.0938,W,3.5,121.9,150615,6.1,"
"##MN-00 00 87 0000 01529 6405 423927 827787 201"
" Tow: TEST   RVWS/WS15161"
" Date: 19/06/2015"
" Temperature Probe #  4762    Conductivity Probe #  710"
" Pressure Probe #  159"
" Flow Meter Calibration  4.71 (m/count)  "
"170.981979"
"$GPRMC,233359,A,2519.1837,N,07922.3588,W,3.5,240.9,190615,7.3,"
"##MN-00 00 62 0000 01530 6180 459731 827465 198"
"170.982025"
"$GPRMC,233404,A,2519.1825,N,07922.3652,W,3.8,251.1,190615,7.3,"
"##MN-00 00 62 0000 01528 6181 455887 827892 198"
"170.982072"
"$GPRMC,233408,A,2519.1821,N,07922.3708,W,4.1,258.1,190615,7.3,"
"##MN-00 00 62 0000 01529 6182 455808 827891 198"
"170.982118"
"$GPRMC,233412,A,2519.1823,N,07922.3770,W,4.5,264.3,190615,7.3,"
"##MN-00 00 62 0000 01529 6183 455564 827892 198"
"170.982164"
"$GPRMC,233416,A,2519.1823,N,07922.3842,W,5.1,267.5,190615,7.3,"
"##MN-00 00 62 0000 01529 6184 455602 827892 198"
"170.982211"
"$GPRMC,233420,A,2519.1823,N,07922.3923,W,5.8,268.4,190615,7.3,"
"##MN-00 00 62 0000 01530 6185 455923 827892 198"
"170.982257"
"$GPRMC,233424,A,2519.1821,N,07922.4008,W,6.3,268.4,190615,7.3,"
"##MN-00 00 62 0000 01529 6186 456159 827891 198"
"170.982303"
"$GPRMC,233428,A,2519.1817,N,07922.4097,W,6.8,267.8,190615,7.3,"
"##MN-00 00 62 0000 01531 6186 456086 827891 198"
"170.98235"
"$GPRMC,233432,A,2519.1812,N,07922.4191,W,7.2,267.2,190615,7.3,"
"##MN-00 00 62 0000 01530 6187 456397 827892 198"
"170.982396"
"$GPRMC,233436,A,2519.1802,N,07922.4288,W,7.6,265.6,190615,7.3,"
"##MN-00 00 62 0000 01528 6188 456395 827891 198"
"170.982442"
"$GPRMC,233440,A,2519.1791,N,07922.4389,W,7.9,264.0,190615,7.3,"
"##MN-00 00 62 0000 01526 6188 456098 827892 198"
"170.982488"
"$GPRMC,233444,A,2519.1779,N,07922.4492,W,8.3,263.3,190615,7.3,"
"##MN-00 00 62 0000 01529 6189 455780 827892 198"
"170.982535"
"$GPRMC,233448,A,2519.1767,N,07922.4600,W,8.5,263.1,190615,7.3,"
"##MN-00 00 63 0001 01527 6190 455653 827891 198"
"170.982581"
"$GPRMC,233452,A,2519.1755,N,07922.4709,W,8.7,263.1,190615,7.3,"
"##MN-00 00 63 0001 01527 6190 455626 827891 198"
"170.982627"
"$GPRMC,233456,A,2519.1743,N,07922.4817,W,8.9,263.3,190615,7.3,"
"##MN-00 00 63 0001 01529 6190 456170 827892 198"
"170.982674"
"$GPRMC,233500,A,2519.1733,N,07922.4925,W,9.0,263.9,190615,7.3,"
"##MN-00 00 63 0002 01528 6191 456410 827891 198"
"170.98272"
"$GPRMC,233504,A,2519.1725,N,07922.5036,W,9.0,264.5,190615,7.3,"
"##MN-00 00 63 0002 01530 6191 456416 827891 198"
"170.982766"
"$GPRMC,233508,A,2519.1715,N,07922.5146,W,9.1,264.7,190615,7.3,"
"##MN-00 00 63 0002 01529 6191 456452 827891 198"
"170.982812"
"$GPRMC,233512,A,2519.1707,N,07922.5258,W,9.1,265.0,190615,7.3,"
"##MN-00 00 63 0002 01527 6191 456469 827892 198"
"170.982859"
"$GPRMC,233516,A,2519.1700,N,07922.5370,W,9.1,265.1,190615,7.3,"
"##MN-00 00 63 0002 01529 6192 455985 827891 198"
"170.982905"
"$GPRMC,233520,A,2519.1689,N,07922.5482,W,9.2,265.0,190615,7.3,"
"##MN-00 00 63 0002 01528 6192 455476 827891 198"
"170.982951"
"$GPRMC,233524,A,2519.1680,N,07922.5596,W,9.2,264.9,190615,7.3,"
"##MN-00 00 63 0002 01529 6192 455028 827891 198"
"170.982998"
"$GPRMC,233528,A,2519.1671,N,07922.5708,W,9.2,264.8,190615,7.3,"
"##MN-00 00 63 0002 01528 6193 454921 827891 198"
" Tow: TEST   RVWS/WS15161"
" Date: 19/06/2015"
" Temperature Probe #  4762    Conductivity Probe #  710"
" Pressure Probe #  159"
" Flow Meter Calibration  4.71 (m/count)  "
"171.584711"
"$GPRMC,140154,A,2450.4349,N,08030.2311,W,6.3,98.6,200615,6.5,W"
"##MN-00 00 64 0000 01537 5189 424734 826941 199"
"171.584757"
"$GPRMC,140159,A,2450.4337,N,08030.2218,W,6.3,97.9,200615,6.5,W"
"##MN-00 00 64 0000 01538 5189 422556 827475 199"
"171.584803"
"$GPRMC,140203,A,2450.4327,N,08030.2142,W,6.3,97.7,200615,6.5,W"
"##MN-00 00 64 0000 01536 5189 422523 827141 199"
"171.58485"
"$GPRMC,140207,A,2450.4319,N,08030.2067,W,6.3,97.3,200615,6.5,W"
"##MN-00 00 64 0000 01536 5189 422586 827408 199"
"171.584896"
"$GPRMC,140211,A,2450.4310,N,08030.1991,W,6.3,97.0,200615,6.5,W"
"##MN-00 00 67 0000 01535 5189 422859 827008 199"
"171.584942"
"$GPRMC,140215,A,2450.4302,N,08030.1918,W,6.2,97.0,200615,6.5,W"
"##MN-00 00 67 0000 01537 5189 423239 827340 199"
"171.584988"
"$GPRMC,140219,A,2450.4294,N,08030.1851,W,5.9,97.1,200615,6.5,W"
"##MN-00 00 67 0000 01534 5189 424002 827066 199"
"171.585035"
"$GPRMC,140223,A,2450.4285,N,08030.1786,W,5.6,96.9,200615,6.5,W"
"##MN-00 00 78 0000 01536 5189 424451 827277 199"
"171.585081"
"$GPRMC,140227,A,2450.4276,N,08030.1727,W,5.4,97.1,200615,6.5,W"
"##MN-00 00 78 0000 01534 5188 424943 827068 199"
"171.585127"
"$GPRMC,140231,A,2450.4269,N,08030.1669,W,5.1,97.0,200615,6.5,W"
"##MN-00 00 79 0000 01536 5188 424948 827339 199"
"171.585174"
"$GPRMC,140235,A,2450.4265,N,08030.1610,W,4.9,97.0,200615,6.5,W"
"##MN-00 00 87 0000 01537 5187 425261 827344 199"
"171.58522"
"$GPRMC,140239,A,2450.4261,N,08030.1554,W,4.6,96.8,200615,6.5,W"
"##MN-00 00 87 0000 01535 5187 425494 827339 199"
"171.585266"
"$GPRMC,140243,A,2450.4254,N,08030.1503,W,4.5,96.7,200615,6.5,W"
"##MN-00 00 87 0000 01535 5187 425334 827545 199"
"171.585312"
"$GPRMC,140247,A,2450.4247,N,08030.1455,W,4.3,96.6,200615,6.5,W"
"##MN-00 00 87 0000 01536 5186 425147 827617 199"
"171.585359"
"$GPRMC,140251,A,2450.4241,N,08030.1404,W,4.3,96.9,200615,6.5,W"
"##MN-00 00 87 0000 01534 5186 424820 827477 199"
"171.585405"
"$GPRMC,140255,A,2450.4234,N,08030.1356,W,4.2,97.1,200615,6.5,W"
"##MN-00 00 87 0000 01534 5186 424592 827342 199"
"171.585451"
"$GPRMC,140259,A,2450.4229,N,08030.1308,W,4.0,97.1,200615,6.5,W"
"##MN-00 00 87 0000 01535 5185 424397 827414 199"
"171.585498"
"$GPRMC,140303,A,2450.4225,N,08030.1258,W,4.0,97.3,200615,6.5,W"
"##MN-00 00 87 0000 01534 5185 424350 827272 199"
"171.585544"
"$GPRMC,140307,A,2450.4219,N,08030.1210,W,3.9,96.8,200615,6.5,W"
"##MN-00 00 87 0000 01538 5184 424418 827750 199"
"171.58559"
"$GPRMC,140311,A,2450.4213,N,08030.1164,W,3.9,96.8,200615,6.5,W"
"##MN-00 00 87 0000 01537 5184 424333 827612 199"
