" Tow: M-01-001   RVWS/WS1405"
" Date: 04/30/2014"
" Temperature Probe #  2597    Conductivity Probe #  2870"
" Pressure Probe #  109"
" Flow Meter Calibration  4.71 (m/count)  "
"120.658588"
"$GPGGA,154820,2449.9234,N,08325.6884,W,1,8,1.8,14,"
"##MN-00 00 70 0084 01835 6669 409359 923936 214"
"120.658634"
"$GPGGA,154827,2449.9276,N,08325.7066,W,1,9,1.8,14,"
"##MN-00 00 68 0084 01835 6670 410223 924776 215"
"120.658681"
"$GPGGA,154831,2449.9304,N,08325.7172,W,1,8,1.8,14,"
"##MN-00 00 69 0084 01833 6672 409774 924768 215"
"120.658727"
"$GPGGA,154835,2449.9329,N,08325.7280,W,1,8,1.8,14,"
"##MN-00 00 69 0084 01835 6674 409045 924762 215"
"120.658773"
"$GPGGA,154839,2449.9355,N,08325.7388,W,1,8,1.8,14,"
"##MN-00 00 68 0084 01833 6675 408349 924756 215"
"120.658819"
"$GPGGA,154843,2449.9380,N,08325.7493,W,1,8,1.8,14,"
"##MN-00 00 69 0084 01834 6677 408363 924751 215"
"120.658866"
"$GPGGA,154847,2449.9408,N,08325.7601,W,1,8,1.8,14,"
"##MN-00 00 68 0084 01835 6678 408086 924747 215"
"120.658912"
"$GPGGA,154851,2449.9434,N,08325.7709,W,1,8,1.8,14,"
"##MN-00 00 69 0084 01834 6679 407810 924742 215"
"120.658958"
"$GPGGA,154855,2449.9460,N,08325.7811,W,1,8,1.8,14,"
"##MN-00 00 68 0084 01835 6681 408746 924737 215"
"120.659005"
"$GPGGA,154859,2449.9489,N,08325.7916,W,1,9,1.8,14,"
"##MN-00 00 69 0084 01836 6682 408771 924733 215"
"120.659051"
"$GPGGA,154903,2449.9516,N,08325.8024,W,1,8,1.8,14,"
"##MN-00 00 69 0084 01836 6683 408356 924730 215"
"120.659097"
"$GPGGA,154907,2449.9543,N,08325.8126,W,1,8,1.8,14,"
"##MN-00 00 69 0084 01837 6684 408069 924728 215"
"120.659144"
"$GPGGA,154911,2449.9571,N,08325.8235,W,1,8,1.8,14,"
"##MN-00 00 68 0084 01835 6685 384389 924725 215"
"120.65919"
"$GPGGA,154915,2449.9596,N,08325.8339,W,1,8,1.8,14,"
"##MN-00 00 69 0084 01835 6686 353960 924722 215"
"120.659236"
"$GPGGA,154919,2449.9622,N,08325.8444,W,1,8,1.8,14,"
"##MN-00 00 69 0084 01834 6687 357268 924719 215"
"120.659282"
"$GPGGA,154923,2449.9652,N,08325.8548,W,1,8,1.8,14,"
"##MN-00 00 68 0084 01835 6689 370621 924717 215"
"120.659329"
"$GPGGA,154927,2449.9680,N,08325.8656,W,1,8,1.8,14,"
"##MN-00 00 69 0084 01835 6690 388058 924716 215"
"120.659375"
"$GPGGA,154931,2449.9704,N,08325.8762,W,1,8,1.8,14,"
"##MN-00 00 69 0084 01834 6691 402449 924714 215"
"120.659421"
"$GPGGA,154935,2449.9727,N,08325.8869,W,1,9,1.8,14,"
"##MN-00 00 68 0084 01834 6692 411045 924713 215"
"120.659468"
"$GPGGA,154939,2449.9751,N,08325.8977,W,1,9,1.8,14,"
"##MN-00 00 69 0085 01835 6692 417768 924712 215"
"120.659514"
"$GPGGA,154943,2449.9774,N,08325.9082,W,1,9,1.8,14,"
"##MN-00 00 68 0085 01837 6693 422414 924712 215"
"120.65956"
"$GPGGA,154947,2449.9800,N,08325.9191,W,1,9,1.8,15,"
"##MN-00 00 68 0085 01834 6694 426187 924710 215"
"120.659606"
"$GPGGA,154951,2449.9828,N,08325.9297,W,1,8,1.8,15,"
"##MN-00 00 68 0085 01836 6695 428118 924709 215"
"120.659653"
"$GPGGA,154955,2449.9854,N,08325.9404,W,1,8,1.9,15,"
"##MN-00 00 69 0085 01835 6696 430494 924708 215"
"120.659699"
"$GPGGA,154959,2449.9883,N,08325.9512,W,1,9,1.8,15,"
"##MN-00 00 69 0085 01835 6697 432129 924707 215"
"120.659745"
"$GPGGA,155003,2449.9908,N,08325.9620,W,1,8,1.8,15,"
"##MN-00 00 69 0085 01835 6697 433448 924707 215"
" Tow: M-01-001   RVWS/WS1405"
" Date: 04/30/2014"
" Temperature Probe #  2597    Conductivity Probe #  2870"
" Pressure Probe #  109"
" Flow Meter Calibration  4.71 (m/count)  "
"120.83875"
"$GPGGA,155009,2449.9951,N,08325.9781,W,1,8,1.9,15,"
"##MN-00 00 69 0084 01837 6339 454381 923879 214"
"120.838796"
"$GPGGA,200753,2457.3553,N,08354.7151,W,1,11,1.3,9,"
"##MN-00 00 68 0084 01839 6340 442988 925070 214"
"120.838843"
"$GPGGA,200757,2457.3564,N,08354.7172,W,1,11,1.3,9,"
"##MN-00 00 68 0084 01839 6341 442970 925071 214"
"120.838889"
"$GPGGA,200801,2457.3571,N,08354.7196,W,1,11,1.3,10"
"##MN-00 00 69 0084 01839 6342 443033 925070 214"
"120.838935"
"$GPGGA,200805,2457.3579,N,08354.7218,W,1,11,1.3,10"
"##MN-00 00 68 0084 01840 6344 442962 925071 214"
"120.838981"
"$GPGGA,200809,2457.3586,N,08354.7241,W,1,11,1.3,10"
"##MN-00 00 69 0084 01839 6345 442885 925070 214"
"120.839028"
"$GPGGA,200813,2457.3596,N,08354.7265,W,1,11,1.3,10"
"##MN-00 00 69 0084 01840 6346 442552 925070 214"
"120.839074"
"$GPGGA,200817,2457.3604,N,08354.7287,W,1,11,1.3,10"
"##MN-00 00 69 0084 01840 6346 442451 925071 214"
"120.83912"
"$GPGGA,200821,2457.3609,N,08354.7309,W,1,10,1.4,10"
"##MN-00 00 68 0084 01839 6347 442448 925071 214"
"120.839167"
"$GPGGA,200825,2457.3620,N,08354.7331,W,1,10,1.4,10"
"##MN-00 00 68 0084 01840 6348 442619 925072 214"
"120.839236"
"$GPGGA,200829,2457.3628,N,08354.7355,W,1,11,1.3,10"
"##MN-00 00 68 0084 01841 6349 442923 925072 214"
