" Tow: M-01-019   RVWS/WS1405"
" Date: 05/04/2014"
" Temperature Probe #  2597    Conductivity Probe #  2870"
" Pressure Probe #  109"
" Flow Meter Calibration  4.71 (m/count)  "
"124.722118"
"$GPGGA,171940,2615.9622,N,09458.9835,W,1,8,1.6,0,M"
"##MN-00 00 42 0084 01836 6069 460115 924199 211"
"124.722164"
"$GPGGA,171949,2615.9712,N,09458.9809,W,1,7,1.7,1,M"
"##MN-00 00 42 0084 01836 6072 442989 925148 211"
"124.722222"
"$GPGGA,171953,2615.9753,N,09458.9800,W,1,7,1.7,2,M"
"##MN-00 00 43 0084 01838 6075 442174 925148 211"
"124.722269"
"$GPGGA,171957,2615.9789,N,09458.9790,W,1,6,1.9,2,M"
"##MN-00 00 43 0084 01838 6077 441533 925148 211"
"124.722315"
"$GPGGA,172001,2615.9835,N,09458.9785,W,1,8,1.6,2,M"
"##MN-00 00 43 0084 01837 6079 441060 925149 211"
"124.722361"
"$GPGGA,172005,2615.9875,N,09458.9778,W,1,8,1.6,2,M"
"##MN-00 00 43 0084 01838 6082 440784 925148 211"
"124.722407"
"#resetparam"
"$GPGGA,172009,2615.9914,N,09458.9769,W,1,8,1.6,2,M"
"##MN-00 00 43 0084 01839 6085 442227 925148 211"
"124.723426"
"$GPGGA,172132,2616.0637,N,09458.9602,W,1,7,1.6,-2,"
"##MN-00 00 33 0140 01841 6118 450877 873125 211"
"124.723472"
"$GPGGA,172141,2616.0706,N,09458.9579,W,1,8,1.6,-3,"
"##MN-00 00 41 0141 01840 6119 479191 361799 211"
"124.723519"
"$GPGGA,172145,2616.0737,N,09458.9571,W,1,7,1.7,-3,"
"##MN-00 00 43 0143 01842 6120 479149 361971 211"
"124.723565"
"$GPGGA,172149,2616.0766,N,09458.9562,W,1,8,1.6,-3,"
"##MN-00 00 45 0144 01840 6121 479143 362067 211"
"124.723611"
"$GPGGA,172153,2616.0797,N,09458.9555,W,1,8,1.6,-3,"
"##MN-00 00 44 0146 01840 6122 479186 362114 211"
"124.723657"
"$GPGGA,172157,2616.0831,N,09458.9549,W,1,7,1.7,-3,"
"##MN-00 00 44 0147 01840 6123 479209 362151 211"
"124.723704"
"$GPGGA,172201,2616.0858,N,09458.9539,W,1,8,1.6,-3,"
"##MN-00 00 48 0149 01837 6124 479212 362169 211"
"124.72375"
"#resetparam"
"$GPGGA,172205,2616.0890,N,09458.9531,W,1,7,1.7,-3,"
"##MN-00 00 48 0150 01839 6125 479240 362188 211"
"124.723796"
"$GPGGA,172209,2616.0920,N,09458.9523,W,1,7,1.7,-3,"
"##MN-00 00 48 0152 01840 6126 479229 362237 211"
"124.723843"
"$GPGGA,172213,2616.0948,N,09458.9512,W,1,8,1.6,-3,"
"##MN-00 00 48 0153 01839 6126 479211 362188 211"
"124.723889"
"$GPGGA,172217,2616.0980,N,09458.9506,W,1,7,1.7,-3,"
"##MN-00 00 48 0155 01839 6126 479175 362178 211"
"124.723935"
"$GPGGA,172221,2616.1009,N,09458.9499,W,1,8,1.6,-3,"
"##MN-00 00 42 0156 01839 6127 479174 362185 211"
"124.723981"
"$GPGGA,172225,2616.1032,N,09458.9487,W,1,8,1.6,-3,"
"##MN-00 00 44 0157 01839 6127 479175 362190 211"
"124.724028"
"$GPGGA,172229,2616.1060,N,09458.9478,W,1,8,1.6,-3,"
"##MN-00 00 45 0159 01840 6127 479196 362202 211"
"124.724074"
"$GPGGA,172233,2616.1089,N,09458.9470,W,1,8,1.6,-3,"
"##MN-00 00 42 0160 01843 6126 479234 362209 211"
"124.72412"
"$GPGGA,172237,2616.1121,N,09458.9470,W,1,7,1.7,-3,"
"##MN-00 00 43 0161 01849 6126 479215 362200 211"
"124.724167"
"$GPGGA,172241,2616.1157,N,09458.9469,W,1,7,1.7,-3,"
"##MN-00 00 43 0163 01855 6126 479151 362178 211"
"124.724213"
"$GPGGA,172245,2616.1182,N,09458.9457,W,1,8,1.6,-3,"
"##MN-00 00 44 0164 01861 6125 479276 362212 211"
"124.724259"
"$GPGGA,172249,2616.1211,N,09458.9448,W,1,7,1.6,-2,"
"##MN-00 00 44 0165 01866 6124 479374 362233 211"
"124.724306"
"$GPGGA,172253,2616.1241,N,09458.9441,W,1,7,1.7,-2,"
"##MN-00 00 44 0167 01871 6124 479491 362265 211"
"124.724352"
"$GPGGA,172257,2616.1268,N,09458.9430,W,1,8,1.6,-2,"
"##MN-00 00 44 0168 01878 6123 479476 362259 211"
"124.724398"
"$GPGGA,172301,2616.1294,N,09458.9418,W,1,8,1.6,-2,"
"##MN-00 00 43 0169 01878 6122 479544 362275 211"
"124.724444"
"$GPGGA,172305,2616.1320,N,09458.9409,W,1,8,1.6,-2,"
"##MN-00 00 44 0170 01884 6121 479556 362277 211"
"124.724491"
"$GPGGA,172309,2616.1348,N,09458.9401,W,1,8,1.6,-1,"
"##MN-00 00 44 0172 01890 6120 479606 362293 211"
"124.724537"
"$GPGGA,172313,2616.1375,N,09458.9393,W,1,8,1.6,-1,"
"##MN-00 00 45 0173 01896 6118 479605 362293 211"
"124.724583"
"$GPGGA,172317,2616.1402,N,09458.9381,W,1,8,1.6,-1,"
"##MN-00 00 44 0174 01896 6117 479655 362296 211"
"124.72463"
"$GPGGA,172321,2616.1429,N,09458.9373,W,1,8,1.6,-1,"
"##MN-00 00 44 0176 01904 6116 479665 362300 211"
"124.724676"
"$GPGGA,172325,2616.1461,N,09458.9364,W,1,8,1.6,-1,"
"##MN-00 00 44 0177 01908 6114 479717 362314 211"
"124.724722"
"$GPGGA,172329,2616.1490,N,09458.9356,W,1,8,1.6,-1,"
"##MN-00 00 45 0178 01912 6112 479737 362319 211"
"124.724768"
"$GPGGA,172333,2616.1518,N,09458.9346,W,1,8,1.6,-1,"
"##MN-00 00 44 0180 01916 6110 479809 362344 211"
"124.724815"
"$GPGGA,172337,2616.1544,N,09458.9337,W,1,7,1.6,-1,"
"##MN-00 00 44 0181 01922 6108 479920 362384 211"
"124.724861"
"$GPGGA,172341,2616.1579,N,09458.9332,W,1,8,1.6,-1,"
"##MN-00 00 45 0182 01926 6106 480100 362439 211"
"124.724907"
"$GPGGA,172345,2616.1606,N,09458.9324,W,1,8,1.6,-2,"
"##MN-00 00 45 0184 01932 6104 480148 362459 211"
"124.724954"
"$GPGGA,172349,2616.1638,N,09458.9317,W,1,7,1.7,-2,"
"##MN-00 00 46 0185 01938 6102 480278 362499 211"
"124.725"
"$GPGGA,172353,2616.1667,N,09458.9308,W,1,7,1.7,-2,"
"##MN-00 00 45 0187 01941 6100 480324 362508 211"
"124.725046"
"$GPGGA,172357,2616.1696,N,09458.9299,W,1,8,1.6,-2,"
"##MN-00 00 45 0188 01943 6098 480345 362504 211"
"124.725093"
"$GPGGA,172401,2616.1724,N,09458.9287,W,1,7,1.7,-2,"
"##MN-00 00 45 0189 01949 6095 480382 362510 211"
"124.725139"
"$GPGGA,172405,2616.1751,N,09458.9278,W,1,8,1.6,-2,"
"##MN-00 00 46 0191 01955 6093 480402 362515 211"
"124.725185"
"$GPGGA,172409,2616.1779,N,09458.9268,W,1,8,1.6,-3,"
"##MN-00 00 45 0192 01962 6091 480437 362524 211"
"124.725231"
"$GPGGA,172413,2616.1807,N,09458.9257,W,1,8,1.6,-3,"
"##MN-00 00 44 0193 01965 6088 480426 362521 211"
"124.725278"
"$GPGGA,172417,2616.1834,N,09458.9248,W,1,8,1.6,-3,"
"##MN-00 00 45 0195 01967 6086 480441 362524 211"
"124.725324"
"$GPGGA,172421,2616.1862,N,09458.9238,W,1,8,1.6,-3,"
"##MN-00 00 44 0196 01971 6083 480465 362532 211"
"124.72537"
"$GPGGA,172425,2616.1891,N,09458.9233,W,1,8,1.6,-3,"
"##MN-00 00 45 0197 01976 6081 480493 362542 211"
"124.725417"
"$GPGGA,172429,2616.1920,N,09458.9226,W,1,8,1.6,-3,"
"##MN-00 00 45 0199 01982 6078 480533 362551 211"
"124.725463"
"$GPGGA,172433,2616.1948,N,09458.9220,W,1,8,1.6,-2,"
"##MN-00 00 45 0200 01987 6075 480583 362566 211"
"124.725509"
"$GPGGA,172437,2616.1977,N,09458.9212,W,1,8,1.6,-2,"
"##MN-00 00 45 0201 01991 6072 480589 362568 211"
"124.725556"
"$GPGGA,172441,2616.2005,N,09458.9205,W,1,8,1.6,-2,"
"##MN-00 00 45 0203 01997 6069 480587 362563 211"
"124.725602"
"$GPGGA,172446,2616.2040,N,09458.9195,W,1,8,1.6,-2,"
"##MN-00 00 44 0204 02001 6066 480587 362559 211"
"124.725648"
"$GPGGA,172449,2616.2063,N,09458.9189,W,1,8,1.6,-2,"
"##MN-00 00 44 0205 02006 6064 480583 362554 211"
"124.725694"
"$GPGGA,172454,2616.2099,N,09458.9181,W,1,8,1.6,-2,"
"##MN-00 00 44 0207 02011 6060 480578 362546 211"
"124.725741"
"$GPGGA,172457,2616.2119,N,09458.9175,W,1,8,1.6,-2,"
"##MN-00 00 44 0208 02011 6058 480573 362537 211"
"124.725787"
"$GPGGA,172502,2616.2157,N,09458.9165,W,1,8,1.6,-2,"
"##MN-00 00 45 0209 02022 6055 480566 362516 211"
"124.725833"
"$GPGGA,172506,2616.2187,N,09458.9159,W,1,8,1.6,-2,"
"##MN-00 00 44 0211 02024 6051 480565 362509 211"
"124.72588"
"$GPGGA,172509,2616.2209,N,09458.9159,W,1,7,1.7,-1,"
"##MN-00 00 44 0212 02030 6048 480504 362472 211"
"124.725926"
"$GPGGA,172514,2616.2242,N,09458.9145,W,1,8,1.6,-1,"
"##MN-00 00 43 0213 02034 6045 480474 362448 211"
"124.725972"
"$GPGGA,172518,2616.2271,N,09458.9135,W,1,8,1.6,0,M"
"##MN-00 00 44 0215 02036 6042 480435 362430 211"
"124.726019"
"$GPGGA,172522,2616.2296,N,09458.9126,W,1,8,1.6,0,M"
"##MN-00 00 44 0216 02040 6039 480402 362408 211"
"124.726065"
"$GPGGA,172526,2616.2325,N,09458.9115,W,1,8,1.6,0,M"
"##MN-00 00 44 0217 02045 6035 480353 362374 211"
"124.726123"
"$GPGGA,172530,2616.2354,N,09458.9106,W,1,8,1.6,0,M"
"##MN-00 00 43 0219 02047 6032 480319 362349 211"
"124.726169"
"$GPGGA,172534,2616.2382,N,09458.9095,W,1,8,1.6,0,M"
"##MN-00 00 44 0220 02054 6029 480267 362319 211"
"124.726215"
"$GPGGA,172538,2616.2411,N,09458.9088,W,1,8,1.6,0,M"
"##MN-00 00 44 0221 02057 6025 480225 362287 211"
"124.726262"
"$GPGGA,172542,2616.2439,N,09458.9080,W,1,8,1.6,0,M"
"##MN-00 00 44 0222 02063 6022 480171 362251 211"
"124.726308"
"$GPGGA,172546,2616.2466,N,09458.9071,W,1,7,1.6,0,M"
"##MN-00 00 43 0224 02068 6019 480140 362225 211"
"124.726354"
"$GPGGA,172550,2616.2493,N,09458.9061,W,1,8,1.6,0,M"
"##MN-00 00 43 0225 02071 6015 480137 362210 211"
"124.7264"
"$GPGGA,172554,2616.2520,N,09458.9053,W,1,8,1.6,0,M"
"##MN-00 00 44 0226 02076 6011 480143 362200 211"
"124.726447"
"$GPGGA,172558,2616.2549,N,09458.9045,W,1,8,1.6,0,M"
"##MN-00 00 42 0228 02081 6008 480176 362198 211"
"124.726493"
"$GPGGA,172602,2616.2577,N,09458.9036,W,1,8,1.6,0,M"
"##MN-00 00 43 0229 02088 6004 480182 362188 211"
"124.726539"
"$GPGGA,172606,2616.2605,N,09458.9027,W,1,8,1.6,0,M"
"##MN-00 00 43 0230 02092 6001 480179 362174 211"
"124.726586"
"$GPGGA,172610,2616.2634,N,09458.9018,W,1,8,1.6,0,M"
"##MN-00 00 42 0231 02099 5997 480207 362181 211"
"124.726632"
"$GPGGA,172614,2616.2663,N,09458.9010,W,1,8,1.6,0,M"
"##MN-00 00 43 0232 02100 5994 480266 362201 211"
"124.726678"
"$GPGGA,172618,2616.2690,N,09458.9002,W,1,8,1.6,0,M"
"##MN-00 00 43 0234 02105 5990 480261 362186 211"
"124.726725"
"$GPGGA,172622,2616.2719,N,09458.8994,W,1,8,1.6,0,M"
"##MN-00 00 42 0235 02108 5986 480140 362125 211"
"124.726771"
"$GPGGA,172626,2616.2747,N,09458.8986,W,1,8,1.6,0,M"
"##MN-00 00 43 0236 02115 5983 480129 362111 211"
"124.726817"
"$GPGGA,172630,2616.2775,N,09458.8978,W,1,8,1.6,0,M"
"##MN-00 00 41 0237 02118 5979 480190 362126 211"
"124.726863"
"$GPGGA,172634,2616.2804,N,09458.8973,W,1,8,1.6,0,M"
"##MN-00 00 42 0239 02123 5975 480241 362138 211"
"124.72691"
"$GPGGA,172638,2616.2833,N,09458.8964,W,1,8,1.6,0,M"
"##MN-00 00 41 0240 02128 5972 480285 362144 211"
"124.726956"
"$GPGGA,172642,2616.2862,N,09458.8957,W,1,8,1.6,0,M"
"##MN-00 00 41 0241 02133 5968 480374 362170 211"
"124.727002"
"$GPGGA,172646,2616.2891,N,09458.8947,W,1,8,1.6,0,M"
"##MN-00 00 41 0242 02138 5964 480521 362215 211"
"124.727049"
"$GPGGA,172650,2616.2919,N,09458.8940,W,1,8,1.6,0,M"
"##MN-00 00 40 0243 02142 5961 480773 362297 211"
"124.727095"
"$GPGGA,172654,2616.2948,N,09458.8932,W,1,8,1.6,0,M"
"##MN-00 00 40 0245 02145 5957 480923 362355 211"
"124.727141"
"$GPGGA,172658,2616.2977,N,09458.8923,W,1,7,1.6,0,M"
"##MN-00 00 41 0246 02148 5953 481042 362400 211"
"124.727187"
"$GPGGA,172702,2616.3006,N,09458.8917,W,1,8,1.6,0,M"
"##MN-00 00 42 0247 02155 5949 481220 362474 211"
"124.727234"
"$GPGGA,172706,2616.3036,N,09458.8909,W,1,8,1.6,0,M"
"##MN-00 00 41 0248 02159 5946 481589 362610 211"
"124.72728"
"$GPGGA,172710,2616.3064,N,09458.8899,W,1,7,1.6,0,M"
"##MN-00 00 41 0249 02166 5942 482108 362803 211"
"124.727326"
"$GPGGA,172714,2616.3093,N,09458.8892,W,1,8,1.6,-1,"
"##MN-00 00 41 0250 02169 5938 482633 363001 211"
"124.727373"
"$GPGGA,172718,2616.3120,N,09458.8884,W,1,8,1.6,-1,"
"##MN-00 00 40 0252 02175 5934 483525 363344 211"
"124.727419"
"$GPGGA,172722,2616.3149,N,09458.8877,W,1,8,1.6,-1,"
"##MN-00 00 41 0253 02181 5930 484140 363610 211"
"124.727465"
"$GPGGA,172726,2616.3180,N,09458.8869,W,1,8,1.6,-1,"
"##MN-00 00 40 0254 02185 5926 485011 363917 211"
"124.727512"
"$GPGGA,172730,2616.3209,N,09458.8862,W,1,8,1.6,-1,"
"##MN-00 00 40 0255 02187 5922 485407 364048 211"
"124.727558"
"$GPGGA,172734,2616.3238,N,09458.8853,W,1,8,1.6,-1,"
"##MN-00 00 41 0256 02193 5919 485740 364196 211"
"124.727604"
"$GPGGA,172738,2616.3266,N,09458.8847,W,1,8,1.6,-1,"
"##MN-00 00 40 0257 02194 5915 485993 364299 211"
"124.72765"
"$GPGGA,172742,2616.3295,N,09458.8839,W,1,8,1.6,0,M"
"##MN-00 00 40 0259 02200 5911 486296 364432 211"
"124.727697"
"$GPGGA,172746,2616.3324,N,09458.8833,W,1,8,1.7,0,M"
"##MN-00 00 40 0260 02206 5907 486707 364608 211"
"124.727743"
"$GPGGA,172750,2616.3353,N,09458.8828,W,1,8,1.6,0,M"
"##MN-00 00 41 0261 02211 5903 487413 364863 211"
"124.727789"
"$GPGGA,172754,2616.3383,N,09458.8820,W,1,8,1.6,0,M"
"##MN-00 00 41 0262 02214 5899 488131 365101 211"
"124.727836"
"$GPGGA,172758,2616.3412,N,09458.8812,W,1,8,1.6,0,M"
"##MN-00 00 39 0263 02217 5895 488547 365170 211"
"124.727882"
"$GPGGA,172802,2616.3440,N,09458.8805,W,1,8,1.6,0,M"
"##MN-00 00 40 0264 02225 5891 489389 365492 211"
"124.727928"
"$GPGGA,172806,2616.3467,N,09458.8798,W,1,8,1.6,0,M"
"##MN-00 00 40 0266 02225 5887 489752 365619 211"
"124.727975"
"$GPGGA,172810,2616.3495,N,09458.8793,W,1,8,1.6,0,M"
"##MN-00 00 42 0267 02231 5883 490874 365928 211"
"124.728021"
"$GPGGA,172814,2616.3523,N,09458.8787,W,1,8,1.6,0,M"
"##MN-00 00 41 0268 02235 5879 493108 366573 211"
"124.728067"
"$GPGGA,172818,2616.3548,N,09458.8779,W,1,8,1.6,0,M"
"##MN-00 00 41 0269 02237 5875 495049 367108 211"
"124.728113"
"$GPGGA,172822,2616.3575,N,09458.8770,W,1,8,1.6,0,M"
"##MN-00 00 41 0270 02239 5871 496593 367519 211"
"124.72816"
"$GPGGA,172826,2616.3602,N,09458.8761,W,1,8,1.6,0,M"
"##MN-00 00 41 0271 02246 5867 497558 367795 211"
"124.728206"
"$GPGGA,172830,2616.3629,N,09458.8753,W,1,8,1.6,0,M"
"##MN-00 00 42 0273 02246 5863 498205 367970 211"
"124.728252"
"$GPGGA,172834,2616.3657,N,09458.8745,W,1,8,1.6,0,M"
"##MN-00 00 42 0274 02249 5859 498509 368068 211"
"124.728299"
"$GPGGA,172838,2616.3685,N,09458.8735,W,1,8,1.6,-1,"
"##MN-00 00 42 0275 02254 5855 499108 368236 211"
"124.728345"
"$GPGGA,172842,2616.3712,N,09458.8726,W,1,8,1.6,-1,"
"##MN-00 00 42 0276 02258 5851 499575 368367 211"
"124.728391"
"$GPGGA,172846,2616.3738,N,09458.8720,W,1,8,1.6,-1,"
"##MN-00 00 42 0278 02262 5846 500204 368520 211"
"124.728438"
"$GPGGA,172850,2616.3766,N,09458.8711,W,1,8,1.6,-1,"
"##MN-00 00 41 0279 02262 5843 500867 368662 211"
"124.728484"
"$GPGGA,172854,2616.3794,N,09458.8702,W,1,8,1.6,-1,"
"##MN-00 00 42 0280 02267 5838 500918 368625 211"
"124.72853"
"$GPGGA,172858,2616.3820,N,09458.8691,W,1,8,1.6,-1,"
"##MN-00 00 42 0281 02271 5834 500948 368595 211"
"124.728576"
"$GPGGA,172902,2616.3849,N,09458.8681,W,1,8,1.6,-2,"
"##MN-00 00 43 0283 02275 5830 501004 368612 211"
"124.728623"
"$GPGGA,172906,2616.3875,N,09458.8672,W,1,8,1.6,-2,"
"##MN-00 00 42 0284 02276 5826 501377 368709 211"
"124.728669"
"$GPGGA,172910,2616.3903,N,09458.8663,W,1,8,1.6,-2,"
"##MN-00 00 43 0285 02280 5822 501714 368790 211"
"124.728715"
"$GPGGA,172914,2616.3929,N,09458.8655,W,1,8,1.6,-2,"
"##MN-00 00 42 0286 02283 5818 501915 368859 211"
"124.728762"
"$GPGGA,172919,2616.3965,N,09458.8644,W,1,8,1.6,-2,"
"##MN-00 00 43 0288 02285 5813 502047 368898 211"
"124.728808"
"$GPGGA,172922,2616.3986,N,09458.8636,W,1,8,1.6,-2,"
"##MN-00 00 43 0289 02287 5809 502125 368916 211"
"124.728854"
"$GPGGA,172927,2616.4019,N,09458.8626,W,1,8,1.6,-3,"
"##MN-00 00 43 0290 02289 5805 502100 368848 211"
"124.7289"
"$GPGGA,172931,2616.4048,N,09458.8616,W,1,8,1.6,-3,"
"##MN-00 00 43 0292 02297 5800 502083 368810 211"
"124.728947"
"$GPGGA,172935,2616.4074,N,09458.8609,W,1,8,1.6,-3,"
"##MN-00 00 43 0293 02298 5796 502137 368800 211"
"124.728993"
"$GPGGA,172939,2616.4104,N,09458.8600,W,1,8,1.6,-3,"
"##MN-00 00 43 0294 02300 5791 502237 368790 210"
"124.729039"
"$GPGGA,172943,2616.4131,N,09458.8592,W,1,8,1.6,-3,"
"##MN-00 00 43 0295 02305 5787 502339 368764 211"
"124.729086"
"$GPGGA,172947,2616.4159,N,09458.8583,W,1,8,1.6,-3,"
"##MN-00 00 44 0297 02309 5782 502439 368752 211"
"124.729132"
"$GPGGA,172951,2616.4186,N,09458.8577,W,1,8,1.6,-3,"
"##MN-00 00 43 0298 02310 5778 502458 368727 211"
"124.729178"
"$GPGGA,172955,2616.4214,N,09458.8568,W,1,8,1.6,-3,"
"##MN-00 00 44 0299 02315 5774 502450 368707 210"
"124.729225"
"$GPGGA,172959,2616.4243,N,09458.8560,W,1,8,1.6,-3,"
"##MN-00 00 43 0301 02319 5769 502446 368691 210"
"124.729271"
"$GPGGA,173003,2616.4271,N,09458.8552,W,1,8,1.6,-3,"
"##MN-00 00 44 0302 02324 5765 502461 368675 210"
"124.729317"
"$GPGGA,173007,2616.4300,N,09458.8543,W,1,8,1.6,-3,"
"##MN-00 00 44 0303 02325 5760 502528 368663 210"
"124.729375"
"$GPGGA,173011,2616.4326,N,09458.8529,W,1,8,1.6,-3,"
"##MN-00 00 44 0305 02328 5756 502566 368649 210"
"124.729421"
"$GPGGA,173015,2616.4355,N,09458.8520,W,1,8,1.6,-3,"
"##MN-00 00 43 0306 02331 5751 502588 368639 210"
"124.729468"
"$GPGGA,173019,2616.4381,N,09458.8511,W,1,8,1.6,-3,"
"##MN-00 00 44 0307 02334 5747 502636 368642 210"
"124.729514"
"$GPGGA,173023,2616.4409,N,09458.8503,W,1,8,1.6,-3,"
"##MN-00 00 45 0308 02339 5742 502773 368671 210"
"124.72956"
"$GPGGA,173027,2616.4437,N,09458.8494,W,1,8,1.6,-3,"
"##MN-00 00 44 0310 02341 5737 503125 368777 210"
"124.729606"
"$GPGGA,173031,2616.4464,N,09458.8488,W,1,8,1.6,-3,"
"##MN-00 00 44 0311 02344 5733 504016 369074 210"
"124.729653"
"$GPGGA,173035,2616.4492,N,09458.8476,W,1,8,1.6,-3,"
"##MN-00 00 43 0312 02350 5729 504474 369240 210"
"124.729699"
"$GPGGA,173039,2616.4521,N,09458.8468,W,1,7,1.7,-3,"
"##MN-00 00 44 0314 02352 5724 504658 369416 210"
"124.729745"
"$GPGGA,173043,2616.4547,N,09458.8460,W,1,7,1.6,-3,"
"##MN-00 00 44 0315 02355 5719 505558 369661 210"
"124.729792"
"$GPGGA,173047,2616.4572,N,09458.8451,W,1,7,1.6,-3,"
"##MN-00 00 44 0317 02355 5715 506827 370127 210"
"124.729838"
"$GPGGA,173051,2616.4600,N,09458.8446,W,1,8,1.6,-3,"
"##MN-00 00 44 0318 02361 5710 507347 370315 210"
"124.729884"
"$GPGGA,173055,2616.4628,N,09458.8440,W,1,8,1.6,-3,"
"##MN-00 00 45 0319 02364 5705 508193 370618 210"
"124.729931"
"$GPGGA,173059,2616.4655,N,09458.8432,W,1,8,1.7,-3,"
"##MN-00 00 45 0320 02369 5701 508925 370862 210"
"124.729977"
"$GPGGA,173103,2616.4682,N,09458.8422,W,1,8,1.7,-3,"
"##MN-00 00 43 0322 02371 5696 509102 370896 210"
"124.730023"
"$GPGGA,173107,2616.4709,N,09458.8414,W,1,8,1.6,-3,"
"##MN-00 00 44 0323 02377 5692 509542 371045 210"
"124.730069"
"$GPGGA,173111,2616.4735,N,09458.8405,W,1,7,1.6,-3,"
"##MN-00 00 44 0324 02379 5687 509815 371107 210"
"124.730116"
"$GPGGA,173115,2616.4762,N,09458.8399,W,1,7,1.6,-2,"
"##MN-00 00 44 0326 02382 5682 509724 371055 210"
"124.730162"
"$GPGGA,173119,2616.4789,N,09458.8386,W,1,8,1.6,-2,"
"##MN-00 00 44 0327 02385 5678 509677 371039 210"
"124.730208"
"$GPGGA,173123,2616.4817,N,09458.8377,W,1,8,1.6,-2,"
"##MN-00 00 44 0328 02391 5673 509376 370878 210"
"124.730255"
"$GPGGA,173127,2616.4843,N,09458.8368,W,1,8,1.7,-2,"
"##MN-00 00 44 0330 02394 5668 508606 370460 210"
"124.730301"
"$GPGGA,173131,2616.4875,N,09458.8363,W,1,8,1.6,-2,"
"##MN-00 00 44 0331 02398 5664 508501 370414 210"
"124.730347"
"$GPGGA,173135,2616.4903,N,09458.8356,W,1,7,1.7,-2,"
"##MN-00 00 45 0332 02403 5659 508549 370419 210"
"124.730393"
"$GPGGA,173139,2616.4929,N,09458.8346,W,1,8,1.6,-1,"
"##MN-00 00 44 0334 02401 5654 509330 370664 210"
"124.73044"
"$GPGGA,173143,2616.4955,N,09458.8334,W,1,8,1.6,-1,"
"##MN-00 00 44 0335 02407 5649 509809 370826 210"
"124.730486"
"$GPGGA,173147,2616.4986,N,09458.8321,W,1,9,1.5,-1,"
"##MN-00 00 45 0336 02410 5645 510256 370982 210"
"124.730532"
"$GPGGA,173151,2616.5013,N,09458.8308,W,1,9,1.5,-1,"
"##MN-00 00 46 0338 02412 5640 510686 371118 210"
"124.730579"
"$GPGGA,173155,2616.5042,N,09458.8300,W,1,9,1.5,-1,"
"##MN-00 00 45 0339 02416 5635 510786 371161 210"
"124.730625"
"$GPGGA,173159,2616.5070,N,09458.8294,W,1,9,1.5,-1,"
"##MN-00 00 45 0341 02419 5630 511074 371257 210"
"124.730671"
"$GPGGA,173203,2616.5096,N,09458.8284,W,1,9,1.5,0,M"
"##MN-00 00 45 0342 02422 5625 511159 371269 210"
"124.730718"
"$GPGGA,173207,2616.5123,N,09458.8276,W,1,9,1.5,0,M"
"##MN-00 00 45 0343 02425 5621 511162 371246 210"
"124.730764"
"$GPGGA,173211,2616.5149,N,09458.8267,W,1,8,1.6,0,M"
"##MN-00 00 45 0345 02428 5616 511363 371309 210"
"124.73081"
"$GPGGA,173215,2616.5175,N,09458.8261,W,1,8,1.6,0,M"
"##MN-00 00 45 0346 02431 5611 511779 371445 210"
"124.730856"
"$GPGGA,173219,2616.5201,N,09458.8253,W,1,9,1.5,0,M"
"##MN-00 00 44 0347 02437 5607 512179 371583 210"
"124.730903"
"$GPGGA,173223,2616.5225,N,09458.8246,W,1,8,1.6,0,M"
"##MN-00 00 45 0349 02438 5602 512373 371648 210"
"124.730949"
"$GPGGA,173227,2616.5253,N,09458.8236,W,1,8,1.6,0,M"
"##MN-00 00 45 0350 02442 5597 512459 371680 210"
"124.730995"
"$GPGGA,173231,2616.5280,N,09458.8226,W,1,8,1.6,0,M"
"##MN-00 00 45 0351 02446 5592 512553 371711 210"
"124.731042"
"$GPGGA,173235,2616.5308,N,09458.8219,W,1,9,1.5,0,M"
"##MN-00 00 45 0353 02453 5587 512647 371739 210"
"124.731088"
"$GPGGA,173239,2616.5333,N,09458.8209,W,1,9,1.5,0,M"
"##MN-00 00 45 0354 02455 5583 512689 371750 210"
"124.731134"
"$GPGGA,173243,2616.5359,N,09458.8200,W,1,9,1.5,0,M"
"##MN-00 00 45 0355 02456 5577 512757 371761 210"
"124.731181"
"$GPGGA,173247,2616.5385,N,09458.8194,W,1,8,1.6,0,M"
"##MN-00 00 45 0357 02463 5573 512768 371750 210"
"124.731227"
"$GPGGA,173251,2616.5413,N,09458.8185,W,1,8,1.6,0,M"
"##MN-00 00 45 0358 02462 5568 512651 371671 210"
"124.731273"
"$GPGGA,173255,2616.5439,N,09458.8176,W,1,7,1.7,0,M"
"##MN-00 00 47 0360 02469 5563 512619 371623 210"
"124.731319"
"$GPGGA,173259,2616.5464,N,09458.8166,W,1,8,1.6,0,M"
"##MN-00 00 45 0361 02470 5559 512735 371655 210"
"124.731366"
"$GPGGA,173303,2616.5489,N,09458.8156,W,1,8,1.6,0,M"
"##MN-00 00 46 0362 02474 5554 513048 371747 210"
"124.731412"
"$GPGGA,173307,2616.5510,N,09458.8141,W,1,8,1.6,0,M"
"##MN-00 00 45 0364 02476 5549 513205 371805 210"
"124.731458"
"$GPGGA,173311,2616.5536,N,09458.8138,W,1,8,1.6,0,M"
"##MN-00 00 47 0365 02478 5544 513346 371857 210"
"124.731505"
"$GPGGA,173315,2616.5560,N,09458.8124,W,1,8,1.6,0,M"
"##MN-00 00 45 0366 02483 5540 513584 371936 210"
"124.731551"
"$GPGGA,173319,2616.5583,N,09458.8111,W,1,8,1.6,0,M"
"##MN-00 00 45 0368 02485 5534 513755 371999 210"
"124.731597"
"$GPGGA,173323,2616.5611,N,09458.8102,W,1,8,1.6,-1,"
"##MN-00 00 46 0369 02486 5529 514007 372083 210"
"124.731644"
"$GPGGA,173327,2616.5638,N,09458.8091,W,1,8,1.6,-1,"
"##MN-00 00 46 0371 02490 5525 514117 372121 210"
"124.73169"
"$GPGGA,173331,2616.5665,N,09458.8089,W,1,8,1.6,-1,"
"##MN-00 00 45 0372 02493 5520 514424 372236 210"
"124.731736"
"$GPGGA,173335,2616.5692,N,09458.8076,W,1,8,1.6,-1,"
"##MN-00 00 46 0373 02500 5515 514583 372292 210"
"124.731782"
"$GPGGA,173339,2616.5721,N,09458.8069,W,1,8,1.6,-1,"
"##MN-00 00 46 0375 02499 5510 514851 372387 210"
"124.731829"
"$GPGGA,173343,2616.5749,N,09458.8060,W,1,8,1.6,-1,"
"##MN-00 00 46 0376 02505 5505 515031 372454 210"
"124.731875"
"$GPGGA,173347,2616.5775,N,09458.8049,W,1,8,1.6,-1,"
"##MN-00 00 46 0378 02508 5500 515122 372489 210"
"124.731921"
"$GPGGA,173351,2616.5802,N,09458.8039,W,1,8,1.6,-1,"
"##MN-00 00 45 0379 02508 5496 515286 372543 210"
"124.731968"
"$GPGGA,173355,2616.5828,N,09458.8033,W,1,8,1.6,-1,"
"##MN-00 00 47 0380 02513 5491 515192 372476 210"
"124.732014"
"$GPGGA,173359,2616.5853,N,09458.8019,W,1,8,1.6,-1,"
"##MN-00 00 46 0382 02515 5486 515179 372449 210"
"124.73206"
"$GPGGA,173403,2616.5880,N,09458.8008,W,1,8,1.6,-1,"
"##MN-00 00 46 0383 02520 5481 515416 372532 210"
"124.732106"
"$GPGGA,173408,2616.5911,N,09458.7989,W,1,8,1.6,-1,"
"##MN-00 00 46 0385 02521 5476 515709 372632 210"
"124.732153"
"$GPGGA,173412,2616.5937,N,09458.7978,W,1,8,1.6,-1,"
"##MN-00 00 46 0386 02525 5471 515857 372684 210"
"124.732199"
"$GPGGA,173416,2616.5966,N,09458.7968,W,1,9,1.5,-1,"
"##MN-00 00 46 0387 02526 5466 515946 372711 210"
"124.732245"
"$GPGGA,173420,2616.5992,N,09458.7959,W,1,9,1.6,-1,"
"##MN-00 00 46 0389 02531 5461 515989 372726 210"
"124.732292"
"$GPGGA,173424,2616.6020,N,09458.7953,W,1,7,1.5,-1,"
"##MN-00 00 47 0390 02533 5457 516040 372743 210"
"124.732338"
"$GPGGA,173428,2616.6045,N,09458.7945,W,1,7,1.5,-1,"
"##MN-00 00 45 0392 02537 5452 516108 372763 210"
"124.732384"
"$GPGGA,173432,2616.6075,N,09458.7941,W,1,8,1.5,-1,"
"##MN-00 00 46 0393 02541 5447 516179 372789 210"
"124.732431"
"$GPGGA,173436,2616.6104,N,09458.7933,W,1,8,1.6,-1,"
"##MN-00 00 46 0394 02541 5442 516280 372823 210"
"124.732477"
"$GPGGA,173440,2616.6133,N,09458.7922,W,1,9,1.6,-1,"
"##MN-00 00 46 0396 02543 5438 516528 372910 210"
"124.732523"
"$GPGGA,173444,2616.6161,N,09458.7909,W,1,9,1.5,-1,"
"##MN-00 00 46 0397 02547 5433 516833 373007 210"
"124.732569"
"$GPGGA,173448,2616.6190,N,09458.7901,W,1,9,1.6,0,M"
"##MN-00 00 46 0399 02549 5428 517246 373144 210"
"124.732627"
"$GPGGA,173452,2616.6219,N,09458.7891,W,1,9,1.6,0,M"
"##MN-00 00 47 0400 02554 5423 517757 373306 210"
"124.732674"
"$GPGGA,173456,2616.6247,N,09458.7885,W,1,8,1.6,0,M"
"##MN-00 00 46 0402 02556 5418 518155 373435 210"
"124.73272"
"$GPGGA,173500,2616.6268,N,09458.7876,W,1,9,1.7,0,M"
"##MN-00 00 47 0403 02558 5413 518478 373529 210"
"124.732766"
"$GPGGA,173504,2616.6298,N,09458.7869,W,1,9,1.6,0,M"
"##MN-00 00 47 0404 02560 5409 518643 373577 210"
"124.732812"
"$GPGGA,173508,2616.6321,N,09458.7862,W,1,8,1.6,0,M"
"##MN-00 00 46 0406 02565 5404 518915 373655 210"
"124.732859"
"$GPGGA,173512,2616.6345,N,09458.7849,W,1,8,1.6,0,M"
"##MN-00 00 46 0407 02567 5399 519118 373716 210"
"124.732905"
"$GPGGA,173516,2616.6375,N,09458.7835,W,1,8,1.6,0,M"
"##MN-00 00 48 0409 02570 5394 519230 373758 210"
"124.732951"
"$GPGGA,173520,2616.6404,N,09458.7823,W,1,9,1.5,0,M"
"##MN-00 00 47 0410 02573 5389 519298 373785 210"
"124.732998"
"$GPGGA,173524,2616.6432,N,09458.7816,W,1,9,1.6,0,M"
"##MN-00 00 47 0412 02578 5385 519406 373807 210"
"124.733044"
"$GPGGA,173528,2616.6461,N,09458.7805,W,1,7,1.5,0,M"
"##MN-00 00 47 0413 02579 5380 519430 373796 210"
"124.73309"
"$GPGGA,173532,2616.6483,N,09458.7794,W,1,8,1.6,0,M"
"##MN-00 00 47 0414 02584 5375 519315 373737 210"
"124.733137"
"$GPGGA,173536,2616.6512,N,09458.7789,W,1,7,1.6,0,M"
"##MN-00 00 48 0416 02586 5371 519270 373713 210"
"124.733183"
"$GPGGA,173540,2616.6537,N,09458.7779,W,1,8,1.7,0,M"
"##MN-00 00 48 0417 02592 5365 519236 373679 210"
"124.733229"
"$GPGGA,173544,2616.6563,N,09458.7766,W,1,7,1.7,0,M"
"##MN-00 00 47 0419 02594 5361 519164 373624 210"
"124.733275"
"$GPGGA,173548,2616.6595,N,09458.7760,W,1,9,1.7,0,M"
"##MN-00 00 47 0420 02596 5355 519468 373723 210"
"124.733322"
"$GPGGA,173552,2616.6630,N,09458.7753,W,1,9,1.5,0,M"
"##MN-00 00 47 0422 02600 5351 519719 373795 210"
"124.733368"
"$GPGGA,173556,2616.6656,N,09458.7741,W,1,7,1.5,0,M"
"##MN-00 00 47 0423 02601 5346 519842 373832 210"
"124.733414"
"$GPGGA,173600,2616.6685,N,09458.7727,W,1,8,1.7,0,M"
"##MN-00 00 48 0425 02606 5341 519872 373839 210"
"124.733461"
"$GPGGA,173604,2616.6711,N,09458.7713,W,1,8,1.6,0,M"
"##MN-00 00 48 0426 02609 5337 519966 373871 210"
"124.733507"
"$GPGGA,173608,2616.6740,N,09458.7701,W,1,9,1.6,0,M"
"##MN-00 00 47 0427 02609 5332 520012 373887 210"
"124.733553"
"$GPGGA,173612,2616.6768,N,09458.7689,W,1,9,1.5,1,M"
"##MN-00 00 46 0429 02609 5327 520304 373989 210"
"124.7336"
"$GPGGA,173616,2616.6794,N,09458.7684,W,1,9,1.5,1,M"
"##MN-00 00 46 0431 02607 5323 519997 373881 210"
"124.733646"
"$GPGGA,173620,2616.6819,N,09458.7673,W,1,9,1.5,2,M"
"##MN-00 00 46 0433 02601 5317 519679 373784 210"
"124.733692"
"$GPGGA,173624,2616.6844,N,09458.7662,W,1,9,1.6,2,M"
"##MN-00 00 46 0434 02593 5313 519274 373694 210"
"124.733738"
"$GPGGA,173628,2616.6868,N,09458.7654,W,1,9,1.5,3,M"
"##MN-00 00 47 0436 02587 5308 519242 373717 210"
"124.733785"
"$GPGGA,173632,2616.6894,N,09458.7648,W,1,9,1.5,3,M"
"##MN-00 00 47 0438 02583 5303 519375 373808 210"
"124.733831"
"$GPGGA,173636,2616.6920,N,09458.7641,W,1,9,1.5,4,M"
"##MN-00 00 46 0440 02574 5299 519282 373788 210"
"124.733877"
"$GPGGA,173640,2616.6948,N,09458.7634,W,1,9,1.5,4,M"
"##MN-00 00 47 0442 02568 5294 519054 373710 210"
"124.733924"
"$GPGGA,173644,2616.6974,N,09458.7625,W,1,9,1.5,4,M"
"##MN-00 00 49 0444 02564 5289 518639 373597 210"
"124.73397"
"$GPGGA,173648,2616.7000,N,09458.7615,W,1,9,1.5,4,M"
"##MN-00 00 48 0446 02557 5285 518322 373512 210"
"124.734016"
"$GPGGA,173652,2616.7027,N,09458.7604,W,1,9,1.6,4,M"
"##MN-00 00 48 0448 02555 5280 517742 373323 210"
"124.734063"
"$GPGGA,173656,2616.7054,N,09458.7593,W,1,8,1.5,4,M"
"##MN-00 00 49 0450 02545 5275 516655 372968 210"
"124.734109"
"$GPGGA,173700,2616.7079,N,09458.7579,W,1,9,1.5,4,M"
"##MN-00 00 50 0451 02541 5270 516161 372800 210"
"124.734155"
"$GPGGA,173704,2616.7107,N,09458.7567,W,1,9,1.5,3,M"
"##MN-00 00 49 0453 02537 5265 515982 372741 210"
"124.734201"
"$GPGGA,173708,2616.7133,N,09458.7553,W,1,9,1.5,3,M"
"##MN-00 00 49 0455 02531 5261 515918 372717 210"
"124.734248"
"$GPGGA,173712,2616.7159,N,09458.7539,W,1,9,1.5,3,M"
"##MN-00 00 49 0457 02528 5256 515840 372691 210"
"124.734294"
"$GPGGA,173716,2616.7184,N,09458.7528,W,1,9,1.5,3,M"
"##MN-00 00 49 0459 02523 5251 515682 372632 210"
"124.73434"
"$GPGGA,173720,2616.7211,N,09458.7515,W,1,9,1.5,3,M"
"##MN-00 00 49 0461 02518 5247 515291 372500 210"
"124.734387"
"$GPGGA,173724,2616.7238,N,09458.7505,W,1,9,1.5,3,M"
"##MN-00 00 49 0463 02515 5242 515061 372422 210"
"124.734433"
"$GPGGA,173728,2616.7263,N,09458.7493,W,1,9,1.5,3,M"
"##MN-00 00 49 0465 02511 5237 515058 372449 210"
"124.734479"
"$GPGGA,173732,2616.7289,N,09458.7482,W,1,9,1.7,3,M"
"##MN-00 00 50 0466 02507 5233 514981 372430 210"
"124.734525"
"$GPGGA,173736,2616.7314,N,09458.7470,W,1,9,1.5,3,M"
"##MN-00 00 50 0468 02503 5228 514922 372413 210"
"124.734572"
"$GPGGA,173740,2616.7341,N,09458.7456,W,1,8,1.9,3,M"
"##MN-00 00 49 0470 02498 5223 514311 372202 210"
"124.734618"
"$GPGGA,173744,2616.7367,N,09458.7446,W,1,9,1.3,3,M"
"##MN-00 00 49 0472 02493 5219 514001 372096 210"
"124.734664"
"$GPGGA,173748,2616.7392,N,09458.7435,W,1,10,1.3,3,"
"##MN-00 00 49 0474 02489 5215 513812 372033 210"
"124.734711"
"$GPGGA,173752,2616.7419,N,09458.7425,W,1,10,1.3,3,"
"##MN-00 00 49 0476 02487 5210 513649 371975 210"
"124.734757"
"$GPGGA,173756,2616.7446,N,09458.7414,W,1,10,1.3,3,"
"##MN-00 00 49 0478 02484 5206 513395 371883 210"
"124.734803"
"$GPGGA,173800,2616.7472,N,09458.7404,W,1,10,1.3,3,"
"##MN-00 00 50 0479 02481 5201 513173 371808 210"
"124.73485"
"$GPGGA,173804,2616.7498,N,09458.7392,W,1,10,1.3,3,"
"##MN-00 00 49 0481 02477 5196 512839 371706 210"
"124.734896"
"$GPGGA,173808,2616.7523,N,09458.7382,W,1,10,1.3,2,"
"##MN-00 00 49 0483 02474 5192 512712 371665 210"
"124.734942"
"$GPGGA,173812,2616.7549,N,09458.7371,W,1,10,1.3,2,"
"##MN-00 00 49 0485 02469 5187 512691 371710 210"
"124.734988"
"$GPGGA,173816,2616.7576,N,09458.7361,W,1,10,1.3,2,"
"##MN-00 00 50 0487 02467 5183 512515 371660 210"
"124.735035"
"$GPGGA,173820,2616.7602,N,09458.7349,W,1,10,1.3,2,"
"##MN-00 00 49 0489 02462 5178 512398 371628 210"
"124.735081"
"$GPGGA,173824,2616.7628,N,09458.7338,W,1,10,1.3,1,"
"##MN-00 00 49 0490 02459 5174 512430 371657 210"
"124.735127"
"$GPGGA,173828,2616.7653,N,09458.7326,W,1,10,1.3,1,"
"##MN-00 00 49 0492 02453 5170 512391 371646 210"
"124.735174"
"$GPGGA,173832,2616.7679,N,09458.7315,W,1,10,1.3,1,"
"##MN-00 00 49 0494 02449 5165 512329 371631 210"
"124.73522"
"$GPGGA,173836,2616.7704,N,09458.7303,W,1,10,1.3,1,"
"##MN-00 00 49 0496 02447 5161 512195 371595 210"
"124.735266"
"$GPGGA,173840,2616.7729,N,09458.7293,W,1,9,1.3,1,M"
"##MN-00 00 48 0498 02440 5157 511721 371437 210"
"124.735312"
"$GPGGA,173845,2616.7758,N,09458.7280,W,1,10,1.4,1,"
"##MN-00 00 48 0500 02438 5152 511420 371358 210"
"124.735359"
"$GPGGA,173849,2616.7780,N,09458.7270,W,1,9,1.3,1,M"
"##MN-00 00 49 0501 02433 5147 511269 371316 210"
"124.735405"
"$GPGGA,173853,2616.7807,N,09458.7254,W,1,9,1.3,1,M"
"##MN-00 00 49 0503 02432 5143 511116 371271 210"
"124.735451"
"$GPGGA,173857,2616.7833,N,09458.7239,W,1,10,1.3,1,"
"##MN-00 00 49 0505 02426 5139 510922 371210 210"
"124.735498"
"$GPGGA,173900,2616.7851,N,09458.7228,W,1,10,1.3,1,"
"##MN-00 00 49 0507 02423 5135 510566 371092 210"
"124.735544"
"$GPGGA,173905,2616.7880,N,09458.7212,W,1,10,1.3,1,"
"##MN-00 00 48 0509 02419 5131 510381 371027 210"
"124.73559"
"$GPGGA,173909,2616.7905,N,09458.7201,W,1,9,1.4,1,M"
"##MN-00 00 49 0510 02416 5127 510044 370919 210"
"124.735637"
"$GPGGA,173913,2616.7930,N,09458.7188,W,1,10,1.3,1,"
"##MN-00 00 48 0512 02413 5122 509597 370763 210"
"124.735683"
"$GPGGA,173917,2616.7953,N,09458.7172,W,1,10,1.3,1,"
"##MN-00 00 48 0514 02412 5118 509023 370574 210"
"124.735729"
"$GPGGA,173921,2616.7975,N,09458.7156,W,1,9,1.5,0,M"
"##MN-00 00 48 0516 02410 5114 508696 370468 210"
"124.735787"
"$GPGGA,173925,2616.7997,N,09458.7140,W,1,10,1.3,0,"
"##MN-00 00 49 0518 02406 5109 508273 370312 210"
"124.735833"
"$GPGGA,173929,2616.8022,N,09458.7125,W,1,9,1.5,1,M"
"##MN-00 00 48 0519 02404 5105 508058 370250 210"
"124.73588"
"$GPGGA,173933,2616.8046,N,09458.7111,W,1,10,1.3,1,"
"##MN-00 00 49 0521 02400 5101 508047 370281 210"
"124.735926"
"$GPGGA,173937,2616.8071,N,09458.7098,W,1,9,1.5,1,M"
"##MN-00 00 48 0523 02398 5097 508426 370481 210"
"124.735972"
"$GPGGA,173941,2616.8098,N,09458.7085,W,1,9,1.5,1,M"
"##MN-00 00 48 0525 02392 5093 508875 370697 210"
"124.736018"
"$GPGGA,173945,2616.8122,N,09458.7071,W,1,9,1.5,1,M"
"##MN-00 00 47 0526 02390 5089 509218 370866 210"
"124.736065"
"$GPGGA,173949,2616.8147,N,09458.7057,W,1,9,1.5,2,M"
"##MN-00 00 48 0528 02386 5085 509346 371025 210"
"124.736111"
"$GPGGA,173953,2616.8170,N,09458.7041,W,1,9,1.5,2,M"
"##MN-00 00 48 0530 02384 5081 508845 370877 210"
"124.736157"
"$GPGGA,173957,2616.8195,N,09458.7027,W,1,9,1.5,2,M"
"##MN-00 00 47 0532 02381 5077 508164 370656 210"
"124.736204"
"$GPGGA,174001,2616.8221,N,09458.7014,W,1,9,1.5,2,M"
"##MN-00 00 47 0533 02374 5073 508020 370605 210"
"124.73625"
"$GPGGA,174005,2616.8246,N,09458.7002,W,1,9,1.5,2,M"
"##MN-00 00 48 0535 02371 5069 507637 370458 210"
"124.736296"
"$GPGGA,174009,2616.8271,N,09458.6989,W,1,10,1.3,2,"
"##MN-00 00 47 0537 02365 5065 505870 369831 210"
"124.736343"
"$GPGGA,174013,2616.8293,N,09458.6973,W,1,10,1.3,2,"
"##MN-00 00 47 0539 02361 5061 504732 369448 210"
"124.736389"
"$GPGGA,174017,2616.8320,N,09458.6960,W,1,10,1.3,2,"
"##MN-00 00 48 0540 02359 5057 504095 369206 210"
"124.736435"
"$GPGGA,174021,2616.8344,N,09458.6947,W,1,10,1.3,2,"
"##MN-00 00 48 0542 02356 5053 503599 369024 210"
"124.736482"
"$GPGGA,174025,2616.8371,N,09458.6935,W,1,10,1.3,2,"
"##MN-00 00 47 0544 02352 5049 503535 368993 210"
"124.736528"
"$GPGGA,174029,2616.8397,N,09458.6924,W,1,10,1.3,2,"
"##MN-00 00 47 0546 02346 5045 503258 368894 210"
"124.736574"
"$GPGGA,174033,2616.8423,N,09458.6910,W,1,10,1.3,1,"
"##MN-00 00 48 0547 02343 5042 502980 368816 210"
"124.73662"
"$GPGGA,174037,2616.8451,N,09458.6896,W,1,10,1.3,1,"
"##MN-00 00 47 0549 02341 5038 502873 368783 210"
"124.736667"
"$GPGGA,174041,2616.8477,N,09458.6880,W,1,10,1.3,1,"
"##MN-00 00 48 0551 02337 5033 502580 368702 210"
"124.736713"
"$GPGGA,174045,2616.8505,N,09458.6864,W,1,10,1.3,1,"
"##MN-00 00 47 0553 02331 5030 502417 368678 210"
"124.736759"
"$GPGGA,174049,2616.8531,N,09458.6850,W,1,10,1.3,0,"
"##MN-00 00 47 0554 02325 5026 502330 368682 210"
"124.736806"
"$GPGGA,174053,2616.8560,N,09458.6836,W,1,10,1.3,0,"
"##MN-00 00 48 0556 02327 5022 502321 368680 210"
"124.736852"
"$GPGGA,174057,2616.8585,N,09458.6821,W,1,10,1.3,0,"
"##MN+00 00 48 0557 02332 5019 502335 368672 210"
"124.736898"
"$GPGGA,174101,2616.8607,N,09458.6806,W,1,9,1.4,0,M"
"##MN+00 00 48 0559 02333 5015 502342 368671 210"
"124.736944"
"$GPGGA,174105,2616.8629,N,09458.6790,W,1,10,1.3,0,"
"##MN+00 00 45 0560 02332 5012 502351 368670 210"
"124.736991"
"$GPGGA,174109,2616.8657,N,09458.6776,W,1,10,1.3,0,"
"##MN-01 00 50 0562 02333 5008 502405 368672 210"
"124.737037"
"$GPGGA,174113,2616.8682,N,09458.6761,W,1,9,1.4,0,M"
"##MN-01 00 48 0563 02335 5004 502341 368670 210"
"124.737083"
"$GPGGA,174117,2616.8707,N,09458.6746,W,1,9,1.4,0,M"
"##MN-01 00 48 0565 02333 5001 502390 368674 210"
"124.73713"
"$GPGGA,174121,2616.8734,N,09458.6728,W,1,9,1.3,0,M"
"##MN-01 00 46 0566 02335 4997 502356 368670 210"
"124.737176"
"$GPGGA,174125,2616.8758,N,09458.6711,W,1,10,1.7,0,"
"##MN-01 00 45 0568 02333 4994 502327 368671 210"
"124.737222"
"$GPGGA,174129,2616.8780,N,09458.6695,W,1,10,1.3,0,"
"##MN-01 00 47 0570 02326 4991 502304 368683 210"
"124.737269"
"$GPGGA,174133,2616.8802,N,09458.6677,W,1,10,1.3,0,"
"##MN-01 00 45 0571 02325 4987 502253 368686 210"
"124.737315"
"$GPGGA,174137,2616.8828,N,09458.6662,W,1,9,1.4,0,M"
"##MN-01 00 47 0573 02321 4983 502237 368726 210"
"124.737361"
"$GPGGA,174141,2616.8850,N,09458.6644,W,1,9,1.5,0,M"
"##MN-01 00 46 0575 02319 4980 502285 368814 210"
"124.737407"
"$GPGGA,174145,2616.8875,N,09458.6630,W,1,10,1.3,0,"
"##MN-01 00 46 0576 02314 4976 502372 368894 210"
"124.737454"
"$GPGGA,174149,2616.8902,N,09458.6613,W,1,10,1.4,1,"
"##MN-01 00 44 0578 02313 4973 502431 368967 210"
"124.7375"
"$GPGGA,174153,2616.8925,N,09458.6598,W,1,9,1.4,1,M"
"##MN-01 00 47 0580 02306 4970 502432 368975 210"
"124.737546"
"$GPGGA,174157,2616.8951,N,09458.6583,W,1,8,1.4,1,M"
"##MN-01 00 47 0581 02305 4966 502398 368973 210"
"124.737593"
"$GPGGA,174201,2616.8976,N,09458.6569,W,1,9,1.9,1,M"
"##MN-01 00 47 0583 02302 4963 502324 368963 210"
"124.737639"
"$GPGGA,174205,2616.9001,N,09458.6552,W,1,8,1.9,1,M"
"##MN-01 00 47 0585 02299 4960 502155 368919 210"
"124.737685"
"$GPGGA,174209,2616.9026,N,09458.6537,W,1,9,1.5,1,M"
"##MN-01 00 47 0586 02295 4956 501927 368861 210"
"124.737731"
"$GPGGA,174213,2616.9052,N,09458.6524,W,1,9,1.6,1,M"
"##MN-01 00 46 0588 02291 4953 501818 368838 210"
"124.737778"
"$GPGGA,174217,2616.9073,N,09458.6508,W,1,9,1.4,1,M"
"##MN-01 00 46 0590 02291 4950 501630 368797 210"
"124.737824"
"$GPGGA,174221,2616.9097,N,09458.6490,W,1,9,1.4,1,M"
"##MN-01 00 46 0591 02288 4947 501578 368786 210"
"124.73787"
"$GPGGA,174225,2616.9122,N,09458.6477,W,1,9,1.4,1,M"
"##MN-01 00 47 0593 02286 4944 501543 368779 210"
"124.737917"
"$GPGGA,174229,2616.9146,N,09458.6459,W,1,10,1.9,1,"
"##MN-01 00 46 0595 02280 4940 501518 368778 210"
"124.737963"
"$GPGGA,174233,2616.9174,N,09458.6435,W,1,10,1.3,1,"
"##MN-01 00 47 0596 02279 4937 501509 368799 210"
"124.738009"
"$GPGGA,174237,2616.9199,N,09458.6423,W,1,9,1.4,1,M"
"##MN-01 00 46 0598 02274 4934 501333 368791 210"
"124.738056"
"$GPGGA,174241,2616.9224,N,09458.6409,W,1,9,1.4,1,M"
"##MN-01 00 46 0599 02273 4931 500595 368650 210"
"124.738102"
"$GPGGA,174245,2616.9250,N,09458.6396,W,1,10,1.3,1,"
"##MN-01 00 47 0601 02266 4928 499581 368420 210"
"124.738148"
"$GPGGA,174249,2616.9269,N,09458.6387,W,1,10,1.3,1,"
"##MN-01 00 46 0603 02265 4924 498615 368175 210"
"124.738194"
"$GPGGA,174253,2616.9296,N,09458.6369,W,1,10,1.3,1,"
"##MN-01 00 46 0604 02263 4922 497870 367967 210"
"124.738241"
"$GPGGA,174257,2616.9326,N,09458.6345,W,1,9,1.4,1,M"
"##MN-01 00 48 0606 02260 4918 496853 367679 210"
"124.738287"
"$GPGGA,174301,2616.9344,N,09458.6334,W,1,9,1.4,1,M"
"##MN-01 00 46 0607 02253 4915 495403 367290 210"
"124.738333"
"$GPGGA,174305,2616.9377,N,09458.6306,W,1,9,1.4,1,M"
"##MN-01 00 46 0609 02254 4912 494425 367022 210"
"124.73838"
"$GPGGA,174309,2616.9402,N,09458.6291,W,1,9,1.4,1,M"
"##MN-01 00 46 0610 02250 4909 493323 366709 210"
"124.738426"
"$GPGGA,174313,2616.9427,N,09458.6274,W,1,10,1.3,1,"
"##MN-01 00 45 0612 02248 4906 492882 366572 210"
"124.738472"
"$GPGGA,174317,2616.9452,N,09458.6255,W,1,10,1.3,1,"
"##MN-01 00 46 0613 02245 4903 492324 366391 210"
"124.738519"
"$GPGGA,174322,2616.9482,N,09458.6232,W,1,10,1.3,1,"
"##MN-01 00 44 0615 02246 4900 492058 366304 210"
"124.738565"
"$GPGGA,174325,2616.9500,N,09458.6221,W,1,10,1.3,1,"
"##MN-01 00 44 0616 02243 4898 490651 365909 210"
"124.738611"
"$GPGGA,174330,2616.9529,N,09458.6200,W,1,10,1.3,0,"
"##MN-01 00 45 0618 02242 4895 489665 365628 210"
"124.738657"
"$GPGGA,174334,2616.9554,N,09458.6181,W,1,10,1.3,0,"
"##MN-01 00 45 0619 02238 4892 488795 365338 210"
"124.738704"
"$GPGGA,174338,2616.9579,N,09458.6162,W,1,10,1.4,0,"
"##MN+01 00 45 0621 02236 4889 487489 364841 210"
"124.73875"
"$GPGGA,174342,2616.9604,N,09458.6145,W,1,10,1.3,0,"
"##MN+01 00 44 0622 02234 4886 486569 364498 210"
"124.738796"
"$GPGGA,174346,2616.9629,N,09458.6127,W,1,10,1.3,0,"
"##MN+01 00 43 0624 02235 4884 486421 364437 210"
"124.738843"
"$GPGGA,174350,2616.9654,N,09458.6112,W,1,10,1.4,0,"
"##MN-02 00 47 0626 02233 4881 486371 364408 210"
"124.738889"
"$GPGGA,174354,2616.9677,N,09458.6094,W,1,10,1.3,0,"
"##MN-02 00 45 0627 02231 4878 486310 364381 210"
"124.738947"
"$GPGGA,174358,2616.9704,N,09458.6077,W,1,10,1.3,0,"
"##MN-02 00 43 0629 02228 4875 486248 364370 210"
"124.738993"
"$GPGGA,174402,2616.9727,N,09458.6060,W,1,10,1.3,0,"
"##MN-02 00 42 0630 02227 4873 485975 364319 210"
"124.739039"
"$GPGGA,174406,2616.9752,N,09458.6042,W,1,10,1.3,0,"
"##MN-02 00 43 0632 02225 4870 485790 364252 210"
"124.739086"
"$GPGGA,174410,2616.9776,N,09458.6025,W,1,10,1.3,0,"
"##MN-02 00 43 0633 02227 4868 484981 363955 210"
"124.739132"
"$GPGGA,174414,2616.9799,N,09458.6007,W,1,10,1.3,0,"
"##MN-02 00 42 0635 02220 4865 484695 363812 210"
"124.739178"
"$GPGGA,174418,2616.9824,N,09458.5989,W,1,10,1.3,0,"
"##MN-02 00 42 0636 02219 4862 484437 363716 210"
"124.739225"
"$GPGGA,174422,2616.9847,N,09458.5973,W,1,9,1.3,0,M"
"##MN-02 00 43 0638 02217 4859 484014 363559 210"
"124.739271"
"$GPGGA,174426,2616.9872,N,09458.5955,W,1,10,1.3,0,"
"##MN-02 00 42 0639 02214 4857 483837 363466 210"
"124.739317"
"$GPGGA,174430,2616.9896,N,09458.5937,W,1,10,1.3,0,"
"##MN-02 00 41 0641 02213 4855 483745 363443 210"
"124.739363"
"$GPGGA,174434,2616.9919,N,09458.5918,W,1,10,1.3,0,"
"##MN-02 00 41 0642 02211 4853 483413 363304 210"
"124.73941"
"$GPGGA,174438,2616.9941,N,09458.5899,W,1,10,1.3,0,"
"##MN-02 00 41 0643 02211 4850 483104 363179 210"
"124.739456"
"$GPGGA,174442,2616.9964,N,09458.5879,W,1,10,1.3,0,"
"##MN-02 00 41 0645 02206 4848 483095 363169 210"
"124.739502"
"$GPGGA,174446,2616.9987,N,09458.5860,W,1,10,1.3,-1"
"##MN-02 00 40 0646 02206 4845 482853 363081 210"
"124.739549"
"$GPGGA,174450,2617.0011,N,09458.5840,W,1,10,1.3,-1"
"##MN-02 00 41 0648 02203 4843 482454 362915 210"
"124.739595"
"$GPGGA,174454,2617.0034,N,09458.5821,W,1,10,1.4,-1"
"##MN-02 00 40 0649 02198 4841 482204 362837 210"
"124.739641"
"$GPGGA,174458,2617.0058,N,09458.5804,W,1,9,1.4,-1,"
"##MN-02 00 39 0651 02199 4839 481777 362715 210"
"124.739688"
"$GPGGA,174502,2617.0081,N,09458.5785,W,1,9,1.3,-1,"
"##MN-02 00 39 0652 02196 4837 481607 362660 210"
"124.739734"
"$GPGGA,174506,2617.0106,N,09458.5767,W,1,10,1.4,-1"
"##MN-02 00 39 0653 02193 4834 481553 362654 210"
"124.73978"
"$GPGGA,174510,2617.0128,N,09458.5750,W,1,10,1.4,-1"
"##MN-02 00 39 0655 02191 4832 481422 362620 210"
"124.739826"
"$GPGGA,174514,2617.0152,N,09458.5729,W,1,10,1.4,-1"
"##MN-02 00 40 0656 02187 4830 481191 362548 210"
"124.739873"
"$GPGGA,174518,2617.0175,N,09458.5711,W,1,9,1.3,-1,"
"##MN-02 00 39 0658 02186 4828 481075 362496 210"
"124.739919"
"$GPGGA,174522,2617.0199,N,09458.5691,W,1,10,1.3,-1"
"##MN-02 00 39 0659 02183 4826 481016 362476 210"
"124.739965"
"$GPGGA,174526,2617.0222,N,09458.5671,W,1,10,1.6,-1"
"##MN-02 00 39 0661 02176 4824 481106 362524 210"
"124.740012"
"$GPGGA,174530,2617.0244,N,09458.5650,W,1,10,1.4,0,"
"##MN-02 00 39 0662 02175 4822 481163 362566 210"
"124.740058"
"$GPGGA,174534,2617.0269,N,09458.5631,W,1,10,1.4,0,"
"##MN-02 00 39 0664 02173 4820 481117 362548 210"
"124.740104"
"$GPGGA,174538,2617.0293,N,09458.5613,W,1,9,1.3,0,M"
"##MN-02 00 39 0665 02170 4818 481010 362507 210"
"124.74015"
"$GPGGA,174542,2617.0316,N,09458.5593,W,1,10,1.3,0,"
"##MN-02 00 39 0667 02163 4816 480948 362487 210"
"124.740197"
"$GPGGA,174546,2617.0340,N,09458.5576,W,1,10,1.4,0,"
"##MN-02 00 39 0668 02161 4814 480756 362417 210"
"124.740243"
"$GPGGA,174550,2617.0363,N,09458.5558,W,1,9,1.4,0,M"
"##MN-02 00 39 0669 02159 4812 480654 362379 210"
"124.740289"
"$GPGGA,174554,2617.0385,N,09458.5538,W,1,10,1.4,0,"
"##MN-02 00 39 0671 02154 4810 480564 362349 210"
"124.740336"
"$GPGGA,174558,2617.0409,N,09458.5518,W,1,10,1.4,0,"
"##MN-02 00 39 0672 02149 4808 480535 362340 210"
"124.740382"
"$GPGGA,174602,2617.0431,N,09458.5498,W,1,9,1.4,0,M"
"##MN-02 00 38 0674 02150 4807 480490 362324 210"
"124.740428"
"$GPGGA,174606,2617.0453,N,09458.5480,W,1,10,1.4,0,"
"##MN-02 00 39 0675 02147 4805 480418 362301 210"
"124.740475"
"$GPGGA,174610,2617.0475,N,09458.5462,W,1,10,1.3,0,"
"##MN-02 00 39 0676 02142 4804 480334 362275 210"
"124.740521"
"$GPGGA,174614,2617.0497,N,09458.5444,W,1,10,1.5,0,"
"##MN-02 00 38 0678 02140 4802 480345 362295 210"
"124.740567"
"$GPGGA,174618,2617.0522,N,09458.5428,W,1,10,1.3,0,"
"##MN+02 00 39 0679 02135 4800 480424 362335 210"
"124.740613"
"$GPGGA,174622,2617.0544,N,09458.5409,W,1,10,1.3,0,"
"##MN+02 00 38 0681 02132 4798 480479 362368 210"
"124.74066"
"$GPGGA,174626,2617.0568,N,09458.5389,W,1,10,1.3,0,"
"##MN+02 00 38 0682 02127 4796 480538 362397 210"
"124.740706"
"$GPGGA,174630,2617.0593,N,09458.5367,W,1,10,1.3,0,"
"##MN-03 00 42 0684 02125 4795 480590 362432 210"
"124.740752"
"$GPGGA,174634,2617.0618,N,09458.5344,W,1,10,1.4,0,"
"##MN-03 00 39 0685 02119 4793 480695 362490 210"
"124.740799"
"$GPGGA,174638,2617.0641,N,09458.5324,W,1,10,1.3,0,"
"##MN-03 00 38 0687 02114 4792 480684 362482 210"
"124.740845"
"$GPGGA,174642,2617.0663,N,09458.5303,W,1,10,1.3,1,"
"##MN-03 00 38 0688 02111 4790 480658 362473 210"
"124.740891"
"$GPGGA,174646,2617.0687,N,09458.5282,W,1,10,1.3,1,"
"##MN-03 00 38 0690 02110 4789 480871 362590 210"
"124.740937"
"$GPGGA,174650,2617.0710,N,09458.5260,W,1,10,1.3,1,"
"##MN-03 00 37 0691 02106 4787 480820 362560 210"
"124.740984"
"$GPGGA,174654,2617.0732,N,09458.5238,W,1,10,1.3,1,"
"##MN-03 00 37 0693 02101 4785 480881 362603 210"
"124.74103"
"$GPGGA,174658,2617.0756,N,09458.5216,W,1,10,1.3,1,"
"##MN-03 00 38 0694 02098 4784 481110 362732 210"
"124.741076"
"$GPGGA,174702,2617.0779,N,09458.5196,W,1,10,1.3,0,"
"##MN-03 00 37 0695 02095 4783 481115 362741 210"
"124.741123"
"$GPGGA,174706,2617.0800,N,09458.5175,W,1,10,1.3,0,"
"##MN-03 00 38 0697 02090 4781 481152 362762 210"
"124.741169"
"$GPGGA,174710,2617.0824,N,09458.5155,W,1,10,1.3,0,"
"##MN-03 00 38 0698 02087 4780 481197 362788 210"
"124.741215"
"$GPGGA,174714,2617.0847,N,09458.5135,W,1,10,1.3,0,"
"##MN-03 00 37 0700 02084 4778 481243 362810 210"
"124.741262"
"$GPGGA,174718,2617.0871,N,09458.5115,W,1,10,1.3,0,"
"##MN-03 00 38 0701 02080 4777 481271 362829 210"
"124.741308"
"$GPGGA,174722,2617.0893,N,09458.5095,W,1,10,1.3,0,"
"##MN-03 00 38 0703 02075 4776 481324 362858 210"
"124.741354"
"$GPGGA,174726,2617.0916,N,09458.5074,W,1,10,1.3,0,"
"##MN-03 00 38 0704 02074 4774 481396 362898 210"
"124.7414"
"$GPGGA,174730,2617.0938,N,09458.5053,W,1,10,1.3,0,"
"##MN-03 00 37 0706 02068 4773 481495 362959 210"
"124.741447"
"$GPGGA,174734,2617.0959,N,09458.5032,W,1,10,1.3,0,"
"##MN-03 00 38 0707 02066 4771 481623 363030 210"
"124.741493"
"$GPGGA,174738,2617.0981,N,09458.5010,W,1,10,1.3,0,"
"##MN-03 00 38 0708 02063 4770 481688 363068 210"
"124.741539"
"$GPGGA,174742,2617.1003,N,09458.4990,W,1,10,1.3,0,"
"##MN-03 00 38 0710 02064 4769 481685 363073 210"
"124.741586"
"$GPGGA,174746,2617.1026,N,09458.4970,W,1,10,1.3,0,"
"##MN-03 00 38 0711 02066 4768 481647 363049 210"
"124.741632"
"$GPGGA,174750,2617.1048,N,09458.4949,W,1,10,1.3,-1"
"##MN-03 00 37 0712 02064 4766 481610 363027 210"
"124.741678"
"$GPGGA,174754,2617.1070,N,09458.4928,W,1,10,1.3,-1"
"##MN-03 00 38 0714 02067 4765 481617 363034 210"
"124.741725"
"$GPGGA,174758,2617.1092,N,09458.4907,W,1,10,1.3,-1"
"##MN-03 00 37 0715 02066 4764 481642 363050 210"
"124.741771"
"$GPGGA,174803,2617.1120,N,09458.4879,W,1,10,1.3,-1"
"##MN-03 00 38 0716 02066 4762 481708 363082 210"
"124.741817"
"$GPGGA,174807,2617.1143,N,09458.4857,W,1,10,1.3,-1"
"##MN-03 00 37 0718 02067 4762 481692 363081 210"
"124.741863"
"$GPGGA,174811,2617.1165,N,09458.4839,W,1,10,1.3,-1"
"##MN-03 00 38 0719 02066 4760 481652 363052 210"
"124.74191"
"$GPGGA,174814,2617.1183,N,09458.4821,W,1,10,1.3,-1"
"##MN-03 00 37 0720 02065 4759 481699 363078 210"
"124.741956"
"$GPGGA,174819,2617.1211,N,09458.4795,W,1,10,1.3,-2"
"##MN-03 00 38 0722 02066 4758 481690 363072 210"
"124.742002"
"$GPGGA,174823,2617.1233,N,09458.4777,W,1,9,1.5,-1,"
"##MN-03 00 38 0723 02068 4757 481710 363090 210"
"124.742049"
"$GPGGA,174827,2617.1255,N,09458.4755,W,1,10,1.3,-1"
"##MN-03 00 38 0724 02064 4755 481637 363050 210"
"124.742095"
"$GPGGA,174831,2617.1281,N,09458.4736,W,1,10,1.3,-1"
"##MN-03 00 38 0726 02066 4754 481769 363120 210"
"124.742153"
"$GPGGA,174835,2617.1303,N,09458.4715,W,1,10,1.3,-1"
"##MN-03 00 38 0727 02066 4753 481771 363123 210"
"124.742199"
"$GPGGA,174839,2617.1326,N,09458.4693,W,1,10,1.3,-1"
"##MN-03 00 39 0728 02066 4752 481783 363126 210"
"124.742245"
"$GPGGA,174843,2617.1348,N,09458.4670,W,1,10,1.3,-1"
"##MN-03 00 38 0730 02064 4751 481798 363134 210"
"124.742292"
"$GPGGA,174847,2617.1370,N,09458.4648,W,1,9,1.4,-1,"
"##MN-03 00 39 0731 02061 4750 481807 363141 210"
"124.742338"
"$GPGGA,174851,2617.1392,N,09458.4623,W,1,10,1.3,-1"
"##MN-03 00 38 0732 02064 4749 481813 363145 210"
"124.742384"
"$GPGGA,174855,2617.1413,N,09458.4601,W,1,10,1.3,-1"
"##MN-03 00 38 0734 02063 4748 481826 363155 210"
"124.742431"
"$GPGGA,174859,2617.1436,N,09458.4581,W,1,9,1.5,-1,"
"##MN-03 00 39 0735 02063 4746 481838 363163 210"
"124.742477"
"$GPGGA,174903,2617.1457,N,09458.4559,W,1,10,1.3,-1"
"##MN-03 00 38 0736 02065 4745 481843 363165 210"
"124.742523"
"$GPGGA,174907,2617.1479,N,09458.4535,W,1,9,1.5,-1,"
"##MN-03 00 38 0738 02064 4745 481822 363153 210"
"124.742569"
"$GPGGA,174911,2617.1503,N,09458.4508,W,1,9,1.5,-1,"
"##MN-03 00 37 0739 02062 4744 481807 363146 210"
"124.742616"
"$GPGGA,174915,2617.1525,N,09458.4484,W,1,10,1.5,-1"
"##MN-03 00 37 0741 02054 4742 481969 363241 210"
"124.742662"
"$GPGGA,174919,2617.1547,N,09458.4461,W,1,9,1.3,0,M"
"##MN-03 00 38 0742 02052 4742 482118 363329 210"
"124.742708"
"$GPGGA,174923,2617.1570,N,09458.4435,W,1,9,1.5,0,M"
"##MN+03 00 38 0744 02047 4740 482148 363353 210"
"124.742755"
"$GPGGA,174927,2617.1594,N,09458.4416,W,1,10,1.5,0,"
"##MN+03 00 39 0745 02044 4739 482188 363381 210"
"124.742801"
"$GPGGA,174931,2617.1617,N,09458.4391,W,1,9,1.5,0,M"
"##MN+03 00 39 0747 02037 4738 482257 363424 210"
"124.742847"
"$GPGGA,174935,2617.1638,N,09458.4368,W,1,10,1.3,0,"
"##MN-04 00 43 0749 02031 4738 482263 363438 210"
"124.742894"
"$GPGGA,174939,2617.1659,N,09458.4347,W,1,9,1.5,0,M"
"##MN-04 00 40 0750 02029 4736 482191 363421 210"
"124.74294"
"$GPGGA,174943,2617.1678,N,09458.4329,W,1,10,1.5,1,"
"##MN-04 00 39 0751 02025 4735 482028 363359 210"
"124.742986"
"$GPGGA,174947,2617.1700,N,09458.4307,W,1,10,1.3,1,"
"##MN-04 00 37 0753 02019 4734 481998 363353 210"
"124.743032"
"$GPGGA,174951,2617.1724,N,09458.4287,W,1,10,1.3,1,"
"##MN-04 00 40 0755 02016 4733 482143 363423 210"
"124.743079"
"$GPGGA,174955,2617.1747,N,09458.4262,W,1,10,1.3,1,"
"##MN-04 00 40 0756 02012 4732 482016 363371 210"
"124.743125"
"$GPGGA,174959,2617.1775,N,09458.4243,W,1,9,1.3,1,M"
"##MN-04 00 41 0758 02008 4731 481851 363301 210"
"124.743171"
"$GPGGA,175003,2617.1797,N,09458.4221,W,1,10,1.3,1,"
"##MN-04 00 39 0759 02006 4731 481768 363270 210"
"124.743218"
"$GPGGA,175007,2617.1819,N,09458.4200,W,1,10,1.3,1,"
"##MN-04 00 40 0761 02002 4729 481904 363328 210"
"124.743264"
"$GPGGA,175011,2617.1841,N,09458.4180,W,1,10,1.3,1,"
"##MN-04 00 40 0762 01998 4728 481782 363275 210"
"124.74331"
"$GPGGA,175015,2617.1863,N,09458.4160,W,1,10,1.3,1,"
"##MN-04 00 39 0763 01996 4728 481622 363223 210"
"124.743356"
"$GPGGA,175019,2617.1886,N,09458.4140,W,1,10,1.3,1,"
"##MN-04 00 40 0765 01990 4727 481799 363287 210"
"124.743403"
"$GPGGA,175023,2617.1908,N,09458.4120,W,1,10,1.3,1,"
"##MN-04 00 40 0766 01986 4726 481653 363231 210"
"124.743449"
"$GPGGA,175027,2617.1930,N,09458.4101,W,1,10,1.3,1,"
"##MN-04 00 39 0768 01981 4725 481608 363212 210"
"124.743495"
"$GPGGA,175031,2617.1945,N,09458.4085,W,1,9,1.4,1,M"
"##MN-04 00 39 0769 01980 4724 481672 363247 210"
"124.743542"
"$GPGGA,175035,2617.1974,N,09458.4060,W,1,9,1.4,1,M"
"##MN-04 00 40 0771 01975 4723 481607 363216 210"
"124.743588"
"$GPGGA,175039,2617.1998,N,09458.4039,W,1,9,1.4,1,M"
"##MN-04 00 39 0772 01979 4722 481723 363272 210"
"124.743634"
"$GPGGA,175043,2617.2020,N,09458.4019,W,1,9,1.4,1,M"
"##MN-04 00 38 0773 01980 4721 481831 363312 210"
"124.743681"
"$GPGGA,175047,2617.2042,N,09458.3999,W,1,9,1.4,1,M"
"##MN-04 00 37 0775 01977 4720 481728 363266 210"
"124.743727"
"$GPGGA,175051,2617.2065,N,09458.3979,W,1,9,1.4,1,M"
"##MN-04 00 39 0776 01978 4719 482026 363403 210"
"124.743773"
"$GPGGA,175055,2617.2089,N,09458.3958,W,1,9,1.4,1,M"
"##MN-04 00 37 0777 01976 4718 482136 363445 210"
"124.743819"
"$GPGGA,175059,2617.2112,N,09458.3938,W,1,9,1.4,1,M"
"##MN-04 00 38 0779 01977 4718 482179 363486 210"
"124.743866"
"$GPGGA,175103,2617.2133,N,09458.3917,W,1,9,1.4,1,M"
"##MN-04 00 39 0780 01976 4717 482217 363491 210"
"124.743912"
"$GPGGA,175107,2617.2158,N,09458.3898,W,1,9,1.4,1,M"
"##MN-04 00 38 0781 01978 4716 482205 363500 210"
"124.743958"
"$GPGGA,175111,2617.2180,N,09458.3878,W,1,9,1.4,1,M"
"##MN-04 00 39 0783 01976 4715 482373 363557 210"
"124.744005"
"$GPGGA,175115,2617.2202,N,09458.3858,W,1,9,1.4,0,M"
"##MN-04 00 38 0784 01978 4714 482339 363551 210"
"124.744051"
"$GPGGA,175119,2617.2224,N,09458.3839,W,1,9,1.4,0,M"
"##MN-04 00 39 0785 01978 4713 482217 363501 210"
"124.744097"
"$GPGGA,175123,2617.2245,N,09458.3820,W,1,9,1.4,0,M"
"##MN-04 00 39 0787 01978 4713 482308 363544 210"
"124.744143"
"$GPGGA,175127,2617.2267,N,09458.3802,W,1,9,1.4,0,M"
"##MN-04 00 37 0788 01977 4712 482312 363527 210"
"124.74419"
"$GPGGA,175131,2617.2289,N,09458.3783,W,1,9,1.4,0,M"
"##MN-04 00 39 0789 01975 4711 482633 363663 210"
"124.744236"
"$GPGGA,175135,2617.2310,N,09458.3763,W,1,9,1.4,0,M"
"##MN-04 00 38 0791 01977 4710 482614 363666 210"
"124.744282"
"$GPGGA,175139,2617.2332,N,09458.3744,W,1,9,1.4,0,M"
"##MN-04 00 38 0792 01976 4709 482639 363669 210"
"124.744329"
"$GPGGA,175143,2617.2356,N,09458.3725,W,1,9,1.4,0,M"
"##MN-04 00 39 0793 01975 4708 482624 363664 210"
"124.744375"
"$GPGGA,175147,2617.2378,N,09458.3705,W,1,9,1.4,0,M"
"##MN-04 00 39 0795 01979 4708 482603 363661 210"
"124.744421"
"$GPGGA,175151,2617.2401,N,09458.3685,W,1,9,1.4,0,M"
"##MN-04 00 38 0796 01972 4707 482639 363662 210"
"124.744468"
"$GPGGA,175155,2617.2422,N,09458.3666,W,1,9,1.4,0,M"
"##MN-04 00 39 0798 01967 4706 482598 363654 210"
"124.744514"
"$GPGGA,175159,2617.2446,N,09458.3645,W,1,9,1.4,0,M"
"##MN-04 00 39 0799 01960 4705 482581 363651 210"
"124.74456"
"$GPGGA,175203,2617.2469,N,09458.3625,W,1,9,1.4,-1,"
"##MN+04 00 39 0801 01955 4704 482463 363613 210"
"124.744606"
"$GPGGA,175207,2617.2493,N,09458.3606,W,1,9,1.4,-1,"
"##MN+04 00 39 0802 01950 4703 482377 363582 210"
"124.744653"
"$GPGGA,175211,2617.2515,N,09458.3586,W,1,9,1.4,-1,"
"##MN+04 00 39 0804 01945 4703 482419 363591 210"
"124.744699"
"$GPGGA,175215,2617.2538,N,09458.3567,W,1,9,1.4,-1,"
"##MN-05 00 42 0805 01940 4702 482187 363507 210"
"124.744745"
"$GPGGA,175219,2617.2560,N,09458.3549,W,1,9,1.4,-1,"
"##MN-05 00 41 0807 01939 4701 482190 363519 210"
"124.744792"
"$GPGGA,175223,2617.2583,N,09458.3531,W,1,9,1.4,-2,"
"##MN-05 00 39 0808 01936 4700 482001 363436 210"
"124.744838"
"$GPGGA,175227,2617.2603,N,09458.3513,W,1,9,1.4,-2,"
"##MN-05 00 38 0810 01933 4699 482061 363456 210"
"124.744884"
"$GPGGA,175231,2617.2627,N,09458.3493,W,1,9,1.4,-2,"
"##MN-05 00 38 0811 01930 4699 481932 363414 210"
"124.744931"
"$GPGGA,175235,2617.2649,N,09458.3474,W,1,9,1.4,-2,"
"##MN-05 00 37 0813 01929 4698 481835 363382 210"
"124.744977"
"$GPGGA,175239,2617.2672,N,09458.3456,W,1,8,1.6,-2,"
"##MN-05 00 37 0814 01922 4697 481797 363366 210"
"124.745023"
"$GPGGA,175243,2617.2693,N,09458.3431,W,1,9,1.4,-2,"
"##MN-05 00 37 0815 01919 4696 481758 363347 210"
"124.745069"
"$GPGGA,175247,2617.2715,N,09458.3409,W,1,9,1.4,-2,"
"##MN-05 00 37 0817 01912 4695 481698 363324 210"
"124.745116"
"$GPGGA,175251,2617.2737,N,09458.3390,W,1,9,1.4,-1,"
"##MN-05 00 37 0818 01913 4695 481618 363298 210"
"124.745162"
"$GPGGA,175256,2617.2766,N,09458.3373,W,1,7,1.4,-1,"
"##MN-05 00 36 0820 01907 4694 481476 363254 210"
"124.745208"
"$GPGGA,175300,2617.2782,N,09458.3352,W,1,9,1.4,-1,"
"##MN-05 00 35 0821 01903 4693 481593 363285 210"
"124.745255"
"$GPGGA,175304,2617.2801,N,09458.3335,W,1,8,1.6,-1,"
"##MN-05 00 34 0822 01899 4693 481618 363291 210"
"124.745301"
"$GPGGA,175308,2617.2820,N,09458.3321,W,1,8,1.6,0,M"
"##MN-05 00 34 0824 01893 4692 481561 363276 210"
"124.745347"
"$GPGGA,175312,2617.2842,N,09458.3303,W,1,9,1.4,0,M"
"##MN-05 00 35 0825 01892 4691 481419 363224 210"
"124.745405"
"$GPGGA,175316,2617.2863,N,09458.3286,W,1,8,2.2,0,M"
"##MN-05 00 34 0826 01891 4690 481475 363250 210"
"124.745451"
"$GPGGA,175320,2617.2887,N,09458.3270,W,1,9,1.4,0,M"
"##MN-05 00 35 0827 01891 4689 481361 363207 210"
"124.745498"
"$GPGGA,175324,2617.2912,N,09458.3257,W,1,9,1.4,0,M"
"##MN-05 00 36 0828 01892 4689 481237 363165 210"
"124.745544"
"$GPGGA,175328,2617.2936,N,09458.3245,W,1,9,1.4,0,M"
"##MN-05 00 36 0830 01894 4688 481182 363146 210"
"124.74559"
"$GPGGA,175332,2617.2961,N,09458.3233,W,1,8,1.4,0,M"
"##MN-05 00 34 0831 01894 4688 481122 363119 210"
"124.745637"
"$GPGGA,175336,2617.2985,N,09458.3222,W,1,9,1.4,0,M"
"##MN-05 00 35 0832 01894 4687 481391 363216 210"
"124.745683"
"$GPGGA,175340,2617.3010,N,09458.3213,W,1,8,1.4,0,M"
"##MN-05 00 34 0833 01891 4686 481398 363218 210"
"124.745729"
"$GPGGA,175344,2617.3035,N,09458.3205,W,1,9,1.4,0,M"
"##MN-05 00 36 0835 01892 4685 481461 363237 210"
"124.745775"
"$GPGGA,175348,2617.3060,N,09458.3195,W,1,9,1.4,0,M"
"##MN-05 00 36 0836 01892 4684 481402 363215 210"
"124.745822"
"$GPGGA,175352,2617.3084,N,09458.3188,W,1,9,1.6,0,M"
"##MN-05 00 36 0837 01891 4684 481313 363196 210"
"124.745868"
"$GPGGA,175356,2617.3109,N,09458.3180,W,1,8,1.6,0,M"
"##MN-05 00 35 0839 01880 4683 481468 363236 210"
"124.745914"
"$GPGGA,175400,2617.3134,N,09458.3173,W,1,8,1.6,0,M"
"##MN-05 00 36 0841 01869 4682 481270 363168 210"
"124.745961"
"$GPGGA,175404,2617.3159,N,09458.3160,W,1,9,1.4,0,M"
"##MN-05 00 39 0842 01859 4682 481190 363145 209"
"124.746007"
"$GPGGA,175408,2617.3185,N,09458.3150,W,1,9,1.4,0,M"
"##MN-05 00 37 0843 01859 4681 481113 363128 210"
"124.746053"
"$GPGGA,175412,2617.3212,N,09458.3138,W,1,9,1.4,0,M"
"##MN-05 00 37 0845 01861 4680 481081 363123 209"
"124.7461"
"$GPGGA,175416,2617.3237,N,09458.3130,W,1,9,1.4,0,M"
"##MN-05 00 39 0845 01859 4680 481054 363117 210"
"124.746146"
"$GPGGA,175420,2617.3261,N,09458.3121,W,1,8,1.4,0,M"
"##MN-05 00 36 0847 01862 4679 481116 363140 209"
"124.746192"
"$GPGGA,175424,2617.3288,N,09458.3112,W,1,9,1.4,0,M"
"##MN-05 00 36 0848 01860 4678 481098 363122 209"
"124.746238"
"$GPGGA,175428,2617.3313,N,09458.3107,W,1,9,1.6,0,M"
"##MN-05 00 40 0849 01860 4678 481095 363121 209"
"124.746285"
"$GPGGA,175432,2617.3340,N,09458.3096,W,1,9,1.5,0,M"
"##MN-05 00 39 0850 01859 4677 481113 363141 209"
"124.746331"
"$GPGGA,175436,2617.3369,N,09458.3089,W,1,9,1.4,0,M"
"##MN-05 00 36 0851 01860 4676 481211 363176 209"
"124.746377"
"$GPGGA,175440,2617.3398,N,09458.3083,W,1,9,1.4,0,M"
"##MN-05 00 39 0852 01859 4676 482142 488652 209"
"124.746424"
"$GPGGA,175444,2617.3423,N,09458.3077,W,1,9,1.4,0,M"
"##MN-05 00 34 0852 01859 4675 485833 925422 209"
"124.74647"
"$GPGGA,175448,2617.3448,N,09458.3071,W,1,8,1.5,0,M"
"##MN+05 00 15 0852 01859 4674 491083 925424 209"
"124.746516"
"$GPGGA,175452,2617.3469,N,09458.3063,W,1,7,1.5,0,M"
"##MN+05 00 01 0854 01860 4674 495673 925426 209"
"124.746562"
"$GPGGA,175456,2617.3495,N,09458.3057,W,1,9,1.4,0,M"
"##MN+05 00 00 0858 01858 4673 500029 907612 209"
"124.746609"
"$GPGGA,175500,2617.3520,N,09458.3051,W,1,9,1.5,0,M"
"##MN-07 00 03 0862 01861 4673 501305 925429 210"
"124.746655"
"$GPGGA,175504,2617.3548,N,09458.3047,W,1,8,1.4,0,M"
"##MN-07 00 00 0867 01859 4672 501682 925429 210"
"124.746701"
"$GPGGA,175508,2617.3573,N,09458.3042,W,1,8,1.5,0,M"
"##MN-07 00 04 0872 01860 4671 500269 925430 210"
"124.746748"
"$GPGGA,175512,2617.3597,N,09458.3038,W,1,8,1.5,0,M"
"##MN-07 00 00 0877 01861 4671 498968 925431 209"
"124.746794"
"$GPGGA,175516,2617.3629,N,09458.3037,W,1,9,1.4,0,M"
"##MN-07 00 00 0883 01860 4670 497441 925433 209"
"124.74684"
"$GPGGA,175520,2617.3654,N,09458.3032,W,1,8,1.7,1,M"
"##MN-07 00 00 0888 01862 4670 495561 925436 209"
"124.746887"
"$GPGGA,175524,2617.3683,N,09458.3031,W,1,9,1.4,1,M"
"##MN-07 00 00 0893 01859 4669 494427 925437 209"
"124.746933"
"$GPGGA,175528,2617.3711,N,09458.3027,W,1,9,1.4,1,M"
"##MN-07 00 00 0898 01860 4669 493936 925439 209"
