" Tow: M-01-001   RVWS/WS1405"
" Date: 04/30/2014"
" Temperature Probe #  2597    Conductivity Probe #  2870"
" Pressure Probe #  109"
" Flow Meter Calibration  4.71 (m/count)  "
"120.844502"
"$GPGGA,201602,2457.4496,N,08355.0012,W,1,10,1.3,14"
"##MN-00 00 69 0084 01839 6256 448185 923892 214"
"120.844549"
"$GPGGA,201610,2457.4507,N,08355.0066,W,1,10,1.3,14"
"##MN-03 00 69 0084 01840 6257 442094 925077 214"
"120.844595"
"$GPGGA,201614,2457.4511,N,08355.0094,W,1,11,1.3,14"
"##MN-05 00 69 0084 01840 6258 441996 925076 214"
"120.846134"
"$GPGGA,201823,2457.4720,N,08355.0838,W,1,10,1.4,12"
"##MN-17 00 10 0105 01846 6263 438024 905413 214"
"120.846181"
"$GPGGA,201831,2457.4731,N,08355.0887,W,1,10,1.4,12"
"##MN-17 00 22 0105 01849 6262 450445 357085 214"
"120.846227"
"$GPGGA,201835,2457.4740,N,08355.0911,W,1,10,1.4,12"
"##MN-17 00 22 0105 01854 6262 450688 351569 214"
"120.846273"
"$GPGGA,201839,2457.4748,N,08355.0932,W,1,9,1.9,13,"
"##MN-17 00 26 0106 01856 6262 451042 351770 214"
"120.846319"
"$GPGGA,201843,2457.4756,N,08355.0951,W,1,10,1.4,13"
"##MN-17 00 31 0107 01854 6262 450919 351834 214"
"120.846366"
"$GPGGA,201847,2457.4763,N,08355.0979,W,1,8,2.0,13,"
"##MN-17 00 34 0108 01854 6262 450845 351766 214"
"120.846412"
"$GPGGA,201851,2457.4769,N,08355.1008,W,1,10,1.4,13"
"##MN-17 00 35 0109 01854 6261 450955 351726 214"
"120.846458"
"$GPGGA,201855,2457.4778,N,08355.1020,W,1,9,1.9,13,"
"##MN-17 00 32 0110 01854 6261 450862 351655 214"
"120.846505"
"$GPGGA,201859,2457.4787,N,08355.1037,W,1,10,1.4,13"
"##MN-17 00 26 0111 01852 6261 450759 351548 214"
"120.846551"
"$GPGGA,201903,2457.4795,N,08355.1055,W,1,9,1.5,13,"
"##MN-17 00 28 0112 01851 6260 450654 351481 214"
"120.846597"
"$GPGGA,201907,2457.4800,N,08355.1073,W,1,9,1.5,13,"
"##MN-17 00 34 0113 01852 6259 450700 351519 214"
"120.846644"
"$GPGGA,201911,2457.4809,N,08355.1091,W,1,10,1.4,13"
"##MN-17 00 36 0114 01858 6259 450945 351590 214"
"120.84669"
"$GPGGA,201915,2457.4817,N,08355.1109,W,1,8,1.9,12,"
"##MN-17 00 31 0115 01855 6258 451017 351643 214"
"120.846736"
"$GPGGA,201919,2457.4825,N,08355.1128,W,1,9,1.5,12,"
"##MN-17 00 33 0115 01860 6257 451142 351654 214"
"120.846782"
"$GPGGA,201923,2457.4832,N,08355.1154,W,1,9,1.5,12,"
"##MN-17 00 34 0116 01869 6256 451490 351756 214"
"120.846829"
"$GPGGA,201927,2457.4839,N,08355.1174,W,1,9,1.5,12,"
"##MN-17 00 32 0117 01877 6255 451665 351823 214"
"120.846875"
"$GPGGA,201931,2457.4847,N,08355.1194,W,1,9,1.5,12,"
"##MN-17 00 31 0118 01879 6254 452622 352124 214"
"120.846921"
"$GPGGA,201935,2457.4854,N,08355.1214,W,1,10,1.4,12"
"##MN-17 00 29 0119 01884 6253 453401 352285 214"
"120.846968"
"$GPGGA,201939,2457.4861,N,08355.1236,W,1,9,1.5,11,"
"##MN-17 00 31 0119 01889 6252 453683 352435 214"
"120.847014"
"$GPGGA,201943,2457.4870,N,08355.1255,W,1,10,1.4,11"
"##MN-17 00 33 0120 01894 6250 453942 352562 214"
"120.84706"
"$GPGGA,201947,2457.4879,N,08355.1275,W,1,9,1.5,11,"
"##MN-17 00 31 0121 01901 6249 454213 352637 214"
"120.847106"
"$GPGGA,201951,2457.4886,N,08355.1294,W,1,9,1.5,11,"
"##MN-17 00 30 0122 01897 6248 454387 352683 214"
"120.847153"
"$GPGGA,201955,2457.4897,N,08355.1312,W,1,9,1.9,11,"
"##MN-17 00 32 0123 01904 6246 454457 352714 214"
"120.847199"
"$GPGGA,201959,2457.4904,N,08355.1335,W,1,9,1.5,11,"
"##MN-17 00 34 0123 01913 6245 454568 352763 214"
"120.847245"
"$GPGGA,202003,2457.4915,N,08355.1351,W,1,9,1.4,11,"
"##MN-17 00 34 0124 01915 6243 454793 352840 214"
"120.847292"
"$GPGGA,202007,2457.4926,N,08355.1366,W,1,10,1.5,11"
"##MN-17 00 33 0125 01919 6242 454949 352891 214"
"120.847338"
"$GPGGA,202011,2457.4932,N,08355.1388,W,1,9,1.5,11,"
"##MN-17 00 32 0126 01927 6240 455067 352926 214"
"120.847384"
"$GPGGA,202015,2457.4939,N,08355.1412,W,1,9,1.5,11,"
"##MN-17 00 33 0127 01934 6239 455116 352948 214"
"120.847431"
"$GPGGA,202019,2457.4947,N,08355.1431,W,1,9,1.5,11,"
"##MN-17 00 29 0128 01932 6237 455214 352981 214"
"120.847477"
"$GPGGA,202023,2457.4957,N,08355.1452,W,1,9,1.5,10,"
"##MN-17 00 31 0129 01935 6235 455293 352996 214"
"120.847523"
"$GPGGA,202027,2457.4968,N,08355.1472,W,1,10,1.5,10"
"##MN-17 00 32 0130 01939 6233 455380 353025 214"
"120.847569"
"$GPGGA,202031,2457.4975,N,08355.1497,W,1,9,1.5,10,"
"##MN-17 00 33 0131 01946 6231 455575 353102 214"
"120.847616"
"$GPGGA,202035,2457.4987,N,08355.1515,W,1,9,1.4,10,"
"##MN-17 00 34 0132 01953 6229 455994 353196 214"
"120.847662"
"$GPGGA,202039,2457.4992,N,08355.1540,W,1,9,1.5,10,"
"##MN-17 00 33 0133 01952 6227 456435 353368 214"
"120.847708"
"$GPGGA,202043,2457.5008,N,08355.1557,W,1,10,1.4,10"
"##MN-17 00 33 0133 01959 6225 458326 353798 214"
"120.847755"
"$GPGGA,202047,2457.5015,N,08355.1580,W,1,10,1.4,10"
"##MN-17 00 36 0134 01964 6223 458782 354092 214"
"120.847801"
"$GPGGA,202051,2457.5024,N,08355.1604,W,1,9,1.5,10,"
"##MN-17 00 33 0135 01965 6221 460246 354583 214"
"120.847847"
"$GPGGA,202055,2457.5032,N,08355.1623,W,1,10,1.4,10"
"##MN-17 00 34 0136 01970 6219 460491 354644 214"
"120.847894"
"$GPGGA,202059,2457.5043,N,08355.1644,W,1,9,1.5,10,"
"##MN-17 00 36 0137 01977 6216 460596 354741 214"
"120.84794"
"$GPGGA,202103,2457.5051,N,08355.1669,W,1,9,1.5,10,"
"##MN-17 00 33 0138 01979 6214 460721 354788 214"
"120.847986"
"$GPGGA,202107,2457.5059,N,08355.1694,W,1,10,1.4,10"
"##MN-17 00 34 0139 01979 6212 460924 354844 214"
"120.848032"
"$GPGGA,202111,2457.5070,N,08355.1712,W,1,9,1.5,10,"
"##MN-17 00 37 0140 01987 6209 460981 354876 214"
"120.848079"
"$GPGGA,202115,2457.5078,N,08355.1736,W,1,9,1.5,10,"
"##MN-17 00 33 0141 01989 6207 461132 354944 214"
"120.848125"
"$GPGGA,202119,2457.5088,N,08355.1757,W,1,9,1.5,9,M"
"##MN-17 00 34 0142 01993 6205 461381 355027 214"
"120.848171"
"$GPGGA,202123,2457.5092,N,08355.1786,W,1,8,1.9,9,M"
"##MN-17 00 36 0143 01998 6202 461507 355084 214"
"120.848218"
"$GPGGA,202127,2457.5102,N,08355.1810,W,1,8,1.9,9,M"
"##MN-17 00 37 0144 02001 6200 461805 355183 214"
"120.848264"
"$GPGGA,202131,2457.5109,N,08355.1839,W,1,9,1.5,9,M"
"##MN-17 00 37 0145 02003 6197 462048 355268 214"
"120.84831"
"$GPGGA,202135,2457.5121,N,08355.1861,W,1,8,1.9,9,M"
"##MN-17 00 38 0146 02008 6194 462519 355427 214"
"120.848356"
"$GPGGA,202139,2457.5132,N,08355.1883,W,1,10,1.4,9,"
"##MN-17 00 37 0148 02011 6192 462696 355492 214"
"120.848403"
"$GPGGA,202143,2457.5146,N,08355.1901,W,1,10,1.4,9,"
"##MN-17 00 38 0149 02016 6189 463329 355701 214"
"120.848449"
"$GPGGA,202147,2457.5152,N,08355.1929,W,1,10,1.4,9,"
"##MN-17 00 38 0150 02019 6186 463542 355783 214"
"120.848495"
"$GPGGA,202151,2457.5161,N,08355.1958,W,1,10,1.4,10"
"##MN-17 00 36 0151 02018 6183 464442 356074 214"
"120.848542"
"$GPGGA,202155,2457.5172,N,08355.1984,W,1,10,1.4,10"
"##MN-17 00 39 0152 02026 6181 464998 356270 214"
"120.848588"
"$GPGGA,202159,2457.5178,N,08355.2012,W,1,9,1.5,10,"
"##MN-17 00 37 0153 02026 6178 466097 356631 214"
"120.848634"
"$GPGGA,202203,2457.5190,N,08355.2031,W,1,10,1.4,10"
"##MN-17 00 38 0154 02034 6175 467321 357032 214"
"120.848681"
"$GPGGA,202207,2457.5197,N,08355.2056,W,1,10,1.4,11"
"##MN-17 00 37 0155 02038 6172 467621 357124 214"
"120.848727"
"$GPGGA,202211,2457.5208,N,08355.2081,W,1,10,1.4,11"
"##MN-17 00 37 0156 02036 6169 468041 357269 214"
"120.848773"
"$GPGGA,202215,2457.5222,N,08355.2100,W,1,10,1.4,11"
"##MN-17 00 39 0157 02043 6166 468084 357309 214"
"120.848819"
"$GPGGA,202219,2457.5233,N,08355.2124,W,1,9,1.5,11,"
"##MN-17 00 37 0159 02045 6163 468482 357449 214"
"120.848866"
"$GPGGA,202224,2457.5247,N,08355.2151,W,1,9,1.5,11,"
"##MN-17 00 39 0160 02047 6160 468527 357482 214"
"120.848912"
"$GPGGA,202227,2457.5257,N,08355.2168,W,1,10,1.4,12"
"##MN-17 00 39 0161 02053 6158 468718 357540 214"
"120.848958"
"$GPGGA,202231,2457.5269,N,08355.2190,W,1,10,1.4,12"
"##MN-17 00 37 0162 02054 6154 468726 357541 214"
"120.849005"
"$GPGGA,202235,2457.5282,N,08355.2215,W,1,10,1.4,12"
"##MN-17 00 38 0163 02051 6151 468807 357568 214"
"120.849051"
"$GPGGA,202240,2457.5298,N,08355.2241,W,1,10,1.4,12"
"##MN-17 00 40 0165 02057 6148 468813 357577 214"
"120.849097"
"$GPGGA,202244,2457.5309,N,08355.2269,W,1,9,1.4,12,"
"##MN-17 00 39 0166 02057 6145 468861 357591 214"
"120.849144"
"$GPGGA,202248,2457.5319,N,08355.2294,W,1,10,1.4,12"
"##MN-17 00 41 0167 02065 6142 468944 357613 214"
"120.84919"
"$GPGGA,202252,2457.5330,N,08355.2319,W,1,10,1.4,12"
"##MN-17 00 42 0168 02072 6138 469565 357804 214"
"120.849236"
"$GPGGA,202256,2457.5340,N,08355.2345,W,1,10,1.4,11"
"##MN-17 00 42 0169 02077 6135 470135 358006 214"
"120.849282"
"$GPGGA,202300,2457.5354,N,08355.2368,W,1,10,1.4,11"
"##MN-17 00 42 0170 02085 6132 470857 358235 214"
"120.849329"
"$GPGGA,202304,2457.5366,N,08355.2392,W,1,10,1.4,11"
"##MN-17 00 43 0171 02090 6129 471075 358340 214"
"120.849387"
"$GPGGA,202308,2457.5380,N,08355.2415,W,1,10,1.4,11"
"##MN-17 00 41 0172 02096 6125 471762 358562 214"
"120.849433"
"$GPGGA,202312,2457.5392,N,08355.2439,W,1,10,1.4,11"
"##MN-17 00 43 0173 02102 6122 472345 358765 214"
"120.849479"
"$GPGGA,202316,2457.5403,N,08355.2462,W,1,10,1.4,11"
"##MN-17 00 42 0175 02109 6118 473136 359016 214"
"120.849525"
"$GPGGA,202320,2457.5417,N,08355.2486,W,1,9,1.4,10,"
"##MN-17 00 42 0176 02113 6115 473220 359060 214"
"120.849572"
"$GPGGA,202324,2457.5428,N,08355.2511,W,1,10,1.5,10"
"##MN-17 00 43 0177 02123 6111 473383 359129 214"
"120.849618"
"$GPGGA,202328,2457.5439,N,08355.2533,W,1,10,1.4,10"
"##MN-17 00 43 0178 02130 6108 474055 359356 214"
"120.849664"
"$GPGGA,202332,2457.5454,N,08355.2555,W,1,10,1.4,10"
"##MN-17 00 42 0179 02134 6105 474620 359544 214"
"120.849711"
"$GPGGA,202336,2457.5466,N,08355.2580,W,1,10,1.4,10"
"##MN-17 00 42 0180 02140 6101 474810 359613 214"
"120.849757"
"$GPGGA,202340,2457.5478,N,08355.2605,W,1,10,1.4,10"
"##MN-17 00 44 0181 02147 6098 475149 359725 214"
"120.849803"
"$GPGGA,202344,2457.5490,N,08355.2631,W,1,10,1.4,10"
"##MN-17 00 41 0183 02150 6094 475298 359767 214"
"120.84985"
"$GPGGA,202348,2457.5500,N,08355.2656,W,1,9,1.5,10,"
"##MN-17 00 43 0184 02162 6090 475394 359788 214"
"120.849896"
"$GPGGA,202352,2457.5511,N,08355.2682,W,1,10,1.4,10"
"##MN-17 00 43 0185 02165 6086 475480 359816 214"
"120.849942"
"$GPGGA,202356,2457.5522,N,08355.2709,W,1,10,1.4,10"
"##MN-17 00 42 0186 02172 6083 475834 359923 214"
"120.849988"
"$GPGGA,202400,2457.5533,N,08355.2735,W,1,10,1.4,10"
"##MN-17 00 42 0187 02172 6080 476034 359986 214"
"120.850035"
"$GPGGA,202404,2457.5546,N,08355.2758,W,1,10,1.5,10"
"##MN-17 00 41 0189 02174 6076 476780 360194 214"
"120.850081"
"$GPGGA,202408,2457.5557,N,08355.2783,W,1,10,1.4,10"
"##MN-17 00 42 0190 02180 6072 476883 360241 214"
"120.850127"
"$GPGGA,202412,2457.5569,N,08355.2807,W,1,10,1.5,10"
"##MN-17 00 41 0191 02183 6069 477190 360328 214"
"120.850174"
"$GPGGA,202416,2457.5583,N,08355.2832,W,1,9,1.4,10,"
"##MN-17 00 43 0192 02188 6065 477349 360374 214"
"120.85022"
"$GPGGA,202420,2457.5594,N,08355.2858,W,1,9,1.4,10,"
"##MN-17 00 42 0194 02186 6061 477573 360438 214"
"120.850266"
"$GPGGA,202424,2457.5604,N,08355.2884,W,1,9,1.4,10,"
"##MN-17 00 43 0195 02191 6057 477678 360476 214"
"120.850312"
"$GPGGA,202428,2457.5618,N,08355.2906,W,1,9,1.4,10,"
"##MN-17 00 42 0196 02193 6054 477802 360517 214"
"120.850359"
"$GPGGA,202432,2457.5629,N,08355.2931,W,1,10,1.4,10"
"##MN-17 00 43 0197 02200 6050 477900 360554 214"
"120.850405"
"$GPGGA,202436,2457.5638,N,08355.2959,W,1,9,1.4,10,"
"##MN-17 00 41 0199 02199 6046 478558 360751 214"
"120.850451"
"$GPGGA,202440,2457.5649,N,08355.2981,W,1,10,1.4,10"
"##MN-17 00 42 0200 02205 6042 478916 360878 214"
"120.850498"
"$GPGGA,202444,2457.5662,N,08355.3006,W,1,10,1.4,10"
"##MN-17 00 43 0201 02206 6038 479125 360942 214"
"120.850544"
"$GPGGA,202448,2457.5674,N,08355.3031,W,1,10,1.4,10"
"##MN-17 00 42 0203 02207 6034 479226 360979 214"
"120.85059"
"$GPGGA,202452,2457.5688,N,08355.3056,W,1,10,1.4,10"
"##MN-17 00 44 0204 02211 6030 479287 361001 214"
"120.850637"
"$GPGGA,202456,2457.5699,N,08355.3081,W,1,10,1.4,10"
"##MN-17 00 42 0205 02212 6026 479301 361009 214"
"120.850683"
"$GPGGA,202500,2457.5712,N,08355.3111,W,1,10,1.4,10"
"##MN-17 00 42 0207 02208 6022 479202 360978 214"
"120.850729"
"$GPGGA,202504,2457.5724,N,08355.3143,W,1,10,1.4,10"
"##MN-17 00 43 0208 02205 6018 479112 360952 214"
"120.850775"
"$GPGGA,202508,2457.5735,N,08355.3176,W,1,10,1.4,10"
"##MN-17 00 44 0210 02202 6014 478504 360753 214"
"120.850822"
"$GPGGA,202512,2457.5749,N,08355.3210,W,1,10,1.4,10"
"##MN-17 00 45 0212 02195 6010 478119 360638 214"
"120.850868"
"$GPGGA,202516,2457.5763,N,08355.3244,W,1,10,1.4,10"
"##MN-17 00 46 0213 02197 6006 477650 360494 214"
"120.850914"
"$GPGGA,202520,2457.5779,N,08355.3277,W,1,9,1.4,10,"
"##MN-17 00 45 0215 02194 6003 477619 360476 214"
"120.850961"
"$GPGGA,202524,2457.5795,N,08355.3310,W,1,10,1.4,10"
"##MN-17 00 48 0217 02192 5998 477402 360414 214"
"120.851007"
"$GPGGA,202528,2457.5810,N,08355.3342,W,1,10,1.4,10"
"##MN-17 00 47 0218 02188 5994 477365 360400 214"
"120.851053"
"$GPGGA,202532,2457.5824,N,08355.3375,W,1,10,1.4,10"
"##MN-17 00 48 0220 02192 5990 477349 360397 214"
"120.8511"
"$GPGGA,202536,2457.5836,N,08355.3408,W,1,10,1.4,10"
"##MN-17 00 48 0221 02192 5986 477450 360425 214"
"120.851146"
"$GPGGA,202540,2457.5849,N,08355.3441,W,1,10,1.4,11"
"##MN-17 00 48 0223 02191 5982 477547 360451 214"
"120.851192"
"$GPGGA,202544,2457.5861,N,08355.3473,W,1,10,1.4,11"
"##MN-17 00 49 0225 02195 5978 477725 360504 214"
"120.851238"
"$GPGGA,202548,2457.5872,N,08355.3504,W,1,10,1.4,11"
"##MN-17 00 50 0226 02202 5974 477801 360528 214"
"120.851285"
"$GPGGA,202552,2457.5883,N,08355.3534,W,1,10,1.4,11"
"##MN-17 00 48 0228 02201 5970 478155 360635 214"
"120.851331"
"$GPGGA,202556,2457.5894,N,08355.3566,W,1,10,1.4,11"
"##MN-17 00 49 0229 02205 5965 478834 360863 214"
"120.851377"
"$GPGGA,202600,2457.5905,N,08355.3595,W,1,10,1.4,11"
"##MN-17 00 49 0231 02211 5961 479091 360935 214"
"120.851424"
"$GPGGA,202604,2457.5916,N,08355.3624,W,1,10,1.4,11"
"##MN-17 00 50 0232 02217 5957 479165 360964 214"
"120.85147"
"$GPGGA,202608,2457.5929,N,08355.3652,W,1,10,1.4,11"
"##MN-17 00 49 0233 02219 5953 479339 361016 214"
"120.851516"
"$GPGGA,202612,2457.5941,N,08355.3678,W,1,10,1.4,11"
"##MN-17 00 49 0235 02223 5949 479606 361107 214"
"120.851563"
"$GPGGA,202616,2457.5952,N,08355.3707,W,1,10,1.4,11"
"##MN-17 00 49 0236 02228 5945 479696 361136 214"
"120.851609"
"$GPGGA,202620,2457.5966,N,08355.3735,W,1,10,1.4,11"
"##MN-17 00 48 0238 02231 5941 480032 361246 214"
"120.851655"
"$GPGGA,202624,2457.5981,N,08355.3764,W,1,10,1.4,11"
"##MN-17 00 49 0239 02237 5937 480446 361397 214"
"120.851701"
"$GPGGA,202628,2457.5994,N,08355.3791,W,1,10,1.4,12"
"##MN-17 00 48 0241 02239 5933 481387 361705 214"
"120.851748"
"$GPGGA,202632,2457.6005,N,08355.3820,W,1,10,1.4,12"
"##MN-17 00 49 0242 02247 5929 481753 361835 214"
"120.851794"
"$GPGGA,202636,2457.6013,N,08355.3848,W,1,9,1.4,12,"
"##MN-17 00 48 0244 02251 5925 482183 361970 214"
"120.85184"
"$GPGGA,202640,2457.6024,N,08355.3876,W,1,10,1.4,12"
"##MN-17 00 50 0245 02255 5920 482361 362031 214"
"120.851887"
"$GPGGA,202644,2457.6035,N,08355.3905,W,1,10,1.4,12"
"##MN-17 00 49 0247 02263 5916 482605 362116 214"
"120.851933"
"$GPGGA,202648,2457.6045,N,08355.3935,W,1,9,1.4,12,"
"##MN-17 00 49 0248 02264 5912 482850 362201 214"
"120.851979"
"$GPGGA,202652,2457.6056,N,08355.3963,W,1,10,1.4,12"
"##MN-17 00 49 0250 02270 5908 483206 362323 214"
"120.852025"
"$GPGGA,202656,2457.6068,N,08355.3990,W,1,9,1.4,12,"
"##MN-17 00 48 0251 02274 5904 483331 362376 214"
"120.852072"
"$GPGGA,202700,2457.6082,N,08355.4017,W,1,10,1.4,12"
"##MN-17 00 48 0252 02277 5899 484060 362624 214"
"120.852118"
"$GPGGA,202704,2457.6095,N,08355.4043,W,1,10,1.4,12"
"##MN-17 00 49 0254 02280 5895 484231 362688 214"
"120.852164"
"$GPGGA,202708,2457.6109,N,08355.4073,W,1,8,1.4,13,"
"##MN-17 00 47 0255 02284 5891 485046 362937 214"
"120.852211"
"$GPGGA,202712,2457.6120,N,08355.4101,W,1,10,1.4,13"
"##MN-17 00 48 0257 02288 5887 485265 363019 214"
"120.852257"
"$GPGGA,202717,2457.6133,N,08355.4136,W,1,10,1.4,13"
"##MN-17 00 48 0258 02289 5883 485616 363133 214"
"120.852303"
"$GPGGA,202720,2457.6140,N,08355.4158,W,1,10,1.4,13"
"##MN-17 00 48 0260 02291 5879 485774 363190 214"
"120.85235"
"$GPGGA,202725,2457.6154,N,08355.4198,W,1,10,1.4,14"
"##MN-17 00 48 0261 02294 5875 486091 363294 214"
"120.852396"
"$GPGGA,202729,2457.6165,N,08355.4227,W,1,10,1.4,14"
"##MN-17 00 48 0263 02297 5871 486829 363529 214"
"120.852442"
"$GPGGA,202733,2457.6176,N,08355.4256,W,1,10,1.4,14"
"##MN-17 00 49 0264 02303 5866 487059 363608 214"
"120.852488"
"$GPGGA,202737,2457.6186,N,08355.4285,W,1,10,1.4,14"
"##MN-17 00 48 0266 02298 5862 487223 363654 214"
"120.852535"
"$GPGGA,202740,2457.6197,N,08355.4306,W,1,10,1.4,14"
"##MN-17 00 48 0267 02306 5858 487240 363657 214"
"120.852581"
"$GPGGA,202745,2457.6211,N,08355.4342,W,1,10,1.4,14"
"##MN-17 00 48 0269 02301 5854 487291 363679 214"
"120.852639"
"$GPGGA,202749,2457.6223,N,08355.4372,W,1,10,1.4,15"
"##MN-17 00 50 0271 02308 5850 487228 363649 214"
"120.852685"
"$GPGGA,202753,2457.6234,N,08355.4404,W,1,10,1.4,15"
"##MN-17 00 50 0272 02309 5845 487194 363635 214"
"120.852731"
"$GPGGA,202757,2457.6247,N,08355.4433,W,1,10,1.4,15"
"##MN-17 00 48 0274 02309 5842 487355 363633 214"
"120.852778"
"$GPGGA,202801,2457.6259,N,08355.4462,W,1,10,1.4,15"
"##MN-17 00 49 0275 02311 5837 487620 363676 214"
"120.852824"
"$GPGGA,202805,2457.6270,N,08355.4491,W,1,10,1.4,15"
"##MN-17 00 49 0277 02316 5833 487932 363739 214"
"120.85287"
"$GPGGA,202809,2457.6281,N,08355.4523,W,1,10,1.4,15"
"##MN-17 00 48 0279 02315 5829 488046 363763 214"
"120.852917"
"$GPGGA,202813,2457.6292,N,08355.4545,W,1,10,1.4,15"
"##MN-17 00 48 0280 02314 5825 487964 363747 214"
"120.852963"
"$GPGGA,202817,2457.6303,N,08355.4575,W,1,10,1.4,14"
"##MN+17 00 49 0282 02308 5820 487855 363724 214"
"120.853009"
"$GPGGA,202821,2457.6317,N,08355.4604,W,1,10,1.4,14"
"##MN+17 00 49 0284 02313 5816 487689 363701 214"
"120.853056"
"$GPGGA,202825,2457.6328,N,08355.4635,W,1,10,1.4,14"
"##MN+17 00 49 0286 02309 5812 487443 363655 214"
"120.853102"
"$GPGGA,202829,2457.6342,N,08355.4675,W,1,10,1.4,14"
"##MN-17 00 49 0287 02305 5807 487391 363650 214"
"120.853148"
"$GPGGA,202833,2457.6355,N,08355.4707,W,1,10,1.4,14"
"##MN-17 00 50 0289 02302 5803 487288 363619 214"
"120.853194"
"$GPGGA,202837,2457.6371,N,08355.4736,W,1,10,1.4,14"
"##MN-17 00 51 0291 02304 5799 487179 363587 214"
"120.853241"
"#increment_net"
"$GPGGA,202841,2457.6381,N,08355.4766,W,1,10,1.4,15"
"##MN-17 00 50 0293 02299 5795 487117 363578 214"
"120.853287"
"$GPGGA,202845,2457.6393,N,08355.4794,W,1,10,1.4,15"
"##MN-17 00 49 0295 02298 5790 487118 363590 214"
"120.853333"
"$GPGGA,202849,2457.6404,N,08355.4823,W,1,10,1.4,15"
"##MN-17 00 51 0296 02298 5786 487169 363639 214"
"120.85338"
"$GPGGA,202853,2457.6420,N,08355.4849,W,1,10,1.4,15"
"##MN-17 00 50 0298 02301 5782 487151 363633 214"
"120.853426"
"$GPGGA,202857,2457.6431,N,08355.4877,W,1,9,1.8,15,"
"##MN-17 00 50 0300 02294 5778 487044 363589 214"
"120.853472"
"$GPGGA,202901,2457.6443,N,08355.4904,W,1,10,1.4,15"
"##MN-17 00 52 0302 02294 5774 486946 363564 214"
"120.853518"
"$GPGGA,202905,2457.6454,N,08355.4933,W,1,10,1.4,14"
"##MN-17 00 51 0304 02294 5769 486691 363502 214"
"120.853565"
"$GPGGA,202909,2457.6468,N,08355.4961,W,1,10,1.4,14"
"##MN-17 00 50 0306 02288 5765 486612 363478 214"
"120.853611"
"$GPGGA,202913,2457.6479,N,08355.4991,W,1,10,1.4,14"
"##MN-17 00 50 0308 02284 5761 485867 363227 214"
"120.853657"
"$GPGGA,202917,2457.6490,N,08355.5022,W,1,9,1.8,14,"
"##MN-17 00 51 0310 02284 5756 485375 363081 214"
"120.853704"
"$GPGGA,202921,2457.6501,N,08355.5054,W,1,10,1.4,14"
"##MN-17 00 51 0311 02283 5752 484475 362783 214"
"120.85375"
"$GPGGA,202925,2457.6514,N,08355.5081,W,1,10,1.4,14"
"##MN-17 00 51 0313 02277 5748 484153 362665 214"
"120.853796"
"$GPGGA,202929,2457.6523,N,08355.5112,W,1,9,1.8,14,"
"##MN-17 00 52 0315 02277 5744 483704 362526 214"
"120.853843"
"$GPGGA,202933,2457.6534,N,08355.5139,W,1,10,1.4,14"
"##MN-17 00 52 0317 02274 5739 483535 362463 214"
"120.853889"
"$GPGGA,202937,2457.6544,N,08355.5170,W,1,10,1.4,13"
"##MN-17 00 51 0319 02277 5735 483200 362349 214"
"120.853935"
"$GPGGA,202941,2457.6557,N,08355.5199,W,1,9,1.8,13,"
"##MN-17 00 51 0321 02272 5731 483041 362288 214"
"120.853981"
"$GPGGA,202945,2457.6568,N,08355.5228,W,1,10,1.4,13"
"##MN-17 00 52 0323 02269 5727 482807 362211 214"
"120.854028"
"$GPGGA,202949,2457.6577,N,08355.5260,W,1,10,1.4,13"
"##MN-17 00 52 0325 02270 5722 482573 362127 214"
"120.854074"
"$GPGGA,202953,2457.6591,N,08355.5287,W,1,10,1.4,13"
"##MN-17 00 51 0326 02267 5718 482471 362095 214"
"120.85412"
"$GPGGA,202957,2457.6605,N,08355.5314,W,1,10,1.4,13"
"##MN-17 00 51 0328 02266 5714 482338 362049 214"
"120.854167"
"$GPGGA,203001,2457.6620,N,08355.5340,W,1,9,1.8,13,"
"##MN-17 00 51 0330 02266 5710 482223 362010 214"
"120.854213"
"$GPGGA,203005,2457.6631,N,08355.5368,W,1,10,1.4,13"
"##MN-17 00 51 0332 02264 5706 481972 361926 214"
"120.854259"
"$GPGGA,203009,2457.6642,N,08355.5397,W,1,9,1.8,13,"
"##MN-17 00 51 0334 02261 5702 481685 361815 214"
"120.854306"
"$GPGGA,203013,2457.6655,N,08355.5423,W,1,9,1.8,13,"
"##MN-17 00 50 0336 02261 5698 481009 361605 214"
"120.854352"
"$GPGGA,203017,2457.6666,N,08355.5451,W,1,10,1.4,13"
"##MN-17 00 52 0337 02262 5693 480571 361458 214"
"120.854398"
"$GPGGA,203021,2457.6677,N,08355.5480,W,1,10,1.4,13"
"##MN-17 00 52 0339 02257 5690 480274 361347 214"
"120.854444"
"$GPGGA,203025,2457.6689,N,08355.5509,W,1,9,1.5,12,"
"##MN-17 00 51 0341 02256 5686 480125 361305 214"
"120.854491"
"$GPGGA,203029,2457.6700,N,08355.5540,W,1,10,1.4,12"
"##MN-17 00 52 0343 02255 5681 479773 361178 214"
"120.854537"
"$GPGGA,203033,2457.6713,N,08355.5571,W,1,10,1.4,12"
"##MN-17 00 50 0345 02250 5677 479684 361146 214"
"120.854583"
"$GPGGA,203037,2457.6721,N,08355.5605,W,1,10,1.4,12"
"##MN-17 00 51 0347 02248 5674 479332 361029 214"
"120.85463"
"$GPGGA,203041,2457.6736,N,08355.5633,W,1,10,1.4,12"
"##MN-17 00 54 0349 02243 5669 479218 360996 214"
"120.854676"
"$GPGGA,203045,2457.6750,N,08355.5662,W,1,10,1.4,12"
"##MN-17 00 53 0351 02245 5665 478778 360861 214"
"120.854722"
"$GPGGA,203049,2457.6761,N,08355.5693,W,1,10,1.4,12"
"##MN-17 00 52 0352 02243 5661 478641 360811 214"
"120.854769"
"$GPGGA,203053,2457.6774,N,08355.5719,W,1,10,1.4,12"
"##MN-17 00 53 0354 02240 5657 478618 360801 214"
"120.854815"
"$GPGGA,203057,2457.6786,N,08355.5746,W,1,9,1.5,12,"
"##MN-17 00 52 0356 02241 5653 478602 360798 214"
"120.854861"
"$GPGGA,203101,2457.6801,N,08355.5777,W,1,10,1.4,12"
"##MN-17 00 51 0358 02239 5649 478562 360782 214"
"120.854907"
"$GPGGA,203105,2457.6810,N,08355.5806,W,1,9,1.5,12,"
"##MN-17 00 51 0360 02239 5645 478547 360776 214"
"120.854954"
"$GPGGA,203109,2457.6821,N,08355.5836,W,1,9,1.8,12,"
"##MN-17 00 50 0362 02236 5642 478506 360761 214"
"120.855"
"$GPGGA,203113,2457.6834,N,08355.5863,W,1,10,1.4,12"
"##MN-17 00 51 0363 02233 5638 478510 360764 214"
"120.855046"
"$GPGGA,203117,2457.6844,N,08355.5894,W,1,10,1.4,12"
"##MN-17 00 51 0365 02231 5634 478464 360744 214"
"120.855093"
"$GPGGA,203121,2457.6855,N,08355.5925,W,1,10,1.4,12"
"##MN-17 00 52 0367 02229 5630 478471 360749 214"
"120.855139"
"$GPGGA,203125,2457.6865,N,08355.5954,W,1,9,1.8,12,"
"##MN-17 00 51 0369 02228 5626 478338 360701 214"
"120.855185"
"$GPGGA,203129,2457.6881,N,08355.5983,W,1,10,1.4,12"
"##MN-17 00 53 0371 02224 5622 478395 360723 214"
"120.855231"
"$GPGGA,203133,2457.6893,N,08355.6011,W,1,10,1.4,12"
"##MN-17 00 51 0373 02226 5618 478295 360692 214"
"120.855278"
"$GPGGA,203137,2457.6905,N,08355.6038,W,1,10,1.4,12"
"##MN-17 00 52 0374 02225 5615 478385 360719 214"
"120.855324"
"$GPGGA,203141,2457.6916,N,08355.6067,W,1,10,1.4,12"
"##MN+17 00 52 0376 02225 5611 478460 360745 214"
"120.85537"
"$GPGGA,203145,2457.6927,N,08355.6096,W,1,10,1.4,12"
"##MN+17 00 51 0378 02226 5607 478501 360758 214"
"120.855417"
"$GPGGA,203149,2457.6940,N,08355.6124,W,1,10,1.9,12"
"##MN+17 00 51 0380 02229 5604 478494 360757 214"
"120.855463"
"$GPGGA,203154,2457.6956,N,08355.6164,W,1,9,1.4,12,"
"##MN-17 00 51 0381 02226 5600 478480 360753 214"
"120.855509"
"$GPGGA,203157,2457.6960,N,08355.6189,W,1,8,1.4,12,"
"##MN-17 00 51 0383 02227 5596 478464 360747 214"
"120.855556"
"#increment_net"
"$GPGGA,203202,2457.6978,N,08355.6226,W,1,10,1.5,12"
"##MN-17 00 51 0385 02227 5592 478480 360753 214"
"120.855602"
"$GPGGA,203206,2457.6988,N,08355.6258,W,1,10,1.4,12"
"##MN-17 00 51 0387 02228 5589 478366 360715 214"
"120.855648"
"$GPGGA,203209,2457.6998,N,08355.6276,W,1,9,1.4,12,"
"##MN-17 00 51 0389 02225 5585 478267 360680 214"
"120.855694"
"$GPGGA,203214,2457.7014,N,08355.6312,W,1,9,1.4,11,"
"##MN-17 00 50 0391 02220 5581 477810 360528 214"
"120.855752"
"$GPGGA,203218,2457.7021,N,08355.6333,W,1,8,1.5,11,"
"##MN-17 00 52 0393 02221 5578 477482 360433 214"
"120.855799"
"$GPGGA,203222,2457.7039,N,08355.6373,W,1,10,1.4,11"
"##MN-17 00 51 0395 02215 5574 477225 360362 214"
"120.855845"
"$GPGGA,203226,2457.7050,N,08355.6405,W,1,8,1.9,11,"
"##MN-17 00 51 0396 02214 5571 477097 360325 214"
"120.855891"
"$GPGGA,203230,2457.7061,N,08355.6436,W,1,9,1.4,11,"
"##MN-17 00 52 0399 02207 5567 476939 360277 214"
"120.855937"
"$GPGGA,203234,2457.7075,N,08355.6467,W,1,8,1.4,11,"
"##MN-17 00 52 0401 02200 5564 476853 360253 214"
"120.855984"
"$GPGGA,203238,2457.7089,N,08355.6499,W,1,9,1.4,11,"
"##MN-17 00 51 0403 02200 5560 476730 360219 214"
"120.85603"
"$GPGGA,203242,2457.7103,N,08355.6529,W,1,10,1.4,12"
"##MN-17 00 52 0405 02196 5557 476587 360175 214"
"120.856076"
"$GPGGA,203246,2457.7115,N,08355.6558,W,1,10,1.5,12"
"##MN-17 00 51 0407 02192 5553 476419 360128 214"
"120.856123"
"$GPGGA,203250,2457.7123,N,08355.6590,W,1,8,1.4,12,"
"##MN-17 00 53 0409 02186 5549 476392 360119 214"
"120.856169"
"$GPGGA,203254,2457.7133,N,08355.6622,W,1,10,1.7,12"
"##MN-17 00 52 0411 02183 5546 476338 360101 214"
"120.856215"
"$GPGGA,203258,2457.7146,N,08355.6651,W,1,10,1.7,12"
"##MN-17 00 52 0413 02182 5543 476216 360066 214"
"120.856262"
"$GPGGA,203302,2457.7158,N,08355.6687,W,1,9,1.4,11,"
"##MN-17 00 52 0415 02177 5539 476161 360049 214"
"120.856308"
"$GPGGA,203306,2457.7172,N,08355.6717,W,1,10,1.4,11"
"##MN-17 00 52 0417 02173 5535 476117 360037 214"
"120.856354"
"$GPGGA,203310,2457.7186,N,08355.6746,W,1,10,1.4,12"
"##MN-17 00 52 0419 02171 5532 476003 360005 214"
"120.8564"
"$GPGGA,203314,2457.7202,N,08355.6774,W,1,10,1.4,12"
"##MN-17 00 52 0421 02166 5529 475963 359988 214"
"120.856447"
"$GPGGA,203318,2457.7213,N,08355.6806,W,1,9,1.5,12,"
"##MN-17 00 52 0423 02160 5526 475893 359968 214"
"120.856493"
"$GPGGA,203322,2457.7224,N,08355.6835,W,1,10,1.4,12"
"##MN-17 00 53 0425 02159 5522 475843 359954 214"
"120.856539"
"$GPGGA,203326,2457.7237,N,08355.6869,W,1,10,1.4,12"
"##MN-17 00 53 0427 02159 5519 475816 359946 214"
"120.856586"
"$GPGGA,203330,2457.7248,N,08355.6904,W,1,10,1.4,12"
"##MN-17 00 52 0429 02155 5515 475799 359940 214"
"120.856632"
"$GPGGA,203334,2457.7258,N,08355.6936,W,1,10,1.4,13"
"##MN-17 00 53 0431 02154 5512 475717 359915 214"
"120.856678"
"$GPGGA,203338,2457.7271,N,08355.6965,W,1,10,1.4,13"
"##MN-17 00 52 0433 02151 5509 475578 359865 214"
"120.856725"
"$GPGGA,203342,2457.7282,N,08355.6998,W,1,9,1.4,13,"
"##MN-17 00 53 0435 02149 5506 475450 359823 214"
"120.856771"
"$GPGGA,203346,2457.7295,N,08355.7028,W,1,8,1.5,13,"
"##MN-17 00 53 0437 02150 5502 475316 359780 214"
"120.856817"
"$GPGGA,203350,2457.7307,N,08355.7057,W,1,10,1.4,13"
"##MN-17 00 54 0439 02147 5499 475045 359698 214"
"120.856863"
"$GPGGA,203354,2457.7318,N,08355.7089,W,1,9,1.4,13,"
"##MN-17 00 55 0441 02138 5496 474965 359675 214"
"120.85691"
"$GPGGA,203358,2457.7331,N,08355.7120,W,1,10,1.4,12"
"##MN-17 00 54 0443 02140 5493 474684 359615 214"
"120.856956"
"$GPGGA,203402,2457.7343,N,08355.7147,W,1,10,1.4,12"
"##MN-17 00 53 0445 02136 5490 474235 359451 214"
"120.857002"
"$GPGGA,203406,2457.7357,N,08355.7179,W,1,9,1.4,12,"
"##MN-17 00 54 0447 02132 5486 473968 359363 214"
"120.857049"
"$GPGGA,203410,2457.7370,N,08355.7207,W,1,10,1.7,12"
"##MN-17 00 53 0449 02129 5483 473234 359113 214"
"120.857095"
"$GPGGA,203414,2457.7383,N,08355.7236,W,1,10,1.4,12"
"##MN-17 00 52 0451 02129 5480 472981 359018 214"
"120.857141"
"$GPGGA,203418,2457.7397,N,08355.7269,W,1,10,1.4,11"
"##MN-17 00 54 0453 02127 5477 472628 358900 214"
"120.857188"
"$GPGGA,203422,2457.7410,N,08355.7294,W,1,9,1.7,11,"
"##MN+17 00 54 0454 02129 5474 472821 358964 214"
"120.857234"
"$GPGGA,203426,2457.7422,N,08355.7323,W,1,9,1.4,11,"
"##MN+17 00 53 0456 02130 5471 473002 359020 214"
"120.85728"
"$GPGGA,203430,2457.7435,N,08355.7355,W,1,10,1.4,11"
"##MN+17 00 52 0458 02128 5468 473171 359077 214"
"120.857326"
"$GPGGA,203434,2457.7450,N,08355.7388,W,1,10,1.4,11"
"##MN-17 00 54 0460 02130 5465 473464 359182 214"
"120.857373"
"$GPGGA,203438,2457.7464,N,08355.7420,W,1,10,1.4,11"
"##MN-17 00 53 0462 02133 5462 473343 359146 214"
"120.857419"
"#increment_net"
"$GPGGA,203442,2457.7477,N,08355.7451,W,1,10,1.4,11"
"##MN-17 00 53 0464 02130 5459 473636 359227 214"
"120.857465"
"$GPGGA,203446,2457.7488,N,08355.7486,W,1,9,1.4,11,"
"##MN-17 00 53 0465 02131 5456 473691 359255 214"
"120.857512"
"$GPGGA,203450,2457.7502,N,08355.7514,W,1,10,1.4,11"
"##MN-17 00 52 0467 02130 5453 473895 359328 214"
"120.857558"
"$GPGGA,203454,2457.7516,N,08355.7544,W,1,10,1.4,11"
"##MN-17 00 54 0469 02132 5450 473628 359243 214"
"120.857604"
"$GPGGA,203458,2457.7526,N,08355.7580,W,1,8,1.4,11,"
"##MN-17 00 52 0471 02125 5447 473403 359147 214"
"120.85765"
"$GPGGA,203502,2457.7538,N,08355.7612,W,1,10,1.4,11"
"##MN-17 00 53 0473 02124 5444 473201 359086 214"
"120.857697"
"$GPGGA,203506,2457.7549,N,08355.7646,W,1,9,1.4,11,"
"##MN-17 00 52 0475 02121 5442 472797 358950 214"
"120.857743"
"$GPGGA,203510,2457.7560,N,08355.7678,W,1,9,1.4,11,"
"##MN-17 00 53 0477 02122 5438 472498 358851 214"
"120.857789"
"$GPGGA,203514,2457.7570,N,08355.7710,W,1,9,1.5,11,"
"##MN-17 00 52 0479 02118 5436 472410 358818 214"
"120.857836"
"$GPGGA,203518,2457.7584,N,08355.7742,W,1,10,1.4,11"
"##MN-17 00 53 0481 02117 5433 472297 358784 214"
"120.857882"
"$GPGGA,203522,2457.7596,N,08355.7774,W,1,9,1.7,11,"
"##MN-17 00 52 0483 02113 5430 472224 358755 214"
"120.857928"
"$GPGGA,203526,2457.7612,N,08355.7807,W,1,10,1.4,12"
"##MN-17 00 52 0485 02114 5427 472222 358756 214"
"120.857975"
"$GPGGA,203530,2457.7623,N,08355.7837,W,1,10,1.4,12"
"##MN-17 00 54 0487 02111 5424 472094 358713 214"
"120.858021"
"$GPGGA,203534,2457.7636,N,08355.7865,W,1,10,1.4,12"
"##MN-17 00 53 0489 02106 5421 472110 358719 214"
"120.858067"
"$GPGGA,203538,2457.7649,N,08355.7895,W,1,10,1.4,11"
"##MN-17 00 53 0491 02109 5419 471922 358658 214"
"120.858113"
"$GPGGA,203542,2457.7660,N,08355.7915,W,1,10,1.7,11"
"##MN-17 00 52 0493 02103 5416 471921 358659 214"
"120.85816"
"$GPGGA,203546,2457.7677,N,08355.7946,W,1,10,1.7,11"
"##MN-17 00 54 0495 02104 5413 471813 358636 214"
"120.858206"
"$GPGGA,203550,2457.7689,N,08355.7970,W,1,10,1.4,11"
"##MN-17 00 54 0497 02099 5410 471661 358576 214"
"120.858252"
"$GPGGA,203554,2457.7703,N,08355.7996,W,1,9,1.7,11,"
"##MN-17 00 53 0499 02101 5408 471332 358481 214"
"120.858299"
"$GPGGA,203558,2457.7715,N,08355.8028,W,1,10,1.4,10"
"##MN-17 00 53 0501 02097 5405 471180 358418 214"
"120.858345"
"$GPGGA,203602,2457.7732,N,08355.8071,W,1,9,1.4,10,"
"##MN-17 00 54 0503 02094 5403 471123 358406 214"
"120.858391"
"$GPGGA,203606,2457.7743,N,08355.8107,W,1,10,1.4,10"
"##MN-17 00 53 0505 02092 5400 470935 358330 214"
"120.858438"
"$GPGGA,203610,2457.7758,N,08355.8139,W,1,10,1.4,10"
"##MN-17 00 54 0507 02092 5397 470843 358305 214"
"120.858484"
"$GPGGA,203614,2457.7769,N,08355.8172,W,1,10,1.4,10"
"##MN-17 00 54 0509 02086 5395 470638 358227 214"
"120.85853"
"$GPGGA,203618,2457.7784,N,08355.8204,W,1,10,1.4,10"
"##MN-17 00 55 0511 02085 5392 470598 358218 214"
"120.858576"
"$GPGGA,203622,2457.7798,N,08355.8237,W,1,10,1.4,10"
"##MN-17 00 54 0513 02086 5390 470460 358177 214"
"120.858623"
"$GPGGA,203626,2457.7813,N,08355.8266,W,1,10,1.4,10"
"##MN-17 00 54 0515 02084 5387 470354 358142 214"
"120.858669"
"$GPGGA,203631,2457.7831,N,08355.8306,W,1,10,1.4,10"
"##MN-17 00 52 0517 02083 5384 470221 358101 214"
"120.858715"
"$GPGGA,203635,2457.7844,N,08355.8340,W,1,10,1.4,10"
"##MN-17 00 53 0519 02077 5382 470062 358043 214"
"120.858762"
"$GPGGA,203639,2457.7856,N,08355.8374,W,1,10,1.4,11"
"##MN-17 00 52 0521 02077 5379 469913 357993 214"
"120.858808"
"$GPGGA,203643,2457.7869,N,08355.8403,W,1,10,1.4,11"
"##MN-17 00 52 0523 02077 5377 469632 357903 214"
"120.858854"
"$GPGGA,203646,2457.7878,N,08355.8426,W,1,10,1.4,11"
"##MN-17 00 53 0525 02077 5374 469341 357799 214"
"120.858912"
"$GPGGA,203651,2457.7895,N,08355.8465,W,1,10,1.4,11"
"##MN-17 00 52 0527 02073 5371 469007 357677 214"
"120.858958"
"$GPGGA,203655,2457.7909,N,08355.8497,W,1,10,1.4,11"
"##MN-17 00 54 0529 02072 5369 468739 357584 214"
"120.859005"
"$GPGGA,203659,2457.7921,N,08355.8526,W,1,10,1.4,11"
"##MN-17 00 52 0531 02072 5367 468427 357482 214"
"120.859051"
"$GPGGA,203703,2457.7935,N,08355.8558,W,1,9,1.7,11,"
"##MN-17 00 54 0532 02072 5365 468202 357413 214"
"120.859097"
"$GPGGA,203707,2457.7946,N,08355.8589,W,1,10,1.4,11"
"##MN-17 00 52 0534 02068 5362 468033 357346 214"
"120.859143"
"$GPGGA,203711,2457.7960,N,08355.8620,W,1,10,1.4,11"
"##MN-17 00 55 0536 02065 5360 467958 357325 214"
"120.85919"
"$GPGGA,203715,2457.7971,N,08355.8653,W,1,10,1.4,11"
"##MN-17 00 53 0538 02065 5357 467862 357289 214"
"120.859236"
"$GPGGA,203719,2457.7985,N,08355.8685,W,1,10,1.4,11"
"##MN-17 00 51 0540 02064 5355 467853 357282 214"
"120.859282"
"$GPGGA,203723,2457.7999,N,08355.8715,W,1,10,1.4,11"
"##MN-17 00 54 0542 02063 5353 467747 357249 214"
"120.859329"
"$GPGGA,203727,2457.8011,N,08355.8746,W,1,10,1.4,11"
"##MN-17 00 53 0544 02059 5351 467746 357246 214"
"120.859375"
"$GPGGA,203731,2457.8026,N,08355.8777,W,1,10,1.4,11"
"##MN-17 00 54 0546 02063 5348 467696 357230 214"
"120.859421"
"$GPGGA,203735,2457.8037,N,08355.8806,W,1,10,1.4,11"
"##MN-17 00 52 0548 02055 5346 467650 357211 214"
"120.859468"
"$GPGGA,203739,2457.8053,N,08355.8838,W,1,10,1.4,11"
"##MN-17 00 54 0550 02057 5343 467585 357194 214"
"120.859514"
"$GPGGA,203743,2457.8065,N,08355.8867,W,1,9,1.7,11,"
"##MN-17 00 52 0552 02055 5341 467350 357114 214"
"120.85956"
"$GPGGA,203747,2457.8079,N,08355.8898,W,1,10,1.4,11"
"##MN-17 00 52 0554 02051 5339 467275 357088 214"
"120.859607"
"$GPGGA,203751,2457.8089,N,08355.8931,W,1,10,1.4,11"
"##MN-17 00 54 0556 02048 5337 466876 356933 214"
"120.859653"
"$GPGGA,203755,2457.8102,N,08355.8960,W,1,10,1.4,11"
"##MN-17 00 54 0558 02048 5335 466370 356793 214"
"120.859699"
"$GPGGA,203759,2457.8115,N,08355.8992,W,1,10,1.4,11"
"##MN-17 00 53 0560 02047 5333 464862 356273 214"
"120.859745"
"$GPGGA,203803,2457.8129,N,08355.9021,W,1,10,1.4,11"
"##MN-17 00 52 0562 02047 5330 464745 356234 214"
"120.859792"
"$GPGGA,203807,2457.8141,N,08355.9051,W,1,10,1.4,11"
"##MN-17 00 53 0564 02047 5328 464531 356159 214"
"120.859838"
"$GPGGA,203811,2457.8156,N,08355.9080,W,1,10,1.4,11"
"##MN-17 00 52 0565 02043 5326 464493 356142 214"
"120.859884"
"$GPGGA,203815,2457.8167,N,08355.9115,W,1,10,1.4,11"
"##MN-17 00 53 0567 02041 5324 464142 356016 214"
"120.859931"
"$GPGGA,203819,2457.8184,N,08355.9136,W,1,9,1.7,11,"
"##MN-17 00 54 0569 02041 5322 463912 355944 214"
"120.859977"
"$GPGGA,203823,2457.8195,N,08355.9162,W,1,9,1.7,10,"
"##MN-17 00 52 0571 02038 5320 463431 355770 214"
"120.860023"
"$GPGGA,203827,2457.8210,N,08355.9188,W,1,9,1.7,10,"
"##MN+17 00 52 0573 02037 5318 463242 355714 214"
"120.860069"
"$GPGGA,203831,2457.8224,N,08355.9216,W,1,9,1.7,10,"
"##MN+17 00 52 0575 02035 5316 463105 355665 214"
"120.860116"
"$GPGGA,203835,2457.8237,N,08355.9245,W,1,9,1.7,9,M"
"##MN+17 00 54 0577 02031 5314 462993 355623 214"
"120.860162"
"$GPGGA,203839,2457.8249,N,08355.9274,W,1,9,1.7,9,M"
"##MN-17 00 52 0579 02029 5312 462887 355589 214"
"120.860208"
"$GPGGA,203843,2457.8261,N,08355.9303,W,1,9,1.7,8,M"
"##MN-17 00 52 0581 02030 5310 462740 355536 214"
"120.860255"
"#increment_net"
"$GPGGA,203847,2457.8275,N,08355.9333,W,1,9,1.7,8,M"
"##MN-17 00 54 0583 02025 5308 462656 355500 214"
"120.860301"
"$GPGGA,203851,2457.8290,N,08355.9361,W,1,9,1.7,7,M"
"##MN-17 00 53 0584 02028 5306 462536 355466 214"
"120.860347"
"$GPGGA,203855,2457.8306,N,08355.9389,W,1,9,1.7,7,M"
"##MN-17 00 52 0586 02026 5304 462079 355315 214"
"120.860394"
"$GPGGA,203859,2457.8317,N,08355.9422,W,1,8,1.7,7,M"
"##MN-17 00 50 0588 02024 5302 461874 355233 214"
"120.86044"
"$GPGGA,203903,2457.8328,N,08355.9454,W,1,8,1.7,7,M"
"##MN-17 00 51 0590 02021 5300 461623 355151 214"
"120.860486"
"$GPGGA,203907,2457.8343,N,08355.9483,W,1,9,1.7,7,M"
"##MN-17 00 52 0592 02018 5298 461478 355099 214"
"120.860532"
"$GPGGA,203911,2457.8354,N,08355.9516,W,1,9,1.7,8,M"
"##MN-17 00 52 0594 02014 5297 461384 355062 214"
"120.860579"
"$GPGGA,203915,2457.8369,N,08355.9543,W,1,9,1.7,8,M"
"##MN-17 00 54 0596 02014 5294 461267 355029 214"
"120.860625"
"$GPGGA,203919,2457.8380,N,08355.9577,W,1,9,1.7,8,M"
"##MN-17 00 52 0598 02012 5293 461055 354952 214"
"120.860671"
"$GPGGA,203923,2457.8394,N,08355.9606,W,1,9,1.7,8,M"
"##MN-17 00 51 0599 02008 5291 461093 354964 214"
"120.860718"
"$GPGGA,203927,2457.8408,N,08355.9637,W,1,9,1.7,8,M"
"##MN-17 00 54 0601 02008 5289 460988 354931 214"
"120.860764"
"$GPGGA,203931,2457.8422,N,08355.9668,W,1,9,1.7,8,M"
"##MN-17 00 52 0603 02006 5287 460948 354917 214"
"120.86081"
"$GPGGA,203935,2457.8434,N,08355.9700,W,1,9,1.7,8,M"
"##MN-17 00 51 0605 02003 5286 460896 354898 214"
"120.860856"
"$GPGGA,203939,2457.8445,N,08355.9730,W,1,9,1.7,8,M"
"##MN-17 00 53 0607 02003 5284 460834 354878 214"
"120.860903"
"$GPGGA,203943,2457.8458,N,08355.9762,W,1,9,1.7,8,M"
"##MN-17 00 52 0609 01998 5282 460751 354846 214"
"120.860949"
"$GPGGA,203947,2457.8472,N,08355.9794,W,1,9,1.7,8,M"
"##MN-17 00 51 0611 01993 5281 460682 354824 214"
"120.860995"
"$GPGGA,203951,2457.8483,N,08355.9824,W,1,9,1.7,8,M"
"##MN-17 00 52 0613 01992 5279 460606 354796 214"
"120.861042"
"$GPGGA,203955,2457.8495,N,08355.9856,W,1,9,1.7,8,M"
"##MN-17 00 52 0615 01991 5277 460396 354726 214"
"120.861088"
"$GPGGA,203959,2457.8510,N,08355.9888,W,1,9,1.7,8,M"
"##MN-17 00 52 0617 01990 5275 460390 354725 214"
"120.861134"
"$GPGGA,204003,2457.8521,N,08355.9920,W,1,9,1.7,7,M"
"##MN-17 00 52 0618 01988 5275 459967 354578 214"
"120.861181"
"$GPGGA,204007,2457.8535,N,08355.9951,W,1,9,1.7,7,M"
"##MN-17 00 51 0621 01982 5273 459991 354573 214"
"120.861227"
"$GPGGA,204011,2457.8549,N,08355.9982,W,1,9,1.7,7,M"
"##MN-17 00 53 0622 01986 5271 458684 354181 214"
"120.861273"
"$GPGGA,204015,2457.8561,N,08356.0014,W,1,9,1.7,7,M"
"##MN-17 00 52 0624 01979 5269 457781 353842 214"
"120.861319"
"$GPGGA,204019,2457.8575,N,08356.0044,W,1,9,1.7,7,M"
"##MN-17 00 50 0626 01977 5268 457235 353679 214"
"120.861366"
"$GPGGA,204023,2457.8588,N,08356.0076,W,1,9,1.7,7,M"
"##MN-17 00 51 0628 01977 5266 456980 353590 214"
"120.861412"
"$GPGGA,204027,2457.8600,N,08356.0108,W,1,9,1.7,7,M"
"##MN-17 00 51 0630 01972 5265 456665 353481 214"
"120.861458"
"$GPGGA,204031,2457.8615,N,08356.0139,W,1,9,1.7,7,M"
"##MN-17 00 52 0632 01973 5263 456406 353397 214"
"120.861505"
"$GPGGA,204035,2457.8626,N,08356.0171,W,1,9,1.7,7,M"
"##MN-17 00 51 0634 01969 5262 456179 353319 214"
"120.861551"
"$GPGGA,204039,2457.8640,N,08356.0202,W,1,9,1.7,7,M"
"##MN-17 00 51 0636 01965 5260 456107 353295 214"
"120.861597"
"$GPGGA,204043,2457.8653,N,08356.0233,W,1,9,1.7,6,M"
"##MN-17 00 52 0638 01961 5259 456035 353270 214"
"120.861644"
"$GPGGA,204047,2457.8667,N,08356.0264,W,1,9,1.7,6,M"
"##MN-17 00 52 0640 01962 5257 456002 353259 214"
"120.86169"
"$GPGGA,204051,2457.8680,N,08356.0296,W,1,9,1.7,6,M"
"##MN-17 00 52 0642 01957 5256 455990 353254 214"
"120.861736"
"$GPGGA,204055,2457.8693,N,08356.0327,W,1,9,1.7,6,M"
"##MN-17 00 51 0644 01956 5255 455994 353255 214"
"120.861782"
"$GPGGA,204059,2457.8705,N,08356.0359,W,1,9,1.7,6,M"
"##MN-17 00 52 0646 01953 5253 455990 353254 214"
"120.861829"
"$GPGGA,204104,2457.8722,N,08356.0399,W,1,9,1.7,6,M"
"##MN-17 00 52 0648 01947 5252 455949 353240 214"
"120.861875"
"$GPGGA,204107,2457.8730,N,08356.0423,W,1,9,1.7,6,M"
"##MN-17 00 54 0650 01945 5251 455669 353153 214"
"120.861921"
"$GPGGA,204112,2457.8747,N,08356.0463,W,1,9,1.7,6,M"
"##MN-17 00 53 0652 01942 5250 455355 353050 214"
"120.861968"
"$GPGGA,204115,2457.8758,N,08356.0488,W,1,9,1.7,6,M"
"##MN+17 00 54 0654 01940 5248 455237 353014 214"
"120.862014"
"$GPGGA,204120,2457.8773,N,08356.0527,W,1,9,1.7,6,M"
"##MN+17 00 54 0656 01939 5247 455051 352959 214"
"120.86206"
"$GPGGA,204124,2457.8787,N,08356.0560,W,1,9,1.7,6,M"
"##MN+17 00 54 0658 01935 5246 454994 352937 214"
"120.862106"
"$GPGGA,204128,2457.8799,N,08356.0592,W,1,9,1.7,6,M"
"##MN-17 00 54 0660 01931 5245 454910 352910 214"
"120.862164"
"#increment_net"
"$GPGGA,204132,2457.8813,N,08356.0622,W,1,9,1.7,6,M"
"##MN-17 00 54 0662 01931 5243 454855 352892 214"
"120.862211"
"$GPGGA,204136,2457.8826,N,08356.0654,W,1,9,1.7,6,M"
"##MN-17 00 54 0665 01929 5242 454898 352902 214"
"120.862257"
"$GPGGA,204140,2457.8838,N,08356.0686,W,1,9,1.7,6,M"
"##MN-17 00 54 0667 01925 5241 454824 352879 214"
"120.862303"
"$GPGGA,204144,2457.8852,N,08356.0716,W,1,9,1.7,6,M"
"##MN-17 00 55 0669 01925 5240 454593 352810 214"
"120.86235"
"$GPGGA,204148,2457.8864,N,08356.0749,W,1,9,1.7,6,M"
"##MN-17 00 54 0671 01921 5239 454535 352788 214"
"120.862396"
"$GPGGA,204152,2457.8875,N,08356.0780,W,1,9,1.7,6,M"
"##MN-17 00 54 0673 01920 5237 454388 352744 214"
"120.862442"
"$GPGGA,204156,2457.8891,N,08356.0811,W,1,9,1.7,6,M"
"##MN-17 00 54 0675 01920 5237 454061 352638 214"
"120.862488"
"$GPGGA,204200,2457.8904,N,08356.0843,W,1,9,1.7,6,M"
"##MN-17 00 53 0677 01916 5236 453869 352571 214"
"120.862535"
"$GPGGA,204203,2457.8914,N,08356.0867,W,1,9,1.7,6,M"
"##MN-17 00 52 0679 01913 5235 453784 352552 214"
"120.862581"
"$GPGGA,204208,2457.8931,N,08356.0904,W,1,9,1.7,6,M"
"##MN-17 00 54 0681 01911 5233 453552 352481 214"
"120.862627"
"$GPGGA,204212,2457.8946,N,08356.0934,W,1,9,1.7,6,M"
"##MN-17 00 54 0683 01911 5232 453413 352437 214"
"120.862674"
"$GPGGA,204216,2457.8960,N,08356.0966,W,1,9,1.7,6,M"
"##MN-17 00 54 0685 01907 5231 453087 352329 214"
"120.86272"
"$GPGGA,204220,2457.8974,N,08356.0997,W,1,9,1.7,6,M"
"##MN-17 00 54 0687 01905 5230 452926 352272 214"
"120.862766"
"$GPGGA,204224,2457.8987,N,08356.1029,W,1,9,1.7,5,M"
"##MN-17 00 54 0689 01904 5230 452818 352247 214"
"120.862813"
"$GPGGA,204228,2457.9000,N,08356.1059,W,1,9,1.7,5,M"
"##MN-17 00 54 0691 01901 5228 452731 352215 214"
"120.862859"
"$GPGGA,204232,2457.9012,N,08356.1091,W,1,9,1.7,5,M"
"##MN-17 00 52 0693 01898 5228 452385 352109 214"
"120.862905"
"$GPGGA,204236,2457.9025,N,08356.1123,W,1,9,1.7,5,M"
"##MN-17 00 53 0695 01895 5227 452261 352052 214"
"120.862951"
"$GPGGA,204240,2457.9040,N,08356.1153,W,1,9,1.7,5,M"
"##MN-17 00 56 0697 01898 5226 451890 351955 214"
"120.862998"
"$GPGGA,204244,2457.9052,N,08356.1183,W,1,9,1.7,5,M"
"##MN-17 00 55 0699 01896 5225 451729 351889 214"
"120.863044"
"$GPGGA,204248,2457.9065,N,08356.1212,W,1,9,1.7,5,M"
"##MN-17 00 53 0700 01899 5224 451715 351886 214"
"120.86309"
"$GPGGA,204252,2457.9077,N,08356.1239,W,1,9,1.7,5,M"
"##MN-17 00 51 0702 01900 5223 452291 352053 214"
"120.863137"
"$GPGGA,204256,2457.9086,N,08356.1259,W,1,9,1.7,5,M"
"##MN-17 00 50 0704 01899 5222 452702 352204 214"
"120.863183"
"$GPGGA,204300,2457.9099,N,08356.1288,W,1,9,1.7,5,M"
"##MN-17 00 49 0705 01902 5221 452795 352226 214"
"120.863229"
"$GPGGA,204304,2457.9108,N,08356.1306,W,1,9,1.7,5,M"
"##MN-17 00 48 0707 01905 5221 452682 352198 214"
"120.863275"
"$GPGGA,204308,2457.9119,N,08356.1329,W,1,9,1.7,5,M"
"##MN-17 00 45 0708 01907 5220 452715 352202 214"
"120.863322"
"$GPGGA,204312,2457.9130,N,08356.1351,W,1,9,1.7,5,M"
"##MN-17 00 44 0709 01907 5219 452907 352267 214"
"120.863368"
"$GPGGA,204316,2457.9144,N,08356.1376,W,1,9,1.7,5,M"
"##MN-17 00 41 0711 01903 5218 453017 352297 214"
"120.863414"
"$GPGGA,204320,2457.9156,N,08356.1395,W,1,9,1.7,5,M"
"##MN-17 00 42 0712 01906 5217 452869 352259 214"
"120.863461"
"$GPGGA,204324,2457.9167,N,08356.1414,W,1,9,1.7,5,M"
"##MN-17 00 42 0713 01905 5217 452715 352211 214"
"120.863507"
"$GPGGA,204328,2457.9178,N,08356.1434,W,1,9,1.7,5,M"
"##MN-17 00 39 0715 01905 5216 452563 352166 214"
"120.863553"
"$GPGGA,204332,2457.9188,N,08356.1453,W,1,9,1.7,5,M"
"##MN-17 00 38 0716 01898 5215 452260 352088 214"
"120.8636"
"$GPGGA,204336,2457.9199,N,08356.1474,W,1,9,1.7,5,M"
"##MN-17 00 37 0717 01898 5214 452061 352006 214"
"120.863646"
"$GPGGA,204340,2457.9210,N,08356.1492,W,1,9,1.7,5,M"
"##MN-17 00 37 0719 01897 5214 451533 351862 214"
"120.863692"
"$GPGGA,204344,2457.9221,N,08356.1512,W,1,9,1.7,5,M"
"##MN-17 00 38 0720 01896 5213 451564 351846 214"
"120.863738"
"$GPGGA,204348,2457.9232,N,08356.1532,W,1,9,1.7,5,M"
"##MN-17 00 37 0721 01896 5212 451570 351843 214"
"120.863785"
"$GPGGA,204352,2457.9246,N,08356.1550,W,1,9,1.7,5,M"
"##MN-17 00 34 0722 01888 5212 451144 351713 214"
"120.863831"
"$GPGGA,204356,2457.9256,N,08356.1571,W,1,9,1.7,5,M"
"##MN-17 00 33 0724 01880 5211 451049 351684 214"
"120.863877"
"$GPGGA,204400,2457.9268,N,08356.1589,W,1,9,1.7,5,M"
"##MN-17 00 33 0725 01876 5211 450828 351630 214"
"120.863924"
"$GPGGA,204404,2457.9278,N,08356.1608,W,1,9,1.7,5,M"
"##MN-17 00 34 0726 01873 5210 450591 351557 214"
"120.86397"
"$GPGGA,204408,2457.9290,N,08356.1626,W,1,9,1.7,5,M"
"##MN-17 00 32 0727 01865 5209 450470 351504 214"
"120.864016"
"$GPGGA,204412,2457.9301,N,08356.1644,W,1,9,1.7,5,M"
"##MN-17 00 32 0729 01862 5209 450175 351410 214"
"120.864062"
"$GPGGA,204416,2457.9314,N,08356.1663,W,1,9,1.7,5,M"
"##MN-17 00 33 0729 01861 5208 450068 351379 214"
"120.864109"
"$GPGGA,204420,2457.9325,N,08356.1683,W,1,9,1.7,5,M"
"##MN-17 00 28 0729 01861 5208 449814 375467 214"
"120.864155"
"$GPGGA,204424,2457.9337,N,08356.1702,W,1,9,1.7,5,M"
"##MN-17 00 20 0729 01862 5207 449073 424399 214"
"120.864201"
"$GPGGA,204428,2457.9351,N,08356.1720,W,1,9,1.7,5,M"
"##MN-17 00 18 0729 01863 5206 447906 921218 214"
"120.864248"
"$GPGGA,204432,2457.9362,N,08356.1739,W,1,9,1.7,5,M"
"##MN-17 00 07 0730 01862 5206 447322 925283 214"
"120.864294"
"$GPGGA,204436,2457.9375,N,08356.1759,W,1,9,1.7,5,M"
"##MN-17 00 00 0733 01862 5205 447338 925283 213"
"120.86434"
"$GPGGA,204440,2457.9387,N,08356.1778,W,1,9,1.7,5,M"
"##MN+17 00 01 0737 01863 5205 447333 925281 213"
"120.864387"
"$GPGGA,204444,2457.9399,N,08356.1800,W,1,9,1.7,5,M"
"##MN+17 00 00 0739 01861 5205 447430 925280 214"
"120.864433"
"$GPGGA,204448,2457.9412,N,08356.1821,W,1,9,1.7,5,M"
"##MN+17 00 00 0742 01863 5204 447592 925281 214"
"120.864479"
"$GPGGA,204452,2457.9424,N,08356.1842,W,1,9,1.7,5,M"
"##MN-18 00 00 0745 01860 5203 447558 925281 213"
"120.864525"
"$GPGGA,204456,2457.9437,N,08356.1865,W,1,9,1.7,5,M"
"##MN-18 00 00 0746 01861 5203 447619 925280 213"
"120.864572"
"$GPGGA,204500,2457.9449,N,08356.1886,W,1,9,1.7,5,M"
"##MN-18 00 02 0748 01863 5203 447337 925281 213"
"120.864618"
"$GPGGA,204504,2457.9460,N,08356.1908,W,1,9,1.7,5,M"
"##MN-18 00 00 0753 01859 5203 447068 925281 213"
"120.864664"
"$GPGGA,204508,2457.9471,N,08356.1931,W,1,9,1.7,5,M"
"##MN-18 00 06 0756 01862 5202 446870 925281 213"
"120.864711"
"$GPGGA,204512,2457.9485,N,08356.1952,W,1,9,1.7,5,M"
"##MN-18 00 04 0758 01862 5202 446581 925282 213"
"120.864919"
"$GPGGA,204527,2457.9528,N,08356.2037,W,1,9,1.7,5,M"
"##MN-18 00 04 0776 01861 5200 446252 925282 213"
