" Tow: M-01-004   RVWS/WS1405"
" Date: 05/02/2014"
" Temperature Probe #  2597    Conductivity Probe #  2870"
" Pressure Probe #  109"
" Flow Meter Calibration  4.71 (m/count)  "
"122.346655"
"$GPGGA,081907,2558.2789,N,08845.4093,W,1,9,2.4,9,M"
"##MN-00 00 67 0084 01864 4204 490148 925048 211"
"122.346701"
"$GPGGA,081915,2558.2774,N,08845.4112,W,1,9,1.9,9,M"
"##MN-00 00 69 0084 01864 4206 484190 925369 211"
"122.346748"
"$GPGGA,081919,2558.2760,N,08845.4119,W,1,9,1.9,9,M"
"##MN-00 00 70 0084 01865 4207 483953 925369 211"
"122.346794"
"$GPGGA,081923,2558.2745,N,08845.4127,W,1,9,1.9,9,M"
"##MN-00 00 68 0084 01865 4209 483830 925367 211"
"122.34684"
"$GPGGA,081927,2558.2730,N,08845.4136,W,1,9,1.9,9,M"
"##MN-00 00 68 0084 01865 4210 483784 925371 211"
"122.346887"
"$GPGGA,081931,2558.2713,N,08845.4141,W,1,9,1.9,9,M"
"##MN-00 00 69 0084 01865 4212 484021 925371 211"
"122.346933"
"$GPGGA,081935,2558.2695,N,08845.4147,W,1,9,1.9,9,M"
"##MN-00 00 68 0084 01864 4213 483976 925371 211"
"122.346979"
"$GPGGA,081939,2558.2675,N,08845.4154,W,1,9,1.9,9,M"
"##MN-00 00 69 0084 01865 4214 483896 925372 211"
"122.347025"
"$GPGGA,081943,2558.2657,N,08845.4159,W,1,9,1.9,9,M"
"##MN-00 00 69 0084 01866 4216 484104 925372 211"
"122.347072"
"$GPGGA,081947,2558.2639,N,08845.4164,W,1,9,1.9,9,M"
"##MN-00 00 69 0084 01865 4216 484118 925371 211"
"122.347118"
"$GPGGA,081951,2558.2625,N,08845.4169,W,1,9,1.9,9,M"
"##MN-00 00 70 0084 01865 4217 483615 925372 211"
"122.347164"
"$GPGGA,081955,2558.2599,N,08845.4176,W,1,9,1.9,9,M"
"##MN-00 00 69 0084 01865 4219 483215 925372 211"
"122.347211"
"$GPGGA,081959,2558.2579,N,08845.4180,W,1,8,2.0,9,M"
"##MN-00 00 68 0084 01866 4219 483716 925372 211"
"122.347257"
"$GPGGA,082003,2558.2562,N,08845.4184,W,1,9,1.9,9,M"
"##MN-00 00 68 0084 01865 4221 484477 925372 211"
"122.347303"
"$GPGGA,082008,2558.2538,N,08845.4191,W,1,9,1.9,8,M"
"##MN-00 00 68 0084 01865 4222 484428 925373 211"
"122.34735"
"$GPGGA,082011,2558.2527,N,08845.4196,W,1,9,1.9,8,M"
"##MN-00 00 68 0084 01865 4223 483968 925372 211"
"122.347396"
"$GPGGA,082016,2558.2500,N,08845.4205,W,1,9,1.9,8,M"
"##MN-00 00 69 0084 01865 4224 483310 925372 211"
"122.347442"
"$GPGGA,082020,2558.2482,N,08845.4213,W,1,9,1.9,8,M"
"##MN-00 00 68 0084 01866 4224 483294 925373 211"
"122.347488"
"$GPGGA,082024,2558.2464,N,08845.4223,W,1,9,1.9,8,M"
"##MN-00 00 70 0084 01865 4225 483561 925372 211"
"122.347535"
"$GPGGA,082028,2558.2446,N,08845.4227,W,1,9,1.9,8,M"
"##MN-00 00 69 0084 01866 4226 483762 925372 211"
"122.347581"
"$GPGGA,082032,2558.2430,N,08845.4234,W,1,9,1.9,8,M"
"##MN-00 00 69 0084 01866 4227 483643 925373 211"
"122.347627"
"$GPGGA,082036,2558.2410,N,08845.4236,W,1,9,1.9,8,M"
"##MN-00 00 69 0085 01867 4227 483212 925373 211"
"122.347674"
"$GPGGA,082040,2558.2385,N,08845.4235,W,1,9,1.9,8,M"
"##MN-00 00 70 0085 01865 4228 483392 925373 211"
"122.34772"
"$GPGGA,082044,2558.2362,N,08845.4234,W,1,9,1.9,8,M"
"##MN-00 00 68 0085 01866 4229 483500 925373 211"
"122.347766"
"$GPGGA,082048,2558.2338,N,08845.4235,W,1,9,1.9,8,M"
"##MN-00 00 68 0085 01866 4230 483451 925373 211"
"122.347812"
"$GPGGA,082052,2558.2319,N,08845.4238,W,1,9,1.9,8,M"
"##MN-00 00 69 0085 01864 4230 483248 925373 211"
"122.347859"
"$GPGGA,082056,2558.2297,N,08845.4238,W,1,9,1.9,8,M"
"##MN-00 00 69 0085 01866 4231 482899 925373 211"
"122.347905"
"$GPGGA,082100,2558.2280,N,08845.4237,W,1,9,1.9,8,M"
"##MN-00 00 68 0085 01865 4232 482718 925373 211"
"122.347951"
"$GPGGA,082104,2558.2261,N,08845.4241,W,1,9,1.9,8,M"
"##MN-00 00 68 0085 01867 4232 483139 925373 211"
"122.347998"
"$GPGGA,082108,2558.2243,N,08845.4245,W,1,9,1.9,8,M"
"##MN-00 00 68 0085 01865 4233 483185 925372 211"
"122.348044"
"$GPGGA,082112,2558.2225,N,08845.4248,W,1,9,1.9,8,M"
"##MN-00 00 69 0085 01867 4234 482837 925373 211"
"122.34809"
"$GPGGA,082116,2558.2203,N,08845.4249,W,1,9,1.9,8,M"
"##MN-00 00 68 0085 01866 4234 482958 925373 211"
"122.348137"
"$GPGGA,082120,2558.2182,N,08845.4253,W,1,9,1.9,8,M"
"##MN-00 00 69 0085 01865 4235 483223 925373 211"
"122.348183"
"$GPGGA,082124,2558.2159,N,08845.4254,W,1,9,1.9,8,M"
"##MN-00 00 68 0085 01864 4235 483232 925373 211"
"122.348229"
"$GPGGA,082128,2558.2139,N,08845.4257,W,1,9,1.9,8,M"
"##MN-00 00 69 0085 01866 4236 483383 925373 211"
"122.348275"
"$GPGGA,082132,2558.2116,N,08845.4259,W,1,9,1.9,8,M"
"##MN-00 00 69 0085 01867 4236 483247 925373 211"
"122.348322"
"$GPGGA,082136,2558.2098,N,08845.4263,W,1,9,1.9,8,M"
"##MN-00 00 68 0085 01866 4237 482810 925373 211"
"122.34838"
"$GPGGA,082140,2558.2076,N,08845.4266,W,1,9,1.9,8,M"
"##MN-00 00 69 0085 01865 4237 482344 925373 211"
"122.348426"
"$GPGGA,082144,2558.2058,N,08845.4270,W,1,9,1.9,8,M"
"##MN-00 00 69 0085 01865 4238 481959 925373 211"
"122.348472"
"$GPGGA,082148,2558.2037,N,08845.4274,W,1,9,1.9,8,M"
"##MN-00 00 69 0085 01866 4238 481566 925373 211"
"122.350278"
"$GPGGA,082422,2558.1231,N,08845.4411,W,1,9,1.9,5,M"
"##MN-00 00 00 0119 01867 4255 481744 925370 211"
"122.350336"
"#resetparam"
"$GPGGA,082429,2558.1199,N,08845.4417,W,1,9,1.9,5,M"
"##MN-00 00 00 0123 01867 4255 482179 925370 211"
"122.350382"
"$GPGGA,082432,2558.1185,N,08845.4422,W,1,9,1.9,5,M"
"##MN-00 00 10 0124 01869 4256 481927 925370 211"
"122.350428"
"$GPGGA,082438,2558.1159,N,08845.4423,W,1,9,1.9,5,M"
"##MN-00 00 12 0125 01866 4257 481197 925370 211"
"122.350486"
"#resetparam"
"$GPGGA,082442,2558.1142,N,08845.4429,W,1,9,1.9,5,M"
"##MN-00 00 04 0125 01872 4257 474271 562712 211"
"122.350532"
"$GPGGA,082444,2558.1130,N,08845.4427,W,1,9,1.9,5,M"
"##MN-00 00 06 0125 01886 4256 465157 358999 211"
"122.350579"
"$GPGGA,082450,2558.1100,N,08845.4433,W,1,9,1.9,5,M"
"##MN-00 00 18 0125 01907 4256 465108 356908 211"
"122.350625"
"$GPGGA,082454,2558.1080,N,08845.4437,W,1,9,1.9,5,M"
"##MN-00 00 24 0125 01918 4257 465073 356971 211"
"122.350671"
"$GPGGA,082458,2558.1061,N,08845.4437,W,1,9,1.9,5,M"
"##MN-00 00 23 0125 01934 4258 465072 356775 211"
"122.350718"
"$GPGGA,082502,2558.1044,N,08845.4440,W,1,9,1.8,5,M"
"##MN-00 00 25 0126 01952 4258 465067 356758 211"
"122.350764"
"$GPGGA,082506,2558.1028,N,08845.4442,W,1,9,1.8,5,M"
"##MN-00 00 28 0126 01963 4259 465085 356686 211"
"122.35081"
"$GPGGA,082510,2558.1010,N,08845.4447,W,1,9,1.8,5,M"
"##MN-00 00 28 0126 01979 4259 465136 356743 211"
"122.350856"
"$GPGGA,082514,2558.0993,N,08845.4452,W,1,9,1.8,5,M"
"##MN-00 00 27 0127 01983 4260 465085 356570 211"
"122.350903"
"$GPGGA,082518,2558.0976,N,08845.4456,W,1,9,1.8,5,M"
"##MN-00 00 28 0127 01991 4260 465214 356595 211"
"122.350949"
"$GPGGA,082522,2558.0959,N,08845.4462,W,1,9,1.8,5,M"
"##MN-00 00 27 0128 01987 4261 465288 356584 211"
"122.350995"
"$GPGGA,082526,2558.0941,N,08845.4465,W,1,9,1.8,5,M"
"##MN-00 00 31 0129 01994 4261 465280 356570 211"
"122.351042"
"$GPGGA,082530,2558.0923,N,08845.4469,W,1,9,1.8,5,M"
"##MN-00 00 31 0130 02000 4262 465384 356597 211"
"122.351088"
"$GPGGA,082534,2558.0905,N,08845.4473,W,1,9,1.8,5,M"
"##MN-00 00 31 0131 02007 4262 465539 356650 211"
"122.351134"
"$GPGGA,082538,2558.0887,N,08845.4474,W,1,9,1.8,5,M"
"##MN-00 00 32 0132 02009 4263 466009 356795 211"
"122.351181"
"$GPGGA,082542,2558.0867,N,08845.4480,W,1,9,1.8,5,M"
"##MN-00 00 27 0133 02011 4263 466461 356927 211"
"122.351227"
"$GPGGA,082546,2558.0849,N,08845.4484,W,1,9,1.8,5,M"
"##MN-00 00 28 0134 02000 4264 466225 356864 211"
"122.351273"
"$GPGGA,082550,2558.0827,N,08845.4490,W,1,9,1.8,5,M"
"##MN-00 00 33 0135 02000 4265 466010 356791 211"
"122.351319"
"$GPGGA,082554,2558.0808,N,08845.4495,W,1,9,1.8,5,M"
"##MN-00 00 35 0135 02007 4266 465308 356568 211"
"122.351366"
"$GPGGA,082558,2558.0787,N,08845.4499,W,1,9,1.8,5,M"
"##MN-00 00 35 0137 02005 4266 465423 356601 211"
"122.351412"
"$GPGGA,082602,2558.0768,N,08845.4503,W,1,9,1.8,5,M"
"##MN-00 00 38 0138 02012 4267 465617 356662 211"
"122.351458"
"$GPGGA,082607,2558.0742,N,08845.4512,W,1,9,1.8,5,M"
"##MN-00 00 34 0139 02008 4268 465893 356753 211"
"122.351505"
"$GPGGA,082610,2558.0728,N,08845.4513,W,1,9,1.8,5,M"
"##MN-00 00 36 0140 02008 4269 466633 356985 211"
"122.351551"
"$GPGGA,082615,2558.0703,N,08845.4523,W,1,9,1.8,5,M"
"##MN-00 00 34 0141 02005 4269 466905 357078 211"
"122.351597"
"$GPGGA,082619,2558.0681,N,08845.4528,W,1,9,1.8,5,M"
"##MN-00 00 39 0142 02016 4270 466476 356957 211"
"122.351644"
"$GPGGA,082623,2558.0663,N,08845.4534,W,1,9,1.8,5,M"
"##MN-00 00 36 0143 02014 4271 466588 356982 211"
"122.35169"
"$GPGGA,082627,2558.0641,N,08845.4539,W,1,9,1.8,5,M"
"##MN-00 00 34 0145 02014 4272 466868 357079 211"
"122.351736"
"$GPGGA,082631,2558.0625,N,08845.4548,W,1,9,1.8,5,M"
"##MN-00 00 36 0146 02017 4273 467100 357167 211"
"122.351782"
"$GPGGA,082635,2558.0610,N,08845.4556,W,1,9,1.8,5,M"
"##MN-00 00 36 0147 02019 4274 467563 357328 211"
"122.351829"
"$GPGGA,082639,2558.0592,N,08845.4563,W,1,9,1.8,6,M"
"##MN-00 00 38 0148 02025 4275 467686 357379 211"
"122.351875"
"$GPGGA,082643,2558.0573,N,08845.4571,W,1,9,1.8,6,M"
"##MN-00 00 36 0149 02023 4276 468328 357591 211"
"122.351921"
"$GPGGA,082647,2558.0551,N,08845.4577,W,1,9,1.8,7,M"
"##MN-00 00 39 0150 02031 4277 468411 357620 211"
"122.351968"
"$GPGGA,082651,2558.0531,N,08845.4585,W,1,9,1.8,7,M"
"##MN-00 00 37 0151 02028 4278 468324 357608 211"
"122.352014"
"$GPGGA,082655,2558.0508,N,08845.4592,W,1,9,1.8,7,M"
"##MN-00 00 36 0152 02033 4279 468703 357697 211"
"122.35206"
"$GPGGA,082659,2558.0487,N,08845.4599,W,1,9,1.8,7,M"
"##MN-00 00 35 0153 02035 4280 468809 357771 211"
"122.352106"
"$GPGGA,082703,2558.0468,N,08845.4606,W,1,9,1.8,7,M"
"##MN-00 00 37 0155 02037 4281 469111 357846 211"
"122.352153"
"$GPGGA,082707,2558.0446,N,08845.4610,W,1,9,1.8,7,M"
"##MN-00 00 34 0155 02047 4282 468919 357786 211"
"122.352199"
"$GPGGA,082711,2558.0426,N,08845.4618,W,1,8,2.1,7,M"
"##MN-00 00 32 0156 02038 4283 469240 357918 211"
"122.352245"
"$GPGGA,082715,2558.0407,N,08845.4624,W,1,9,1.8,7,M"
"##MN-00 00 37 0157 02048 4285 469205 357874 211"
"122.352292"
"$GPGGA,082719,2558.0386,N,08845.4632,W,1,9,1.8,7,M"
"##MN-00 00 33 0158 02050 4286 469210 357901 211"
"122.352338"
"$GPGGA,082723,2558.0363,N,08845.4637,W,1,9,1.8,7,M"
"##MN-00 00 34 0159 02054 4287 469590 358028 211"
"122.352384"
"$GPGGA,082727,2558.0345,N,08845.4646,W,1,9,1.8,7,M"
"##MN-00 00 35 0160 02053 4288 469862 358128 211"
"122.352431"
"$GPGGA,082731,2558.0324,N,08845.4653,W,1,9,1.8,7,M"
"##MN-00 00 37 0161 02061 4289 470289 358217 211"
"122.352477"
"$GPGGA,082735,2558.0307,N,08845.4660,W,1,9,1.8,7,M"
"##MN-00 00 33 0161 02065 4290 470150 358221 211"
"122.352523"
"$GPGGA,082739,2558.0286,N,08845.4665,W,1,9,1.8,7,M"
"##MN-00 00 34 0163 02061 4291 470921 358427 211"
"122.352581"
"$GPGGA,082743,2558.0268,N,08845.4671,W,1,9,1.8,7,M"
"##MN-00 00 33 0163 02073 4292 470996 358462 211"
"122.352627"
"$GPGGA,082747,2558.0249,N,08845.4678,W,1,9,1.8,7,M"
"##MN-00 00 34 0164 02074 4293 471660 358732 211"
"122.352674"
"$GPGGA,082751,2558.0229,N,08845.4684,W,1,9,1.8,7,M"
"##MN-00 00 33 0165 02083 4295 472547 358905 211"
"122.35272"
"$GPGGA,082755,2558.0210,N,08845.4690,W,1,9,1.8,7,M"
"##MN-00 00 33 0166 02091 4296 473150 359164 211"
"122.352766"
"$GPGGA,082759,2558.0190,N,08845.4697,W,1,9,1.8,7,M"
"##MN-00 00 33 0167 02092 4297 475204 359642 211"
"122.352812"
"$GPGGA,082803,2558.0172,N,08845.4704,W,1,9,1.8,7,M"
"##MN-00 00 32 0167 02102 4298 475896 359796 211"
"122.352859"
"$GPGGA,082807,2558.0154,N,08845.4707,W,1,9,1.8,7,M"
"##MN-00 00 32 0167 02109 4299 476100 359968 211"
"122.352905"
"$GPGGA,082811,2558.0133,N,08845.4712,W,1,9,1.8,7,M"
"##MN-00 00 26 0168 02106 4301 476285 359996 211"
"122.352951"
"$GPGGA,082815,2558.0111,N,08845.4715,W,1,9,1.8,7,M"
"##MN-00 00 30 0169 02109 4302 476406 360041 211"
"122.352998"
"$GPGGA,082819,2558.0090,N,08845.4719,W,1,9,1.8,7,M"
"##MN-00 00 31 0169 02114 4303 476486 360056 211"
"122.353044"
"$GPGGA,082823,2558.0069,N,08845.4722,W,1,9,1.8,7,M"
"##MN-00 00 30 0170 02117 4304 476565 360075 211"
"122.35309"
"$GPGGA,082827,2558.0052,N,08845.4726,W,1,9,1.8,7,M"
"##MN-00 00 31 0170 02130 4305 476602 360082 211"
"122.353137"
"$GPGGA,082831,2558.0033,N,08845.4730,W,1,9,1.8,7,M"
"##MN-00 00 25 0171 02127 4306 476695 360111 211"
"122.353183"
"$GPGGA,082835,2558.0017,N,08845.4734,W,1,9,1.8,7,M"
"##MN-00 00 28 0172 02137 4308 476719 360126 211"
"122.353229"
"$GPGGA,082839,2558.0000,N,08845.4738,W,1,9,1.8,7,M"
"##MN-00 00 25 0173 02142 4309 476670 360137 211"
"122.353275"
"$GPGGA,082843,2557.9978,N,08845.4740,W,1,9,1.8,6,M"
"##MN-00 00 26 0174 02134 4310 476716 360147 211"
"122.353322"
"$GPGGA,082847,2557.9955,N,08845.4740,W,1,9,1.8,6,M"
"##MN-00 00 28 0175 02138 4311 476740 360149 211"
"122.353368"
"$GPGGA,082851,2557.9930,N,08845.4745,W,1,9,1.8,6,M"
"##MN-00 00 28 0175 02141 4312 476690 360147 211"
"122.353414"
"$GPGGA,082855,2557.9908,N,08845.4745,W,1,8,1.8,6,M"
"##MN-00 00 30 0176 02147 4313 476960 360184 211"
"122.353461"
"$GPGGA,082859,2557.9890,N,08845.4747,W,1,9,1.8,6,M"
"##MN-00 00 31 0177 02149 4314 477092 360202 211"
"122.353507"
"$GPGGA,082903,2557.9869,N,08845.4747,W,1,9,1.8,6,M"
"##MN-00 00 30 0177 02156 4315 477126 360206 211"
"122.353553"
"$GPGGA,082907,2557.9852,N,08845.4750,W,1,9,1.8,6,M"
"##MN-00 00 29 0178 02165 4316 477132 360210 211"
"122.3536"
"$GPGGA,082911,2557.9833,N,08845.4752,W,1,9,1.8,6,M"
"##MN-00 00 29 0179 02164 4317 477169 360213 211"
"122.353646"
"$GPGGA,082915,2557.9816,N,08845.4758,W,1,9,1.8,6,M"
"##MN-00 00 29 0179 02175 4318 477194 360209 211"
"122.353692"
"$GPGGA,082919,2557.9798,N,08845.4763,W,1,9,1.8,7,M"
"##MN-00 00 27 0179 02176 4319 477210 360218 211"
"122.353738"
"$GPGGA,082923,2557.9780,N,08845.4767,W,1,9,1.8,7,M"
"##MN-00 00 27 0180 02174 4321 477309 360228 211"
"122.353785"
"$GPGGA,082927,2557.9761,N,08845.4771,W,1,9,1.8,7,M"
"##MN-00 00 27 0181 02182 4322 477331 360235 211"
"122.353831"
"$GPGGA,082931,2557.9744,N,08845.4777,W,1,9,1.8,8,M"
"##MN-00 00 27 0181 02190 4323 477350 360246 211"
"122.353877"
"$GPGGA,082935,2557.9726,N,08845.4780,W,1,9,1.8,8,M"
"##MN-00 00 25 0182 02189 4324 477364 360252 211"
"122.353924"
"$GPGGA,082939,2557.9709,N,08845.4783,W,1,9,1.8,8,M"
"##MN-00 00 27 0182 02193 4325 477385 360254 211"
"122.35397"
"$GPGGA,082943,2557.9691,N,08845.4787,W,1,9,1.8,9,M"
"##MN-00 00 27 0183 02204 4326 477427 360259 211"
"122.354016"
"$GPGGA,082947,2557.9673,N,08845.4790,W,1,9,1.8,9,M"
"##MN-00 00 24 0183 02206 4327 477426 360268 211"
"122.354063"
"$GPGGA,082951,2557.9655,N,08845.4791,W,1,9,1.8,9,M"
"##MN-00 00 25 0184 02204 4328 477491 360277 211"
"122.354109"
"$GPGGA,082955,2557.9637,N,08845.4794,W,1,9,1.8,9,M"
"##MN-00 00 29 0185 02212 4329 477510 360284 211"
"122.354155"
"$GPGGA,082959,2557.9615,N,08845.4794,W,1,8,2.0,9,M"
"##MN-00 00 26 0185 02212 4330 477576 360294 211"
"122.354201"
"$GPGGA,083003,2557.9596,N,08845.4798,W,1,9,1.8,9,M"
"##MN-00 00 27 0185 02220 4331 477578 360297 211"
"122.354248"
"$GPGGA,083007,2557.9576,N,08845.4799,W,1,8,2.0,9,M"
"##MN-00 00 28 0186 02222 4332 477609 360312 211"
"122.354294"
"$GPGGA,083011,2557.9555,N,08845.4798,W,1,9,1.8,9,M"
"##MN-00 00 28 0187 02228 4333 477686 360332 211"
"122.35434"
"$GPGGA,083015,2557.9536,N,08845.4800,W,1,9,1.8,9,M"
"##MN-00 00 26 0188 02224 4333 477774 360353 211"
"122.354387"
"$GPGGA,083019,2557.9514,N,08845.4804,W,1,9,1.8,9,M"
"##MN-00 00 27 0188 02231 4335 477815 360364 211"
"122.354433"
"$GPGGA,083023,2557.9491,N,08845.4806,W,1,9,1.8,9,M"
"##MN-00 00 28 0189 02233 4336 477832 360381 211"
"122.354479"
"$GPGGA,083027,2557.9468,N,08845.4809,W,1,9,1.8,9,M"
"##MN-00 00 29 0190 02237 4337 477882 360398 211"
"122.354525"
"$GPGGA,083032,2557.9440,N,08845.4812,W,1,9,1.8,9,M"
"##MN-00 00 29 0191 02237 4338 477860 360392 211"
"122.354572"
"$GPGGA,083035,2557.9422,N,08845.4813,W,1,9,1.8,9,M"
"##MN-00 00 27 0192 02233 4339 477920 360404 211"
"122.354618"
"$GPGGA,083039,2557.9397,N,08845.4815,W,1,9,1.8,9,M"
"##MN-00 00 30 0193 02233 4339 477866 360396 211"
"122.354664"
"$GPGGA,083044,2557.9370,N,08845.4823,W,1,9,1.8,9,M"
"##MN-00 00 31 0193 02239 4341 477836 360388 211"
"122.354711"
"$GPGGA,083047,2557.9349,N,08845.4823,W,1,9,1.8,9,M"
"##MN-00 00 29 0194 02233 4341 477825 360384 211"
"122.354757"
"$GPGGA,083051,2557.9323,N,08845.4830,W,1,9,1.8,9,M"
"##MN-00 00 32 0195 02234 4342 477827 360381 211"
"122.354803"
"$GPGGA,083056,2557.9291,N,08845.4835,W,1,9,1.8,9,M"
"##MN-00 00 32 0196 02237 4343 477784 360367 211"
"122.35485"
"$GPGGA,083059,2557.9270,N,08845.4838,W,1,9,1.8,9,M"
"##MN-00 00 34 0197 02233 4344 477751 360360 211"
"122.354896"
"$GPGGA,083104,2557.9236,N,08845.4839,W,1,9,2.0,9,M"
"##MN-00 00 35 0198 02238 4345 477789 360370 211"
"122.354942"
"$GPGGA,083108,2557.9214,N,08845.4845,W,1,9,1.8,9,M"
"##MN-00 00 36 0199 02238 4346 477838 360386 211"
"122.354988"
"$GPGGA,083112,2557.9186,N,08845.4848,W,1,9,1.8,9,M"
"##MN-00 00 36 0201 02241 4347 477864 360396 211"
"122.355035"
"$GPGGA,083116,2557.9164,N,08845.4852,W,1,9,1.8,9,M"
"##MN-00 00 36 0202 02241 4348 477885 360405 211"
"122.355081"
"$GPGGA,083120,2557.9136,N,08845.4856,W,1,9,1.8,9,M"
"##MN-00 00 36 0203 02243 4348 477961 360426 211"
"122.355127"
"$GPGGA,083124,2557.9108,N,08845.4860,W,1,9,1.8,9,M"
"##MN-00 00 37 0204 02244 4349 477867 360394 211"
"122.355174"
"$GPGGA,083128,2557.9081,N,08845.4866,W,1,9,2.0,9,M"
"##MN-00 00 38 0205 02241 4350 477832 360386 211"
"122.35522"
"$GPGGA,083132,2557.9053,N,08845.4866,W,1,9,1.8,9,M"
"##MN-00 00 38 0206 02242 4351 477831 360385 211"
"122.355266"
"$GPGGA,083136,2557.9024,N,08845.4867,W,1,9,1.8,9,M"
"##MN-00 00 38 0207 02244 4352 477859 360394 211"
"122.355313"
"$GPGGA,083140,2557.8996,N,08845.4869,W,1,9,1.8,9,M"
"##MN-00 00 40 0209 02247 4353 477977 360429 211"
"122.355359"
"$GPGGA,083144,2557.8971,N,08845.4872,W,1,9,1.8,9,M"
"##MN-00 00 42 0210 02252 4354 478043 360451 211"
"122.355405"
"$GPGGA,083148,2557.8947,N,08845.4874,W,1,9,1.8,9,M"
"##MN-00 00 40 0211 02250 4355 478173 360501 211"
"122.355451"
"$GPGGA,083152,2557.8923,N,08845.4875,W,1,9,2.0,9,M"
"##MN-00 00 41 0212 02262 4355 478282 360524 211"
"122.355498"
"$GPGGA,083156,2557.8900,N,08845.4879,W,1,9,1.8,9,M"
"##MN-00 00 39 0213 02263 4356 478417 360579 211"
"122.355544"
"$GPGGA,083200,2557.8875,N,08845.4882,W,1,9,1.7,9,M"
"##MN-00 00 40 0214 02269 4357 478618 360651 211"
"122.35559"
"$GPGGA,083204,2557.8853,N,08845.4885,W,1,9,1.7,9,M"
"##MN-00 00 40 0215 02274 4358 478810 360703 211"
"122.355637"
"$GPGGA,083208,2557.8831,N,08845.4888,W,1,9,1.7,9,M"
"##MN-00 00 38 0216 02276 4359 478905 360732 211"
"122.355683"
"$GPGGA,083212,2557.8808,N,08845.4890,W,1,9,1.7,9,M"
"##MN-00 00 41 0217 02287 4359 479034 360775 211"
"122.355729"
"$GPGGA,083216,2557.8789,N,08845.4892,W,1,9,2.0,9,M"
"##MN-00 00 37 0217 02295 4360 479185 360783 211"
"122.355775"
"$GPGGA,083220,2557.8770,N,08845.4896,W,1,9,1.7,9,M"
"##MN-00 00 37 0218 02296 4361 480335 361165 211"
"122.355833"
"$GPGGA,083224,2557.8750,N,08845.4897,W,1,9,1.7,9,M"
"##MN-00 00 39 0219 02310 4362 482029 361588 211"
"122.35588"
"$GPGGA,083228,2557.8732,N,08845.4902,W,1,9,1.7,9,M"
"##MN-00 00 38 0220 02316 4363 483778 362400 211"
"122.355926"
"$GPGGA,083232,2557.8714,N,08845.4903,W,1,9,1.7,9,M"
"##MN-00 00 38 0221 02323 4363 487011 363433 211"
"122.355972"
"$GPGGA,083236,2557.8698,N,08845.4906,W,1,9,1.7,9,M"
"##MN-00 00 36 0222 02327 4364 488662 364041 211"
"122.356019"
"$GPGGA,083240,2557.8680,N,08845.4907,W,1,9,1.7,9,M"
"##MN-00 00 37 0223 02337 4365 489575 364233 211"
"122.356065"
"$GPGGA,083244,2557.8665,N,08845.4910,W,1,9,1.7,9,M"
"##MN-00 00 34 0224 02342 4366 490116 364533 211"
"122.356111"
"$GPGGA,083248,2557.8647,N,08845.4911,W,1,9,1.7,9,M"
"##MN-00 00 30 0224 02342 4367 491331 364881 211"
"122.356157"
"$GPGGA,083252,2557.8629,N,08845.4909,W,1,9,1.7,9,M"
"##MN-00 00 36 0225 02348 4367 491676 365103 211"
"122.356204"
"$GPGGA,083256,2557.8611,N,08845.4909,W,1,9,1.7,9,M"
"##MN-00 00 35 0226 02355 4368 493913 365908 211"
"122.35625"
"$GPGGA,083300,2557.8593,N,08845.4909,W,1,9,1.7,9,M"
"##MN-00 00 33 0227 02363 4369 495673 366478 211"
"122.356296"
"$GPGGA,083304,2557.8577,N,08845.4911,W,1,9,1.7,9,M"
"##MN-00 00 31 0228 02358 4370 495583 366545 211"
"122.356343"
"$GPGGA,083308,2557.8554,N,08845.4918,W,1,9,1.7,9,M"
"##MN-00 00 34 0229 02354 4370 496205 366607 211"
"122.356389"
"$GPGGA,083312,2557.8536,N,08845.4923,W,1,9,1.7,9,M"
"##MN+00 00 34 0230 02358 4371 494739 366329 211"
"122.356435"
"$GPGGA,083316,2557.8512,N,08845.4926,W,1,9,2.0,9,M"
"##MN+00 00 36 0231 02344 4372 495026 366374 211"
"122.356481"
"$GPGGA,083320,2557.8492,N,08845.4927,W,1,9,1.7,9,M"
"##MN+00 00 34 0231 02347 4372 491195 365287 211"
"122.356528"
"$GPGGA,083324,2557.8468,N,08845.4931,W,1,9,1.7,9,M"
"##MN-00 00 32 0233 02332 4373 489944 364698 211"
"122.356574"
"$GPGGA,083328,2557.8442,N,08845.4932,W,1,9,1.7,9,M"
"##MN-00 00 34 0234 02330 4374 489237 364476 211"
"122.35662"
"$GPGGA,083332,2557.8420,N,08845.4939,W,1,9,2.0,9,M"
"##MN-00 00 33 0235 02321 4374 488246 364126 211"
"122.356667"
"$GPGGA,083336,2557.8395,N,08845.4942,W,1,9,2.0,9,M"
"##MN-00 00 36 0236 02321 4374 485833 363281 211"
"122.356713"
"#increment_net"
"$GPGGA,083340,2557.8373,N,08845.4947,W,1,8,1.7,9,M"
"##MN-00 00 34 0238 02305 4375 483710 362520 211"
"122.356759"
"$GPGGA,083344,2557.8346,N,08845.4951,W,1,9,1.7,10,"
"##MN-00 00 34 0239 02303 4375 482482 362124 211"
"122.356806"
"$GPGGA,083348,2557.8326,N,08845.4955,W,1,9,1.7,10,"
"##MN-00 00 36 0241 02293 4376 479627 361081 211"
"122.356852"
"$GPGGA,083352,2557.8293,N,08845.4960,W,1,9,1.7,10,"
"##MN-00 00 42 0243 02277 4376 479330 360948 211"
"122.356898"
"$GPGGA,083356,2557.8265,N,08845.4963,W,1,9,1.7,10,"
"##MN-00 00 38 0244 02279 4377 478915 360828 211"
"122.356944"
"$GPGGA,083400,2557.8233,N,08845.4970,W,1,9,1.7,11,"
"##MN-00 00 41 0245 02271 4377 478863 360776 211"
"122.356991"
"$GPGGA,083404,2557.8206,N,08845.4975,W,1,9,1.7,11,"
"##MN-00 00 38 0246 02271 4378 478786 360756 211"
"122.357037"
"$GPGGA,083408,2557.8181,N,08845.4982,W,1,8,1.7,11,"
"##MN-00 00 39 0248 02264 4378 478694 360709 211"
"122.357083"
"$GPGGA,083412,2557.8152,N,08845.4986,W,1,9,1.7,11,"
"##MN-00 00 41 0249 02264 4378 478638 360687 211"
"122.35713"
"$GPGGA,083416,2557.8127,N,08845.4990,W,1,9,1.7,11,"
"##MN-00 00 40 0251 02264 4379 478516 360646 211"
"122.357176"
"$GPGGA,083420,2557.8096,N,08845.4994,W,1,8,1.7,10,"
"##MN-00 00 42 0252 02259 4379 478510 360638 211"
"122.357222"
"$GPGGA,083424,2557.8073,N,08845.5000,W,1,9,1.7,10,"
"##MN-00 00 38 0253 02264 4379 478453 360617 211"
"122.357269"
"$GPGGA,083428,2557.8048,N,08845.5007,W,1,9,1.7,10,"
"##MN-00 00 39 0254 02271 4380 478439 360609 211"
"122.357315"
"$GPGGA,083432,2557.8024,N,08845.5014,W,1,9,1.7,10,"
"##MN-00 00 40 0256 02272 4380 478536 360638 211"
"122.357361"
"$GPGGA,083436,2557.7997,N,08845.5020,W,1,8,1.9,10,"
"##MN-00 00 39 0257 02276 4381 478591 360651 211"
"122.357407"
"$GPGGA,083440,2557.7973,N,08845.5025,W,1,8,1.7,10,"
"##MN-00 00 39 0258 02279 4381 478691 360678 211"
"122.357454"
"$GPGGA,083444,2557.7954,N,08845.5030,W,1,9,1.7,10,"
"##MN-00 00 40 0259 02280 4382 478820 360722 211"
"122.3575"
"$GPGGA,083448,2557.7926,N,08845.5036,W,1,9,1.7,10,"
"##MN-00 00 40 0260 02283 4382 478845 360730 211"
"122.357546"
"$GPGGA,083452,2557.7903,N,08845.5040,W,1,9,1.7,9,M"
"##MN-00 00 37 0261 02288 4382 478817 360722 211"
"122.357593"
"$GPGGA,083456,2557.7878,N,08845.5045,W,1,9,1.7,9,M"
"##MN-00 00 39 0262 02282 4383 478828 360725 211"
"122.357639"
"$GPGGA,083500,2557.7852,N,08845.5051,W,1,9,1.7,9,M"
"##MN-00 00 40 0263 02290 4383 478833 360727 211"
"122.357685"
"$GPGGA,083504,2557.7831,N,08845.5056,W,1,9,1.7,9,M"
"##MN-00 00 38 0264 02289 4384 478819 360722 211"
"122.357732"
"$GPGGA,083508,2557.7805,N,08845.5063,W,1,9,1.7,8,M"
"##MN-00 00 43 0266 02288 4384 478905 360743 211"
"122.357778"
"$GPGGA,083512,2557.7784,N,08845.5069,W,1,9,1.7,8,M"
"##MN-00 00 38 0267 02296 4385 478911 360748 211"
"122.357824"
"$GPGGA,083516,2557.7756,N,08845.5073,W,1,8,1.7,8,M"
"##MN-00 00 41 0268 02295 4385 478968 360765 211"
"122.35787"
"$GPGGA,083520,2557.7734,N,08845.5079,W,1,9,1.7,8,M"
"##MN-00 00 39 0269 02303 4386 479000 360776 211"
"122.357917"
"$GPGGA,083524,2557.7710,N,08845.5087,W,1,9,1.7,8,M"
"##MN-00 00 40 0270 02302 4386 479087 360802 211"
"122.357963"
"$GPGGA,083528,2557.7688,N,08845.5091,W,1,9,1.7,8,M"
"##MN-00 00 38 0271 02310 4387 479824 361038 211"
"122.358009"
"$GPGGA,083533,2557.7662,N,08845.5098,W,1,9,1.7,8,M"
"##MN-00 00 38 0273 02313 4387 480031 361115 211"
"122.358056"
"$GPGGA,083536,2557.7643,N,08845.5105,W,1,9,1.7,8,M"
"##MN-00 00 37 0274 02320 4387 481439 361617 211"
"122.358102"
"$GPGGA,083540,2557.7622,N,08845.5110,W,1,9,1.7,8,M"
"##MN-00 00 37 0275 02320 4388 481576 361671 211"
"122.358148"
"$GPGGA,083545,2557.7592,N,08845.5119,W,1,9,1.9,8,M"
"##MN-00 00 38 0276 02318 4389 482081 361848 211"
"122.358194"
"$GPGGA,083549,2557.7570,N,08845.5126,W,1,9,1.7,8,M"
"##MN-00 00 35 0277 02321 4389 481075 361466 211"
"122.358241"
"$GPGGA,083553,2557.7546,N,08845.5133,W,1,9,1.7,8,M"
"##MN-00 00 39 0279 02315 4390 481449 361619 211"
"122.358287"
"$GPGGA,083557,2557.7524,N,08845.5137,W,1,9,1.7,8,M"
"##MN-00 00 38 0280 02320 4390 481592 361699 211"
"122.358333"
"$GPGGA,083601,2557.7500,N,08845.5145,W,1,9,1.7,8,M"
"##MN-00 00 37 0281 02324 4390 482058 361866 211"
"122.35838"
"$GPGGA,083605,2557.7477,N,08845.5151,W,1,9,1.7,8,M"
"##MN-00 00 37 0282 02327 4391 482350 361975 211"
"122.358426"
"$GPGGA,083609,2557.7455,N,08845.5158,W,1,9,1.9,8,M"
"##MN-00 00 36 0284 02326 4391 482801 362131 211"
"122.358472"
"$GPGGA,083613,2557.7434,N,08845.5164,W,1,9,1.7,8,M"
"##MN-00 00 37 0285 02333 4392 482907 362178 211"
"122.358519"
"$GPGGA,083617,2557.7413,N,08845.5171,W,1,9,1.7,8,M"
"##MN-00 00 40 0287 02319 4392 483571 362369 211"
"122.358565"
"$GPGGA,083621,2557.7394,N,08845.5177,W,1,9,1.7,8,M"
"##MN-00 00 36 0287 02326 4392 482294 361880 211"
"122.358611"
"$GPGGA,083625,2557.7366,N,08845.5183,W,1,9,1.7,8,M"
"##MN-00 00 37 0288 02323 4393 481278 361608 211"
"122.358657"
"$GPGGA,083629,2557.7341,N,08845.5188,W,1,9,1.7,8,M"
"##MN-00 00 37 0289 02321 4393 481657 361721 211"
"122.358704"
"$GPGGA,083633,2557.7318,N,08845.5189,W,1,8,1.9,8,M"
"##MN-00 00 39 0290 02318 4394 481681 361734 211"
"122.35875"
"$GPGGA,083637,2557.7293,N,08845.5193,W,1,9,1.7,8,M"
"##MN-00 00 36 0291 02323 4394 481422 361542 211"
"122.358796"
"$GPGGA,083641,2557.7276,N,08845.5196,W,1,8,1.9,8,M"
"##MN-00 00 36 0292 02318 4395 480762 361393 211"
"122.358843"
"$GPGGA,083645,2557.7253,N,08845.5199,W,1,9,1.7,9,M"
"##MN-00 00 37 0294 02316 4395 481667 361707 211"
"122.358889"
"$GPGGA,083649,2557.7234,N,08845.5203,W,1,9,1.7,9,M"
"##MN-00 00 33 0295 02321 4395 480367 361226 211"
"122.358935"
"$GPGGA,083653,2557.7207,N,08845.5207,W,1,8,1.9,9,M"
"##MN-00 00 34 0296 02313 4396 480942 361421 211"
"122.358981"
"$GPGGA,083657,2557.7185,N,08845.5209,W,1,8,1.9,9,M"
"##MN-00 00 36 0297 02316 4396 480336 361258 211"
"122.359028"
"$GPGGA,083701,2557.7162,N,08845.5213,W,1,9,1.7,9,M"
"##MN-00 00 39 0299 02312 4397 480345 361252 211"
"122.359086"
"$GPGGA,083705,2557.7141,N,08845.5215,W,1,9,1.7,9,M"
"##MN-00 00 38 0300 02310 4397 480412 361258 211"
"122.359132"
"$GPGGA,083709,2557.7121,N,08845.5221,W,1,9,1.7,9,M"
"##MN-00 00 39 0301 02309 4397 480621 361302 211"
"122.359178"
"$GPGGA,083713,2557.7101,N,08845.5223,W,1,8,1.9,9,M"
"##MN-00 00 40 0302 02302 4398 480480 361273 211"
"122.359225"
"$GPGGA,083717,2557.7080,N,08845.5231,W,1,9,1.7,9,M"
"##MN-00 00 37 0303 02310 4398 480698 361336 211"
"122.359271"
"$GPGGA,083721,2557.7061,N,08845.5235,W,1,9,1.7,9,M"
"##MN-00 00 37 0304 02307 4399 480231 361205 211"
"122.359317"
"$GPGGA,083725,2557.7036,N,08845.5239,W,1,8,1.9,9,M"
"##MN-00 00 37 0306 02305 4399 481349 361464 211"
"122.359363"
"$GPGGA,083729,2557.7015,N,08845.5242,W,1,9,1.7,9,M"
"##MN-00 00 35 0306 02310 4399 480281 361193 211"
"122.35941"
"$GPGGA,083733,2557.6993,N,08845.5249,W,1,9,1.7,9,M"
"##MN-00 00 35 0308 02304 4400 480899 361440 211"
"122.359456"
"$GPGGA,083737,2557.6975,N,08845.5253,W,1,9,1.7,9,M"
"##MN-00 00 36 0309 02302 4400 480312 361247 211"
"122.359502"
"$GPGGA,083741,2557.6953,N,08845.5259,W,1,9,1.7,9,M"
"##MN-00 00 37 0310 02298 4401 480823 361410 211"
"122.359549"
"$GPGGA,083745,2557.6932,N,08845.5264,W,1,9,1.7,10,"
"##MN-00 00 34 0312 02303 4401 480141 361192 210"
"122.359595"
"$GPGGA,083749,2557.6909,N,08845.5271,W,1,9,1.7,10,"
"##MN-00 00 37 0313 02296 4401 480381 361259 211"
"122.359641"
"$GPGGA,083753,2557.6888,N,08845.5272,W,1,9,1.7,10,"
"##MN-00 00 36 0314 02304 4402 480311 361223 210"
"122.359687"
"$GPGGA,083757,2557.6867,N,08845.5275,W,1,9,1.7,10,"
"##MN-00 00 34 0315 02295 4403 480157 361173 211"
"122.359734"
"$GPGGA,083801,2557.6843,N,08845.5276,W,1,9,1.7,10,"
"##MN-00 00 36 0316 02294 4403 480459 361243 210"
"122.35978"
"$GPGGA,083805,2557.6825,N,08845.5280,W,1,8,1.9,10,"
"##MN-00 00 36 0318 02293 4403 479978 361119 210"
"122.359826"
"$GPGGA,083809,2557.6803,N,08845.5289,W,1,9,1.7,10,"
"##MN-00 00 36 0319 02291 4403 480352 361243 211"
"122.359873"
"$GPGGA,083813,2557.6785,N,08845.5293,W,1,8,1.9,10,"
"##MN-00 00 32 0320 02291 4404 479760 361027 210"
"122.359919"
"$GPGGA,083817,2557.6760,N,08845.5296,W,1,9,1.7,10,"
"##MN-00 00 38 0321 02283 4404 480172 361163 211"
"122.359965"
"$GPGGA,083821,2557.6740,N,08845.5298,W,1,9,1.7,10,"
"##MN-00 00 34 0323 02288 4404 479535 360975 210"
"122.360012"
"$GPGGA,083825,2557.6715,N,08845.5303,W,1,9,1.7,10,"
"##MN-00 00 37 0324 02283 4405 479727 361028 211"
"122.360058"
"$GPGGA,083829,2557.6693,N,08845.5305,W,1,9,1.7,10,"
"##MN-00 00 38 0325 02280 4405 479348 360904 210"
"122.360104"
"$GPGGA,083833,2557.6667,N,08845.5311,W,1,8,1.9,10,"
"##MN-00 00 36 0326 02281 4406 479412 360911 210"
"122.36015"
"$GPGGA,083837,2557.6647,N,08845.5312,W,1,9,1.7,10,"
"##MN-00 00 33 0327 02283 4406 479045 360806 210"
"122.360197"
"$GPGGA,083841,2557.6621,N,08845.5315,W,1,9,1.7,10,"
"##MN-00 00 36 0329 02275 4406 479157 360834 210"
"122.360243"
"$GPGGA,083845,2557.6599,N,08845.5318,W,1,9,1.7,9,M"
"##MN-00 00 37 0330 02274 4407 478978 360783 210"
"122.360289"
"$GPGGA,083849,2557.6577,N,08845.5322,W,1,9,1.7,9,M"
"##MN-00 00 37 0331 02275 4407 478925 360767 210"
"122.360336"
"$GPGGA,083853,2557.6555,N,08845.5325,W,1,9,1.7,9,M"
"##MN-00 00 37 0333 02268 4408 478921 360762 210"
"122.360382"
"$GPGGA,083857,2557.6534,N,08845.5325,W,1,9,1.7,9,M"
"##MN-00 00 35 0334 02272 4408 478918 360762 210"
"122.360428"
"$GPGGA,083901,2557.6513,N,08845.5327,W,1,9,1.7,9,M"
"##MN-00 00 34 0335 02270 4408 478874 360748 210"
"122.360475"
"$GPGGA,083905,2557.6489,N,08845.5329,W,1,9,1.7,9,M"
"##MN-00 00 34 0336 02265 4409 478884 360750 210"
"122.360521"
"$GPGGA,083909,2557.6469,N,08845.5330,W,1,9,1.7,9,M"
"##MN-00 00 36 0337 02263 4409 478870 360747 210"
"122.360567"
"$GPGGA,083913,2557.6444,N,08845.5332,W,1,9,1.7,9,M"
"##MN-00 00 34 0339 02263 4410 478862 360744 210"
"122.360613"
"$GPGGA,083917,2557.6422,N,08845.5332,W,1,9,1.7,9,M"
"##MN-00 00 41 0340 02254 4410 478867 360744 210"
"122.36066"
"$GPGGA,083921,2557.6400,N,08845.5333,W,1,8,1.9,9,M"
"##MN-00 00 36 0341 02262 4410 478839 360731 210"
"122.360706"
"$GPGGA,083925,2557.6380,N,08845.5338,W,1,9,1.7,8,M"
"##MN-00 00 35 0342 02259 4410 478814 360730 210"
"122.360752"
"$GPGGA,083929,2557.6357,N,08845.5343,W,1,9,1.7,8,M"
"##MN+00 00 33 0343 02260 4411 478822 360731 210"
"122.360799"
"$GPGGA,083933,2557.6336,N,08845.5347,W,1,9,1.7,8,M"
"##MN+00 00 39 0345 02248 4412 478792 360719 211"
"122.360845"
"$GPGGA,083937,2557.6313,N,08845.5347,W,1,9,1.7,8,M"
"##MN+00 00 34 0346 02258 4412 478721 360690 211"
"122.360891"
"$GPGGA,083941,2557.6292,N,08845.5348,W,1,9,1.7,8,M"
"##MN-00 00 38 0347 02246 4412 478573 360650 211"
"122.360938"
"$GPGGA,083945,2557.6266,N,08845.5347,W,1,9,1.7,8,M"
"##MN-00 00 38 0348 02244 4412 478582 360655 211"
"122.360984"
"$GPGGA,083950,2557.6241,N,08845.5352,W,1,9,1.7,9,M"
"##MN-00 00 37 0350 02241 4413 478449 360611 210"
"122.36103"
"#increment_net"
"$GPGGA,083953,2557.6220,N,08845.5352,W,1,9,1.7,9,M"
"##MN-00 00 38 0351 02242 4413 478515 360631 210"
"122.361076"
"$GPGGA,083957,2557.6200,N,08845.5355,W,1,9,1.8,9,M"
"##MN-00 00 39 0352 02242 4413 478242 360538 210"
"122.361123"
"$GPGGA,084001,2557.6174,N,08845.5358,W,1,9,1.7,9,M"
"##MN-00 00 34 0353 02238 4414 478326 360563 210"
"122.361169"
"$GPGGA,084005,2557.6153,N,08845.5359,W,1,9,1.7,9,M"
"##MN-00 00 38 0355 02235 4414 478247 360537 210"
"122.361215"
"$GPGGA,084009,2557.6129,N,08845.5361,W,1,9,1.7,9,M"
"##MN-00 00 37 0356 02237 4415 478172 360512 210"
"122.361262"
"$GPGGA,084014,2557.6101,N,08845.5365,W,1,9,1.7,9,M"
"##MN-00 00 37 0357 02232 4415 478140 360500 210"
"122.361308"
"$GPGGA,084018,2557.6078,N,08845.5366,W,1,9,1.9,9,M"
"##MN-00 00 37 0358 02237 4416 478075 360475 210"
"122.361354"
"$GPGGA,084022,2557.6058,N,08845.5368,W,1,9,1.7,9,M"
"##MN-00 00 37 0360 02233 4416 478018 360453 210"
"122.3614"
"$GPGGA,084026,2557.6036,N,08845.5369,W,1,9,1.7,9,M"
"##MN-00 00 39 0361 02229 4416 478001 360446 210"
"122.361447"
"$GPGGA,084030,2557.6013,N,08845.5369,W,1,9,1.7,9,M"
"##MN-00 00 36 0362 02228 4417 477940 360421 210"
"122.361493"
"$GPGGA,084034,2557.5990,N,08845.5372,W,1,9,1.7,9,M"
"##MN-00 00 39 0363 02229 4417 477780 360369 210"
"122.361539"
"$GPGGA,084038,2557.5967,N,08845.5372,W,1,9,1.7,9,M"
"##MN-00 00 37 0364 02222 4418 477890 360407 210"
"122.361586"
"$GPGGA,084042,2557.5945,N,08845.5373,W,1,9,1.7,9,M"
"##MN-00 00 37 0365 02230 4418 477732 360355 210"
"122.361632"
"$GPGGA,084046,2557.5924,N,08845.5376,W,1,9,1.8,9,M"
"##MN-00 00 35 0366 02218 4419 477752 360357 210"
"122.361678"
"$GPGGA,084050,2557.5901,N,08845.5379,W,1,9,1.7,9,M"
"##MN-00 00 38 0367 02222 4419 477728 360348 210"
"122.361725"
"$GPGGA,084054,2557.5880,N,08845.5381,W,1,9,1.9,9,M"
"##MN-00 00 35 0368 02219 4420 477698 360340 210"
"122.361771"
"$GPGGA,084058,2557.5858,N,08845.5384,W,1,9,1.8,9,M"
"##MN-00 00 36 0370 02222 4420 477709 360342 210"
"122.361817"
"$GPGGA,084102,2557.5837,N,08845.5387,W,1,9,1.7,9,M"
"##MN-00 00 36 0371 02220 4420 477695 360339 210"
"122.361863"
"$GPGGA,084106,2557.5817,N,08845.5389,W,1,9,1.7,9,M"
"##MN-00 00 36 0372 02224 4421 477696 360338 210"
"122.36191"
"$GPGGA,084110,2557.5797,N,08845.5390,W,1,9,1.7,9,M"
"##MN-00 00 35 0373 02221 4421 477692 360337 210"
"122.361956"
"$GPGGA,084114,2557.5775,N,08845.5394,W,1,9,1.7,9,M"
"##MN-00 00 36 0374 02220 4422 477690 360336 210"
"122.362002"
"$GPGGA,084118,2557.5752,N,08845.5397,W,1,9,1.7,9,M"
"##MN-00 00 34 0376 02217 4422 477690 360336 210"
"122.362049"
"$GPGGA,084122,2557.5730,N,08845.5399,W,1,9,1.7,9,M"
"##MN-00 00 37 0377 02217 4423 477688 360335 210"
"122.362095"
"$GPGGA,084126,2557.5710,N,08845.5402,W,1,9,1.7,9,M"
"##MN-00 00 34 0377 02218 4423 477626 360325 210"
"122.362141"
"$GPGGA,084130,2557.5686,N,08845.5406,W,1,9,1.7,9,M"
"##MN-00 00 32 0379 02215 4423 477590 360314 210"
"122.362188"
"$GPGGA,084134,2557.5664,N,08845.5408,W,1,9,1.7,9,M"
"##MN-00 00 34 0380 02207 4424 477575 360310 210"
"122.362245"
"$GPGGA,084138,2557.5639,N,08845.5409,W,1,9,1.6,9,M"
"##MN-00 00 36 0381 02205 4424 477579 360311 210"
"122.362292"
"$GPGGA,084142,2557.5617,N,08845.5410,W,1,9,1.6,9,M"
"##MN-00 00 36 0383 02202 4424 477528 360299 210"
"122.362338"
"$GPGGA,084146,2557.5592,N,08845.5411,W,1,9,1.6,9,M"
"##MN-00 00 36 0384 02203 4425 477529 360300 210"
"122.362384"
"$GPGGA,084150,2557.5573,N,08845.5413,W,1,8,1.6,9,M"
"##MN-00 00 36 0385 02203 4425 477508 360294 210"
"122.362431"
"$GPGGA,084154,2557.5551,N,08845.5417,W,1,9,1.6,9,M"
"##MN-00 00 33 0386 02199 4426 477513 360295 210"
"122.362477"
"$GPGGA,084158,2557.5530,N,08845.5423,W,1,9,1.6,9,M"
"##MN-00 00 36 0387 02204 4426 477507 360294 210"
"122.362523"
"$GPGGA,084202,2557.5509,N,08845.5426,W,1,9,1.6,9,M"
"##MN-00 00 35 0388 02205 4427 477507 360293 210"
"122.362569"
"$GPGGA,084206,2557.5490,N,08845.5427,W,1,9,1.6,9,M"
"##MN-00 00 34 0390 02201 4427 477501 360292 210"
"122.362616"
"$GPGGA,084210,2557.5468,N,08845.5428,W,1,9,1.6,9,M"
"##MN-00 00 34 0391 02198 4427 477496 360291 210"
"122.362662"
"$GPGGA,084214,2557.5448,N,08845.5431,W,1,9,1.6,9,M"
"##MN-00 00 34 0392 02200 4428 477474 360287 210"
"122.362708"
"$GPGGA,084218,2557.5426,N,08845.5434,W,1,9,1.6,9,M"
"##MN-00 00 32 0393 02196 4428 477437 360279 210"
"122.362755"
"$GPGGA,084222,2557.5403,N,08845.5434,W,1,9,1.6,9,M"
"##MN-00 00 33 0394 02193 4429 477406 360274 210"
"122.362801"
"$GPGGA,084226,2557.5380,N,08845.5437,W,1,9,1.6,9,M"
"##MN-00 00 34 0395 02195 4429 477365 360264 210"
"122.362847"
"$GPGGA,084230,2557.5358,N,08845.5438,W,1,9,1.6,9,M"
"##MN-00 00 35 0397 02185 4430 477342 360256 210"
"122.362894"
"$GPGGA,084234,2557.5335,N,08845.5439,W,1,9,1.6,9,M"
"##MN-00 00 36 0397 02182 4430 477325 360249 210"
"122.36294"
"$GPGGA,084238,2557.5313,N,08845.5438,W,1,9,1.6,9,M"
"##MN-00 00 35 0398 02187 4431 477285 360241 210"
"122.362986"
"$GPGGA,084242,2557.5293,N,08845.5439,W,1,9,1.6,9,M"
"##MN-00 00 34 0399 02181 4431 477306 360244 210"
"122.363032"
"$GPGGA,084246,2557.5273,N,08845.5441,W,1,9,1.6,9,M"
"##MN-00 00 35 0400 02191 4432 477305 360244 210"
"122.363079"
"$GPGGA,084250,2557.5252,N,08845.5441,W,1,8,1.6,9,M"
"##MN-00 00 29 0401 02185 4432 477289 360242 210"
"122.363125"
"$GPGGA,084254,2557.5229,N,08845.5444,W,1,9,1.6,9,M"
"##MN-00 00 32 0402 02184 4432 477289 360240 210"
"122.363171"
"$GPGGA,084258,2557.5209,N,08845.5445,W,1,9,1.6,9,M"
"##MN-00 00 33 0404 02181 4433 477280 360239 210"
"122.363218"
"$GPGGA,084302,2557.5186,N,08845.5447,W,1,9,1.6,9,M"
"##MN-00 00 33 0404 02182 4433 477278 360239 210"
"122.363264"
"$GPGGA,084306,2557.5168,N,08845.5449,W,1,9,1.6,9,M"
"##MN-00 00 32 0404 02182 4434 477214 360238 210"
"122.36331"
"$GPGGA,084310,2557.5144,N,08845.5451,W,1,9,1.6,9,M"
"##MN-00 00 32 0406 02175 4434 477239 360238 210"
"122.363356"
"$GPGGA,084314,2557.5125,N,08845.5452,W,1,9,1.6,9,M"
"##MN-00 00 33 0407 02181 4435 477216 360238 210"
"122.363403"
"$GPGGA,084318,2557.5101,N,08845.5453,W,1,9,1.6,9,M"
"##MN-00 00 31 0408 02173 4435 477191 360235 210"
"122.363449"
"$GPGGA,084322,2557.5081,N,08845.5455,W,1,9,1.6,9,M"
"##MN-00 00 32 0409 02171 4435 477154 360230 210"
"122.363495"
"$GPGGA,084326,2557.5060,N,08845.5453,W,1,9,1.6,9,M"
"##MN-00 00 32 0410 02169 4436 477101 360221 210"
"122.363542"
"$GPGGA,084330,2557.5039,N,08845.5454,W,1,9,1.6,8,M"
"##MN-00 00 33 0411 02165 4436 477039 360210 210"
"122.363588"
"$GPGGA,084334,2557.5018,N,08845.5454,W,1,9,1.6,8,M"
"##MN+00 00 32 0412 02155 4437 477040 360211 210"
"122.363634"
"$GPGGA,084338,2557.4998,N,08845.5454,W,1,8,1.8,8,M"
"##MN+00 00 33 0413 02156 4437 476976 360197 210"
"122.363681"
"$GPGGA,084342,2557.4980,N,08845.5456,W,1,9,1.6,8,M"
"##MN+00 00 30 0415 02151 4437 476786 360174 210"
"122.363727"
"$GPGGA,084346,2557.4957,N,08845.5457,W,1,8,1.6,9,M"
"##MN-00 00 34 0416 02145 4438 476632 360157 210"
"122.363773"
"$GPGGA,084350,2557.4937,N,08845.5459,W,1,9,1.6,9,M"
"##MN-00 00 32 0417 02146 4439 476565 360143 210"
"122.363819"
"$GPGGA,084354,2557.4913,N,08845.5462,W,1,9,1.6,9,M"
"##MN-00 00 32 0418 02147 4439 476531 360135 210"
"122.363866"
"#increment_net"
"$GPGGA,084358,2557.4893,N,08845.5460,W,1,9,1.6,9,M"
"##MN-00 00 31 0419 02134 4440 476521 360132 210"
"122.363912"
"$GPGGA,084402,2557.4872,N,08845.5463,W,1,9,1.6,9,M"
"##MN-00 00 31 0420 02138 4440 476509 360131 210"
"122.363958"
"$GPGGA,084406,2557.4852,N,08845.5466,W,1,9,1.6,9,M"
"##MN-00 00 30 0421 02133 4440 476412 360119 210"
"122.364005"
"$GPGGA,084410,2557.4836,N,08845.5467,W,1,9,1.6,9,M"
"##MN-00 00 30 0422 02126 4441 476435 360119 210"
"122.364051"
"$GPGGA,084414,2557.4811,N,08845.5470,W,1,9,1.6,9,M"
"##MN-00 00 29 0423 02127 4441 476387 360113 210"
"122.364097"
"$GPGGA,084418,2557.4793,N,08845.5472,W,1,9,1.6,9,M"
"##MN-00 00 30 0424 02119 4441 476357 360108 210"
"122.364144"
"$GPGGA,084422,2557.4773,N,08845.5475,W,1,9,1.6,9,M"
"##MN-00 00 32 0425 02118 4442 476276 360092 210"
"122.36419"
"$GPGGA,084426,2557.4744,N,08845.5476,W,1,9,1.8,9,M"
"##MN-00 00 30 0426 02113 4442 475111 359795 210"
"122.364236"
"$GPGGA,084430,2557.4724,N,08845.5478,W,1,8,1.8,9,M"
"##MN-00 00 31 0427 02111 4443 475434 359905 210"
"122.364282"
"$GPGGA,084434,2557.4707,N,08845.5481,W,1,9,1.6,9,M"
"##MN-00 00 25 0429 02107 4443 473585 359397 210"
"122.364329"
"$GPGGA,084438,2557.4682,N,08845.5485,W,1,9,1.6,9,M"
"##MN-00 00 33 0429 02091 4443 473409 359257 210"
"122.364375"
"$GPGGA,084442,2557.4660,N,08845.5488,W,1,9,1.6,9,M"
"##MN-00 00 32 0430 02096 4444 472015 358940 210"
"122.364421"
"$GPGGA,084446,2557.4632,N,08845.5491,W,1,9,1.6,10,"
"##MN-00 00 30 0431 02090 4444 471906 358846 210"
"122.364468"
"$GPGGA,084451,2557.4603,N,08845.5492,W,1,9,1.6,10,"
"##MN-00 00 31 0432 02093 4445 472022 358883 210"
"122.364514"
"$GPGGA,084455,2557.4580,N,08845.5495,W,1,9,1.6,10,"
"##MN-00 00 32 0434 02090 4445 472025 358879 210"
"122.36456"
"$GPGGA,084459,2557.4554,N,08845.5495,W,1,9,1.6,10,"
"##MN-00 00 31 0434 02098 4446 472172 358894 210"
"122.364606"
"$GPGGA,084503,2557.4534,N,08845.5499,W,1,9,1.6,10,"
"##MN-00 00 25 0435 02089 4447 471808 358830 210"
"122.364653"
"$GPGGA,084507,2557.4508,N,08845.5499,W,1,9,1.6,10,"
"##MN-00 00 34 0436 02079 4447 471945 358809 210"
"122.364699"
"$GPGGA,084511,2557.4483,N,08845.5500,W,1,9,1.6,10,"
"##MN-00 00 34 0437 02087 4447 471713 358763 210"
"122.364745"
"$GPGGA,084515,2557.4457,N,08845.5502,W,1,9,1.6,10,"
"##MN-00 00 32 0438 02078 4448 471719 358756 210"
"122.364792"
"$GPGGA,084519,2557.4428,N,08845.5502,W,1,9,1.6,10,"
"##MN-00 00 36 0439 02081 4448 471838 358785 210"
"122.364838"
"$GPGGA,084523,2557.4404,N,08845.5504,W,1,9,1.6,10,"
"##MN-00 00 36 0441 02079 4449 471766 358776 210"
"122.364884"
"$GPGGA,084527,2557.4381,N,08845.5506,W,1,9,1.6,10,"
"##MN-00 00 37 0442 02081 4449 471882 358812 210"
"122.364931"
"$GPGGA,084531,2557.4361,N,08845.5507,W,1,9,1.6,9,M"
"##MN-00 00 35 0443 02082 4450 471930 358822 210"
"122.364977"
"$GPGGA,084535,2557.4337,N,08845.5509,W,1,9,1.6,9,M"
"##MN-00 00 36 0444 02079 4450 472041 358857 210"
"122.365023"
"$GPGGA,084539,2557.4313,N,08845.5509,W,1,9,1.6,9,M"
"##MN-00 00 36 0446 02083 4451 472134 358878 210"
"122.365069"
"$GPGGA,084543,2557.4290,N,08845.5511,W,1,9,1.6,9,M"
"##MN-00 00 35 0447 02079 4452 472067 358860 210"
"122.365116"
"$GPGGA,084547,2557.4265,N,08845.5513,W,1,9,1.6,9,M"
"##MN-00 00 36 0448 02082 4452 472285 358915 210"
"122.365162"
"$GPGGA,084551,2557.4244,N,08845.5516,W,1,9,1.6,9,M"
"##MN-00 00 34 0449 02085 4453 472161 358894 210"
"122.365208"
"$GPGGA,084555,2557.4216,N,08845.5517,W,1,9,1.6,9,M"
"##MN-00 00 35 0450 02083 4453 472437 358971 210"
"122.365255"
"$GPGGA,084559,2557.4196,N,08845.5518,W,1,9,1.6,9,M"
"##MN-00 00 35 0451 02088 4454 472296 358941 210"
"122.365301"
"$GPGGA,084603,2557.4171,N,08845.5520,W,1,9,1.6,9,M"
"##MN-00 00 34 0453 02080 4454 472533 359003 210"
"122.365359"
"$GPGGA,084607,2557.4149,N,08845.5521,W,1,9,1.6,9,M"
"##MN-00 00 34 0453 02091 4455 472770 359045 210"
"122.365405"
"$GPGGA,084611,2557.4128,N,08845.5524,W,1,9,1.6,9,M"
"##MN-00 00 34 0455 02087 4455 472668 359036 210"
"122.365451"
"$GPGGA,084615,2557.4102,N,08845.5527,W,1,9,1.6,9,M"
"##MN-00 00 34 0456 02087 4456 472938 359128 210"
"122.365498"
"$GPGGA,084619,2557.4081,N,08845.5529,W,1,9,1.6,9,M"
"##MN-00 00 33 0457 02089 4457 472571 359030 210"
"122.365544"
"$GPGGA,084623,2557.4052,N,08845.5531,W,1,8,1.8,9,M"
"##MN-00 00 34 0458 02087 4457 473101 359165 210"
"122.36559"
"$GPGGA,084627,2557.4028,N,08845.5532,W,1,8,1.8,8,M"
"##MN-00 00 34 0459 02090 4458 472656 359044 210"
"122.365637"
"$GPGGA,084631,2557.3997,N,08845.5536,W,1,8,1.8,8,M"
"##MN-00 00 32 0461 02083 4458 472768 359079 210"
"122.365683"
"$GPGGA,084635,2557.3971,N,08845.5538,W,1,8,1.8,8,M"
"##MN-00 00 34 0462 02081 4459 472359 358963 210"
"122.365729"
"$GPGGA,084639,2557.3943,N,08845.5539,W,1,8,1.8,8,M"
"##MN-00 00 34 0463 02079 4459 472473 358999 210"
"122.365775"
"$GPGGA,084643,2557.3922,N,08845.5542,W,1,8,1.6,8,M"
"##MN-00 00 36 0465 02079 4460 472411 358977 210"
"122.365822"
"$GPGGA,084647,2557.3898,N,08845.5544,W,1,9,1.6,8,M"
"##MN-00 00 36 0466 02077 4461 472403 358972 210"
"122.365868"
"$GPGGA,084651,2557.3875,N,08845.5544,W,1,9,1.6,8,M"
"##MN-00 00 38 0467 02071 4461 472402 358957 210"
"122.365914"
"$GPGGA,084655,2557.3848,N,08845.5546,W,1,9,1.6,8,M"
"##MN-00 00 38 0469 02074 4462 472174 358876 210"
"122.365961"
"$GPGGA,084659,2557.3825,N,08845.5549,W,1,9,1.6,8,M"
"##MN-00 00 36 0470 02072 4463 471748 358778 210"
"122.366007"
"$GPGGA,084703,2557.3801,N,08845.5551,W,1,9,1.6,8,M"
"##MN-00 00 37 0471 02069 4463 471630 358738 210"
"122.366053"
"$GPGGA,084707,2557.3777,N,08845.5553,W,1,7,2.1,8,M"
"##MN-00 00 36 0473 02067 4464 471843 358798 210"
"122.3661"
"$GPGGA,084711,2557.3753,N,08845.5558,W,1,8,1.8,8,M"
"##MN+00 00 36 0474 02071 4464 471567 358724 210"
"122.366146"
"$GPGGA,084715,2557.3732,N,08845.5563,W,1,8,1.8,8,M"
"##MN+00 00 32 0475 02062 4465 471334 358653 210"
"122.366192"
"$GPGGA,084719,2557.3707,N,08845.5564,W,1,8,1.8,8,M"
"##MN+00 00 37 0477 02065 4466 471153 358593 210"
"122.366238"
"$GPGGA,084723,2557.3687,N,08845.5567,W,1,8,1.8,8,M"
"##MN-00 00 38 0478 02058 4466 470945 358530 210"
"122.366285"
"#increment_net"
"$GPGGA,084727,2557.3661,N,08845.5565,W,1,8,1.8,8,M"
"##MN-00 00 37 0479 02057 4467 471083 358533 210"
"122.366331"
"$GPGGA,084731,2557.3640,N,08845.5565,W,1,8,1.8,9,M"
"##MN-00 00 38 0481 02059 4467 470617 358418 210"
"122.366377"
"$GPGGA,084735,2557.3613,N,08845.5567,W,1,8,1.8,9,M"
"##MN-00 00 37 0482 02051 4468 470662 358433 210"
"122.366424"
"$GPGGA,084739,2557.3593,N,08845.5567,W,1,8,1.8,9,M"
"##MN-00 00 38 0483 02054 4469 470058 358226 210"
"122.36647"
"$GPGGA,084743,2557.3571,N,08845.5571,W,1,9,1.6,9,M"
"##MN-00 00 36 0485 02054 4469 469823 358133 210"
"122.366516"
"$GPGGA,084747,2557.3555,N,08845.5576,W,1,9,1.6,9,M"
"##MN-00 00 34 0486 02054 4470 469676 358082 210"
"122.366562"
"$GPGGA,084751,2557.3533,N,08845.5578,W,1,9,1.6,9,M"
"##MN-00 00 34 0487 02045 4470 469876 358138 210"
"122.366609"
"$GPGGA,084755,2557.3510,N,08845.5578,W,1,9,1.8,9,M"
"##MN-00 00 37 0489 02050 4471 469587 358048 210"
"122.366655"
"$GPGGA,084759,2557.3484,N,08845.5580,W,1,9,1.6,9,M"
"##MN-00 00 36 0490 02040 4472 469005 357841 210"
"122.366701"
"$GPGGA,084803,2557.3459,N,08845.5581,W,1,9,1.6,9,M"
"##MN-00 00 37 0492 02042 4473 468587 357703 210"
"122.366748"
"$GPGGA,084807,2557.3435,N,08845.5582,W,1,9,1.6,9,M"
"##MN-00 00 36 0493 02040 4473 467555 357354 210"
"122.366794"
"$GPGGA,084811,2557.3413,N,08845.5587,W,1,9,1.6,9,M"
"##MN-00 00 34 0495 02032 4474 467240 357222 210"
"122.36684"
"$GPGGA,084815,2557.3385,N,08845.5587,W,1,9,1.6,9,M"
"##MN-00 00 35 0496 02023 4474 466402 356934 210"
"122.366887"
"$GPGGA,084819,2557.3359,N,08845.5590,W,1,8,1.6,9,M"
"##MN-00 00 41 0498 02022 4475 465815 356742 210"
"122.366933"
"$GPGGA,084823,2557.3337,N,08845.5594,W,1,9,1.6,9,M"
"##MN-00 00 40 0499 02019 4475 465179 356523 210"
"122.366979"
"$GPGGA,084827,2557.3311,N,08845.5598,W,1,9,1.6,9,M"
"##MN-00 00 40 0501 02015 4476 465577 356646 210"
"122.367025"
"$GPGGA,084831,2557.3287,N,08845.5598,W,1,9,1.6,9,M"
"##MN-00 00 41 0502 02017 4477 465621 356665 210"
"122.367072"
"$GPGGA,084835,2557.3264,N,08845.5600,W,1,8,1.8,8,M"
"##MN-00 00 38 0504 02010 4477 465632 356656 210"
"122.367118"
"$GPGGA,084839,2557.3239,N,08845.5600,W,1,8,1.8,8,M"
"##MN-00 00 44 0505 02002 4479 465871 356737 210"
"122.367164"
"$GPGGA,084843,2557.3215,N,08845.5602,W,1,8,1.8,8,M"
"##MN-00 00 42 0506 02007 4479 465782 356711 210"
"122.367211"
"$GPGGA,084847,2557.3190,N,08845.5603,W,1,8,1.8,8,M"
"##MN-00 00 41 0508 02001 4480 466136 356826 210"
"122.367257"
"$GPGGA,084851,2557.3168,N,08845.5605,W,1,8,1.8,7,M"
"##MN-00 00 42 0509 02004 4481 466007 356791 210"
"122.367303"
"$GPGGA,084855,2557.3146,N,08845.5607,W,1,9,1.6,7,M"
"##MN-00 00 37 0511 01995 4481 465486 356620 210"
"122.36735"
"$GPGGA,084859,2557.3118,N,08845.5605,W,1,8,1.8,7,M"
"##MN-00 00 45 0512 01994 4482 465139 356505 210"
"122.367396"
"$GPGGA,084903,2557.3100,N,08845.5608,W,1,9,1.6,7,M"
"##MN-00 00 41 0514 01993 4483 464802 356381 210"
"122.367442"
"$GPGGA,084907,2557.3077,N,08845.5611,W,1,9,1.6,7,M"
"##MN-00 00 38 0515 01992 4484 464855 356395 210"
"122.367488"
"$GPGGA,084911,2557.3056,N,08845.5614,W,1,8,1.8,7,M"
"##MN-00 00 40 0517 01988 4484 465072 356465 210"
"122.367535"
"$GPGGA,084915,2557.3035,N,08845.5618,W,1,9,1.6,7,M"
"##MN-00 00 41 0518 01994 4485 465043 356465 210"
"122.367581"
"$GPGGA,084920,2557.3008,N,08845.5622,W,1,9,1.6,7,M"
"##MN-00 00 36 0520 01985 4486 464931 356413 210"
"122.367627"
"$GPGGA,084924,2557.2983,N,08845.5625,W,1,8,1.6,7,M"
"##MN-00 00 43 0521 01990 4487 465190 356500 210"
"122.367674"
"$GPGGA,084928,2557.2964,N,08845.5628,W,1,9,1.8,7,M"
"##MN-00 00 42 0523 01994 4487 465133 356480 210"
"122.36772"
"$GPGGA,084932,2557.2940,N,08845.5628,W,1,9,1.6,7,M"
"##MN-00 00 41 0524 01996 4488 465409 356575 210"
"122.367766"
"$GPGGA,084935,2557.2926,N,08845.5631,W,1,9,1.6,7,M"
"##MN-00 00 40 0526 01996 4489 465619 356649 210"
"122.367813"
"$GPGGA,084939,2557.2905,N,08845.5634,W,1,9,1.6,7,M"
"##MN-00 00 38 0527 01996 4490 465293 356520 210"
"122.367859"
"$GPGGA,084944,2557.2875,N,08845.5639,W,1,8,1.8,7,M"
"##MN-00 00 37 0529 01993 4491 465431 356584 210"
"122.367905"
"$GPGGA,084947,2557.2856,N,08845.5639,W,1,9,1.6,6,M"
"##MN-00 00 38 0530 01996 4491 465221 356520 210"
"122.367951"
"$GPGGA,084952,2557.2831,N,08845.5645,W,1,9,1.6,6,M"
"##MN-00 00 41 0532 01993 4492 465279 356550 210"
"122.367998"
"$GPGGA,084956,2557.2806,N,08845.5647,W,1,8,1.8,6,M"
"##MN-00 00 41 0533 02000 4493 464978 356441 210"
"122.368044"
"$GPGGA,085000,2557.2789,N,08845.5648,W,1,8,1.6,6,M"
"##MN-00 00 40 0534 01990 4494 464897 356407 210"
"122.36809"
"$GPGGA,085004,2557.2766,N,08845.5650,W,1,8,1.6,6,M"
"##MN-00 00 42 0536 01992 4495 464863 356397 210"
"122.368137"
"$GPGGA,085008,2557.2744,N,08845.5651,W,1,9,1.6,6,M"
"##MN-00 00 40 0537 01990 4496 464858 356394 210"
"122.368183"
"$GPGGA,085012,2557.2719,N,08845.5655,W,1,9,1.6,6,M"
"##MN-00 00 41 0539 01985 4497 464676 356335 210"
"122.368229"
"$GPGGA,085016,2557.2697,N,08845.5657,W,1,8,1.8,6,M"
"##MN-00 00 41 0540 01983 4497 464680 356336 210"
"122.368275"
"$GPGGA,085020,2557.2673,N,08845.5659,W,1,9,1.6,6,M"
"##MN-00 00 43 0542 01980 4498 465089 356475 210"
"122.368322"
"$GPGGA,085024,2557.2652,N,08845.5661,W,1,9,1.6,6,M"
"##MN-00 00 43 0543 01981 4499 465263 356531 210"
"122.368368"
"$GPGGA,085028,2557.2630,N,08845.5666,W,1,9,1.6,6,M"
"##MN-00 00 41 0545 01977 4500 465189 356504 210"
"122.368414"
"$GPGGA,085032,2557.2607,N,08845.5669,W,1,9,1.6,6,M"
"##MN-00 00 43 0546 01979 4501 465013 356443 210"
"122.368461"
"$GPGGA,085036,2557.2585,N,08845.5676,W,1,9,1.6,6,M"
"##MN-00 00 40 0548 01960 4502 464734 356351 210"
"122.368507"
"$GPGGA,085040,2557.2556,N,08845.5679,W,1,9,1.6,6,M"
"##MN+00 00 47 0550 01962 4503 464670 356336 210"
"122.368553"
"$GPGGA,085044,2557.2533,N,08845.5682,W,1,9,1.6,6,M"
"##MN+00 00 44 0552 01958 4504 464672 356335 210"
"122.368611"
"$GPGGA,085048,2557.2507,N,08845.5686,W,1,9,1.6,6,M"
"##MN+00 00 43 0553 01951 4504 464641 356325 210"
"122.368657"
"$GPGGA,085052,2557.2486,N,08845.5688,W,1,9,1.6,6,M"
"##MN-00 00 49 0555 01957 4505 464659 356330 210"
"122.368704"
"#increment_net"
"$GPGGA,085056,2557.2464,N,08845.5694,W,1,9,1.6,6,M"
"##MN-00 00 44 0557 01952 4506 464653 356328 210"
"122.36875"
"$GPGGA,085100,2557.2442,N,08845.5698,W,1,9,1.6,6,M"
"##MN-00 00 45 0558 01953 4507 464671 356335 210"
"122.368796"
"$GPGGA,085104,2557.2421,N,08845.5702,W,1,9,1.6,6,M"
"##MN-00 00 44 0560 01950 4508 464663 356331 210"
"122.368843"
"$GPGGA,085108,2557.2397,N,08845.5704,W,1,9,1.6,6,M"
"##MN-00 00 45 0561 01952 4509 464640 356324 210"
"122.368889"
"$GPGGA,085112,2557.2376,N,08845.5709,W,1,9,1.6,6,M"
"##MN-00 00 39 0563 01943 4510 464733 356357 210"
"122.368935"
"$GPGGA,085116,2557.2350,N,08845.5712,W,1,9,1.6,7,M"
"##MN-00 00 46 0564 01942 4511 464692 356342 210"
"122.368981"
"$GPGGA,085120,2557.2328,N,08845.5715,W,1,9,1.6,7,M"
"##MN-00 00 47 0565 01945 4512 464707 356346 210"
"122.369028"
"$GPGGA,085124,2557.2303,N,08845.5719,W,1,9,1.6,7,M"
"##MN-00 00 42 0567 01937 4513 464655 356330 210"
"122.369074"
"$GPGGA,085128,2557.2278,N,08845.5722,W,1,9,1.6,7,M"
"##MN-00 00 47 0569 01934 4514 464659 356331 210"
"122.36912"
"$GPGGA,085132,2557.2253,N,08845.5723,W,1,9,1.6,7,M"
"##MN-00 00 46 0571 01932 4515 464664 356333 210"
"122.369167"
"$GPGGA,085136,2557.2228,N,08845.5728,W,1,9,1.6,7,M"
"##MN-00 00 46 0572 01932 4516 464647 356327 210"
"122.369213"
"$GPGGA,085140,2557.2206,N,08845.5730,W,1,9,1.6,7,M"
"##MN-00 00 44 0574 01936 4517 464652 356329 210"
"122.369259"
"$GPGGA,085144,2557.2184,N,08845.5737,W,1,9,1.6,7,M"
"##MN-00 00 42 0575 01937 4518 464639 356324 210"
"122.369306"
"$GPGGA,085148,2557.2163,N,08845.5740,W,1,8,1.6,7,M"
"##MN-00 00 44 0577 01936 4518 464628 356321 210"
"122.369352"
"$GPGGA,085152,2557.2142,N,08845.5744,W,1,9,1.8,7,M"
"##MN-00 00 42 0578 01938 4519 464643 356325 210"
"122.369398"
"$GPGGA,085156,2557.2122,N,08845.5749,W,1,9,1.6,7,M"
"##MN-00 00 39 0580 01938 4520 464650 356326 210"
"122.369444"
"$GPGGA,085200,2557.2101,N,08845.5753,W,1,9,1.8,7,M"
"##MN-00 00 43 0581 01940 4521 464663 356331 210"
"122.369491"
"$GPGGA,085204,2557.2076,N,08845.5755,W,1,8,1.8,7,M"
"##MN-00 00 42 0583 01940 4522 464655 356328 210"
"122.369537"
"$GPGGA,085208,2557.2054,N,08845.5758,W,1,8,1.8,7,M"
"##MN-00 00 43 0584 01943 4524 464649 356325 210"
"122.369583"
"$GPGGA,085212,2557.2032,N,08845.5759,W,1,8,1.8,7,M"
"##MN-00 00 38 0585 01945 4524 464635 356322 210"
"122.36963"
"$GPGGA,085216,2557.2010,N,08845.5762,W,1,8,1.8,6,M"
"##MN-00 00 41 0587 01946 4525 464641 356323 210"
"122.369676"
"$GPGGA,085220,2557.1989,N,08845.5762,W,1,8,1.8,6,M"
"##MN-00 00 40 0588 01947 4526 464661 356329 210"
"122.369722"
"$GPGGA,085224,2557.1967,N,08845.5765,W,1,8,1.8,6,M"
"##MN-00 00 40 0590 01948 4527 464811 356378 210"
"122.369769"
"$GPGGA,085228,2557.1953,N,08845.5770,W,1,8,1.8,6,M"
"##MN-00 00 38 0591 01953 4528 464674 356337 210"
"122.369815"
"$GPGGA,085232,2557.1926,N,08845.5774,W,1,8,1.7,6,M"
"##MN-00 00 39 0592 01944 4529 464725 356350 210"
"122.369861"
"$GPGGA,085236,2557.1908,N,08845.5777,W,1,9,1.7,6,M"
"##MN-00 00 42 0593 01956 4530 464756 356360 210"
"122.369907"
"$GPGGA,085240,2557.1890,N,08845.5784,W,1,9,1.6,6,M"
"##MN-00 00 38 0594 01941 4531 464753 356360 210"
"122.369954"
"$GPGGA,085244,2557.1866,N,08845.5787,W,1,9,1.7,6,M"
"##MN-00 00 43 0596 01938 4532 464710 356348 210"
"122.37"
"$GPGGA,085248,2557.1844,N,08845.5789,W,1,9,1.6,6,M"
"##MN-00 00 40 0597 01936 4533 464645 356327 210"
"122.370046"
"$GPGGA,085252,2557.1824,N,08845.5795,W,1,9,1.6,6,M"
"##MN-00 00 43 0598 01929 4534 464650 356328 210"
"122.370093"
"$GPGGA,085256,2557.1805,N,08845.5796,W,1,9,1.6,6,M"
"##MN-00 00 44 0600 01931 4535 464683 356337 210"
"122.370139"
"$GPGGA,085300,2557.1783,N,08845.5799,W,1,9,1.6,6,M"
"##MN-00 00 44 0601 01928 4536 464676 356336 210"
"122.370185"
"$GPGGA,085304,2557.1762,N,08845.5801,W,1,9,1.6,7,M"
"##MN-00 00 39 0603 01927 4537 464703 356344 210"
"122.370231"
"$GPGGA,085308,2557.1741,N,08845.5805,W,1,9,1.6,7,M"
"##MN-00 00 40 0604 01919 4538 464688 356341 210"
"122.370278"
"$GPGGA,085312,2557.1714,N,08845.5807,W,1,8,1.7,7,M"
"##MN-00 00 44 0606 01923 4539 464699 356344 210"
"122.370324"
"$GPGGA,085316,2557.1689,N,08845.5809,W,1,9,1.6,7,M"
"##MN-00 00 40 0608 01917 4539 464709 356349 210"
"122.37037"
"$GPGGA,085320,2557.1662,N,08845.5810,W,1,8,1.7,7,M"
"##MN-00 00 40 0609 01916 4540 464674 356338 210"
"122.370417"
"$GPGGA,085324,2557.1646,N,08845.5816,W,1,9,1.6,7,M"
"##MN-00 00 44 0611 01909 4541 464661 356334 210"
"122.370463"
"$GPGGA,085328,2557.1625,N,08845.5820,W,1,9,1.6,7,M"
"##MN-00 00 44 0612 01916 4542 464663 356335 210"
"122.370509"
"$GPGGA,085332,2557.1604,N,08845.5821,W,1,8,1.6,7,M"
"##MN-00 00 42 0614 01909 4543 464668 356337 210"
"122.370556"
"$GPGGA,085336,2557.1582,N,08845.5824,W,1,9,1.6,7,M"
"##MN-00 00 40 0616 01901 4544 464700 356347 210"
"122.370602"
"$GPGGA,085340,2557.1560,N,08845.5825,W,1,9,1.7,7,M"
"##MN-00 00 44 0617 01902 4545 464701 356348 210"
"122.370648"
"$GPGGA,085344,2557.1538,N,08845.5826,W,1,9,1.6,7,M"
"##MN-00 00 44 0619 01898 4546 464695 356346 210"
"122.370694"
"$GPGGA,085349,2557.1508,N,08845.5829,W,1,9,1.6,7,M"
"##MN-00 00 45 0621 01894 4547 464686 356345 210"
"122.370741"
"$GPGGA,085352,2557.1492,N,08845.5833,W,1,9,1.6,7,M"
"##MN-00 00 46 0622 01887 4548 464701 356349 210"
"122.370787"
"$GPGGA,085356,2557.1469,N,08845.5835,W,1,9,1.7,7,M"
"##MN-00 00 45 0623 01889 4549 464709 356352 210"
"122.370833"
"$GPGGA,085400,2557.1448,N,08845.5842,W,1,9,1.6,7,M"
"##MN-00 00 45 0624 01890 4550 464705 356354 210"
"122.37088"
"$GPGGA,085404,2557.1424,N,08845.5843,W,1,9,1.6,7,M"
"##MN-00 00 46 0626 01878 4551 464687 356348 210"
"122.370926"
"$GPGGA,085409,2557.1396,N,08845.5849,W,1,9,1.6,7,M"
"##MN-00 00 46 0628 01882 4552 464679 356346 210"
"122.370972"
"$GPGGA,085413,2557.1368,N,08845.5849,W,1,8,1.7,7,M"
"##MN-00 00 46 0630 01873 4553 464685 356348 210"
"122.371019"
"$GPGGA,085416,2557.1350,N,08845.5851,W,1,8,1.6,7,M"
"##MN-00 00 42 0631 01875 4554 464682 356347 210"
"122.371065"
"$GPGGA,085421,2557.1324,N,08845.5856,W,1,8,1.7,7,M"
"##MN-00 00 42 0633 01871 4555 464698 356352 210"
"122.371111"
"$GPGGA,085424,2557.1310,N,08845.5857,W,1,9,1.6,7,M"
"##MN-00 00 39 0634 01863 4555 464712 356357 210"
"122.371157"
"$GPGGA,085429,2557.1285,N,08845.5864,W,1,9,1.6,7,M"
"##MN-00 00 45 0636 01867 4556 464714 356357 210"
"122.371204"
"$GPGGA,085433,2557.1265,N,08845.5868,W,1,9,1.6,8,M"
"##MN-00 00 46 0637 01867 4557 464720 356362 210"
"122.37125"
"$GPGGA,085437,2557.1242,N,08845.5874,W,1,9,1.6,8,M"
"##MN-00 00 43 0639 01867 4558 464738 356366 210"
"122.371296"
"$GPGGA,085441,2557.1219,N,08845.5878,W,1,9,1.6,8,M"
"##MN-00 00 47 0640 01867 4559 464730 356366 210"
"122.371343"
"$GPGGA,085445,2557.1196,N,08845.5883,W,1,9,1.6,8,M"
"##MN-00 00 39 0640 01863 4560 464716 356361 210"
"122.371389"
"$GPGGA,085449,2557.1172,N,08845.5886,W,1,9,1.6,9,M"
"##MN-00 00 42 0641 01863 4561 464699 356365 210"
"122.371435"
"$GPGGA,085453,2557.1145,N,08845.5887,W,1,8,1.7,9,M"
"##MN-00 00 38 0642 01865 4562 464718 356369 210"
"122.371481"
"$GPGGA,085457,2557.1122,N,08845.5889,W,1,9,1.6,9,M"
"##MN-00 00 38 0644 01863 4563 464742 356404 210"
"122.371528"
"$GPGGA,085501,2557.1096,N,08845.5889,W,1,8,1.7,8,M"
"##MN-00 00 37 0644 01864 4564 464770 356492 210"
"122.371574"
"$GPGGA,085505,2557.1073,N,08845.5890,W,1,8,1.7,8,M"
"##MN-00 00 37 0645 01866 4565 464719 356377 210"
"122.37162"
"$GPGGA,085509,2557.1055,N,08845.5892,W,1,9,1.6,8,M"
"##MN-00 00 38 0647 01865 4566 464732 356380 210"
"122.371667"
"$GPGGA,085513,2557.1033,N,08845.5893,W,1,9,1.6,8,M"
"##MN-00 00 43 0648 01867 4567 464702 356369 210"
"122.371713"
"$GPGGA,085517,2557.1011,N,08845.5894,W,1,8,1.7,8,M"
"##MN-00 00 42 0649 01863 4568 464731 356382 210"
"122.371759"
"$GPGGA,085521,2557.0992,N,08845.5897,W,1,9,1.6,8,M"
"##MN-00 00 43 0651 01863 4569 464725 356381 210"
"122.371806"
"$GPGGA,085525,2557.0968,N,08845.5897,W,1,9,1.6,8,M"
"##MN-00 00 41 0652 01868 4570 464711 356377 210"
"122.371863"
"$GPGGA,085529,2557.0945,N,08845.5901,W,1,8,1.7,8,M"
"##MN-00 00 34 0653 01863 4571 464719 356383 210"
"122.37191"
"$GPGGA,085533,2557.0925,N,08845.5902,W,1,9,1.6,8,M"
"##MN-00 00 48 0654 01863 4572 464739 359365 210"
"122.371956"
"$GPGGA,085537,2557.0899,N,08845.5902,W,1,8,1.7,8,M"
"##MN-00 00 36 0655 01863 4572 465025 383536 210"
"122.372002"
"$GPGGA,085541,2557.0877,N,08845.5903,W,1,8,1.7,7,M"
"##MN-00 00 39 0655 01864 4574 467155 521214 210"
"122.372049"
"$GPGGA,085545,2557.0852,N,08845.5905,W,1,8,1.7,7,M"
"##MN-00 00 36 0656 01863 4575 466431 468777 210"
"122.372095"
"$GPGGA,085549,2557.0831,N,08845.5906,W,1,9,1.6,7,M"
"##MN-00 00 48 0656 01862 4575 468245 441812 210"
"122.372141"
"$GPGGA,085553,2557.0811,N,08845.5911,W,1,9,1.6,7,M"
"##MN-00 00 32 0656 01864 4576 468296 473055 210"
"122.372187"
"$GPGGA,085557,2557.0787,N,08845.5913,W,1,9,1.6,7,M"
"##MN-00 00 30 0656 01861 4577 475242 925359 210"
"122.372234"
"$GPGGA,085601,2557.0765,N,08845.5915,W,1,9,1.6,7,M"
"##MN-00 00 31 0656 01861 4578 479395 925357 210"
"122.37228"
"$GPGGA,085605,2557.0739,N,08845.5918,W,1,9,1.6,7,M"
"##MN+00 00 26 0657 01862 4579 481682 925358 210"
"122.372326"
"$GPGGA,085609,2557.0717,N,08845.5921,W,1,9,1.6,7,M"
"##MN+00 00 30 0657 01862 4580 483477 925359 210"
"122.372373"
