" Tow: M-01-000   RVWS/WS1405"
" Date: 04/30/2014"
" Temperature Probe #  2597    Conductivity Probe #  2870"
" Pressure Probe #  109"
" Flow Meter Calibration  4.71 (m/count)  "
"120.880648"
"$GPGGA,204537,2457.9557,N,08356.2092,W,1,9,1.7,5,M"
"##MN-00 00 68 0084 01858 5093 461247 924215 213"
"120.880694"
"$GPGGA,210809,2458.5023,N,08357.8288,W,1,11,1.4,6,"
"##MN-00 00 69 0084 01858 5095 444371 925241 213"
"120.880741"
"$GPGGA,210813,2458.5045,N,08357.8353,W,1,11,1.4,7,"
"##MN-00 00 69 0084 01859 5097 444550 925241 213"
"120.880787"
"#resetparam"
"$GPGGA,210817,2458.5070,N,08357.8417,W,1,10,1.4,7,"
"##MN-00 00 68 0084 01858 5099 444744 925241 213"
"120.880833"
"$GPGGA,210821,2458.5092,N,08357.8482,W,1,11,1.4,7,"
"##MN-00 00 67 0084 01858 5101 444894 925240 213"
"120.88088"
"$GPGGA,210825,2458.5117,N,08357.8542,W,1,11,1.4,7,"
"##MN-00 00 68 0084 01859 5102 444965 925240 213"
"120.880926"
"$GPGGA,210829,2458.5139,N,08357.8605,W,1,11,1.4,8,"
"##MN+00 00 69 0084 01860 5104 445021 925240 213"
"120.880972"
"$GPGGA,210833,2458.5161,N,08357.8667,W,1,11,1.4,8,"
"##MN+00 00 68 0084 01859 5106 445109 925241 213"
"120.881018"
"$GPGGA,210837,2458.5182,N,08357.8726,W,1,10,1.6,8,"
"##MN+00 00 69 0084 01859 5107 445149 925240 213"
"120.881065"
"$GPGGA,210841,2458.5204,N,08357.8793,W,1,11,1.4,8,"
"##MN-00 00 68 0084 01862 5109 445093 925240 213"
"120.881111"
"$GPGGA,210845,2458.5229,N,08357.8855,W,1,11,1.4,8,"
"##MN-00 00 68 0084 01859 5110 445069 925239 213"
"120.881157"
"#increment_net"
"$GPGGA,210849,2458.5250,N,08357.8916,W,1,11,1.4,9,"
"##MN-00 00 68 0084 01860 5111 445039 925240 213"
"120.881204"
"$GPGGA,210853,2458.5269,N,08357.8979,W,1,11,1.4,9,"
"##MN+00 00 68 0084 01861 5112 444914 925240 213"
"120.88125"
"$GPGGA,210857,2458.5289,N,08357.9044,W,1,10,1.4,9,"
"##MN+00 00 68 0084 01862 5114 444804 925240 213"
"120.881296"
"$GPGGA,210901,2458.5309,N,08357.9108,W,1,10,1.4,9,"
"##MN+00 00 68 0084 01861 5115 444863 925239 213"
"120.881343"
"$GPGGA,210905,2458.5329,N,08357.9170,W,1,11,1.4,9,"
"##MN-00 00 69 0084 01861 5116 444920 925239 213"
"120.881389"
"$GPGGA,210909,2458.5349,N,08357.9231,W,1,11,1.4,9,"
"##MN-00 00 68 0084 01861 5117 444915 925239 213"
"120.881435"
"$GPGGA,210913,2458.5369,N,08357.9293,W,1,10,1.6,9,"
"##MN-00 00 68 0084 01861 5118 444943 925239 213"
"120.881481"
"$GPGGA,210917,2458.5388,N,08357.9361,W,1,11,1.6,9,"
"##MN-00 00 69 0084 01861 5119 444921 925240 213"
"120.881528"
"$GPGGA,210921,2458.5406,N,08357.9425,W,1,10,1.4,9,"
"##MN-00 00 69 0084 01862 5120 444862 925239 213"
"120.881574"
"$GPGGA,210925,2458.5427,N,08357.9488,W,1,10,1.4,9,"
"##MN-00 00 68 0084 01860 5121 444839 925239 213"
"120.88162"
"$GPGGA,210929,2458.5445,N,08357.9552,W,1,11,1.4,9,"
"##MN-00 00 68 0084 01861 5122 444613 925239 213"
"120.881667"
"$GPGGA,210933,2458.5464,N,08357.9615,W,1,10,1.6,9,"
"##MN-00 00 68 0084 01861 5123 444556 925239 213"
"120.881713"
"$GPGGA,210937,2458.5484,N,08357.9678,W,1,10,1.6,10"
"##MN-00 00 68 0084 01863 5123 444607 925239 213"
"120.881759"
"$GPGGA,210941,2458.5501,N,08357.9743,W,1,11,1.6,10"
"##MN-00 00 68 0084 01861 5124 444819 925239 213"
"120.881806"
"$GPGGA,210945,2458.5522,N,08357.9808,W,1,11,1.4,10"
"##MN-00 00 68 0084 01861 5125 444913 925239 213"
"120.881852"
"$GPGGA,210949,2458.5540,N,08357.9871,W,1,10,1.6,10"
"##MN-00 00 69 0084 01861 5126 444876 925239 213"
"120.881898"
"$GPGGA,210953,2458.5561,N,08357.9938,W,1,10,1.6,10"
"##MN-00 00 68 0084 01863 5126 444787 925238 213"
"120.881944"
"$GPGGA,210957,2458.5580,N,08358.0003,W,1,11,1.4,10"
"##MN-00 00 68 0084 01861 5127 444769 925239 213"
"120.881991"
"$GPGGA,211001,2458.5600,N,08358.0065,W,1,11,1.4,10"
"##MN-00 00 69 0084 01861 5128 444761 925238 213"
"120.882037"
"$GPGGA,211005,2458.5620,N,08358.0131,W,1,10,1.5,10"
"##MN-00 00 68 0084 01862 5128 444692 925238 213"
"120.882083"
"$GPGGA,211009,2458.5641,N,08358.0195,W,1,11,1.4,10"
"##MN-00 00 69 0084 01862 5129 444503 925238 213"
"120.88213"
"$GPGGA,211013,2458.5661,N,08358.0261,W,1,10,1.4,10"
"##MN-00 00 69 0084 01862 5130 444272 925238 213"
"120.882176"
"$GPGGA,211017,2458.5683,N,08358.0323,W,1,11,1.4,10"
"##MN-00 00 68 0084 01862 5131 443995 925238 213"
"120.882222"
"$GPGGA,211021,2458.5706,N,08358.0386,W,1,10,1.4,10"
"##MN-00 00 69 0084 01863 5131 443948 925237 213"
"120.882269"
"$GPGGA,211025,2458.5728,N,08358.0452,W,1,11,1.4,10"
"##MN-00 00 68 0084 01862 5132 443874 925238 213"
"120.882315"
"$GPGGA,211029,2458.5750,N,08358.0518,W,1,10,1.4,10"
"##MN-00 00 68 0084 01863 5132 443829 925237 213"
"120.882361"
"$GPGGA,211033,2458.5773,N,08358.0587,W,1,11,1.4,10"
"##MN-00 00 68 0084 01863 5133 443783 925238 213"
"120.882407"
"$GPGGA,211037,2458.5797,N,08358.0652,W,1,11,1.4,10"
"##MN-00 00 69 0084 01861 5134 443899 925237 213"
"120.882454"
"$GPGGA,211041,2458.5821,N,08358.0716,W,1,11,1.4,10"
"##MN-00 00 69 0084 01862 5134 444096 925238 213"
"120.8825"
"$GPGGA,211045,2458.5847,N,08358.0784,W,1,10,1.4,10"
"##MN-00 00 69 0084 01864 5135 444125 925237 213"
"120.882546"
"$GPGGA,211049,2458.5872,N,08358.0846,W,1,11,1.4,10"
"##MN-00 00 68 0084 01863 5135 444086 925237 213"
"120.882593"
"$GPGGA,211053,2458.5900,N,08358.0907,W,1,11,1.4,10"
"##MN-00 00 68 0084 01862 5136 444254 925238 213"
"120.882639"
"$GPGGA,211057,2458.5926,N,08358.0968,W,1,11,1.4,10"
"##MN-00 00 68 0084 01863 5136 444372 925236 213"
"120.882685"
"$GPGGA,211101,2458.5956,N,08358.1029,W,1,11,1.4,10"
"##MN-00 00 68 0084 01860 5137 444597 925237 213"
"120.882732"
"$GPGGA,211105,2458.5983,N,08358.1087,W,1,11,1.4,10"
"##MN-00 00 68 0084 01863 5137 444643 925237 213"
"120.882778"
"$GPGGA,211109,2458.6012,N,08358.1146,W,1,11,1.4,10"
"##MN-00 00 69 0084 01866 5138 444630 925237 213"
"120.882824"
"$GPGGA,211113,2458.6039,N,08358.1206,W,1,10,1.5,10"
"##MN-00 00 69 0084 01860 5139 444520 925236 213"
"120.88287"
"$GPGGA,211117,2458.6068,N,08358.1264,W,1,9,1.7,11,"
"##MN-00 00 68 0084 01862 5139 444390 925237 213"
"120.882917"
"$GPGGA,211121,2458.6096,N,08358.1322,W,1,11,1.4,11"
"##MN-00 00 69 0084 01862 5139 444448 925236 213"
"120.882963"
"$GPGGA,211125,2458.6122,N,08358.1380,W,1,11,1.4,11"
"##MN-00 00 68 0084 01863 5140 444586 925236 213"
"120.883009"
"$GPGGA,211129,2458.6151,N,08358.1438,W,1,11,1.4,11"
"##MN-00 00 69 0084 01862 5140 444710 925236 213"
"120.883056"
"$GPGGA,211133,2458.6182,N,08358.1496,W,1,11,1.4,12"
"##MN-00 00 69 0084 01863 5141 444693 925236 213"
"120.883102"
"$GPGGA,211137,2458.6209,N,08358.1557,W,1,11,1.4,12"
"##MN-00 00 68 0084 01862 5141 444783 925236 213"
"120.883148"
"$GPGGA,211141,2458.6236,N,08358.1612,W,1,11,1.4,12"
"##MN-00 00 68 0084 01864 5142 444808 925236 213"
"120.883194"
"$GPGGA,211145,2458.6263,N,08358.1673,W,1,11,1.4,12"
"##MN-00 00 68 0084 01861 5142 444685 925236 213"
"120.883241"
"$GPGGA,211149,2458.6292,N,08358.1734,W,1,11,1.4,12"
"##MN-00 00 68 0084 01863 5142 444677 925236 213"
"120.883299"
"$GPGGA,211153,2458.6320,N,08358.1792,W,1,11,1.4,12"
"##MN-00 00 68 0084 01863 5143 444605 925236 213"
"120.883345"
"$GPGGA,211157,2458.6349,N,08358.1854,W,1,11,1.4,12"
"##MN-00 00 68 0084 01864 5143 444592 925235 213"
"120.883391"
"$GPGGA,211201,2458.6378,N,08358.1918,W,1,11,1.4,12"
"##MN-00 00 68 0084 01864 5143 444607 925236 213"
"120.883437"
"$GPGGA,211205,2458.6407,N,08358.1977,W,1,11,1.4,11"
"##MN-00 00 68 0084 01864 5144 444435 925236 213"
"120.883484"
"$GPGGA,211209,2458.6436,N,08358.2035,W,1,11,1.4,11"
"##MN-00 00 68 0084 01863 5144 444344 925235 213"
"120.88353"
"$GPGGA,211213,2458.6465,N,08358.2095,W,1,11,1.4,11"
"##MN-00 00 69 0084 01863 5145 444573 925235 213"
"120.883576"
"$GPGGA,211218,2458.6501,N,08358.2169,W,1,11,1.4,11"
"##MN-00 00 67 0084 01863 5145 444771 925235 213"
"120.883623"
"$GPGGA,211221,2458.6523,N,08358.2214,W,1,11,1.4,11"
"##MN-00 00 68 0084 01864 5146 444564 925235 213"
"120.883669"
"$GPGGA,211225,2458.6552,N,08358.2272,W,1,11,1.4,11"
"##MN-00 00 68 0084 01862 5146 444385 925235 213"
"120.883715"
"$GPGGA,211229,2458.6579,N,08358.2332,W,1,11,1.4,10"
"##MN-00 00 69 0084 01864 5146 444300 925235 213"
"120.883762"
"$GPGGA,211234,2458.6613,N,08358.2407,W,1,11,1.4,10"
"##MN-00 00 68 0084 01864 5147 444180 925235 213"
"120.883808"
"$GPGGA,211238,2458.6641,N,08358.2467,W,1,11,1.4,10"
"##MN-00 00 68 0084 01864 5147 444205 925235 213"
"120.883854"
"$GPGGA,211242,2458.6669,N,08358.2529,W,1,11,1.4,10"
"##MN-00 00 69 0084 01864 5148 444268 925235 213"
"120.8839"
"$GPGGA,211246,2458.6696,N,08358.2590,W,1,11,1.4,10"
"##MN-00 00 68 0084 01862 5148 444393 925234 213"
"120.883947"
"$GPGGA,211250,2458.6721,N,08358.2652,W,1,10,1.4,10"
"##MN-00 00 68 0084 01864 5148 444357 925233 213"
"120.883993"
"$GPGGA,211254,2458.6743,N,08358.2695,W,1,11,1.4,9,"
"##MN-00 00 68 0084 01863 5149 444436 925235 213"
"120.884039"
"$GPGGA,211258,2458.6776,N,08358.2771,W,1,11,1.4,9,"
"##MN-00 00 69 0084 01862 5149 444417 925234 213"
