" Tow: M-01-002   RVWS/WS1405"
" Date: 05/01/2014"
" Temperature Probe #  2597    Conductivity Probe #  2870"
" Pressure Probe #  109"
" Flow Meter Calibration  4.71 (m/count)  "
"121.631563"
"$GPGGA,150921,2538.2657,N,08642.4322,W,1,9,1.7,9,M"
"##MN-00 00 68 0084 01828 6745 451309 923964 212"
"121.631609"
"$GPGGA,150927,2538.2672,N,08642.4371,W,1,9,1.7,9,M"
"##MN-00 00 68 0084 01828 6747 433367 925108 212"
"121.631667"
"#resetparam"
"$GPGGA,150931,2538.2685,N,08642.4400,W,1,9,1.7,9,M"
"##MN-00 00 67 0084 01831 6749 433841 925108 212"
"121.631713"
"$GPGGA,150934,2538.2690,N,08642.4426,W,1,9,1.7,9,M"
"##MN-00 00 68 0084 01830 6751 434693 925108 212"
"121.631759"
"$GPGGA,150940,2538.2704,N,08642.4470,W,1,9,2.3,9,M"
"##MN-00 00 68 0084 01830 6753 435602 925107 212"
"121.631806"
"$GPGGA,150944,2538.2717,N,08642.4501,W,1,9,1.7,9,M"
"##MN-00 00 67 0084 01829 6755 435715 925108 212"
"121.631852"
"$GPGGA,150948,2538.2726,N,08642.4530,W,1,9,1.7,9,M"
"##MN-00 00 68 0084 01830 6756 435418 925108 212"
"121.631898"
"$GPGGA,150952,2538.2736,N,08642.4563,W,1,9,1.7,9,M"
"##MN+00 00 70 0084 01830 6757 435327 925108 212"
"121.631944"
"$GPGGA,150956,2538.2747,N,08642.4589,W,1,9,1.7,10,"
"##MN+00 00 68 0084 01830 6759 434860 925108 212"
"121.631991"
"$GPGGA,151000,2538.2758,N,08642.4617,W,1,9,1.7,10,"
"##MN+00 00 68 0084 01831 6760 434506 925109 212"
"121.632037"
"$GPGGA,151004,2538.2769,N,08642.4643,W,1,9,1.7,10,"
"##MN-00 00 69 0084 01832 6761 434746 925109 212"
"121.632083"
"$GPGGA,151008,2538.2782,N,08642.4671,W,1,9,1.7,11,"
"##MN-00 00 68 0084 01831 6763 435049 925108 212"
"121.63213"
"#increment_net"
"$GPGGA,151012,2538.2793,N,08642.4698,W,1,9,1.7,11,"
"##MN-00 00 68 0084 01833 6764 435485 925108 212"
"121.632176"
"$GPGGA,151016,2538.2805,N,08642.4727,W,1,9,1.7,11,"
"##MN+00 00 69 0084 01832 6764 435812 925109 212"
"121.632222"
"$GPGGA,151020,2538.2816,N,08642.4756,W,1,9,1.7,11,"
"##MN+00 00 68 0084 01833 6766 435899 925109 212"
"121.632269"
"$GPGGA,151024,2538.2827,N,08642.4787,W,1,9,1.7,12,"
"##MN+00 00 67 0084 01831 6767 436088 925109 212"
"121.632315"
"$GPGGA,151028,2538.2836,N,08642.4819,W,1,9,1.7,12,"
"##MN-00 00 69 0084 01831 6768 435688 925109 212"
"121.632361"
"#increment_net"
"$GPGGA,151032,2538.2845,N,08642.4850,W,1,9,1.7,12,"
"##MN-00 00 69 0084 01833 6769 435470 925109 212"
"121.632407"
"#resetparam"
"$GPGGA,151036,2538.2855,N,08642.4882,W,1,9,1.7,11,"
"##MN-00 00 69 0084 01833 6770 435414 925109 212"
"121.632454"
"$GPGGA,151040,2538.2867,N,08642.4913,W,1,9,1.7,11,"
"##MN-00 00 68 0084 01833 6771 435544 925109 212"
"121.636852"
"$GPGGA,151656,2538.3799,N,08642.7775,W,1,9,1.6,10,"
"##MN-02 00 00 0084 01835 6800 434231 925110 212"
"121.636898"
"$GPGGA,151704,2538.3823,N,08642.7832,W,1,9,1.6,10,"
"##MN-02 00 00 0084 01835 6800 433475 925107 212"
"121.636944"
"#resetparam"
"$GPGGA,151708,2538.3835,N,08642.7861,W,1,9,1.6,10,"
"##MN-02 00 00 0084 01835 6801 433302 925107 212"
"121.636991"
"$GPGGA,151710,2538.3837,N,08642.7877,W,1,9,1.6,10,"
"##MN-02 00 00 0084 01834 6800 433241 925109 212"
"121.637037"
"$GPGGA,151716,2538.3853,N,08642.7923,W,1,9,1.6,10,"
"##MN-02 00 00 0084 01834 6802 434159 925107 212"
"121.637083"
"$GPGGA,151720,2538.3868,N,08642.7952,W,1,9,1.7,11,"
"##MN-02 00 03 0085 01834 6802 435597 925107 212"
"121.63713"
"$GPGGA,151724,2538.3886,N,08642.7981,W,1,9,1.6,11,"
"##MN-02 00 16 0085 01834 6801 436692 925107 212"
"121.637176"
"$GPGGA,151728,2538.3896,N,08642.8010,W,1,9,1.6,12,"
"##MN-02 00 39 0085 01835 6801 436795 925107 212"
"121.637222"
"$GPGGA,151732,2538.3910,N,08642.8040,W,1,9,1.6,12,"
"##MN-02 00 39 0085 01834 6801 437166 818616 212"
"121.637269"
"$GPGGA,151736,2538.3918,N,08642.8069,W,1,9,1.6,12,"
"##MN-02 00 43 0086 01835 6802 442575 387531 212"
"121.637315"
"$GPGGA,151740,2538.3928,N,08642.8100,W,1,9,1.6,12,"
"##MN-02 00 45 0086 01833 6802 444130 349737 212"
"121.637361"
"$GPGGA,151744,2538.3938,N,08642.8129,W,1,9,1.6,13,"
"##MN-02 00 50 0088 01834 6802 444145 349932 212"
"121.637407"
"$GPGGA,151748,2538.3947,N,08642.8157,W,1,9,1.6,13,"
"##MN-02 00 53 0089 01833 6802 444157 350184 212"
"121.637454"
"$GPGGA,151752,2538.3958,N,08642.8184,W,1,9,1.6,13,"
"##MN-02 00 51 0091 01831 6803 444150 349986 212"
"121.6375"
"$GPGGA,151756,2538.3967,N,08642.8212,W,1,9,1.6,13,"
"##MN-02 00 56 0092 01830 6803 444118 349992 212"
"121.637546"
"$GPGGA,151800,2538.3979,N,08642.8238,W,1,9,1.6,13,"
"##MN-02 00 52 0094 01832 6803 444039 349972 212"
"121.637593"
"$GPGGA,151804,2538.3987,N,08642.8269,W,1,8,1.6,13,"
"##MN-02 00 53 0095 01832 6803 443955 349949 212"
"121.637639"
"$GPGGA,151808,2538.3997,N,08642.8295,W,1,9,1.6,13,"
"##MN-02 00 48 0097 01832 6803 443975 349956 212"
"121.637685"
"$GPGGA,151812,2538.4005,N,08642.8322,W,1,9,1.6,13,"
"##MN-02 00 51 0098 01831 6802 444033 349973 212"
"121.637731"
"$GPGGA,151816,2538.4016,N,08642.8349,W,1,9,1.6,13,"
"##MN-02 00 55 0100 01834 6802 444067 349984 212"
"121.637778"
"$GPGGA,151820,2538.4026,N,08642.8378,W,1,9,1.6,13,"
"##MN-02 00 53 0101 01835 6802 444007 349973 212"
"121.637824"
"$GPGGA,151824,2538.4037,N,08642.8407,W,1,9,1.6,13,"
"##MN-02 00 51 0103 01831 6801 444039 349976 212"
"121.637882"
"$GPGGA,151828,2538.4047,N,08642.8437,W,1,9,1.6,13,"
"##MN-02 00 57 0104 01838 6800 444023 349969 212"
"121.637928"
"$GPGGA,151833,2538.4058,N,08642.8472,W,1,9,1.6,12,"
"##MN-02 00 54 0106 01839 6800 444101 349996 212"
"121.637975"
"$GPGGA,151837,2538.4066,N,08642.8501,W,1,9,1.6,12,"
"##MN-02 00 51 0108 01843 6799 444125 350002 212"
"121.638021"
"$GPGGA,151841,2538.4077,N,08642.8529,W,1,9,1.6,12,"
"##MN-02 00 55 0110 01846 6798 444087 349986 212"
"121.638067"
"$GPGGA,151844,2538.4081,N,08642.8551,W,1,9,1.6,12,"
"##MN-02 00 53 0111 01849 6797 444103 349985 212"
"121.638113"
"$GPGGA,151848,2538.4091,N,08642.8580,W,1,9,1.6,12,"
"##MN-02 00 49 0113 01854 6796 444174 350011 212"
"121.63816"
"$GPGGA,151852,2538.4099,N,08642.8605,W,1,9,1.6,12,"
"##MN-02 00 52 0114 01857 6795 444258 350037 212"
"121.638206"
"$GPGGA,151857,2538.4113,N,08642.8642,W,1,9,1.6,12,"
"##MN-02 00 52 0116 01864 6793 444273 350038 212"
"121.638252"
"$GPGGA,151901,2538.4122,N,08642.8668,W,1,9,1.6,12,"
"##MN-02 00 52 0118 01863 6792 444284 350035 212"
"121.638299"
"$GPGGA,151905,2538.4134,N,08642.8696,W,1,9,1.6,12,"
"##MN-02 00 53 0119 01873 6791 444319 350049 212"
"121.638345"
"$GPGGA,151909,2538.4142,N,08642.8722,W,1,9,1.6,11,"
"##MN-02 00 54 0121 01871 6789 444371 350065 212"
"121.638391"
"$GPGGA,151913,2538.4155,N,08642.8753,W,1,8,2.1,11,"
"##MN-02 00 51 0123 01877 6788 444473 350094 212"
"121.638438"
"$GPGGA,151917,2538.4167,N,08642.8779,W,1,9,1.6,11,"
"##MN-02 00 51 0124 01878 6785 444497 350102 212"
"121.638484"
"$GPGGA,151921,2538.4178,N,08642.8806,W,1,9,1.6,11,"
"##MN-02 00 53 0126 01884 6784 444513 350105 212"
"121.63853"
"$GPGGA,151925,2538.4189,N,08642.8833,W,1,9,1.6,11,"
"##MN-02 00 54 0128 01888 6781 444513 350103 212"
"121.638576"
"$GPGGA,151929,2538.4200,N,08642.8858,W,1,9,1.6,11,"
"##MN-02 00 53 0129 01891 6780 444570 350120 212"
"121.638623"
"$GPGGA,151933,2538.4211,N,08642.8884,W,1,9,1.6,11,"
"##MN-02 00 51 0131 01897 6778 444595 350126 212"
"121.638669"
"$GPGGA,151937,2538.4220,N,08642.8909,W,1,9,1.6,11,"
"##MN-02 00 53 0133 01901 6776 444592 350125 212"
"121.638715"
"$GPGGA,151941,2538.4229,N,08642.8934,W,1,9,1.6,12,"
"##MN-02 00 51 0134 01901 6773 444636 350136 212"
"121.638762"
"$GPGGA,151945,2538.4239,N,08642.8964,W,1,9,1.6,12,"
"##MN-02 00 53 0136 01907 6771 444646 350139 212"
"121.638808"
"$GPGGA,151949,2538.4246,N,08642.8992,W,1,9,1.6,12,"
"##MN-02 00 52 0138 01914 6769 444656 350140 212"
"121.638854"
"$GPGGA,151953,2538.4256,N,08642.9017,W,1,9,1.6,12,"
"##MN-02 00 51 0139 01915 6766 444675 350147 212"
"121.6389"
"$GPGGA,151957,2538.4265,N,08642.9046,W,1,9,1.6,12,"
"##MN-02 00 51 0141 01916 6764 444680 350147 212"
"121.638947"
"$GPGGA,152001,2538.4275,N,08642.9072,W,1,9,1.6,12,"
"##MN-02 00 54 0143 01922 6762 444689 350151 212"
"121.638993"
"$GPGGA,152005,2538.4283,N,08642.9098,W,1,9,1.6,12,"
"##MN-02 00 53 0144 01922 6759 444697 350151 212"
"121.639039"
"$GPGGA,152009,2538.4294,N,08642.9129,W,1,9,1.6,12,"
"##MN-02 00 53 0146 01928 6756 444691 350149 212"
"121.639086"
"$GPGGA,152013,2538.4305,N,08642.9155,W,1,8,1.6,12,"
"##MN-02 00 54 0148 01926 6754 444709 350154 212"
"121.639132"
"$GPGGA,152017,2538.4315,N,08642.9184,W,1,9,1.6,12,"
"##MN-02 00 54 0149 01934 6751 444734 350161 212"
"121.639178"
"$GPGGA,152021,2538.4323,N,08642.9209,W,1,9,1.6,12,"
"##MN-02 00 52 0151 01938 6749 444723 350157 212"
"121.639225"
"$GPGGA,152025,2538.4333,N,08642.9238,W,1,9,1.6,12,"
"##MN-02 00 53 0153 01939 6746 444721 350155 212"
"121.639271"
"$GPGGA,152029,2538.4343,N,08642.9263,W,1,9,1.6,12,"
"##MN-02 00 55 0154 01948 6743 444718 350153 212"
"121.639317"
"$GPGGA,152033,2538.4352,N,08642.9288,W,1,9,1.6,12,"
"##MN-02 00 53 0156 01953 6740 444724 350154 212"
"121.639363"
"$GPGGA,152037,2538.4363,N,08642.9317,W,1,9,1.6,12,"
"##MN-02 00 54 0158 01955 6737 444725 350152 212"
"121.63941"
"$GPGGA,152041,2538.4375,N,08642.9344,W,1,8,1.6,12,"
"##MN-02 00 53 0159 01964 6734 444732 350154 212"
"121.639456"
"$GPGGA,152045,2538.4386,N,08642.9371,W,1,9,1.6,11,"
"##MN-02 00 53 0161 01971 6732 444773 350165 212"
"121.639502"
"$GPGGA,152049,2538.4395,N,08642.9397,W,1,9,1.6,11,"
"##MN-02 00 54 0162 01973 6729 444771 350162 212"
"121.639549"
"$GPGGA,152053,2538.4402,N,08642.9425,W,1,9,1.6,11,"
"##MN-02 00 53 0164 01982 6726 444777 350163 212"
"121.639595"
"$GPGGA,152057,2538.4412,N,08642.9451,W,1,9,2.1,11,"
"##MN-02 00 54 0165 01990 6723 444776 350163 212"
"121.639641"
"$GPGGA,152101,2538.4427,N,08642.9481,W,1,9,1.6,11,"
"##MN-02 00 53 0167 01991 6719 444782 350162 212"
"121.639687"
"$GPGGA,152105,2538.4438,N,08642.9510,W,1,9,1.6,12,"
"##MN-02 00 53 0169 02001 6716 444781 350161 212"
"121.639734"
"$GPGGA,152109,2538.4449,N,08642.9537,W,1,9,1.6,12,"
"##MN-02 00 53 0170 02004 6714 444802 350167 212"
"121.63978"
"$GPGGA,152113,2538.4460,N,08642.9563,W,1,9,1.6,12,"
"##MN-02 00 52 0172 02012 6710 444811 350170 212"
"121.639826"
"$GPGGA,152117,2538.4473,N,08642.9588,W,1,9,2.0,12,"
"##MN-02 00 52 0173 02014 6707 444849 350181 212"
"121.639873"
"$GPGGA,152121,2538.4478,N,08642.9620,W,1,9,1.6,13,"
"##MN-02 00 52 0175 02020 6704 444861 350183 212"
"121.639919"
"$GPGGA,152125,2538.4487,N,08642.9649,W,1,9,1.6,13,"
"##MN-02 00 54 0176 02027 6700 444847 350180 212"
"121.639965"
"$GPGGA,152129,2538.4496,N,08642.9675,W,1,9,1.6,14,"
"##MN-02 00 52 0178 02033 6697 444878 350188 212"
"121.640012"
"$GPGGA,152133,2538.4506,N,08642.9704,W,1,9,1.6,14,"
"##MN-02 00 52 0180 02039 6694 444858 350178 212"
"121.640058"
"$GPGGA,152137,2538.4517,N,08642.9733,W,1,9,1.6,14,"
"##MN-02 00 52 0181 02042 6690 444847 350175 212"
"121.640104"
"$GPGGA,152141,2538.4532,N,08642.9761,W,1,9,1.6,14,"
"##MN-02 00 53 0183 02050 6687 444897 350190 212"
"121.64015"
"$GPGGA,152145,2538.4547,N,08642.9790,W,1,9,1.6,15,"
"##MN-02 00 51 0184 02050 6684 444906 350192 212"
"121.640197"
"$GPGGA,152149,2538.4560,N,08642.9816,W,1,9,1.6,15,"
"##MN-02 00 53 0186 02053 6680 444913 350194 212"
"121.640243"
"$GPGGA,152153,2538.4571,N,08642.9842,W,1,7,1.6,16,"
"##MN-02 00 52 0188 02062 6677 444923 350196 212"
"121.640289"
"$GPGGA,152157,2538.4582,N,08642.9867,W,1,8,1.6,16,"
"##MN-02 00 53 0189 02069 6674 444947 350204 212"
"121.640336"
"$GPGGA,152201,2538.4590,N,08642.9895,W,1,8,2.1,16,"
"##MN-02 00 53 0191 02071 6670 444954 350205 212"
"121.640382"
"$GPGGA,152205,2538.4599,N,08642.9922,W,1,9,1.6,16,"
"##MN-02 00 54 0192 02076 6667 444944 350201 212"
"121.640428"
"$GPGGA,152209,2538.4608,N,08642.9947,W,1,9,1.6,17,"
"##MN-02 00 52 0194 02081 6663 444985 350213 212"
"121.640475"
"$GPGGA,152213,2538.4619,N,08642.9973,W,1,9,1.6,17,"
"##MN-02 00 54 0195 02085 6660 444992 350215 212"
"121.640521"
"$GPGGA,152217,2538.4628,N,08643.0000,W,1,9,1.6,17,"
"##MN-02 00 53 0197 02091 6656 444988 350213 212"
"121.640567"
"$GPGGA,152221,2538.4637,N,08643.0027,W,1,9,1.6,17,"
"##MN-02 00 53 0198 02096 6653 445096 350249 212"
"121.640613"
"$GPGGA,152225,2538.4648,N,08643.0054,W,1,9,1.6,17,"
"##MN-02 00 52 0200 02101 6650 445116 350251 212"
"121.64066"
"$GPGGA,152229,2538.4658,N,08643.0080,W,1,9,1.6,17,"
"##MN-02 00 52 0202 02106 6646 445125 350256 212"
"121.640706"
"$GPGGA,152233,2538.4670,N,08643.0102,W,1,9,1.6,17,"
"##MN-02 00 53 0203 02113 6642 445144 350262 212"
"121.640752"
"$GPGGA,152237,2538.4680,N,08643.0127,W,1,9,1.6,17,"
"##MN-02 00 52 0205 02114 6639 445270 350302 212"
"121.640799"
"$GPGGA,152241,2538.4689,N,08643.0155,W,1,9,1.6,17,"
"##MN-02 00 52 0206 02121 6635 445285 350309 212"
"121.640845"
"$GPGGA,152245,2538.4702,N,08643.0181,W,1,9,1.6,17,"
"##MN-02 00 53 0208 02127 6632 445344 350329 212"
"121.640891"
"$GPGGA,152249,2538.4711,N,08643.0206,W,1,9,1.6,17,"
"##MN-02 00 51 0209 02134 6628 445401 350347 212"
"121.640937"
"$GPGGA,152253,2538.4723,N,08643.0233,W,1,9,1.6,17,"
"##MN-02 00 53 0211 02144 6624 445565 350399 212"
"121.640984"
"$GPGGA,152257,2538.4733,N,08643.0258,W,1,8,1.7,17,"
"##MN-02 00 52 0212 02148 6621 445735 350454 212"
"121.64103"
"$GPGGA,152301,2538.4742,N,08643.0282,W,1,9,1.6,17,"
"##MN-02 00 51 0214 02154 6617 446029 350543 212"
"121.641088"
"$GPGGA,152305,2538.4751,N,08643.0307,W,1,9,1.6,17,"
"##MN-02 00 51 0215 02157 6614 446335 350635 212"
"121.641134"
"$GPGGA,152309,2538.4762,N,08643.0332,W,1,9,1.6,17,"
"##MN-02 00 53 0217 02160 6610 446387 350651 212"
"121.641181"
"$GPGGA,152314,2538.4770,N,08643.0366,W,1,9,1.7,17,"
"##MN-02 00 52 0218 02168 6607 446396 350655 212"
"121.641227"
"$GPGGA,152317,2538.4778,N,08643.0387,W,1,9,1.6,17,"
"##MN-02 00 52 0220 02172 6603 446436 350668 212"
"121.641273"
"$GPGGA,152322,2538.4791,N,08643.0421,W,1,9,1.6,17,"
"##MN-02 00 51 0221 02173 6599 446472 350678 212"
"121.641319"
"$GPGGA,152326,2538.4799,N,08643.0446,W,1,8,1.7,17,"
"##MN-02 00 51 0223 02180 6595 446496 350686 212"
"121.641366"
"$GPGGA,152329,2538.4807,N,08643.0464,W,1,9,1.6,17,"
"##MN-02 00 53 0224 02189 6592 446550 350702 212"
"121.641412"
"$GPGGA,152333,2538.4814,N,08643.0486,W,1,9,1.6,17,"
"##MN-02 00 51 0226 02190 6588 446659 350737 212"
"121.641458"
"$GPGGA,152338,2538.4827,N,08643.0522,W,1,9,1.6,17,"
"##MN-02 00 53 0227 02198 6584 446984 350849 212"
"121.641505"
"$GPGGA,152341,2538.4834,N,08643.0542,W,1,8,1.6,17,"
"##MN-02 00 50 0229 02203 6581 447407 350989 212"
"121.641551"
"$GPGGA,152346,2538.4843,N,08643.0574,W,1,9,1.5,17,"
"##MN-02 00 51 0230 02208 6577 447880 351159 212"
"121.641597"
"$GPGGA,152350,2538.4853,N,08643.0598,W,1,9,1.5,17,"
"##MN-02 00 50 0232 02213 6573 448418 351329 212"
"121.641644"
"$GPGGA,152354,2538.4863,N,08643.0625,W,1,9,1.5,17,"
"##MN-02 00 51 0233 02219 6569 448502 351357 212"
"121.64169"
"$GPGGA,152358,2538.4872,N,08643.0652,W,1,9,1.5,17,"
"##MN-02 00 51 0235 02223 6566 448617 351390 212"
"121.641736"
"$GPGGA,152402,2538.4879,N,08643.0683,W,1,8,1.5,17,"
"##MN-02 00 50 0236 02225 6562 448721 351420 212"
"121.641782"
"$GPGGA,152406,2538.4886,N,08643.0713,W,1,9,1.5,16,"
"##MN-02 00 51 0238 02231 6558 448907 351474 212"
"121.641829"
"$GPGGA,152410,2538.4896,N,08643.0740,W,1,9,1.5,16,"
"##MN-02 00 51 0240 02237 6555 448965 351493 212"
"121.641875"
"$GPGGA,152414,2538.4910,N,08643.0769,W,1,7,1.5,15,"
"##MN-02 00 51 0241 02240 6551 449000 351506 212"
"121.641921"
"$GPGGA,152418,2538.4921,N,08643.0792,W,1,9,1.5,15,"
"##MN-02 00 51 0243 02248 6547 449030 351518 212"
"121.641968"
"$GPGGA,152422,2538.4928,N,08643.0820,W,1,8,1.5,15,"
"##MN-02 00 51 0244 02252 6544 449079 351534 212"
"121.642014"
"$GPGGA,152426,2538.4936,N,08643.0846,W,1,9,1.5,15,"
"##MN-02 00 51 0246 02259 6540 449111 351546 212"
"121.64206"
"$GPGGA,152430,2538.4948,N,08643.0870,W,1,8,1.5,15,"
"##MN-02 00 50 0247 02264 6536 449181 351568 212"
"121.642106"
"$GPGGA,152434,2538.4958,N,08643.0893,W,1,9,1.7,15,"
"##MN-02 00 50 0249 02266 6532 449233 351586 212"
"121.642153"
"$GPGGA,152438,2538.4968,N,08643.0921,W,1,9,1.5,15,"
"##MN-02 00 52 0250 02272 6529 449336 351621 212"
"121.642199"
"$GPGGA,152442,2538.4977,N,08643.0947,W,1,9,1.5,15,"
"##MN-02 00 52 0252 02282 6524 449381 351636 212"
"121.642245"
"$GPGGA,152446,2538.4987,N,08643.0972,W,1,9,1.5,15,"
"##MN-02 00 51 0253 02278 6521 449477 351670 212"
"121.642292"
"$GPGGA,152450,2538.4998,N,08643.0998,W,1,9,1.5,16,"
"##MN-02 00 52 0255 02289 6517 449501 351681 212"
"121.642338"
"$GPGGA,152454,2538.5011,N,08643.1022,W,1,9,1.5,16,"
"##MN-02 00 51 0256 02293 6514 449561 351700 212"
"121.642384"
"$GPGGA,152458,2538.5019,N,08643.1049,W,1,9,1.7,16,"
"##MN-02 00 51 0258 02298 6510 449591 351712 212"
"121.642431"
"$GPGGA,152502,2538.5027,N,08643.1073,W,1,9,1.5,16,"
"##MN-02 00 49 0259 02302 6506 449640 351728 212"
"121.642477"
"$GPGGA,152506,2538.5038,N,08643.1098,W,1,9,1.5,17,"
"##MN-02 00 50 0261 02299 6502 449587 351710 212"
"121.642523"
"$GPGGA,152510,2538.5048,N,08643.1124,W,1,9,1.5,17,"
"##MN+02 00 49 0263 02299 6498 449536 351693 212"
"121.642569"
"$GPGGA,152514,2538.5055,N,08643.1152,W,1,9,1.5,17,"
"##MN+02 00 50 0265 02299 6494 449501 351681 212"
"121.642616"
"$GPGGA,152518,2538.5063,N,08643.1178,W,1,9,1.5,17,"
"##MN+03 00 54 0266 02297 6491 449481 351673 212"
"121.642662"
"$GPGGA,152522,2538.5073,N,08643.1207,W,1,9,1.5,17,"
"##MN-03 00 52 0268 02296 6487 449464 351667 212"
"121.642708"
"$GPGGA,152526,2538.5087,N,08643.1236,W,1,9,1.5,17,"
"##MN-03 00 51 0270 02295 6483 449498 351680 212"
"121.642755"
"$GPGGA,152530,2538.5098,N,08643.1261,W,1,9,2.0,17,"
"##MN-03 00 51 0272 02299 6479 449542 351695 212"
"121.642801"
"$GPGGA,152534,2538.5107,N,08643.1288,W,1,8,1.5,17,"
"##MN-03 00 49 0273 02298 6475 449586 351711 212"
"121.642847"
"$GPGGA,152538,2538.5116,N,08643.1316,W,1,9,1.5,17,"
"##MN-03 00 54 0275 02291 6471 449603 351716 212"
"121.642894"
"$GPGGA,152542,2538.5121,N,08643.1348,W,1,8,1.5,17,"
"##MN-03 00 55 0277 02288 6468 449567 351705 212"
"121.64294"
"$GPGGA,152546,2538.5128,N,08643.1373,W,1,8,2.5,17,"
"##MN-03 00 51 0279 02284 6464 449549 351699 212"
"121.642986"
"$GPGGA,152550,2538.5141,N,08643.1398,W,1,9,1.5,17,"
"##MN-03 00 49 0281 02283 6460 449503 351684 212"
"121.643032"
"$GPGGA,152554,2538.5150,N,08643.1423,W,1,8,2.0,17,"
"##MN-03 00 52 0283 02276 6457 449497 351681 212"
"121.643079"
"$GPGGA,152558,2538.5161,N,08643.1449,W,1,9,1.5,17,"
"##MN-03 00 52 0285 02274 6453 449459 351667 212"
"121.643125"
"$GPGGA,152602,2538.5171,N,08643.1475,W,1,9,1.5,17,"
"##MN-03 00 51 0287 02274 6449 449435 351658 212"
"121.643171"
"$GPGGA,152606,2538.5175,N,08643.1501,W,1,9,1.5,17,"
"##MN-03 00 52 0288 02272 6445 449333 351624 212"
"121.643218"
"$GPGGA,152610,2538.5186,N,08643.1526,W,1,9,1.5,17,"
"##MN-03 00 50 0290 02270 6441 449297 351611 212"
"121.643264"
"$GPGGA,152614,2538.5190,N,08643.1551,W,1,9,1.5,17,"
"##MN-03 00 52 0292 02263 6438 449183 351574 212"
"121.64331"
"$GPGGA,152618,2538.5199,N,08643.1576,W,1,9,1.5,17,"
"##MN-03 00 51 0294 02265 6434 449167 351568 212"
"121.643356"
"$GPGGA,152622,2538.5201,N,08643.1601,W,1,9,1.5,17,"
"##MN-03 00 52 0296 02260 6429 449145 351561 212"
"121.643403"
"$GPGGA,152626,2538.5211,N,08643.1626,W,1,9,1.7,17,"
"##MN-03 00 51 0298 02258 6426 449142 351561 212"
"121.643449"
"$GPGGA,152630,2538.5217,N,08643.1652,W,1,9,1.8,16,"
"##MN-03 00 53 0300 02254 6422 449124 351555 212"
"121.643495"
"$GPGGA,152634,2538.5226,N,08643.1677,W,1,9,1.5,16,"
"##MN-03 00 52 0302 02250 6418 449118 351553 212"
"121.643542"
"$GPGGA,152638,2538.5237,N,08643.1702,W,1,9,1.7,16,"
"##MN-03 00 52 0304 02249 6414 449060 351535 212"
"121.643588"
"$GPGGA,152642,2538.5247,N,08643.1727,W,1,9,1.5,16,"
"##MN-03 00 53 0306 02246 6411 448974 351502 212"
"121.643634"
"$GPGGA,152646,2538.5255,N,08643.1756,W,1,9,2.0,16,"
"##MN-03 00 54 0308 02241 6407 448876 351471 212"
"121.643681"
"$GPGGA,152650,2538.5266,N,08643.1782,W,1,9,1.5,17,"
"##MN-03 00 51 0310 02239 6403 448848 351463 212"
"121.643727"
"$GPGGA,152654,2538.5276,N,08643.1804,W,1,9,1.8,17,"
"##MN-03 00 54 0312 02239 6400 448826 351457 212"
"121.643773"
"$GPGGA,152658,2538.5287,N,08643.1832,W,1,8,1.7,17,"
"##MN-03 00 53 0314 02235 6396 448807 351453 212"
"121.643819"
"$GPGGA,152702,2538.5295,N,08643.1855,W,1,9,1.8,17,"
"##MN-03 00 54 0315 02231 6392 448784 351449 212"
"121.643866"
"$GPGGA,152706,2538.5307,N,08643.1880,W,1,9,1.5,18,"
"##MN-03 00 52 0317 02234 6388 448769 351448 212"
"121.643912"
"$GPGGA,152710,2538.5316,N,08643.1905,W,1,9,1.5,18,"
"##MN-03 00 54 0319 02230 6385 448766 351448 212"
"121.643958"
"$GPGGA,152714,2538.5330,N,08643.1929,W,1,9,1.5,18,"
"##MN-03 00 53 0321 02226 6381 448765 351448 212"
"121.644005"
"$GPGGA,152718,2538.5335,N,08643.1954,W,1,9,1.5,18,"
"##MN-03 00 53 0323 02224 6377 448768 351453 212"
"121.644051"
"$GPGGA,152722,2538.5344,N,08643.1980,W,1,9,2.0,18,"
"##MN-03 00 52 0325 02226 6373 448764 351466 212"
"121.644097"
"$GPGGA,152726,2538.5349,N,08643.2005,W,1,9,1.7,18,"
"##MN-03 00 54 0327 02221 6370 448709 351449 212"
"121.644144"
"$GPGGA,152730,2538.5358,N,08643.2030,W,1,9,1.5,18,"
"##MN-03 00 52 0329 02223 6366 448623 351423 212"
"121.64419"
"$GPGGA,152734,2538.5367,N,08643.2052,W,1,9,1.5,18,"
"##MN-03 00 54 0331 02217 6362 448534 351389 212"
"121.644236"
"$GPGGA,152738,2538.5377,N,08643.2077,W,1,9,1.5,18,"
"##MN-03 00 55 0333 02213 6359 448446 351352 212"
"121.644282"
"$GPGGA,152742,2538.5387,N,08643.2100,W,1,9,1.5,18,"
"##MN-03 00 53 0335 02209 6355 447865 351157 212"
"121.64434"
"$GPGGA,152747,2538.5399,N,08643.2133,W,1,8,2.0,18,"
"##MN+03 00 53 0336 02207 6351 447475 351031 212"
"121.644387"
"$GPGGA,152750,2538.5413,N,08643.2153,W,1,9,1.5,18,"
"##MN+03 00 52 0338 02207 6348 447245 350946 212"
"121.644433"
"$GPGGA,152754,2538.5420,N,08643.2179,W,1,9,2.0,18,"
"##MN+04 00 53 0340 02203 6344 446886 350817 212"
"121.644479"
"$GPGGA,152758,2538.5431,N,08643.2207,W,1,9,1.5,19,"
"##MN-04 00 51 0342 02201 6340 446781 350784 212"
"121.644525"
"$GPGGA,152803,2538.5441,N,08643.2240,W,1,9,1.5,19,"
"##MN-04 00 52 0344 02201 6337 446588 350721 212"
"121.644572"
"$GPGGA,152806,2538.5446,N,08643.2259,W,1,9,1.5,18,"
"##MN-04 00 51 0346 02193 6333 446574 350712 212"
"121.644618"
"$GPGGA,152810,2538.5454,N,08643.2283,W,1,9,1.5,18,"
"##MN-04 00 54 0348 02194 6330 446550 350706 212"
"121.644664"
"$GPGGA,152815,2538.5466,N,08643.2312,W,1,9,1.5,18,"
"##MN-04 00 51 0350 02190 6326 446489 350684 212"
"121.644711"
"$GPGGA,152819,2538.5474,N,08643.2337,W,1,9,1.5,18,"
"##MN-04 00 54 0352 02186 6323 446484 350681 212"
"121.644757"
"$GPGGA,152823,2538.5481,N,08643.2361,W,1,9,1.5,17,"
"##MN-04 00 51 0354 02188 6319 446298 350625 212"
"121.644803"
"$GPGGA,152827,2538.5489,N,08643.2388,W,1,9,1.5,17,"
"##MN-04 00 51 0356 02182 6315 446208 350594 212"
"121.64485"
"$GPGGA,152831,2538.5497,N,08643.2413,W,1,9,1.5,17,"
"##MN-04 00 51 0358 02184 6312 446122 350570 212"
"121.644896"
"$GPGGA,152834,2538.5504,N,08643.2432,W,1,9,1.5,17,"
"##MN-04 00 50 0360 02180 6308 446096 350561 212"
"121.644942"
"$GPGGA,152839,2538.5514,N,08643.2465,W,1,9,1.5,17,"
"##MN-04 00 50 0362 02178 6305 446017 350538 212"
"121.644988"
"$GPGGA,152843,2538.5522,N,08643.2490,W,1,8,1.5,17,"
"##MN-04 00 52 0364 02173 6301 446012 350536 212"
"121.645035"
"$GPGGA,152847,2538.5535,N,08643.2518,W,1,9,1.7,17,"
"##MN-04 00 50 0365 02174 6298 445995 350530 212"
"121.645081"
"$GPGGA,152851,2538.5546,N,08643.2537,W,1,9,1.5,17,"
"##MN-04 00 51 0367 02171 6294 446000 350531 212"
"121.645127"
"$GPGGA,152855,2538.5554,N,08643.2565,W,1,9,1.5,17,"
"##MN-04 00 51 0369 02169 6291 445993 350529 212"
"121.645174"
"$GPGGA,152859,2538.5562,N,08643.2591,W,1,9,1.5,17,"
"##MN-04 00 51 0371 02169 6287 445979 350525 212"
"121.64522"
"$GPGGA,152903,2538.5572,N,08643.2617,W,1,9,1.5,18,"
"##MN-04 00 51 0373 02167 6284 445978 350524 212"
"121.645266"
"$GPGGA,152907,2538.5579,N,08643.2644,W,1,9,1.5,18,"
"##MN-04 00 51 0375 02165 6280 445967 350522 212"
"121.645313"
"$GPGGA,152911,2538.5585,N,08643.2668,W,1,9,1.5,18,"
"##MN-04 00 50 0377 02166 6277 445933 350512 212"
"121.645359"
"$GPGGA,152915,2538.5594,N,08643.2695,W,1,9,1.5,18,"
"##MN-04 00 52 0379 02160 6273 445920 350508 212"
"121.645405"
"$GPGGA,152919,2538.5605,N,08643.2720,W,1,9,1.5,18,"
"##MN-04 00 52 0381 02161 6270 445906 350504 212"
"121.645451"
"$GPGGA,152923,2538.5612,N,08643.2746,W,1,9,1.5,18,"
"##MN-04 00 50 0383 02159 6267 445785 350464 212"
"121.645498"
"$GPGGA,152927,2538.5623,N,08643.2772,W,1,8,1.5,18,"
"##MN-04 00 51 0384 02155 6263 445773 350461 212"
"121.645544"
"$GPGGA,152931,2538.5631,N,08643.2796,W,1,8,1.5,18,"
"##MN-04 00 51 0386 02151 6260 445790 350465 212"
"121.64559"
"$GPGGA,152935,2538.5644,N,08643.2822,W,1,9,1.5,18,"
"##MN-04 00 51 0388 02156 6256 445642 350420 212"
"121.645637"
"$GPGGA,152939,2538.5655,N,08643.2845,W,1,8,1.5,18,"
"##MN-04 00 51 0390 02149 6253 445605 350402 212"
"121.645683"
"$GPGGA,152943,2538.5665,N,08643.2868,W,1,8,1.5,18,"
"##MN-04 00 51 0392 02149 6250 445593 350403 212"
"121.645729"
"$GPGGA,152947,2538.5670,N,08643.2894,W,1,9,1.9,18,"
"##MN-04 00 51 0394 02146 6247 445504 350370 212"
"121.645775"
"$GPGGA,152951,2538.5680,N,08643.2919,W,1,8,1.5,18,"
"##MN-04 00 51 0396 02144 6243 445480 350364 212"
"121.645822"
"$GPGGA,152955,2538.5681,N,08643.2941,W,1,9,1.5,18,"
"##MN-04 00 52 0398 02140 6240 445375 350332 212"
"121.645868"
"$GPGGA,152959,2538.5692,N,08643.2973,W,1,9,1.5,18,"
"##MN-04 00 51 0400 02137 6236 445265 350290 212"
"121.645914"
"$GPGGA,153003,2538.5701,N,08643.2999,W,1,9,1.5,18,"
"##MN-04 00 52 0402 02136 6233 445214 350275 212"
"121.645961"
"$GPGGA,153007,2538.5710,N,08643.3024,W,1,9,1.5,17,"
"##MN-04 00 51 0403 02135 6230 445103 350240 212"
"121.646007"
"$GPGGA,153011,2538.5721,N,08643.3049,W,1,8,1.7,17,"
"##MN-04 00 51 0405 02130 6227 445104 350238 212"
"121.646053"
"$GPGGA,153015,2538.5728,N,08643.3079,W,1,9,1.5,17,"
"##MN-04 00 51 0407 02131 6223 445116 350243 211"
"121.6461"
"$GPGGA,153019,2538.5732,N,08643.3097,W,1,9,1.5,16,"
"##MN-04 00 52 0409 02125 6220 445053 350220 212"
"121.646146"
"$GPGGA,153023,2538.5741,N,08643.3129,W,1,9,1.5,15,"
"##MN-04 00 52 0411 02125 6217 445044 350219 212"
"121.646192"
"$GPGGA,153027,2538.5755,N,08643.3152,W,1,9,1.5,15,"
"##MN-04 00 52 0413 02124 6214 445039 350217 212"
"121.646238"
"$GPGGA,153031,2538.5768,N,08643.3179,W,1,9,1.5,15,"
"##MN-04 00 49 0415 02122 6211 445035 350216 212"
"121.646285"
"$GPGGA,153035,2538.5779,N,08643.3204,W,1,9,1.5,15,"
"##MN-04 00 51 0417 02118 6208 445016 350210 212"
"121.646331"
"$GPGGA,153039,2538.5788,N,08643.3230,W,1,9,1.5,16,"
"##MN+04 00 50 0419 02117 6204 444986 350199 211"
"121.646377"
"$GPGGA,153043,2538.5797,N,08643.3256,W,1,9,1.5,16,"
"##MN+04 00 50 0421 02114 6201 444956 350189 212"
"121.646424"
"$GPGGA,153047,2538.5806,N,08643.3284,W,1,9,1.5,16,"
"##MN+05 00 52 0423 02113 6198 444943 350184 212"
"121.64647"
"$GPGGA,153051,2538.5818,N,08643.3311,W,1,9,1.5,17,"
"##MN-05 00 50 0424 02113 6195 444937 350182 212"
"121.646516"
"$GPGGA,153055,2538.5829,N,08643.3340,W,1,9,1.5,17,"
"##MN-05 00 49 0426 02108 6192 444929 350180 212"
"121.646562"
"$GPGGA,153059,2538.5836,N,08643.3364,W,1,9,1.5,18,"
"##MN-05 00 52 0428 02105 6189 444918 350176 212"
"121.646609"
"$GPGGA,153103,2538.5844,N,08643.3389,W,1,9,1.5,18,"
"##MN-05 00 51 0430 02106 6186 444906 350172 212"
"121.646655"
"$GPGGA,153107,2538.5853,N,08643.3411,W,1,9,1.5,18,"
"##MN-05 00 49 0432 02100 6183 444897 350170 211"
"121.646701"
"$GPGGA,153111,2538.5862,N,08643.3436,W,1,9,1.5,18,"
"##MN-05 00 50 0434 02100 6179 444895 350168 212"
"121.646748"
"$GPGGA,153115,2538.5872,N,08643.3461,W,1,9,1.5,18,"
"##MN-05 00 50 0436 02098 6176 444877 350163 211"
"121.646794"
"$GPGGA,153119,2538.5880,N,08643.3486,W,1,9,1.5,18,"
"##MN-05 00 51 0438 02092 6173 444876 350163 211"
"121.64684"
"$GPGGA,153123,2538.5891,N,08643.3513,W,1,8,1.9,18,"
"##MN-05 00 52 0440 02092 6171 444896 350170 211"
"121.646887"
"$GPGGA,153127,2538.5900,N,08643.3540,W,1,8,1.7,18,"
"##MN-05 00 50 0442 02092 6167 444897 350171 211"
"121.646933"
"$GPGGA,153131,2538.5918,N,08643.3566,W,1,9,1.5,18,"
"##MN-05 00 50 0444 02091 6164 444895 350170 211"
"121.646979"
"$GPGGA,153135,2538.5926,N,08643.3587,W,1,8,1.9,18,"
"##MN-05 00 50 0446 02087 6161 444881 350166 211"
"121.647025"
"$GPGGA,153139,2538.5934,N,08643.3613,W,1,9,1.5,18,"
"##MN-05 00 50 0447 02085 6158 444881 350166 211"
"121.647072"
"$GPGGA,153143,2538.5941,N,08643.3635,W,1,8,1.9,18,"
"##MN-05 00 50 0449 02083 6156 444848 350154 211"
"121.647118"
"$GPGGA,153147,2538.5956,N,08643.3663,W,1,8,1.9,17,"
"##MN-05 00 50 0451 02081 6153 444843 350153 211"
"121.647164"
"$GPGGA,153151,2538.5969,N,08643.3685,W,1,9,1.5,17,"
"##MN-05 00 53 0453 02078 6149 444850 350156 211"
"121.647211"
"$GPGGA,153155,2538.5978,N,08643.3714,W,1,8,1.7,17,"
"##MN-05 00 51 0455 02077 6147 444849 350156 211"
"121.647257"
"$GPGGA,153159,2538.5984,N,08643.3736,W,1,7,2.3,17,"
"##MN-05 00 47 0457 02079 6144 444859 350159 211"
"121.647303"
"$GPGGA,153203,2538.5994,N,08643.3759,W,1,9,1.5,17,"
"##MN-05 00 49 0459 02069 6141 444858 350159 211"
"121.64735"
"$GPGGA,153207,2538.5999,N,08643.3787,W,1,9,1.5,17,"
"##MN-05 00 53 0461 02068 6138 444851 350157 211"
"121.647396"
"$GPGGA,153211,2538.6009,N,08643.3812,W,1,9,1.5,17,"
"##MN-05 00 49 0463 02067 6135 444838 350154 211"
"121.647442"
"$GPGGA,153215,2538.6017,N,08643.3841,W,1,8,1.7,17,"
"##MN-05 00 49 0465 02066 6132 444831 350151 211"
"121.647488"
"$GPGGA,153219,2538.6030,N,08643.3866,W,1,9,1.5,18,"
"##MN-05 00 51 0467 02060 6129 444827 350150 211"
"121.647535"
"$GPGGA,153223,2538.6037,N,08643.3892,W,1,9,1.5,18,"
"##MN-05 00 51 0468 02058 6126 444832 350152 211"
"121.647593"
"$GPGGA,153227,2538.6049,N,08643.3920,W,1,9,1.5,18,"
"##MN-05 00 50 0470 02056 6124 444828 350149 211"
"121.647639"
"$GPGGA,153231,2538.6057,N,08643.3946,W,1,9,1.5,18,"
"##MN-05 00 49 0472 02054 6121 444821 350150 211"
"121.647685"
"$GPGGA,153236,2538.6071,N,08643.3978,W,1,9,1.5,19,"
"##MN-05 00 51 0474 02053 6118 444834 350152 211"
"121.647731"
"$GPGGA,153239,2538.6078,N,08643.3999,W,1,8,1.7,19,"
"##MN-05 00 49 0476 02047 6115 444835 350154 211"
"121.647778"
"$GPGGA,153243,2538.6088,N,08643.4021,W,1,9,1.5,19,"
"##MN-05 00 55 0478 02045 6112 444832 350154 211"
"121.647824"
"$GPGGA,153247,2538.6096,N,08643.4043,W,1,9,1.5,19,"
"##MN-05 00 49 0480 02041 6110 444816 350148 211"
"121.64787"
"$GPGGA,153252,2538.6104,N,08643.4075,W,1,8,1.5,19,"
"##MN-05 00 50 0482 02044 6107 444791 350140 211"
"121.647917"
"$GPGGA,153256,2538.6111,N,08643.4098,W,1,9,1.5,19,"
"##MN-05 00 50 0484 02040 6104 444788 350139 211"
"121.647963"
"$GPGGA,153300,2538.6121,N,08643.4124,W,1,9,1.7,19,"
"##MN-05 00 50 0486 02038 6101 444800 350143 211"
"121.648009"
"$GPGGA,153304,2538.6129,N,08643.4148,W,1,9,1.9,19,"
"##MN-05 00 49 0488 02037 6099 444801 350143 211"
"121.648056"
"$GPGGA,153308,2538.6136,N,08643.4176,W,1,8,1.5,20,"
"##MN-05 00 50 0490 02034 6096 444783 350138 211"
"121.648102"
"$GPGGA,153312,2538.6147,N,08643.4201,W,1,9,1.5,20,"
"##MN-05 00 50 0492 02034 6093 444789 350140 211"
"121.648148"
"$GPGGA,153316,2538.6157,N,08643.4228,W,1,8,1.5,20,"
"##MN-05 00 49 0493 02031 6091 444782 350138 211"
"121.648194"
"$GPGGA,153320,2538.6168,N,08643.4253,W,1,8,1.8,20,"
"##MN-05 00 52 0495 02024 6088 444764 350132 211"
"121.648241"
"$GPGGA,153324,2538.6175,N,08643.4279,W,1,7,1.8,20,"
"##MN+05 00 51 0497 02025 6085 444767 350134 211"
"121.648287"
"$GPGGA,153328,2538.6187,N,08643.4306,W,1,7,2.0,20,"
"##MN+05 00 50 0499 02022 6082 444764 350134 211"
"121.648333"
"$GPGGA,153332,2538.6197,N,08643.4332,W,1,8,2.0,20,"
"##MN+05 00 53 0501 02018 6080 444751 350129 211"
"121.64838"
"$GPGGA,153336,2538.6204,N,08643.4360,W,1,8,1.8,20,"
"##MN-05 00 49 0503 02019 6077 444742 350126 211"
"121.648426"
"$GPGGA,153340,2538.6212,N,08643.4386,W,1,8,2.3,19,"
"##MN-05 00 48 0505 02011 6074 444737 350125 211"
"121.648472"
"$GPGGA,153344,2538.6223,N,08643.4411,W,1,8,1.8,19,"
"##MN-05 00 52 0507 02009 6072 444743 350127 211"
"121.648519"
"$GPGGA,153348,2538.6234,N,08643.4436,W,1,8,1.8,19,"
"##MN-05 00 50 0509 02008 6069 444743 350127 211"
"121.648565"
"$GPGGA,153352,2538.6243,N,08643.4460,W,1,7,1.8,19,"
"##MN-05 00 49 0510 02007 6067 444730 350123 211"
"121.648611"
"#increment_net"
"$GPGGA,153356,2538.6250,N,08643.4484,W,1,8,1.8,19,"
"##MN-05 00 49 0512 02001 6064 444738 350139 211"
"121.648657"
"$GPGGA,153400,2538.6259,N,08643.4509,W,1,8,1.8,19,"
"##MN-05 00 50 0514 02000 6061 444735 350125 211"
"121.648704"
"$GPGGA,153404,2538.6268,N,08643.4532,W,1,8,1.8,19,"
"##MN-05 00 53 0516 01997 6059 444739 350127 211"
"121.64875"
"$GPGGA,153408,2538.6277,N,08643.4559,W,1,8,1.8,19,"
"##MN-05 00 49 0518 01996 6056 444736 350127 211"
"121.648796"
"$GPGGA,153412,2538.6286,N,08643.4585,W,1,8,1.8,19,"
"##MN-05 00 48 0520 01996 6053 444717 350121 211"
"121.648843"
"$GPGGA,153416,2538.6292,N,08643.4610,W,1,7,2.0,19,"
"##MN-05 00 49 0522 01989 6051 444708 350118 211"
"121.648889"
"$GPGGA,153420,2538.6302,N,08643.4636,W,1,7,1.8,18,"
"##MN-05 00 49 0523 01988 6049 444702 350116 211"
"121.648935"
"$GPGGA,153424,2538.6309,N,08643.4658,W,1,8,1.8,18,"
"##MN-05 00 52 0525 01984 6046 444694 350114 211"
"121.648981"
"$GPGGA,153428,2538.6317,N,08643.4683,W,1,7,1.8,18,"
"##MN-05 00 48 0527 01985 6043 444693 350114 211"
"121.649028"
"$GPGGA,153432,2538.6328,N,08643.4705,W,1,7,1.8,18,"
"##MN-05 00 48 0529 01981 6041 444690 350113 211"
"121.649074"
"$GPGGA,153436,2538.6339,N,08643.4732,W,1,7,1.8,18,"
"##MN-05 00 49 0531 01977 6039 444691 350113 211"
"121.64912"
"$GPGGA,153440,2538.6346,N,08643.4754,W,1,7,2.3,18,"
"##MN-05 00 50 0533 01975 6036 444674 350109 211"
"121.649167"
"$GPGGA,153444,2538.6357,N,08643.4777,W,1,8,1.8,18,"
"##MN-05 00 49 0535 01975 6034 444694 350115 211"
"121.649213"
"$GPGGA,153448,2538.6366,N,08643.4803,W,1,8,2.0,18,"
"##MN-05 00 49 0536 01970 6031 444695 350116 211"
"121.649259"
"$GPGGA,153452,2538.6373,N,08643.4830,W,1,8,2.0,18,"
"##MN-05 00 49 0538 01968 6028 444689 350114 211"
"121.649306"
"$GPGGA,153456,2538.6382,N,08643.4855,W,1,7,1.8,18,"
"##MN-05 00 47 0540 01966 6026 444695 350116 211"
"121.649352"
"$GPGGA,153500,2538.6393,N,08643.4878,W,1,8,1.8,18,"
"##MN-05 00 49 0542 01966 6024 444682 350112 211"
"121.649398"
"$GPGGA,153504,2538.6400,N,08643.4902,W,1,8,1.8,18,"
"##MN-05 00 48 0544 01962 6021 444668 350108 211"
"121.649444"
"$GPGGA,153508,2538.6410,N,08643.4928,W,1,8,1.8,17,"
"##MN-05 00 47 0546 01961 6019 444664 350107 211"
"121.649491"
"$GPGGA,153512,2538.6421,N,08643.4953,W,1,8,1.8,17,"
"##MN-05 00 49 0548 01954 6016 444641 350100 211"
"121.649537"
"$GPGGA,153516,2538.6429,N,08643.4980,W,1,7,1.8,17,"
"##MN-05 00 48 0549 01951 6014 444654 350105 211"
"121.649583"
"$GPGGA,153520,2538.6439,N,08643.5007,W,1,8,2.0,17,"
"##MN-05 00 49 0551 01952 6012 444649 350104 211"
"121.64963"
"$GPGGA,153524,2538.6447,N,08643.5033,W,1,8,1.8,17,"
"##MN-05 00 48 0553 01943 6009 444635 350099 211"
"121.649676"
"$GPGGA,153528,2538.6457,N,08643.5061,W,1,8,1.8,17,"
"##MN-05 00 50 0555 01944 6007 444610 350092 211"
"121.649722"
"$GPGGA,153532,2538.6461,N,08643.5085,W,1,8,1.8,17,"
"##MN-05 00 48 0557 01936 6004 444609 350092 211"
"121.649769"
"$GPGGA,153536,2538.6472,N,08643.5112,W,1,8,1.8,17,"
"##MN-05 00 50 0559 01931 6002 444609 350092 211"
"121.649815"
"$GPGGA,153540,2538.6479,N,08643.5138,W,1,8,1.8,17,"
"##MN+05 00 50 0561 01930 6000 444591 350086 211"
"121.649861"
"$GPGGA,153544,2538.6493,N,08643.5164,W,1,7,1.8,17,"
"##MN+05 00 51 0563 01927 5997 444589 350086 211"
"121.649907"
"$GPGGA,153548,2538.6501,N,08643.5188,W,1,8,1.8,17,"
"##MN+06 00 52 0565 01928 5995 444585 350085 211"
"121.649954"
"$GPGGA,153552,2538.6512,N,08643.5213,W,1,8,1.8,17,"
"##MN-06 00 50 0567 01922 5992 444574 350081 211"
"121.65"
"$GPGGA,153556,2538.6519,N,08643.5240,W,1,8,1.8,17,"
"##MN-06 00 51 0569 01922 5990 444576 350083 211"
"121.650046"
"$GPGGA,153600,2538.6527,N,08643.5264,W,1,8,1.8,17,"
"##MN-06 00 50 0570 01920 5988 444567 350080 211"
"121.650093"
"$GPGGA,153604,2538.6534,N,08643.5292,W,1,8,2.0,17,"
"##MN-06 00 48 0572 01917 5986 444579 350084 211"
"121.650139"
"$GPGGA,153608,2538.6543,N,08643.5314,W,1,8,1.8,17,"
"##MN-06 00 49 0574 01914 5983 444566 350080 211"
"121.650185"
"$GPGGA,153612,2538.6550,N,08643.5336,W,1,8,1.8,17,"
"##MN-06 00 47 0576 01908 5981 444561 350079 211"
"121.650231"
"$GPGGA,153616,2538.6558,N,08643.5361,W,1,7,1.8,16,"
"##MN-06 00 51 0578 01908 5979 444566 350081 211"
"121.650278"
"$GPGGA,153620,2538.6562,N,08643.5388,W,1,7,2.2,16,"
"##MN-06 00 49 0580 01903 5976 444560 350079 211"
"121.650324"
"$GPGGA,153624,2538.6577,N,08643.5416,W,1,8,2.2,16,"
"##MN-06 00 48 0582 01906 5974 444551 350076 211"
"121.65037"
"$GPGGA,153628,2538.6584,N,08643.5441,W,1,8,1.8,16,"
"##MN-06 00 49 0584 01901 5972 444543 350074 211"
"121.650417"
"$GPGGA,153632,2538.6595,N,08643.5463,W,1,7,2.2,16,"
"##MN-06 00 48 0586 01899 5970 444527 350070 211"
"121.650463"
"$GPGGA,153636,2538.6598,N,08643.5485,W,1,8,2.2,16,"
"##MN-06 00 48 0588 01892 5967 444524 350069 211"
"121.650509"
"$GPGGA,153640,2538.6609,N,08643.5511,W,1,7,2.0,15,"
"##MN-06 00 50 0589 01890 5965 444483 350056 211"
"121.650556"
"$GPGGA,153644,2538.6616,N,08643.5535,W,1,7,2.7,15,"
"##MN-06 00 50 0591 01889 5963 444483 350055 211"
"121.650602"
"$GPGGA,153648,2538.6630,N,08643.5560,W,1,8,2.0,15,"
"##MN-06 00 47 0593 01886 5960 444347 350012 211"
"121.650648"
"$GPGGA,153652,2538.6638,N,08643.5585,W,1,7,2.2,15,"
"##MN-06 00 48 0595 01885 5959 444404 350029 211"
"121.650694"
"$GPGGA,153656,2538.6649,N,08643.5611,W,1,8,1.8,16,"
"##MN-06 00 48 0597 01880 5957 444220 349969 211"
"121.650741"
"$GPGGA,153700,2538.6660,N,08643.5636,W,1,8,1.8,16,"
"##MN-06 00 47 0599 01874 5954 444282 349992 211"
"121.650787"
"$GPGGA,153704,2538.6671,N,08643.5661,W,1,8,1.8,16,"
"##MN-06 00 52 0601 01874 5952 444293 349992 211"
"121.650845"
"$GPGGA,153708,2538.6678,N,08643.5687,W,1,7,1.8,17,"
"##MN-06 00 50 0603 01868 5950 444242 349978 211"
"121.650891"
"$GPGGA,153712,2538.6685,N,08643.5713,W,1,8,2.0,17,"
"##MN-06 00 45 0605 01860 5948 444247 349981 211"
"121.650938"
"$GPGGA,153716,2538.6693,N,08643.5741,W,1,8,1.8,17,"
"##MN-06 00 53 0607 01859 5946 444265 349984 211"
"121.650984"
"$GPGGA,153720,2538.6700,N,08643.5766,W,1,7,1.8,17,"
"##MN-06 00 52 0609 01859 5944 444094 349933 211"
"121.65103"
"$GPGGA,153725,2538.6709,N,08643.5799,W,1,8,1.8,17,"
"##MN-06 00 49 0611 01855 5941 444057 349916 211"
"121.651076"
"$GPGGA,153729,2538.6721,N,08643.5821,W,1,8,1.8,17,"
"##MN-06 00 51 0613 01853 5939 444066 349922 211"
"121.651123"
"$GPGGA,153732,2538.6727,N,08643.5840,W,1,8,1.8,17,"
"##MN-06 00 51 0615 01853 5937 444141 349944 211"
"121.651169"
"$GPGGA,153737,2538.6740,N,08643.5871,W,1,8,2.2,17,"
"##MN-06 00 46 0617 01850 5935 444078 349925 211"
"121.651215"
"$GPGGA,153741,2538.6747,N,08643.5897,W,1,8,2.2,17,"
"##MN-06 00 51 0619 01848 5933 444131 349943 211"
"121.651262"
"$GPGGA,153745,2538.6760,N,08643.5925,W,1,7,1.8,17,"
"##MN-06 00 51 0621 01847 5931 444182 349962 211"
"121.651308"
"$GPGGA,153749,2538.6768,N,08643.5951,W,1,8,1.8,17,"
"##MN-06 00 50 0622 01847 5929 444216 349970 211"
"121.651354"
"$GPGGA,153753,2538.6781,N,08643.5979,W,1,7,2.2,17,"
"##MN-06 00 52 0624 01849 5927 444242 349975 211"
"121.6514"
"$GPGGA,153757,2538.6787,N,08643.6001,W,1,7,2.2,17,"
"##MN-06 00 53 0626 01848 5925 444128 349942 211"
"121.651447"
"$GPGGA,153801,2538.6797,N,08643.6027,W,1,6,2.3,17,"
"##MN-06 00 49 0628 01850 5923 444081 349926 211"
"121.651493"
"$GPGGA,153805,2538.6807,N,08643.6055,W,1,7,2.2,17,"
"##MN-06 00 54 0629 01849 5921 444051 349917 211"
"121.651539"
"$GPGGA,153809,2538.6815,N,08643.6077,W,1,7,2.0,18,"
"##MN-06 00 52 0631 01847 5918 444011 349905 211"
"121.651586"
"$GPGGA,153813,2538.6819,N,08643.6102,W,1,7,2.0,18,"
"##MN-06 00 50 0633 01846 5917 444012 349935 211"
"121.651632"
"$GPGGA,153817,2538.6828,N,08643.6124,W,1,8,1.8,18,"
"##MN-06 00 55 0634 01847 5915 444110 376287 211"
"121.651678"
"$GPGGA,153821,2538.6836,N,08643.6152,W,1,7,2.0,19,"
"##MN-06 00 56 0634 01848 5912 444991 559246 211"
"121.651725"
"$GPGGA,153825,2538.6843,N,08643.6179,W,1,8,1.8,19,"
"##MN-06 00 39 0634 01847 5910 448521 925364 211"
"121.651771"
"$GPGGA,153829,2538.6851,N,08643.6206,W,1,8,1.8,18,"
"##MN+06 00 42 0634 01848 5908 450969 925363 211"
"121.651817"
"$GPGGA,153833,2538.6861,N,08643.6229,W,1,8,1.8,19,"
"##MN+06 00 14 0634 01847 5906 452315 925364 211"
"121.651863"
"$GPGGA,153837,2538.6870,N,08643.6258,W,1,7,2.0,19,"
"##MN+06 00 03 0634 01847 5904 452514 925364 211"
"121.65191"
"$GPGGA,153841,2538.6877,N,08643.6290,W,1,8,1.8,18,"
"##MN-06 00 09 0634 01849 5902 452423 925364 211"
"121.651956"
"$GPGGA,153845,2538.6884,N,08643.6322,W,1,7,2.0,18,"
"##MN-06 00 06 0634 01847 5901 452139 925364 211"
"121.652002"
"$GPGGA,153849,2538.6894,N,08643.6348,W,1,8,1.8,18,"
"##MN-06 00 14 0634 01847 5899 452199 925365 211"
"121.652049"
"$GPGGA,153853,2538.6904,N,08643.6374,W,1,8,1.8,18,"
"##MN-06 00 08 0634 01844 5897 452245 925365 211"
"121.652095"
"$GPGGA,153857,2538.6913,N,08643.6403,W,1,8,1.8,18,"
"##MN-06 00 05 0634 01848 5895 452237 925371 211"
"121.652141"
"#increment_net"
"$GPGGA,153901,2538.6926,N,08643.6434,W,1,8,1.8,18,"
"##MN-06 00 06 0634 01846 5893 452488 925339 211"
"121.652188"
"$GPGGA,153905,2538.6938,N,08643.6464,W,1,7,2.2,18,"
"##MN-06 00 04 0634 01850 5891 452521 925368 211"
