" Tow: 1Ed-A   RVWS/WS1406"
" Date: 05/29/2014"
" Temperature Probe #  2597    Conductivity Probe #  2870"
" Pressure Probe #  109"
" Flow Meter Calibration  4.71 (m/count)  "
"149.981806"
"$GPGGA,233347,2552.7979,N,07924.3604,W,1,8,2.4,15,"
"##MN-00 00 37 0087 01873 4981 452000 739447 204"
"149.981852"
"$GPGGA,233356,2552.8015,N,07924.3570,W,1,9,2.2,15,"
"##MN-00 00 37 0087 01886 4982 442366 349215 204"
"149.981898"
"$GPGGA,233400,2552.8032,N,07924.3556,W,1,8,2.2,15,"
"##MN-00 00 39 0087 01893 4982 442315 349142 204"
"149.981944"
"$GPGGA,233404,2552.8049,N,07924.3540,W,1,8,2.3,15,"
"##MN-00 00 38 0087 01910 4983 442300 349100 204"
"149.981991"
"$GPGGA,233408,2552.8064,N,07924.3526,W,1,9,2.2,15,"
"##MN-00 00 40 0088 01922 4983 442266 349056 204"
"149.982037"
"$GPGGA,233412,2552.8080,N,07924.3510,W,1,9,2.2,15,"
"##MN-00 00 39 0088 01933 4983 442237 348990 204"
"149.982083"
"$GPGGA,233416,2552.8097,N,07924.3494,W,1,9,2.2,15,"
"##MN-00 00 41 0088 01944 4984 442275 348972 204"
"149.98228"
"$GPGGA,233429,2552.8152,N,07924.3441,W,1,9,2.2,14,"
"##MN-00 00 40 0089 01995 4985 442478 348973 204"
"149.982326"
"$GPGGA,233436,2552.8185,N,07924.3411,W,1,9,2.2,14,"
"##MN-00 00 40 0089 02007 4986 442647 348994 204"
"149.982454"
"$GPGGA,233444,2552.8221,N,07924.3379,W,1,8,2.2,14,"
"##MN-00 00 40 0090 02032 4988 442719 349007 204"
"149.9825"
"$GPGGA,233452,2552.8260,N,07924.3346,W,1,9,2.2,13,"
"##MN-00 00 40 0091 02043 4988 442741 349009 204"
"149.982546"
"$GPGGA,233456,2552.8279,N,07924.3329,W,1,9,2.2,13,"
"##MN-00 00 38 0091 02052 4989 442733 349001 204"
"149.982593"
"$GPGGA,233500,2552.8299,N,07924.3312,W,1,8,2.2,12,"
"##MN-00 00 40 0091 02062 4989 442738 348999 204"
"149.982639"
"$GPGGA,233504,2552.8318,N,07924.3297,W,1,9,2.3,12,"
"##MN-00 00 40 0091 02072 4990 442759 349002 204"
"149.982685"
"$GPGGA,233508,2552.8336,N,07924.3282,W,1,9,2.2,12,"
"##MN-00 00 41 0092 02080 4990 442762 349000 204"
"149.982732"
"$GPGGA,233512,2552.8355,N,07924.3265,W,1,9,2.2,12,"
"##MN-00 00 41 0092 02089 4991 442762 348997 204"
"149.982778"
"$GPGGA,233516,2552.8376,N,07924.3249,W,1,9,2.2,11,"
"##MN-00 00 41 0092 02100 4991 442768 348997 204"
"149.982824"
"$GPGGA,233520,2552.8398,N,07924.3232,W,1,9,2.2,11,"
"##MN-00 00 42 0093 02109 4992 442827 349018 204"
"149.98287"
"$GPGGA,233524,2552.8416,N,07924.3215,W,1,9,2.2,11,"
"##MN-00 00 41 0093 02117 4993 442895 349046 204"
"149.982917"
"$GPGGA,233528,2552.8436,N,07924.3199,W,1,9,2.2,11,"
"##MN-00 00 41 0093 02128 4993 443019 349096 204"
"149.982963"
"$GPGGA,233532,2552.8454,N,07924.3184,W,1,9,2.2,10,"
"##MN-00 00 42 0094 02137 4994 443234 349179 204"
"149.983009"
"$GPGGA,233536,2552.8470,N,07924.3169,W,1,9,2.2,10,"
"##MN-00 00 42 0094 02149 4995 443364 349238 204"
"149.983056"
"$GPGGA,233540,2552.8488,N,07924.3155,W,1,9,2.2,10,"
"##MN-00 00 42 0094 02157 4995 443971 349466 204"
"149.983102"
"$GPGGA,233544,2552.8499,N,07924.3137,W,1,8,2.2,10,"
"##MN-00 00 44 0095 02167 4996 445238 349907 204"
"149.983148"
"$GPGGA,233548,2552.8516,N,07924.3118,W,1,8,2.2,10,"
"##MN-00 00 42 0095 02175 4997 445512 350012 204"
"149.983194"
"$GPGGA,233552,2552.8531,N,07924.3099,W,1,9,2.2,11,"
"##MN-00 00 43 0095 02184 4997 445608 350052 204"
"149.983241"
"$GPGGA,233556,2552.8546,N,07924.3079,W,1,9,2.2,11,"
"##MN-00 00 42 0096 02193 4998 445602 350053 204"
"149.983287"
"$GPGGA,233600,2552.8560,N,07924.3057,W,1,9,2.4,12,"
"##MN-00 00 42 0096 02201 4999 445649 350074 204"
"149.983333"
"$GPGGA,233604,2552.8575,N,07924.3034,W,1,9,2.2,12,"
"##MN-00 00 41 0097 02207 4999 445684 350092 204"
"149.98338"
"$GPGGA,233608,2552.8589,N,07924.3010,W,1,9,2.2,12,"
"##MN-00 00 41 0097 02214 5000 445715 350108 204"
"149.983426"
"$GPGGA,233612,2552.8600,N,07924.2985,W,1,8,2.4,13,"
"##MN-00 00 41 0098 02218 5001 445751 350126 204"
"149.983472"
"$GPGGA,233616,2552.8609,N,07924.2959,W,1,8,2.2,13,"
"##MN-00 00 41 0098 02221 5001 445818 350148 204"
"149.983519"
"$GPGGA,233620,2552.8618,N,07924.2932,W,1,8,2.2,13,"
"##MN-00 00 42 0099 02228 5002 445854 350155 204"
"149.983576"
"$GPGGA,233624,2552.8625,N,07924.2904,W,1,9,2.2,14,"
"##MN-00 00 42 0099 02231 5003 445872 350161 204"
"149.983623"
"$GPGGA,233628,2552.8635,N,07924.2877,W,1,9,2.2,14,"
"##MN-00 00 41 0100 02234 5004 445897 350164 204"
"149.983669"
"$GPGGA,233632,2552.8643,N,07924.2848,W,1,9,2.2,15,"
"##MN-00 00 43 0101 02234 5004 445969 350168 204"
"149.983715"
"$GPGGA,233636,2552.8649,N,07924.2819,W,1,8,2.2,15,"
"##MN-00 00 41 0101 02238 5005 446034 350191 204"
"149.983762"
"$GPGGA,233640,2552.8658,N,07924.2792,W,1,9,2.4,15,"
"##MN-00 00 44 0102 02240 5006 446103 350204 204"
"149.983808"
"$GPGGA,233644,2552.8667,N,07924.2763,W,1,8,2.2,15,"
"##MN-00 00 44 0103 02243 5007 446117 350206 204"
"149.983854"
"$GPGGA,233648,2552.8672,N,07924.2734,W,1,9,2.4,15,"
"##MN-00 00 45 0103 02247 5007 446138 350212 204"
"149.9839"
"$GPGGA,233652,2552.8680,N,07924.2704,W,1,9,2.2,16,"
"##MN-00 00 44 0104 02251 5008 446178 350223 204"
"149.983947"
"$GPGGA,233656,2552.8686,N,07924.2675,W,1,9,2.2,16,"
"##MN-00 00 45 0105 02253 5009 446208 350232 204"
"149.983993"
"$GPGGA,233700,2552.8694,N,07924.2645,W,1,8,2.4,17,"
"##MN-00 00 46 0106 02255 5010 446223 350232 204"
"149.984039"
"$GPGGA,233704,2552.8703,N,07924.2615,W,1,8,2.2,17,"
"##MN-00 00 45 0107 02256 5010 446236 350238 204"
"149.984086"
"$GPGGA,233708,2552.8709,N,07924.2584,W,1,9,2.2,16,"
"##MN-00 00 45 0107 02257 5011 446239 350237 204"
"149.984132"
"$GPGGA,233712,2552.8716,N,07924.2554,W,1,8,2.4,16,"
"##MN-00 00 47 0108 02259 5011 446248 350241 204"
"149.984178"
"$GPGGA,233716,2552.8722,N,07924.2521,W,1,8,2.2,16,"
"##MN-00 00 46 0109 02260 5012 446255 350240 204"
"149.984225"
"$GPGGA,233720,2552.8727,N,07924.2490,W,1,8,2.2,16,"
"##MN-00 00 49 0110 02260 5013 446268 350247 204"
"149.984271"
"$GPGGA,233724,2552.8733,N,07924.2459,W,1,8,2.2,16,"
"##MN-00 00 48 0111 02260 5014 446284 350255 204"
"149.984317"
"$GPGGA,233728,2552.8738,N,07924.2428,W,1,8,2.4,16,"
"##MN-00 00 49 0112 02263 5014 446295 350258 204"
"149.984363"
"$GPGGA,233732,2552.8744,N,07924.2395,W,1,9,2.2,16,"
"##MN-00 00 49 0112 02267 5015 446297 350256 204"
"149.98441"
"$GPGGA,233736,2552.8748,N,07924.2362,W,1,8,2.4,16,"
"##MN-00 00 49 0113 02269 5016 446297 350258 204"
"149.984456"
"$GPGGA,233741,2552.8755,N,07924.2322,W,1,8,2.4,16,"
"##MN-00 00 51 0114 02269 5016 446297 350259 204"
"149.984502"
"$GPGGA,233744,2552.8759,N,07924.2298,W,1,9,2.4,16,"
"##MN-00 00 50 0115 02271 5017 446297 350258 204"
"149.984549"
"$GPGGA,233749,2552.8769,N,07924.2260,W,1,9,2.2,16,"
"##MN-00 00 52 0116 02274 5018 446301 350259 204"
"149.984595"
"$GPGGA,233752,2552.8773,N,07924.2236,W,1,8,2.4,15,"
"##MN-00 00 51 0117 02274 5019 446307 350262 204"
"149.984641"
"$GPGGA,233757,2552.8774,N,07924.2195,W,1,9,2.2,15,"
"##MN-00 00 52 0118 02279 5019 446312 350263 204"
"149.984687"
"$GPGGA,233800,2552.8778,N,07924.2170,W,1,9,2.4,16,"
"##MN-00 00 52 0119 02278 5020 446314 350263 204"
"149.984734"
"$GPGGA,233805,2552.8788,N,07924.2131,W,1,8,2.4,16,"
"##MN-00 00 52 0120 02282 5021 446321 350264 204"
"149.98478"
"$GPGGA,233809,2552.8797,N,07924.2099,W,1,9,2.2,16,"
"##MN-00 00 53 0121 02285 5021 446336 350267 204"
"149.984826"
"$GPGGA,233813,2552.8802,N,07924.2068,W,1,8,2.4,16,"
"##MN-00 00 53 0122 02286 5022 446348 350271 204"
"149.984873"
"$GPGGA,233817,2552.8810,N,07924.2036,W,1,8,2.4,16,"
"##MN-00 00 54 0123 02289 5023 446353 350271 204"
"149.984919"
"$GPGGA,233821,2552.8817,N,07924.2004,W,1,8,2.4,15,"
"##MN-00 00 54 0124 02292 5024 446356 350271 204"
"149.984965"
"$GPGGA,233825,2552.8826,N,07924.1971,W,1,9,2.2,15,"
"##MN-00 00 54 0125 02298 5025 446362 350272 204"
"149.985012"
"$GPGGA,233829,2552.8830,N,07924.1938,W,1,9,2.2,14,"
"##MN-00 00 54 0126 02298 5025 446368 350274 204"
"149.985058"
"$GPGGA,233833,2552.8837,N,07924.1905,W,1,8,2.4,14,"
"##MN-00 00 54 0127 02303 5026 446374 350277 204"
"149.985104"
"$GPGGA,233837,2552.8845,N,07924.1871,W,1,9,2.2,13,"
"##MN-00 00 54 0128 02304 5026 446377 350277 204"
"149.98515"
"$GPGGA,233841,2552.8850,N,07924.1838,W,1,9,2.2,13,"
"##MN-00 00 54 0129 02304 5027 446379 350278 204"
"149.985197"
"$GPGGA,233845,2552.8859,N,07924.1806,W,1,8,2.4,13,"
"##MN-00 00 53 0130 02302 5028 446379 350279 204"
"149.985243"
"$GPGGA,233849,2552.8867,N,07924.1775,W,1,9,2.2,13,"
"##MN-00 00 54 0131 02302 5028 446375 350279 204"
"149.985289"
"$GPGGA,233853,2552.8874,N,07924.1745,W,1,9,2.2,13,"
"##MN-00 00 52 0132 02302 5029 446375 350279 204"
"149.985336"
"$GPGGA,233857,2552.8882,N,07924.1717,W,1,9,2.2,13,"
"##MN-00 00 54 0133 02300 5030 446378 350281 204"
"149.985382"
"$GPGGA,233901,2552.8888,N,07924.1689,W,1,9,2.2,13,"
"##MN+00 00 54 0134 02302 5030 446381 350281 204"
"149.985428"
"$GPGGA,233905,2552.8896,N,07924.1664,W,1,8,2.2,13,"
"##MN+00 00 55 0135 02303 5031 446385 350283 204"
"149.985475"
"$GPGGA,233909,2552.8904,N,07924.1637,W,1,9,2.2,13,"
"##MN+00 00 54 0136 02303 5032 446394 350284 204"
"149.985521"
"$GPGGA,233913,2552.8914,N,07924.1611,W,1,9,2.2,14,"
"##MN-00 00 55 0137 02307 5033 446405 350287 204"
"149.985567"
"$GPGGA,233917,2552.8925,N,07924.1586,W,1,9,2.2,13,"
"##MN-00 00 55 0138 02307 5033 446409 350289 204"
"149.985613"
"$GPGGA,233921,2552.8935,N,07924.1561,W,1,9,2.2,13,"
"##MN-00 00 54 0139 02307 5034 446406 350289 204"
"149.98566"
"$GPGGA,233925,2552.8945,N,07924.1536,W,1,9,2.2,13,"
"##MN-00 00 54 0140 02308 5035 446404 350288 204"
"149.985706"
"$GPGGA,233929,2552.8954,N,07924.1510,W,1,9,2.2,13,"
"##MN-00 00 53 0141 02312 5035 446403 350287 204"
"149.985752"
"$GPGGA,233933,2552.8964,N,07924.1483,W,1,9,2.2,13,"
"##MN-00 00 54 0142 02312 5036 446403 350287 204"
"149.985799"
"$GPGGA,233937,2552.8972,N,07924.1456,W,1,8,2.2,13,"
"##MN-00 00 53 0143 02314 5036 446409 350286 204"
"149.985845"
"$GPGGA,233941,2552.8983,N,07924.1430,W,1,9,2.2,13,"
"##MN-00 00 54 0144 02315 5037 446422 350288 204"
"149.985891"
"$GPGGA,233945,2552.8994,N,07924.1403,W,1,9,2.2,13,"
"##MN-00 00 54 0146 02317 5038 446433 350291 204"
"149.985938"
"$GPGGA,233949,2552.9001,N,07924.1376,W,1,9,2.2,13,"
"##MN-00 00 54 0147 02318 5039 446446 350291 204"
"149.985984"
"$GPGGA,233953,2552.9012,N,07924.1349,W,1,9,2.2,14,"
"##MN-00 00 54 0148 02320 5039 446460 350295 204"
"149.98603"
"$GPGGA,233957,2552.9023,N,07924.1324,W,1,9,2.4,14,"
"##MN-00 00 54 0149 02320 5040 446482 350296 204"
"149.986076"
"$GPGGA,234001,2552.9034,N,07924.1298,W,1,9,2.2,14,"
"##MN-00 00 55 0150 02323 5041 446496 350301 204"
"149.986123"
"$GPGGA,234005,2552.9047,N,07924.1274,W,1,9,2.2,13,"
"##MN-00 00 54 0150 02329 5042 446521 350305 204"
"149.986169"
"$GPGGA,234009,2552.9057,N,07924.1256,W,1,9,2.2,13,"
"##MN-00 00 55 0151 02331 5042 446560 350309 204"
"149.986215"
"$GPGGA,234013,2552.9070,N,07924.1227,W,1,9,2.2,13,"
"##MN-00 00 56 0152 02338 5043 446583 350303 204"
"149.986262"
"$GPGGA,234017,2552.9081,N,07924.1204,W,1,9,2.2,13,"
"##MN-00 00 54 0153 02339 5044 446581 350283 204"
"149.986308"
"$GPGGA,234021,2552.9091,N,07924.1181,W,1,9,2.2,13,"
"##MN-00 00 53 0154 02340 5044 446578 350267 204"
"149.986354"
"$GPGGA,234025,2552.9099,N,07924.1165,W,1,9,2.2,13,"
"##MN-00 00 52 0155 02342 5045 446578 350256 204"
"149.9864"
"$GPGGA,234029,2552.9113,N,07924.1139,W,1,9,2.2,14,"
"##MN-00 00 53 0156 02343 5046 446579 350250 204"
"149.986447"
"$GPGGA,234033,2552.9124,N,07924.1121,W,1,8,2.2,14,"
"##MN-00 00 52 0157 02348 5046 446580 350247 204"
"149.986493"
"$GPGGA,234037,2552.9135,N,07924.1102,W,1,9,2.2,14,"
"##MN-00 00 52 0158 02345 5047 446580 350245 204"
"149.986539"
"$GPGGA,234041,2552.9148,N,07924.1083,W,1,9,2.2,14,"
"##MN-00 00 52 0159 02346 5048 446580 350243 204"
"149.986586"
"$GPGGA,234045,2552.9160,N,07924.1063,W,1,9,2.2,14,"
"##MN-00 00 52 0160 02349 5049 446580 350242 204"
"149.986632"
"$GPGGA,234049,2552.9171,N,07924.1044,W,1,9,2.2,14,"
"##MN-00 00 51 0161 02351 5049 446584 350242 204"
"149.986678"
"$GPGGA,234053,2552.9184,N,07924.1025,W,1,9,2.2,14,"
"##MN-00 00 52 0162 02350 5050 446587 350242 204"
"149.986725"
"$GPGGA,234057,2552.9196,N,07924.1006,W,1,9,2.2,14,"
"##MN-00 00 49 0163 02350 5050 446590 350243 204"
"149.986771"
"$GPGGA,234101,2552.9209,N,07924.0987,W,1,9,2.2,13,"
"##MN-00 00 50 0164 02348 5051 446589 350243 204"
"149.986829"
"$GPGGA,234105,2552.9221,N,07924.0970,W,1,8,2.4,13,"
"##MN-00 00 49 0165 02348 5052 446588 350243 204"
"149.986875"
"$GPGGA,234109,2552.9232,N,07924.0952,W,1,8,2.4,13,"
"##MN-00 00 47 0166 02348 5052 446586 350243 204"
"149.986921"
"$GPGGA,234113,2552.9246,N,07924.0936,W,1,8,2.4,13,"
"##MN-00 00 48 0167 02346 5053 446584 350242 204"
"149.986968"
"$GPGGA,234117,2552.9258,N,07924.0919,W,1,8,2.4,13,"
"##MN-00 00 49 0168 02342 5053 446584 350242 204"
"149.987014"
"$GPGGA,234121,2552.9269,N,07924.0903,W,1,8,2.3,13,"
"##MN-00 00 49 0169 02343 5054 446583 350242 204"
"149.98706"
"$GPGGA,234125,2552.9279,N,07924.0886,W,1,9,2.2,13,"
"##MN-00 00 46 0169 02342 5055 446581 350242 204"
"149.987106"
"$GPGGA,234129,2552.9289,N,07924.0871,W,1,8,2.4,14,"
"##MN-00 00 47 0170 02339 5055 446579 350242 204"
"149.987153"
"$GPGGA,234133,2552.9299,N,07924.0854,W,1,9,2.2,14,"
"##MN-00 00 47 0171 02337 5056 446578 350243 204"
"149.987199"
"$GPGGA,234137,2552.9310,N,07924.0839,W,1,9,2.2,15,"
"##MN-00 00 45 0172 02330 5057 446579 350246 204"
"149.987245"
"$GPGGA,234141,2552.9321,N,07924.0824,W,1,9,2.2,15,"
"##MN-00 00 46 0173 02325 5057 446588 350252 204"
"149.987292"
"$GPGGA,234145,2552.9332,N,07924.0807,W,1,9,2.2,15,"
"##MN+00 00 46 0174 02320 5058 446606 350270 204"
"149.987338"
"$GPGGA,234149,2552.9343,N,07924.0791,W,1,9,2.2,16,"
"##MN+00 00 49 0175 02323 5058 446595 350316 204"
"149.987384"
"$GPGGA,234153,2552.9352,N,07924.0776,W,1,9,2.2,16,"
"##MN+00 00 58 0176 02331 5059 446593 350318 204"
"149.987431"
"#increment_net"
"$GPGGA,234157,2552.9363,N,07924.0761,W,1,9,2.2,17,"
"##MN-00 00 55 0177 02335 5060 446600 350313 204"
"149.987477"
"$GPGGA,234201,2552.9376,N,07924.0746,W,1,9,2.2,17,"
"##MN-00 00 51 0177 02337 5060 446594 350301 204"
"149.987523"
"$GPGGA,234205,2552.9386,N,07924.0730,W,1,8,2.4,17,"
"##MN-00 00 47 0178 02339 5061 446582 350255 204"
"149.987569"
"$GPGGA,234209,2552.9394,N,07924.0713,W,1,9,2.2,17,"
"##MN-00 00 48 0179 02339 5062 446575 350241 204"
"149.987616"
"$GPGGA,234213,2552.9404,N,07924.0697,W,1,9,2.2,17,"
"##MN-00 00 43 0180 02333 5062 446573 350241 204"
"149.987662"
"$GPGGA,234217,2552.9413,N,07924.0681,W,1,9,2.2,17,"
"##MN-00 00 42 0181 02326 5063 446579 350246 204"
"149.987708"
"$GPGGA,234222,2552.9426,N,07924.0659,W,1,9,2.2,17,"
"##MN-00 00 44 0182 02319 5063 446596 350266 204"
"149.987755"
"$GPGGA,234226,2552.9434,N,07924.0644,W,1,9,2.2,17,"
"##MN-00 00 45 0182 02321 5064 446590 350297 204"
"149.987801"
"$GPGGA,234230,2552.9442,N,07924.0627,W,1,9,2.2,17,"
"##MN+00 00 47 0183 02326 5065 446586 350308 204"
"149.987847"
"$GPGGA,234234,2552.9451,N,07924.0611,W,1,9,2.2,17,"
"##MN+00 00 46 0184 02326 5065 446586 350312 204"
"149.987894"
"$GPGGA,234238,2552.9458,N,07924.0594,W,1,9,2.1,17,"
"##MN+00 00 44 0185 02326 5066 446587 350315 204"
"149.98794"
"$GPGGA,234241,2552.9464,N,07924.0583,W,1,9,2.1,17,"
"##MN-00 00 46 0185 02330 5066 446587 350315 204"
"149.987986"
"$GPGGA,234246,2552.9474,N,07924.0566,W,1,9,2.5,17,"
"##MN-00 00 43 0186 02328 5067 446587 350315 204"
"149.988032"
"$GPGGA,234250,2552.9482,N,07924.0556,W,1,9,2.1,16,"
"##MN-00 00 44 0186 02333 5068 446589 350314 204"
"149.988079"
"$GPGGA,234254,2552.9488,N,07924.0540,W,1,9,2.1,16,"
"##MN-00 00 45 0187 02334 5069 446593 350311 204"
"149.988125"
"$GPGGA,234258,2552.9495,N,07924.0524,W,1,9,2.1,16,"
"##MN+00 00 44 0188 02333 5069 446603 350311 204"
"149.988171"
"$GPGGA,234302,2552.9500,N,07924.0508,W,1,8,2.1,16,"
"##MN+00 00 45 0189 02334 5070 446614 350311 204"
"149.988218"
"$GPGGA,234306,2552.9509,N,07924.0492,W,1,9,2.4,16,"
"##MN+00 00 52 0189 02334 5070 446619 350308 204"
"149.988264"
"#increment_net"
"$GPGGA,234310,2552.9514,N,07924.0475,W,1,9,2.4,15,"
"##MN-00 00 47 0190 02324 5071 446604 350311 204"
"149.98831"
"$GPGGA,234314,2552.9518,N,07924.0457,W,1,9,2.1,15,"
"##MN-00 00 43 0191 02319 5071 446588 350317 204"
"149.988357"
"$GPGGA,234318,2552.9525,N,07924.0441,W,1,8,2.4,16,"
"##MN-00 00 43 0192 02319 5072 446573 350320 204"
"149.988403"
"$GPGGA,234322,2552.9532,N,07924.0423,W,1,9,2.1,16,"
"##MN-00 00 44 0192 02320 5072 446565 350317 204"
"149.988449"
"$GPGGA,234326,2552.9540,N,07924.0406,W,1,9,2.1,16,"
"##MN-00 00 43 0193 02321 5073 446558 350317 204"
"149.988495"
"$GPGGA,234330,2552.9547,N,07924.0388,W,1,9,2.4,16,"
"##MN-00 00 42 0194 02322 5074 446557 350317 204"
"149.988542"
"$GPGGA,234334,2552.9554,N,07924.0371,W,1,9,2.4,16,"
"##MN-00 00 42 0195 02321 5074 446558 350316 204"
"149.988588"
"$GPGGA,234338,2552.9563,N,07924.0353,W,1,8,2.1,16,"
"##MN-00 00 42 0196 02321 5075 446560 350316 204"
"149.988634"
"$GPGGA,234342,2552.9571,N,07924.0334,W,1,8,2.1,17,"
"##MN+00 00 42 0196 02321 5075 446563 350316 204"
"149.988681"
"$GPGGA,234346,2552.9579,N,07924.0316,W,1,8,2.1,17,"
"##MN+00 00 42 0197 02322 5076 446565 350317 204"
"149.988727"
"$GPGGA,234350,2552.9587,N,07924.0298,W,1,8,2.1,17,"
"##MN+00 00 42 0198 02320 5077 446565 350316 204"
"149.988773"
"$GPGGA,234354,2552.9597,N,07924.0280,W,1,8,2.1,17,"
"##MN-00 00 42 0199 02320 5077 446566 350317 204"
"149.988819"
"$GPGGA,234358,2552.9605,N,07924.0262,W,1,9,2.1,17,"
"##MN-00 00 41 0199 02320 5078 446571 350318 204"
"149.988866"
"$GPGGA,234402,2552.9615,N,07924.0244,W,1,9,2.1,16,"
"##MN-00 00 41 0200 02319 5078 446572 350318 204"
"149.988912"
"$GPGGA,234406,2552.9623,N,07924.0225,W,1,9,2.1,16,"
"##MN+00 00 42 0201 02319 5079 446571 350318 204"
"149.988958"
"$GPGGA,234410,2552.9633,N,07924.0206,W,1,9,2.1,16,"
"##MN+00 00 42 0202 02319 5079 446574 350318 204"
"149.989005"
"$GPGGA,234414,2552.9643,N,07924.0188,W,1,9,2.1,15,"
"##MN+00 00 50 0203 02318 5080 446578 350318 204"
"149.989051"
"#increment_net"
"$GPGGA,234418,2552.9651,N,07924.0168,W,1,9,2.1,15,"
"##MN-00 00 48 0203 02317 5080 446579 350319 204"
"149.989097"
"$GPGGA,234422,2552.9657,N,07924.0148,W,1,9,2.1,14,"
"##MN-00 00 45 0204 02316 5081 446580 350319 204"
"149.989144"
"$GPGGA,234426,2552.9666,N,07924.0129,W,1,8,2.1,14,"
"##MN-00 00 42 0205 02318 5082 446578 350319 204"
"149.98919"
"$GPGGA,234430,2552.9673,N,07924.0108,W,1,9,2.1,14,"
"##MN-00 00 41 0205 02314 5082 446566 350318 204"
"149.989236"
"$GPGGA,234434,2552.9680,N,07924.0088,W,1,8,2.4,14,"
"##MN-00 00 41 0206 02314 5082 446562 350316 204"
"149.989282"
"$GPGGA,234438,2552.9688,N,07924.0069,W,1,8,2.3,14,"
"##MN-00 00 41 0207 02312 5083 446559 350315 204"
"149.989329"
"$GPGGA,234442,2552.9693,N,07924.0048,W,1,9,2.1,14,"
"##MN-00 00 40 0208 02312 5083 446554 350314 204"
"149.989375"
"$GPGGA,234446,2552.9699,N,07924.0029,W,1,9,2.1,14,"
"##MN+00 00 41 0208 02310 5084 446546 350312 204"
"149.989421"
"$GPGGA,234450,2552.9708,N,07924.0010,W,1,9,2.1,14,"
"##MN+00 00 41 0209 02311 5085 446535 350309 204"
"149.989468"
"$GPGGA,234454,2552.9716,N,07923.9992,W,1,9,2.1,15,"
"##MN+00 00 40 0210 02308 5085 446536 350309 204"
"149.989514"
"$GPGGA,234458,2552.9723,N,07923.9972,W,1,8,2.1,15,"
"##MN-00 00 41 0211 02308 5086 446534 350308 204"
"149.98956"
"$GPGGA,234502,2552.9731,N,07923.9954,W,1,9,2.1,15,"
"##MN-00 00 41 0212 02310 5086 446536 350309 204"
"149.989606"
"$GPGGA,234506,2552.9734,N,07923.9935,W,1,8,2.1,15,"
"##MN-00 00 41 0212 02309 5087 446538 350309 204"
"149.989653"
"$GPGGA,234510,2552.9740,N,07923.9915,W,1,9,2.1,16,"
"##MN-00 00 41 0213 02309 5087 446538 350309 204"
"149.989699"
"$GPGGA,234514,2552.9747,N,07923.9897,W,1,9,2.1,16,"
"##MN+00 00 41 0214 02308 5088 446539 350415 204"
"149.989745"
"$GPGGA,234518,2552.9755,N,07923.9880,W,1,9,2.3,17,"
"##MN+00 00 41 0215 02308 5089 446541 350310 204"
"149.989792"
"$GPGGA,234522,2552.9763,N,07923.9862,W,1,9,2.1,17,"
"##MN+00 00 50 0216 02309 5089 446548 350386 204"
"149.989838"
"#increment_net"
"$GPGGA,234526,2552.9769,N,07923.9844,W,1,9,2.1,16,"
"##MN-00 00 48 0216 02308 5090 446563 350361 204"
"149.989884"
"$GPGGA,234530,2552.9778,N,07923.9828,W,1,8,2.3,16,"
"##MN-00 00 45 0217 02307 5090 446564 350315 204"
"149.989931"
"$GPGGA,234534,2552.9785,N,07923.9810,W,1,9,2.1,16,"
"##MN-00 00 43 0218 02306 5091 446561 350315 204"
"149.989977"
"$GPGGA,234538,2552.9794,N,07923.9791,W,1,9,2.1,16,"
"##MN-00 00 42 0219 02305 5091 446560 350315 204"
"149.990023"
"$GPGGA,234542,2552.9800,N,07923.9772,W,1,8,2.1,15,"
"##MN-00 00 42 0219 02306 5092 446559 350314 204"
"149.990081"
"$GPGGA,234546,2552.9807,N,07923.9753,W,1,9,2.1,15,"
"##MN-00 00 41 0220 02305 5092 446554 350314 204"
"149.990127"
"$GPGGA,234550,2552.9814,N,07923.9734,W,1,9,2.1,15,"
"##MN-00 00 42 0221 02306 5093 446551 350314 204"
"149.990174"
"$GPGGA,234554,2552.9820,N,07923.9716,W,1,9,2.3,15,"
"##MN-00 00 42 0222 02306 5094 446548 350313 204"
"149.99022"
"$GPGGA,234558,2552.9827,N,07923.9698,W,1,9,2.1,15,"
"##MN-00 00 41 0222 02305 5094 446540 350311 204"
"149.990266"
"$GPGGA,234602,2552.9836,N,07923.9680,W,1,8,2.1,15,"
"##MN-00 00 42 0223 02307 5094 446538 350311 204"
"149.990312"
"$GPGGA,234606,2552.9843,N,07923.9662,W,1,9,2.1,15,"
"##MN-00 00 42 0224 02305 5095 446538 350310 204"
"149.990359"
"$GPGGA,234610,2552.9852,N,07923.9645,W,1,8,2.3,15,"
"##MN-00 00 41 0225 02305 5096 446538 350318 204"
"149.990405"
"$GPGGA,234614,2552.9861,N,07923.9627,W,1,9,2.1,15,"
"##MN-00 00 41 0225 02307 5096 446535 350308 204"
"149.990451"
"$GPGGA,234618,2552.9867,N,07923.9610,W,1,9,2.3,15,"
"##MN+00 00 41 0226 02307 5097 446532 350308 204"
"149.990498"
"$GPGGA,234622,2552.9874,N,07923.9592,W,1,9,2.1,15,"
"##MN+00 00 42 0227 02310 5097 446526 350306 204"
"149.990544"
"$GPGGA,234626,2552.9882,N,07923.9574,W,1,9,2.1,15,"
"##MN+00 00 41 0228 02308 5097 446516 350305 204"
"149.99059"
"$GPGGA,234630,2552.9888,N,07923.9557,W,1,9,2.1,14,"
"##MN+00 00 42 0229 02307 5098 446514 350304 204"
"149.990637"
"$GPGGA,234634,2552.9896,N,07923.9538,W,1,9,2.1,14,"
"##MN+00 00 41 0229 02310 5098 446520 350305 204"
"149.990683"
"$GPGGA,234638,2552.9903,N,07923.9521,W,1,9,2.1,14,"
"##MN+00 00 49 0230 02310 5099 446531 350307 204"
"149.990729"
"$GPGGA,234642,2552.9911,N,07923.9502,W,1,9,2.1,14,"
"##MN-00 00 48 0231 02312 5099 446547 350308 204"
"149.990775"
"#increment_net"
"$GPGGA,234646,2552.9919,N,07923.9483,W,1,9,2.1,14,"
"##MN-00 00 45 0232 02315 5100 446556 350309 204"
"149.990822"
"$GPGGA,234650,2552.9926,N,07923.9464,W,1,9,2.1,14,"
"##MN-00 00 42 0233 02317 5100 446560 350309 204"
"149.990868"
"$GPGGA,234655,2552.9936,N,07923.9441,W,1,9,2.1,14,"
"##MN-00 00 43 0234 02307 5100 446574 350339 204"
"149.990914"
"$GPGGA,234658,2552.9939,N,07923.9428,W,1,8,2.3,14,"
"##MN-00 00 43 0236 02297 5101 446568 351072 204"
"149.990961"
"$GPGGA,234703,2552.9953,N,07923.9406,W,1,9,2.1,14,"
"##MN-00 00 43 0237 02283 5101 446534 350607 204"
"149.991007"
"$GPGGA,234706,2552.9959,N,07923.9392,W,1,9,2.1,14,"
"##MN-00 00 43 0239 02267 5102 446452 350297 204"
"149.991053"
"$GPGGA,234711,2552.9969,N,07923.9370,W,1,9,2.1,14,"
"##MN-00 00 42 0240 02255 5102 446342 350268 204"
"149.9911"
"$GPGGA,234714,2552.9977,N,07923.9356,W,1,9,2.1,14,"
"##MN-00 00 43 0242 02239 5103 446288 350268 204"
"149.991146"
"$GPGGA,234719,2552.9986,N,07923.9335,W,1,9,2.1,14,"
"##MN-00 00 43 0243 02221 5103 446207 350253 204"
"149.991192"
"$GPGGA,234723,2552.9995,N,07923.9316,W,1,9,2.1,14,"
"##MN-00 00 42 0244 02208 5104 446019 350203 204"
"149.991238"
"$GPGGA,234727,2553.0001,N,07923.9298,W,1,9,2.1,14,"
"##MN-00 00 42 0246 02190 5104 445787 350130 204"
"149.991285"
"$GPGGA,234731,2553.0009,N,07923.9282,W,1,9,2.1,14,"
"##MN-00 00 42 0247 02175 5105 445653 350100 204"
"149.991331"
"$GPGGA,234735,2553.0018,N,07923.9264,W,1,9,2.1,14,"
"##MN-00 00 40 0249 02157 5105 445560 350061 204"
"149.991377"
"$GPGGA,234739,2553.0024,N,07923.9246,W,1,9,2.1,14,"
"##MN-00 00 41 0250 02140 5105 445353 350018 204"
"149.991424"
"$GPGGA,234743,2553.0034,N,07923.9229,W,1,8,2.1,14,"
"##MN-00 00 43 0252 02122 5106 444861 349831 204"
"149.99147"
"$GPGGA,234747,2553.0041,N,07923.9211,W,1,9,2.1,14,"
"##MN-00 00 42 0253 02103 5107 443952 349522 204"
"149.991516"
"$GPGGA,234751,2553.0049,N,07923.9193,W,1,9,2.1,14,"
"##MN-00 00 41 0254 02089 5107 443318 349356 204"
"149.991563"
"$GPGGA,234755,2553.0056,N,07923.9174,W,1,9,2.1,14,"
"##MN-00 00 40 0256 02071 5108 443092 349213 204"
"149.991609"
"$GPGGA,234759,2553.0063,N,07923.9156,W,1,9,2.1,13,"
"##MN-00 00 39 0257 02054 5108 442995 349138 204"
"149.991655"
"$GPGGA,234803,2553.0071,N,07923.9138,W,1,9,2.1,13,"
"##MN-00 00 40 0258 02035 5109 442937 349126 204"
"149.991701"
"$GPGGA,234807,2553.0081,N,07923.9121,W,1,9,2.1,13,"
"##MN-00 00 40 0260 02018 5109 442902 349102 204"
"149.991748"
"$GPGGA,234811,2553.0089,N,07923.9103,W,1,9,2.1,13,"
"##MN-00 00 39 0261 02002 5109 442866 349072 204"
"149.991794"
"$GPGGA,234815,2553.0096,N,07923.9085,W,1,9,2.1,13,"
"##MN-00 00 39 0262 01978 5110 442823 349071 204"
"149.99184"
"$GPGGA,234819,2553.0106,N,07923.9066,W,1,9,2.1,12,"
"##MN-00 00 39 0264 01955 5110 442683 349032 204"
"149.991887"
"$GPGGA,234823,2553.0114,N,07923.9047,W,1,9,2.1,12,"
"##MN-00 00 37 0265 01934 5111 442455 348976 204"
"149.991933"
"$GPGGA,234827,2553.0124,N,07923.9027,W,1,9,2.1,12,"
"##MN-00 00 37 0267 01912 5111 442404 349004 204"
"149.991979"
"$GPGGA,234831,2553.0131,N,07923.9006,W,1,9,2.1,12,"
"##MN-00 00 37 0268 01889 5112 442442 349058 204"
"149.992025"
"$GPGGA,234835,2553.0138,N,07923.8988,W,1,9,2.1,12,"
"##MN-00 00 38 0269 01865 5112 443094 349392 204"
"149.992072"
"$GPGGA,234839,2553.0146,N,07923.8969,W,1,9,2.1,13,"
"##MN-00 00 45 0271 01852 5113 443624 349619 204"
