" Tow: 1Em-A   RVWS/WS1406"
" Date: 05/29/2014"
" Temperature Probe #  2597    Conductivity Probe #  2870"
" Pressure Probe #  109"
" Flow Meter Calibration  4.71 (m/count)  "
"149.910093"
"$GPGGA,215032,2551.0172,N,07923.7507,W,1,9,1.2,19,"
"##MN-00 00 44 0089 01866 4402 461975 895399 205"
"149.910139"
"$GPGGA,215040,2551.0208,N,07923.7463,W,1,10,1.2,19"
"##MN-00 00 41 0090 01863 4403 442573 349569 205"
"149.910185"
"$GPGGA,215044,2551.0225,N,07923.7444,W,1,9,1.3,19,"
"##MN-00 00 40 0090 01867 4404 442636 349428 205"
"149.910232"
"$GPGGA,215048,2551.0242,N,07923.7423,W,1,10,1.2,19"
"##MN-00 00 41 0091 01866 4404 442559 349288 205"
"149.910278"
"$GPGGA,215052,2551.0258,N,07923.7403,W,1,9,1.4,19,"
"##MN-00 00 43 0091 01867 4405 442500 349240 205"
"149.910324"
"$GPGGA,215056,2551.0276,N,07923.7383,W,1,10,1.2,19"
"##MN-00 00 45 0092 01873 4406 442393 349182 205"
"149.91037"
"$GPGGA,215100,2551.0293,N,07923.7360,W,1,10,1.2,19"
"##MN-00 00 45 0092 01882 4406 442394 349139 205"
"149.910417"
"$GPGGA,215104,2551.0309,N,07923.7341,W,1,10,1.2,19"
"##MN-00 00 46 0093 01892 4407 442395 349121 205"
"149.910463"
"$GPGGA,215108,2551.0326,N,07923.7321,W,1,10,1.2,19"
"##MN-00 00 46 0094 01899 4408 442320 349082 205"
"149.910509"
"$GPGGA,215112,2551.0345,N,07923.7296,W,1,9,1.2,19,"
"##MN-00 00 45 0094 01902 4409 442371 349419 205"
"149.910556"
"$GPGGA,215116,2551.0363,N,07923.7274,W,1,10,1.2,19"
"##MN-00 00 43 0095 01906 4410 442382 349102 205"
"149.910602"
"$GPGGA,215120,2551.0380,N,07923.7254,W,1,8,1.4,19,"
"##MN-00 00 45 0095 01911 4411 442448 349127 205"
"149.910648"
"$GPGGA,215124,2551.0395,N,07923.7235,W,1,10,1.2,19"
"##MN-00 00 44 0096 01916 4412 442374 349055 205"
"149.910706"
"$GPGGA,215128,2551.0410,N,07923.7215,W,1,10,1.2,18"
"##MN-00 00 44 0097 01922 4414 442306 349020 205"
"149.910752"
"$GPGGA,215132,2551.0424,N,07923.7194,W,1,10,1.2,18"
"##MN-00 00 43 0097 01928 4415 442328 349025 205"
"149.910799"
"$GPGGA,215136,2551.0441,N,07923.7173,W,1,10,1.2,18"
"##MN-00 00 44 0098 01930 4416 442369 349019 205"
"149.910845"
"$GPGGA,215140,2551.0457,N,07923.7151,W,1,10,1.2,18"
"##MN-00 00 44 0099 01935 4417 442384 349025 205"
"149.910891"
"$GPGGA,215144,2551.0471,N,07923.7129,W,1,10,1.2,18"
"##MN-00 00 43 0099 01943 4419 442340 349006 205"
"149.910937"
"$GPGGA,215148,2551.0486,N,07923.7110,W,1,9,1.2,18,"
"##MN-00 00 44 0100 01945 4420 442334 349002 205"
"149.910984"
"$GPGGA,215152,2551.0503,N,07923.7091,W,1,10,1.2,18"
"##MN-00 00 45 0100 01950 4422 442341 348999 205"
"149.91103"
"$GPGGA,215156,2551.0518,N,07923.7071,W,1,10,1.2,18"
"##MN-00 00 44 0101 01956 4423 442340 348992 205"
"149.911076"
"$GPGGA,215200,2551.0533,N,07923.7050,W,1,10,1.3,18"
"##MN-00 00 44 0102 01960 4424 442344 348987 205"
"149.911123"
"$GPGGA,215204,2551.0550,N,07923.7032,W,1,10,1.2,18"
"##MN-00 00 44 0102 01965 4426 442348 348985 205"
"149.911169"
"$GPGGA,215208,2551.0565,N,07923.7010,W,1,10,1.2,18"
"##MN-00 00 44 0103 01971 4428 442353 348983 205"
"149.911215"
"$GPGGA,215212,2551.0583,N,07923.6991,W,1,10,1.2,18"
"##MN-00 00 44 0104 01975 4429 442357 348980 205"
"149.911262"
"$GPGGA,215217,2551.0602,N,07923.6966,W,1,10,1.2,18"
"##MN-00 00 43 0104 01979 4431 442355 348976 205"
"149.911308"
"$GPGGA,215220,2551.0613,N,07923.6951,W,1,10,1.4,18"
"##MN-00 00 43 0105 01983 4433 442349 348970 205"
"149.911354"
"$GPGGA,215225,2551.0630,N,07923.6923,W,1,10,1.2,18"
"##MN-00 00 43 0106 01985 4434 442348 348968 205"
"149.9114"
"$GPGGA,215229,2551.0644,N,07923.6902,W,1,9,1.6,18,"
"##MN-00 00 43 0106 01990 4436 442353 348967 205"
"149.911447"
"$GPGGA,215233,2551.0656,N,07923.6884,W,1,10,1.3,18"
"##MN-00 00 43 0107 01994 4438 442357 348965 205"
"149.911493"
"$GPGGA,215237,2551.0672,N,07923.6862,W,1,9,1.3,19,"
"##MN-00 00 44 0108 01997 4440 442363 348965 205"
"149.911539"
"$GPGGA,215241,2551.0683,N,07923.6841,W,1,9,1.2,19,"
"##MN-00 00 43 0108 02001 4441 442368 348965 205"
"149.911586"
"$GPGGA,215245,2551.0692,N,07923.6827,W,1,9,1.3,19,"
"##MN-00 00 44 0109 02004 4443 442373 348966 205"
"149.911632"
"$GPGGA,215249,2551.0705,N,07923.6803,W,1,10,1.2,19"
"##MN-00 00 43 0110 02009 4445 442383 348969 205"
"149.911678"
"$GPGGA,215253,2551.0717,N,07923.6783,W,1,10,1.2,19"
"##MN-00 00 44 0110 02011 4447 442390 348969 205"
"149.911725"
"$GPGGA,215257,2551.0728,N,07923.6763,W,1,10,1.2,20"
"##MN-00 00 43 0111 02014 4449 442396 348972 205"
"149.911771"
"$GPGGA,215301,2551.0739,N,07923.6744,W,1,10,1.2,20"
"##MN-00 00 44 0112 02016 4451 442402 348979 205"
"149.911817"
"$GPGGA,215305,2551.0746,N,07923.6721,W,1,10,1.2,20"
"##MN-00 00 43 0112 02017 4453 442405 348978 205"
"149.911863"
"$GPGGA,215309,2551.0756,N,07923.6699,W,1,10,1.2,20"
"##MN-00 00 43 0113 02020 4454 442418 348981 205"
"149.91191"
"$GPGGA,215313,2551.0768,N,07923.6681,W,1,10,1.2,20"
"##MN-00 00 45 0114 02025 4456 442439 348989 205"
"149.911956"
"$GPGGA,215317,2551.0779,N,07923.6663,W,1,9,1.4,20,"
"##MN-00 00 43 0114 02025 4458 442485 348998 205"
"149.912002"
"$GPGGA,215321,2551.0788,N,07923.6642,W,1,10,1.2,20"
"##MN-00 00 45 0115 02025 4461 442514 349006 205"
"149.912049"
"$GPGGA,215325,2551.0800,N,07923.6622,W,1,9,1.4,20,"
"##MN-00 00 44 0116 02032 4462 442546 349014 205"
"149.912095"
"$GPGGA,215329,2551.0814,N,07923.6602,W,1,10,1.2,20"
"##MN-00 00 46 0116 02034 4465 442584 349028 205"
"149.912141"
"$GPGGA,215333,2551.0826,N,07923.6582,W,1,9,1.4,20,"
"##MN-00 00 45 0117 02034 4467 442617 349038 205"
"149.912187"
"$GPGGA,215337,2551.0835,N,07923.6562,W,1,9,1.4,20,"
"##MN-00 00 45 0118 02039 4468 442624 349034 205"
"149.912234"
"$GPGGA,215341,2551.0842,N,07923.6538,W,1,9,1.4,20,"
"##MN-00 00 44 0119 02038 4471 442631 349033 205"
"149.91228"
"$GPGGA,215345,2551.0850,N,07923.6515,W,1,10,1.2,20"
"##MN-00 00 45 0120 02040 4472 442648 349035 205"
"149.912326"
"$GPGGA,215349,2551.0856,N,07923.6492,W,1,9,1.4,20,"
"##MN-00 00 45 0120 02042 4475 442660 349043 205"
"149.912373"
"$GPGGA,215353,2551.0865,N,07923.6472,W,1,10,1.2,20"
"##MN-00 00 45 0121 02044 4477 442667 349041 205"
"149.912419"
"$GPGGA,215357,2551.0873,N,07923.6448,W,1,10,1.2,20"
"##MN-00 00 47 0122 02044 4479 442668 349038 205"
"149.912465"
"$GPGGA,215401,2551.0883,N,07923.6423,W,1,9,1.4,20,"
"##MN-00 00 46 0123 02046 4481 442662 349035 205"
"149.912512"
"$GPGGA,215405,2551.0890,N,07923.6400,W,1,9,1.4,20,"
"##MN-00 00 45 0124 02047 4484 442655 349032 205"
"149.912558"
"$GPGGA,215409,2551.0894,N,07923.6377,W,1,9,1.4,20,"
"##MN-00 00 46 0125 02049 4486 442646 349030 205"
"149.912604"
"$GPGGA,215413,2551.0898,N,07923.6355,W,1,9,1.4,19,"
"##MN-00 00 47 0125 02049 4488 442673 349042 205"
"149.91265"
"$GPGGA,215417,2551.0900,N,07923.6333,W,1,9,1.3,19,"
"##MN-00 00 46 0126 02050 4490 442695 349045 205"
"149.912697"
"$GPGGA,215421,2551.0905,N,07923.6311,W,1,8,1.5,20,"
"##MN-00 00 48 0127 02055 4492 442717 349050 205"
"149.912743"
"$GPGGA,215425,2551.0912,N,07923.6291,W,1,10,1.2,20"
"##MN-00 00 48 0128 02055 4494 442722 349050 205"
"149.912789"
"$GPGGA,215429,2551.0919,N,07923.6268,W,1,9,1.3,21,"
"##MN-00 00 47 0129 02058 4497 442740 349057 205"
"149.912836"
"$GPGGA,215433,2551.0925,N,07923.6245,W,1,9,1.3,21,"
"##MN-00 00 49 0130 02060 4499 442765 349062 205"
"149.912882"
"$GPGGA,215437,2551.0934,N,07923.6220,W,1,8,1.5,21,"
"##MN-00 00 49 0131 02063 4501 442781 349064 205"
"149.912928"
"$GPGGA,215441,2551.0941,N,07923.6196,W,1,9,1.3,22,"
"##MN-00 00 50 0131 02065 4503 442810 349074 205"
"149.912975"
"$GPGGA,215445,2551.0944,N,07923.6177,W,1,10,1.2,22"
"##MN-00 00 49 0132 02070 4506 442835 349079 205"
"149.913021"
"$GPGGA,215449,2551.0948,N,07923.6155,W,1,9,1.3,22,"
"##MN-00 00 49 0133 02073 4508 442861 349091 205"
"149.913067"
"$GPGGA,215453,2551.0953,N,07923.6132,W,1,10,1.2,22"
"##MN-00 00 50 0134 02075 4510 442874 349089 205"
"149.913113"
"$GPGGA,215457,2551.0960,N,07923.6110,W,1,9,1.3,22,"
"##MN-00 00 50 0135 02080 4513 442883 349090 205"
"149.91316"
"$GPGGA,215501,2551.0967,N,07923.6090,W,1,10,1.2,22"
"##MN-00 00 51 0135 02082 4514 442886 349087 205"
"149.913206"
"$GPGGA,215505,2551.0974,N,07923.6073,W,1,10,1.2,22"
"##MN-00 00 50 0136 02089 4517 442903 349091 205"
"149.913252"
"$GPGGA,215509,2551.0981,N,07923.6052,W,1,10,1.2,23"
"##MN-00 00 51 0137 02092 4519 442913 349090 205"
"149.913299"
"$GPGGA,215513,2551.0988,N,07923.6032,W,1,9,1.3,23,"
"##MN-00 00 49 0138 02096 4522 442923 349093 205"
"149.913345"
"$GPGGA,215517,2551.0995,N,07923.6014,W,1,8,1.5,23,"
"##MN-00 00 50 0139 02099 4524 442948 349100 205"
"149.913391"
"$GPGGA,215521,2551.1001,N,07923.5995,W,1,9,1.3,23,"
"##MN-00 00 49 0139 02106 4526 442957 349102 205"
"149.913438"
"$GPGGA,215525,2551.1006,N,07923.5976,W,1,9,1.3,23,"
"##MN-00 00 50 0140 02107 4528 442999 349118 205"
"149.913484"
"$GPGGA,215529,2551.1013,N,07923.5957,W,1,9,1.3,23,"
"##MN-00 00 49 0141 02111 4531 443023 349124 205"
"149.91353"
"$GPGGA,215533,2551.1020,N,07923.5937,W,1,9,1.3,23,"
"##MN-00 00 50 0142 02115 4533 443082 349154 205"
"149.913576"
"$GPGGA,215537,2551.1027,N,07923.5916,W,1,9,1.3,23,"
"##MN-00 00 49 0143 02118 4535 443205 349246 205"
"149.913623"
"$GPGGA,215541,2551.1032,N,07923.5895,W,1,10,1.2,23"
"##MN-00 00 49 0143 02124 4538 443711 349508 205"
"149.913669"
"$GPGGA,215545,2551.1042,N,07923.5873,W,1,10,1.2,22"
"##MN-00 00 50 0144 02127 4540 444275 349677 205"
"149.913715"
"$GPGGA,215549,2551.1049,N,07923.5854,W,1,10,1.2,22"
"##MN-00 00 50 0145 02131 4542 444613 349810 205"
"149.913762"
"$GPGGA,215553,2551.1054,N,07923.5832,W,1,10,1.2,22"
"##MN-00 00 48 0146 02135 4545 444893 349858 205"
"149.913808"
"$GPGGA,215557,2551.1061,N,07923.5813,W,1,10,1.2,21"
"##MN-00 00 46 0147 02136 4547 445037 349863 205"
"149.913854"
"$GPGGA,215601,2551.1073,N,07923.5792,W,1,10,1.2,21"
"##MN-00 00 44 0147 02134 4549 445166 349925 205"
"149.9139"
"$GPGGA,215605,2551.1082,N,07923.5771,W,1,9,1.4,21,"
"##MN-00 00 45 0148 02134 4552 445197 349952 205"
"149.913958"
"$GPGGA,215609,2551.1089,N,07923.5749,W,1,10,1.2,21"
"##MN+00 00 44 0149 02135 4554 445168 349938 205"
"149.914005"
"$GPGGA,215613,2551.1093,N,07923.5726,W,1,10,1.2,21"
"##MN+00 00 44 0150 02136 4556 445104 349921 205"
"149.914051"
"$GPGGA,215617,2551.1099,N,07923.5708,W,1,10,1.2,21"
"##MN+00 00 46 0151 02132 4559 444973 349871 205"
"149.914097"
"$GPGGA,215621,2551.1104,N,07923.5690,W,1,10,1.2,21"
"##MN-00 00 45 0151 02133 4561 444863 349842 205"
"149.914143"
"$GPGGA,215625,2551.1111,N,07923.5673,W,1,10,1.2,21"
"##MN+00 00 44 0152 02135 4563 444942 349877 205"
"149.91419"
"$GPGGA,215629,2551.1117,N,07923.5656,W,1,10,1.2,21"
"##MN+00 00 46 0153 02134 4565 444888 349846 205"
"149.914236"
"$GPGGA,215633,2551.1124,N,07923.5641,W,1,9,1.5,21,"
"##MN+00 00 47 0154 02132 4568 444853 349828 205"
"149.914282"
"$GPGGA,215637,2551.1130,N,07923.5627,W,1,10,1.2,21"
"##MN-00 00 54 0155 02139 4570 444993 349877 205"
"149.914329"
"#increment_net"
"$GPGGA,215641,2551.1136,N,07923.5610,W,1,10,1.2,20"
"##MN-00 00 53 0155 02136 4572 445099 349883 205"
"149.914375"
"$GPGGA,215645,2551.1143,N,07923.5595,W,1,10,1.2,20"
"##MN-00 00 48 0156 02137 4574 445164 349905 205"
"149.914421"
"$GPGGA,215649,2551.1147,N,07923.5579,W,1,8,1.2,20,"
"##MN-00 00 48 0157 02136 4577 445182 349915 205"
"149.914468"
"$GPGGA,215653,2551.1158,N,07923.5564,W,1,10,1.2,20"
"##MN-00 00 45 0158 02136 4579 445212 349922 205"
"149.914514"
"$GPGGA,215658,2551.1165,N,07923.5540,W,1,10,1.2,20"
"##MN-00 00 48 0159 02136 4581 445243 349935 205"
"149.91456"
"$GPGGA,215702,2551.1165,N,07923.5523,W,1,9,1.2,20,"
"##MN-00 00 46 0160 02135 4583 445264 349939 205"
"149.914606"
"$GPGGA,215705,2551.1172,N,07923.5515,W,1,10,1.2,20"
"##MN-00 00 46 0161 02134 4586 445260 349942 205"
"149.914653"
"$GPGGA,215709,2551.1172,N,07923.5497,W,1,9,1.2,20,"
"##MN-00 00 46 0161 02132 4588 445245 349944 205"
"149.914699"
"$GPGGA,215714,2551.1175,N,07923.5478,W,1,9,1.2,20,"
"##MN-00 00 45 0162 02133 4590 445229 349942 205"
"149.914745"
"$GPGGA,215718,2551.1174,N,07923.5460,W,1,10,1.2,19"
"##MN+00 00 46 0163 02130 4593 445217 349940 205"
"149.914792"
"$GPGGA,215722,2551.1173,N,07923.5444,W,1,9,1.2,19,"
"##MN+00 00 46 0164 02127 4595 445131 349930 205"
"149.914838"
"$GPGGA,215726,2551.1173,N,07923.5424,W,1,10,1.2,19"
"##MN+00 00 47 0165 02124 4597 444982 349905 205"
"149.914884"
"$GPGGA,215730,2551.1174,N,07923.5410,W,1,9,1.2,19,"
"##MN-00 00 46 0166 02124 4599 444801 349848 205"
"149.914931"
"$GPGGA,215734,2551.1180,N,07923.5389,W,1,9,1.2,19,"
"##MN+00 00 47 0167 02120 4601 444720 349816 205"
"149.914977"
"$GPGGA,215738,2551.1183,N,07923.5368,W,1,9,1.3,19,"
"##MN+00 00 47 0168 02119 4603 444640 349784 205"
"149.915023"
"$GPGGA,215742,2551.1187,N,07923.5347,W,1,8,1.3,18,"
"##MN+00 00 48 0169 02113 4606 444441 349736 205"
"149.915069"
"$GPGGA,215746,2551.1190,N,07923.5329,W,1,9,1.3,19,"
"##MN-00 00 59 0170 02114 4608 443986 349580 205"
"149.915116"
"#increment_net"
"$GPGGA,215750,2551.1194,N,07923.5307,W,1,9,1.3,19,"
"##MN-00 00 53 0171 02111 4610 443561 349407 205"
"149.915162"
"$GPGGA,215754,2551.1196,N,07923.5285,W,1,9,1.3,19,"
"##MN-00 00 51 0172 02110 4612 443437 349317 205"
"149.915208"
"$GPGGA,215758,2551.1196,N,07923.5262,W,1,9,1.3,19,"
"##MN-00 00 50 0173 02108 4614 443299 349264 205"
"149.915255"
"$GPGGA,215802,2551.1198,N,07923.5243,W,1,9,1.3,19,"
"##MN-00 00 49 0174 02107 4617 443231 349233 205"
"149.915301"
"$GPGGA,215806,2551.1200,N,07923.5223,W,1,9,1.4,19,"
"##MN-00 00 50 0175 02107 4619 443205 349229 205"
"149.915347"
"$GPGGA,215810,2551.1199,N,07923.5201,W,1,9,1.2,19,"
"##MN-00 00 53 0176 02103 4621 443322 349230 205"
"149.915394"
"$GPGGA,215814,2551.1198,N,07923.5184,W,1,9,1.2,19,"
"##MN-00 00 51 0177 02105 4623 443413 349256 205"
"149.91544"
"$GPGGA,215818,2551.1198,N,07923.5164,W,1,9,1.3,19,"
"##MN-00 00 51 0178 02102 4626 443366 349237 205"
"149.915486"
"$GPGGA,215822,2551.1198,N,07923.5145,W,1,10,1.2,19"
"##MN+00 00 50 0179 02100 4627 443343 349232 205"
"149.915532"
"$GPGGA,215826,2551.1196,N,07923.5123,W,1,10,1.2,19"
"##MN+00 00 49 0180 02099 4630 443250 349211 205"
"149.915579"
"$GPGGA,215830,2551.1193,N,07923.5100,W,1,10,1.2,19"
"##MN+00 00 51 0181 02096 4632 443150 349161 205"
"149.915625"
"$GPGGA,215834,2551.1191,N,07923.5077,W,1,10,1.2,19"
"##MN-00 00 50 0182 02097 4634 443079 349127 205"
"149.915671"
"$GPGGA,215838,2551.1191,N,07923.5057,W,1,10,1.2,19"
"##MN-00 00 52 0183 02095 4636 443048 349111 205"
"149.915718"
"$GPGGA,215842,2551.1194,N,07923.5035,W,1,10,1.3,19"
"##MN+00 00 52 0184 02093 4638 443029 349100 205"
"149.915764"
"$GPGGA,215846,2551.1191,N,07923.5014,W,1,10,1.3,19"
"##MN+00 00 52 0185 02091 4640 443039 349102 205"
"149.91581"
"$GPGGA,215850,2551.1194,N,07923.4995,W,1,10,1.3,19"
"##MN+00 00 52 0186 02090 4642 443037 349104 205"
"149.915857"
"$GPGGA,215854,2551.1201,N,07923.4971,W,1,9,1.3,19,"
"##MN+00 00 62 0187 02092 4645 443012 349095 205"
"149.915903"
"#increment_net"
"$GPGGA,215858,2551.1205,N,07923.4950,W,1,9,1.2,19,"
"##MN+00 00 56 0188 02092 4647 443014 349089 205"
"149.915949"
"$GPGGA,215902,2551.1205,N,07923.4930,W,1,10,1.2,19"
"##MN+00 00 51 0190 02090 4649 443003 349086 205"
"149.915995"
"$GPGGA,215906,2551.1207,N,07923.4910,W,1,10,1.3,19"
"##MN-00 00 51 0191 02088 4651 442988 349154 205"
"149.916042"
"$GPGGA,215910,2551.1207,N,07923.4888,W,1,9,1.2,19,"
"##MN-00 00 51 0192 02089 4653 442980 349074 205"
"149.916088"
"$GPGGA,215914,2551.1208,N,07923.4869,W,1,9,1.3,19,"
"##MN-00 00 50 0193 02087 4655 442975 349074 205"
"149.916134"
"$GPGGA,215918,2551.1205,N,07923.4849,W,1,8,1.3,19,"
"##MN-00 00 50 0194 02087 4658 442968 349074 205"
"149.916181"
"$GPGGA,215922,2551.1207,N,07923.4825,W,1,9,1.3,19,"
"##MN-00 00 49 0195 02087 4660 442969 349070 205"
"149.916227"
"$GPGGA,215926,2551.1208,N,07923.4804,W,1,9,1.2,19,"
"##MN-00 00 51 0196 02085 4661 442967 349068 205"
"149.916273"
"$GPGGA,215930,2551.1212,N,07923.4785,W,1,10,1.2,19"
"##MN-00 00 48 0197 02088 4664 442966 349066 205"
"149.916319"
"$GPGGA,215934,2551.1214,N,07923.4763,W,1,10,1.2,19"
"##MN-00 00 50 0198 02089 4666 442961 349190 205"
"149.916366"
"$GPGGA,215938,2551.1218,N,07923.4742,W,1,10,1.2,19"
"##MN-00 00 49 0199 02090 4668 442958 349062 205"
"149.916412"
"$GPGGA,215942,2551.1221,N,07923.4721,W,1,10,1.2,19"
"##MN+00 00 52 0200 02090 4670 442964 349064 205"
"149.916458"
"$GPGGA,215946,2551.1225,N,07923.4702,W,1,10,1.4,19"
"##MN+00 00 51 0201 02093 4672 442967 349063 205"
"149.916505"
"$GPGGA,215950,2551.1232,N,07923.4685,W,1,9,1.2,19,"
"##MN+00 00 52 0202 02095 4674 442970 349064 205"
"149.916551"
"$GPGGA,215954,2551.1236,N,07923.4667,W,1,10,1.2,19"
"##MN+00 00 61 0203 02101 4676 442979 349068 205"
"149.916597"
"$GPGGA,215958,2551.1241,N,07923.4649,W,1,10,1.2,19"
"##MN+00 00 55 0203 02104 4678 442992 349068 205"
"149.916644"
"#increment_net"
"$GPGGA,220002,2551.1250,N,07923.4632,W,1,10,1.2,19"
"##MN+00 00 53 0204 02108 4681 443008 349076 205"
"149.91669"
"$GPGGA,220006,2551.1258,N,07923.4614,W,1,10,1.2,19"
"##MN-00 00 50 0205 02113 4683 443016 349077 205"
"149.916736"
"$GPGGA,220010,2551.1265,N,07923.4599,W,1,10,1.2,19"
"##MN-00 00 50 0206 02115 4685 443029 349082 205"
"149.916782"
"$GPGGA,220014,2551.1273,N,07923.4585,W,1,9,1.2,19,"
"##MN-00 00 49 0206 02122 4687 443071 349102 205"
"149.916829"
"$GPGGA,220018,2551.1284,N,07923.4570,W,1,10,1.2,19"
"##MN-00 00 49 0207 02126 4689 443096 349111 205"
"149.916875"
"$GPGGA,220022,2551.1292,N,07923.4555,W,1,10,1.2,19"
"##MN-00 00 48 0208 02129 4691 443183 349156 205"
"149.916921"
"$GPGGA,220026,2551.1302,N,07923.4542,W,1,10,1.2,19"
"##MN-00 00 47 0209 02133 4693 443259 349170 205"
"149.916968"
"$GPGGA,220030,2551.1310,N,07923.4528,W,1,10,1.2,19"
"##MN-00 00 46 0210 02140 4695 443420 349263 205"
"149.917014"
"$GPGGA,220034,2551.1319,N,07923.4515,W,1,10,1.2,19"
"##MN-00 00 45 0210 02142 4698 443612 349346 205"
"149.91706"
"$GPGGA,220038,2551.1325,N,07923.4501,W,1,10,1.2,19"
"##MN-00 00 44 0211 02145 4699 443997 349502 205"
"149.917106"
"$GPGGA,220042,2551.1334,N,07923.4488,W,1,10,1.2,19"
"##MN-00 00 42 0212 02145 4701 444186 349545 205"
"149.917153"
"$GPGGA,220046,2551.1341,N,07923.4474,W,1,9,1.2,19,"
"##MN-00 00 42 0213 02145 4703 444295 349538 205"
"149.917211"
"$GPGGA,220050,2551.1350,N,07923.4462,W,1,10,1.2,19"
"##MN+00 00 41 0214 02143 4705 444414 349604 205"
"149.917257"
"$GPGGA,220054,2551.1363,N,07923.4450,W,1,10,1.2,19"
"##MN+00 00 41 0215 02145 4708 444543 349661 205"
"149.917303"
"$GPGGA,220058,2551.1375,N,07923.4439,W,1,10,1.2,19"
"##MN+00 00 40 0215 02145 4710 444699 349705 205"
"149.917349"
"$GPGGA,220102,2551.1385,N,07923.4427,W,1,10,1.2,19"
"##MN-00 00 48 0216 02146 4712 444825 349763 205"
"149.917396"
"$GPGGA,220106,2551.1395,N,07923.4413,W,1,10,1.2,19"
"##MN-00 00 44 0217 02146 4714 444881 349779 205"
"149.917442"
"$GPGGA,220110,2551.1404,N,07923.4400,W,1,10,1.2,20"
"##MN+00 00 42 0218 02145 4716 444919 349813 205"
"149.917488"
"$GPGGA,220114,2551.1413,N,07923.4388,W,1,10,1.2,20"
"##MN+00 00 40 0219 02149 4718 445015 349842 205"
"149.917535"
"$GPGGA,220119,2551.1425,N,07923.4372,W,1,10,1.2,20"
"##MN+00 00 38 0220 02150 4719 445086 349881 205"
"149.917581"
"$GPGGA,220122,2551.1432,N,07923.4360,W,1,10,1.4,20"
"##MN-00 00 38 0221 02153 4721 445159 349911 205"
"149.917627"
"#increment_net"
"$GPGGA,220126,2551.1436,N,07923.4347,W,1,10,1.2,20"
"##MN-00 00 36 0222 02156 4723 445204 349924 205"
"149.917674"
"$GPGGA,220130,2551.1446,N,07923.4333,W,1,10,1.2,20"
"##MN-00 00 35 0224 02153 4725 445219 349928 205"
"149.91772"
"$GPGGA,220134,2551.1454,N,07923.4319,W,1,10,1.2,20"
"##MN-00 00 34 0225 02154 4727 445217 349926 205"
"149.917766"
"$GPGGA,220139,2551.1462,N,07923.4302,W,1,10,1.2,20"
"##MN-00 00 34 0226 02153 4729 445204 349925 205"
"149.917813"
"$GPGGA,220143,2551.1467,N,07923.4288,W,1,10,1.2,20"
"##MN-00 00 33 0227 02148 4731 445166 349912 205"
"149.917859"
"$GPGGA,220147,2551.1476,N,07923.4276,W,1,10,1.2,20"
"##MN-00 00 32 0228 02141 4733 444804 349850 205"
"149.917905"
"$GPGGA,220151,2551.1481,N,07923.4263,W,1,9,1.3,20,"
"##MN-00 00 33 0229 02133 4735 444118 349634 205"
"149.917951"
"$GPGGA,220155,2551.1483,N,07923.4250,W,1,10,1.2,20"
"##MN-00 00 32 0230 02125 4736 443635 349411 205"
"149.917998"
"$GPGGA,220159,2551.1490,N,07923.4234,W,1,10,1.2,20"
"##MN-00 00 33 0231 02115 4739 443220 349247 205"
"149.918044"
"$GPGGA,220203,2551.1497,N,07923.4220,W,1,10,1.2,20"
"##MN-00 00 32 0232 02106 4740 443103 349186 205"
"149.91809"
"$GPGGA,220207,2551.1504,N,07923.4206,W,1,10,1.2,20"
"##MN-00 00 32 0233 02097 4742 443033 349140 205"
"149.918137"
"$GPGGA,220211,2551.1514,N,07923.4192,W,1,9,1.3,20,"
"##MN-00 00 32 0234 02085 4744 443007 349120 205"
"149.918183"
"$GPGGA,220215,2551.1521,N,07923.4177,W,1,9,1.3,19,"
"##MN-00 00 32 0235 02075 4746 442973 349104 205"
"149.918229"
"$GPGGA,220219,2551.1526,N,07923.4163,W,1,9,1.3,19,"
"##MN-00 00 32 0236 02064 4748 442953 349085 205"
"149.918275"
"$GPGGA,220223,2551.1533,N,07923.4149,W,1,9,1.3,19,"
"##MN-00 00 31 0238 02053 4750 442895 349068 205"
"149.918322"
"$GPGGA,220227,2551.1540,N,07923.4135,W,1,10,1.2,19"
"##MN-00 00 32 0239 02041 4751 442816 349063 205"
"149.918368"
"$GPGGA,220231,2551.1544,N,07923.4119,W,1,9,1.3,19,"
"##MN-00 00 31 0240 02031 4753 442750 349022 205"
"149.918414"
"$GPGGA,220235,2551.1544,N,07923.4100,W,1,9,1.3,19,"
"##MN-00 00 31 0241 02019 4755 442675 349009 205"
"149.918461"
"$GPGGA,220239,2551.1554,N,07923.4087,W,1,10,1.2,19"
"##MN-00 00 31 0242 02011 4757 442606 348987 205"
"149.918507"
"$GPGGA,220243,2551.1563,N,07923.4074,W,1,9,1.3,19,"
"##MN-00 00 31 0243 01998 4759 442545 348968 205"
"149.918553"
"$GPGGA,220247,2551.1568,N,07923.4057,W,1,10,1.2,19"
"##MN-00 00 30 0244 01983 4761 442522 348956 205"
"149.9186"
"$GPGGA,220251,2551.1573,N,07923.4040,W,1,10,1.2,19"
"##MN-00 00 31 0245 01971 4762 442504 348949 205"
"149.918646"
"$GPGGA,220255,2551.1579,N,07923.4024,W,1,10,1.2,18"
"##MN-00 00 31 0246 01959 4764 442470 348948 205"
"149.918692"
"$GPGGA,220259,2551.1584,N,07923.4008,W,1,10,1.2,18"
"##MN-00 00 32 0247 01943 4766 442441 348937 205"
"149.918738"
"$GPGGA,220303,2551.1588,N,07923.3990,W,1,10,1.2,18"
"##MN-00 00 32 0249 01932 4768 442424 348932 205"
"149.918785"
"$GPGGA,220307,2551.1595,N,07923.3974,W,1,10,1.2,18"
"##MN-00 00 35 0250 01914 4770 442544 349074 205"
"149.918831"
"$GPGGA,220311,2551.1599,N,07923.3958,W,1,10,1.2,18"
"##MN-00 00 34 0251 01900 4772 442578 349231 205"
"149.918877"
"$GPGGA,220315,2551.1606,N,07923.3942,W,1,10,1.2,18"
"##MN-00 00 35 0252 01887 4773 442689 349076 205"
"149.918924"
"$GPGGA,220319,2551.1613,N,07923.3928,W,1,10,1.2,18"
"##MN-00 00 34 0253 01875 4775 442731 349110 205"
"149.91897"
"$GPGGA,220323,2551.1617,N,07923.3912,W,1,9,1.3,18,"
"##MN-00 00 34 0254 01858 4777 442814 349133 205"
"149.919016"
"$GPGGA,220327,2551.1624,N,07923.3897,W,1,10,1.2,18"
"##MN-00 00 34 0255 01862 4779 442860 349174 205"
"149.919063"
"$GPGGA,220331,2551.1631,N,07923.3881,W,1,10,1.2,18"
"##MN-00 00 34 0256 01860 4780 442877 349191 205"
