" Tow: 1Em-B   RVWS/WS1406"
" Date: 05/29/2014"
" Temperature Probe #  2597    Conductivity Probe #  2870"
" Pressure Probe #  109"
" Flow Meter Calibration  4.71 (m/count)  "
"149.938808"
"$GPGGA,223153,2551.4135,N,07921.7181,W,1,9,1.4,21,"
"##MN-00 00 54 0086 01856 5044 456214 911025 204"
"149.938854"
"$GPGGA,223201,2551.4125,N,07921.7135,W,1,9,1.5,21,"
"##MN-00 00 53 0087 01854 5044 443388 388481 204"
"149.9389"
"$GPGGA,223205,2551.4119,N,07921.7112,W,1,8,1.6,21,"
"##MN-00 00 54 0087 01853 5045 443259 372370 204"
"149.938958"
"$GPGGA,223209,2551.4117,N,07921.7090,W,1,9,1.4,20,"
"##MN-00 00 49 0088 01856 5044 442774 390168 204"
"149.939005"
"$GPGGA,223213,2551.4115,N,07921.7071,W,1,9,1.4,20,"
"##MN-00 00 52 0088 01856 5045 442704 351382 204"
"149.939294"
"$GPGGA,223234,2551.4108,N,07921.6971,W,1,8,1.8,19,"
"##MN-00 00 50 0094 01867 5045 442642 349251 204"
"149.93934"
"$GPGGA,223243,2551.4111,N,07921.6933,W,1,8,1.5,20,"
"##MN-00 00 52 0095 01871 5045 442610 349047 204"
"149.939387"
"$GPGGA,223247,2551.4113,N,07921.6914,W,1,8,1.5,21,"
"##MN-00 00 53 0096 01880 5045 442587 349044 204"
"149.939433"
"$GPGGA,223251,2551.4115,N,07921.6893,W,1,8,1.5,21,"
"##MN-00 00 53 0097 01887 5045 442574 349020 204"
"149.939479"
"$GPGGA,223255,2551.4120,N,07921.6875,W,1,8,1.5,21,"
"##MN-00 00 54 0097 01891 5045 442585 349023 204"
"149.939525"
"$GPGGA,223259,2551.4123,N,07921.6855,W,1,8,1.8,22,"
"##MN-00 00 52 0098 01895 5045 442586 349019 204"
"149.939572"
"$GPGGA,223303,2551.4127,N,07921.6834,W,1,8,1.5,22,"
"##MN-00 00 52 0099 01901 5046 442577 349011 204"
"149.939618"
"$GPGGA,223307,2551.4130,N,07921.6812,W,1,8,1.8,22,"
"##MN-00 00 51 0100 01906 5046 442553 348996 204"
"149.939664"
"$GPGGA,223311,2551.4135,N,07921.6791,W,1,8,1.8,22,"
"##MN-00 00 53 0100 01912 5046 442553 348994 204"
"149.939711"
"$GPGGA,223315,2551.4142,N,07921.6770,W,1,8,1.5,22,"
"##MN-00 00 49 0101 01919 5046 442573 348994 204"
"149.939757"
"$GPGGA,223319,2551.4152,N,07921.6748,W,1,7,1.8,22,"
"##MN-00 00 50 0102 01927 5047 442580 348995 204"
"149.939803"
"$GPGGA,223323,2551.4151,N,07921.6734,W,1,7,1.6,22,"
"##MN-00 00 51 0103 01932 5047 442567 348989 204"
"149.93985"
"$GPGGA,223327,2551.4162,N,07921.6710,W,1,7,2.0,22,"
"##MN-00 00 49 0103 01937 5048 442551 348983 204"
"149.939896"
"$GPGGA,223331,2551.4167,N,07921.6689,W,1,7,2.0,22,"
"##MN-00 00 48 0104 01941 5048 442547 348982 204"
"149.939942"
"$GPGGA,223335,2551.4175,N,07921.6666,W,1,8,1.8,22,"
"##MN-00 00 49 0105 01946 5048 442552 348983 204"
"149.939988"
"$GPGGA,223339,2551.4182,N,07921.6644,W,1,8,1.8,22,"
"##MN-00 00 48 0106 01950 5049 442561 348985 204"
"149.940035"
"$GPGGA,223343,2551.4188,N,07921.6622,W,1,8,1.8,22,"
"##MN-00 00 50 0106 01955 5049 442591 348990 204"
"149.940081"
"$GPGGA,223347,2551.4196,N,07921.6597,W,1,8,1.8,22,"
"##MN-00 00 47 0107 01959 5049 442603 348992 204"
"149.940127"
"$GPGGA,223351,2551.4203,N,07921.6575,W,1,8,1.8,22,"
"##MN-00 00 49 0108 01965 5050 442603 348988 204"
"149.940174"
"$GPGGA,223355,2551.4213,N,07921.6554,W,1,8,1.8,21,"
"##MN-00 00 47 0109 01967 5050 442590 348981 204"
"149.94022"
"$GPGGA,223359,2551.4221,N,07921.6534,W,1,8,1.5,21,"
"##MN-00 00 47 0109 01973 5051 442574 348976 204"
"149.940266"
"$GPGGA,223403,2551.4229,N,07921.6516,W,1,8,1.5,21,"
"##MN-00 00 48 0110 01975 5051 442573 348977 204"
"149.940312"
"$GPGGA,223407,2551.4240,N,07921.6496,W,1,8,1.8,21,"
"##MN-00 00 49 0111 01981 5051 442594 348987 204"
"149.940359"
"$GPGGA,223411,2551.4247,N,07921.6479,W,1,8,1.8,21,"
"##MN-00 00 48 0111 01989 5052 442624 348998 204"
"149.940405"
"$GPGGA,223415,2551.4258,N,07921.6456,W,1,8,1.8,21,"
"##MN-00 00 50 0112 01991 5052 442629 348996 204"
"149.940451"
"$GPGGA,223419,2551.4267,N,07921.6437,W,1,8,1.5,21,"
"##MN-00 00 49 0113 02000 5053 442624 348992 204"
"149.940498"
"$GPGGA,223423,2551.4272,N,07921.6425,W,1,8,1.6,21,"
"##MN-00 00 49 0113 02005 5053 442617 348994 204"
"149.940544"
"$GPGGA,223427,2551.4279,N,07921.6408,W,1,8,1.6,21,"
"##MN-00 00 48 0114 02009 5054 442693 349021 204"
"149.94059"
"$GPGGA,223431,2551.4290,N,07921.6384,W,1,9,1.4,21,"
"##MN-00 00 49 0115 02015 5054 442770 349034 204"
"149.940637"
"$GPGGA,223435,2551.4300,N,07921.6363,W,1,9,1.6,21,"
"##MN-00 00 45 0116 02021 5055 442831 349044 204"
"149.940694"
"$GPGGA,223439,2551.4305,N,07921.6345,W,1,9,1.6,21,"
"##MN-00 00 46 0116 02022 5056 442889 349062 204"
"149.940741"
"$GPGGA,223443,2551.4312,N,07921.6328,W,1,9,1.4,22,"
"##MN-00 00 45 0117 02026 5056 442896 349063 204"
"149.940787"
"$GPGGA,223447,2551.4317,N,07921.6312,W,1,9,1.6,22,"
"##MN-00 00 47 0117 02031 5057 442883 349054 204"
"149.940833"
"$GPGGA,223451,2551.4329,N,07921.6287,W,1,9,1.6,22,"
"##MN-00 00 46 0118 02037 5057 442895 349058 204"
"149.94088"
"$GPGGA,223455,2551.4334,N,07921.6270,W,1,9,1.6,22,"
"##MN-00 00 46 0119 02039 5058 442909 349063 204"
"149.940926"
"$GPGGA,223459,2551.4341,N,07921.6252,W,1,9,1.4,23,"
"##MN-00 00 46 0119 02043 5059 442921 349069 204"
"149.940972"
"$GPGGA,223503,2551.4348,N,07921.6235,W,1,9,1.4,23,"
"##MN-00 00 45 0120 02049 5059 442945 349086 204"
"149.941019"
"$GPGGA,223507,2551.4352,N,07921.6217,W,1,9,1.4,23,"
"##MN-00 00 46 0121 02053 5059 442967 349091 204"
"149.941065"
"$GPGGA,223511,2551.4359,N,07921.6200,W,1,9,1.4,23,"
"##MN-00 00 46 0121 02056 5060 442990 349097 204"
"149.941111"
"$GPGGA,223515,2551.4366,N,07921.6182,W,1,9,1.4,23,"
"##MN-00 00 47 0122 02062 5061 443001 349100 204"
"149.941157"
"$GPGGA,223519,2551.4372,N,07921.6164,W,1,9,1.4,23,"
"##MN-00 00 46 0123 02067 5061 443002 349100 204"
"149.941204"
"$GPGGA,223523,2551.4377,N,07921.6147,W,1,9,1.4,23,"
"##MN-00 00 46 0123 02072 5062 443005 349101 204"
"149.94125"
"$GPGGA,223527,2551.4384,N,07921.6129,W,1,9,1.6,23,"
"##MN-00 00 47 0124 02079 5062 443016 349105 204"
"149.941296"
"$GPGGA,223531,2551.4393,N,07921.6110,W,1,9,1.6,23,"
"##MN-00 00 46 0124 02080 5063 443024 349106 204"
"149.941343"
"$GPGGA,223536,2551.4399,N,07921.6093,W,1,9,1.4,23,"
"##MN-00 00 46 0125 02086 5064 443052 349119 204"
"149.941389"
"$GPGGA,223540,2551.4408,N,07921.6076,W,1,9,1.6,23,"
"##MN-00 00 45 0126 02090 5065 443122 349151 204"
"149.941435"
"$GPGGA,223543,2551.4413,N,07921.6063,W,1,9,1.4,23,"
"##MN-00 00 46 0126 02097 5065 443173 349179 204"
"149.941482"
"$GPGGA,223548,2551.4419,N,07921.6046,W,1,9,1.4,23,"
"##MN-00 00 45 0127 02102 5065 443226 349200 204"
"149.941528"
"$GPGGA,223552,2551.4424,N,07921.6033,W,1,9,1.4,23,"
"##MN-00 00 45 0127 02104 5066 443248 349209 204"
"149.941574"
"$GPGGA,223556,2551.4426,N,07921.6017,W,1,8,1.7,23,"
"##MN-00 00 44 0128 02108 5067 443273 349215 204"
"149.94162"
"$GPGGA,223559,2551.4428,N,07921.6002,W,1,9,1.4,23,"
"##MN-00 00 44 0129 02115 5067 443295 349223 204"
"149.941667"
"$GPGGA,223603,2551.4433,N,07921.5990,W,1,9,1.6,23,"
"##MN-00 00 44 0129 02120 5068 443307 349229 204"
"149.941713"
"$GPGGA,223608,2551.4435,N,07921.5975,W,1,8,1.6,24,"
"##MN-00 00 43 0130 02121 5069 443336 349242 204"
"149.941759"
"$GPGGA,223612,2551.4440,N,07921.5963,W,1,8,1.6,24,"
"##MN-00 00 38 0130 02121 5069 443363 349249 204"
"149.941806"
"$GPGGA,223616,2551.4445,N,07921.5948,W,1,9,1.4,24,"
"##MN-00 00 39 0131 02122 5070 443352 349244 204"
"149.941852"
"$GPGGA,223620,2551.4451,N,07921.5934,W,1,9,1.4,24,"
"##MN-00 00 40 0132 02125 5071 443363 349249 204"
"149.941898"
"$GPGGA,223624,2551.4455,N,07921.5921,W,1,9,1.4,24,"
"##MN-00 00 41 0132 02123 5071 443379 349254 204"
"149.941944"
"$GPGGA,223628,2551.4462,N,07921.5907,W,1,9,1.4,24,"
"##MN-00 00 42 0133 02123 5072 443393 349259 204"
"149.941991"
"$GPGGA,223632,2551.4467,N,07921.5894,W,1,9,1.4,24,"
"##MN+00 00 40 0133 02125 5073 443393 349259 204"
"149.942037"
"$GPGGA,223636,2551.4471,N,07921.5881,W,1,9,1.4,24,"
"##MN+00 00 42 0134 02124 5074 443408 349264 204"
"149.942083"
"$GPGGA,223640,2551.4474,N,07921.5869,W,1,9,1.4,24,"
"##MN+00 00 38 0135 02126 5074 443411 349265 204"
"149.94213"
"$GPGGA,223644,2551.4478,N,07921.5859,W,1,9,1.4,24,"
"##MN+00 00 40 0135 02127 5075 443429 349272 204"
"149.942176"
"$GPGGA,223648,2551.4482,N,07921.5847,W,1,9,1.4,24,"
"##MN+00 00 40 0136 02123 5076 443435 349274 204"
"149.942222"
"$GPGGA,223652,2551.4485,N,07921.5836,W,1,9,1.4,24,"
"##MN+00 00 38 0137 02127 5076 443442 349276 204"
"149.942269"
"$GPGGA,223656,2551.4489,N,07921.5825,W,1,9,1.4,24,"
"##MN-00 00 45 0137 02129 5077 443441 349276 204"
"149.942315"
"#increment_net"
"$GPGGA,223700,2551.4492,N,07921.5814,W,1,9,1.4,24,"
"##MN-00 00 44 0138 02128 5078 443443 349278 204"
"149.942361"
"$GPGGA,223704,2551.4493,N,07921.5803,W,1,9,1.4,24,"
"##MN-00 00 40 0138 02128 5078 443443 349276 204"
"149.942407"
"$GPGGA,223708,2551.4496,N,07921.5793,W,1,9,1.4,24,"
"##MN-00 00 39 0139 02124 5079 443456 349282 204"
"149.942454"
"$GPGGA,223712,2551.4499,N,07921.5782,W,1,9,1.4,23,"
"##MN-00 00 39 0139 02126 5079 443530 349322 204"
"149.9425"
"$GPGGA,223716,2551.4503,N,07921.5770,W,1,9,1.4,23,"
"##MN-00 00 38 0140 02126 5080 443591 349334 204"
"149.942546"
"$GPGGA,223720,2551.4505,N,07921.5758,W,1,8,1.4,23,"
"##MN-00 00 38 0141 02129 5081 443590 349336 204"
"149.942593"
"$GPGGA,223724,2551.4512,N,07921.5745,W,1,9,1.4,23,"
"##MN-00 00 38 0141 02128 5081 443587 349336 204"
"149.942639"
"$GPGGA,223728,2551.4518,N,07921.5733,W,1,9,1.4,23,"
"##MN-00 00 39 0142 02129 5082 443589 349335 204"
"149.942685"
"$GPGGA,223732,2551.4523,N,07921.5722,W,1,9,1.4,23,"
"##MN-00 00 37 0143 02131 5083 443592 349337 204"
"149.942731"
"$GPGGA,223736,2551.4528,N,07921.5710,W,1,9,1.4,23,"
"##MN-00 00 38 0143 02131 5084 443569 349332 204"
"149.942778"
"$GPGGA,223740,2551.4526,N,07921.5700,W,1,8,1.4,23,"
"##MN-00 00 38 0144 02130 5084 443576 349331 204"
"149.942824"
"$GPGGA,223744,2551.4526,N,07921.5690,W,1,9,1.4,22,"
"##MN+00 00 37 0145 02130 5085 443554 349319 204"
"149.94287"
"$GPGGA,223748,2551.4529,N,07921.5679,W,1,9,1.4,22,"
"##MN+00 00 39 0145 02129 5086 443531 349314 204"
"149.942917"
"$GPGGA,223752,2551.4532,N,07921.5667,W,1,9,1.4,22,"
"##MN+00 00 37 0146 02130 5086 443509 349307 204"
"149.942963"
"$GPGGA,223756,2551.4533,N,07921.5655,W,1,9,1.4,21,"
"##MN-00 00 39 0146 02128 5087 443489 349299 204"
"149.943009"
"$GPGGA,223800,2551.4538,N,07921.5642,W,1,9,1.4,21,"
"##MN-00 00 38 0147 02132 5087 443473 349289 204"
"149.943056"
"$GPGGA,223804,2551.4542,N,07921.5629,W,1,9,1.4,21,"
"##MN-00 00 39 0148 02128 5088 443453 349280 204"
"149.943102"
"$GPGGA,223808,2551.4543,N,07921.5617,W,1,9,1.4,21,"
"##MN+00 00 38 0148 02125 5089 443438 349275 204"
"149.943148"
"$GPGGA,223812,2551.4546,N,07921.5604,W,1,9,1.4,21,"
"##MN+00 00 38 0149 02125 5090 443431 349275 204"
"149.943194"
"$GPGGA,223816,2551.4547,N,07921.5591,W,1,9,1.4,21,"
"##MN+00 00 38 0150 02122 5091 443426 349273 204"
"149.943241"
"$GPGGA,223820,2551.4547,N,07921.5580,W,1,9,1.4,21,"
"##MN-00 00 45 0150 02124 5091 443416 349270 204"
"149.943287"
"#increment_net"
"$GPGGA,223824,2551.4549,N,07921.5567,W,1,9,1.4,21,"
"##MN-00 00 45 0151 02122 5092 443419 349271 204"
"149.943333"
"$GPGGA,223828,2551.4550,N,07921.5554,W,1,9,1.4,21,"
"##MN-00 00 39 0151 02122 5093 443387 349263 204"
"149.94338"
"$GPGGA,223832,2551.4554,N,07921.5543,W,1,8,1.4,21,"
"##MN-00 00 40 0152 02120 5093 443376 349258 204"
"149.943426"
"$GPGGA,223836,2551.4557,N,07921.5532,W,1,9,1.4,21,"
"##MN-00 00 39 0153 02119 5094 443358 349247 204"
"149.943472"
"$GPGGA,223840,2551.4557,N,07921.5521,W,1,9,1.4,21,"
"##MN-00 00 39 0153 02119 5095 443308 349222 204"
"149.943518"
"$GPGGA,223844,2551.4557,N,07921.5509,W,1,9,1.4,21,"
"##MN-00 00 38 0154 02118 5095 443293 349218 204"
"149.943565"
"$GPGGA,223848,2551.4558,N,07921.5496,W,1,9,1.4,21,"
"##MN-00 00 39 0155 02117 5096 443279 349213 204"
"149.943611"
"$GPGGA,223852,2551.4561,N,07921.5483,W,1,9,1.4,21,"
"##MN-00 00 40 0155 02117 5097 443253 349204 204"
"149.943657"
"$GPGGA,223856,2551.4561,N,07921.5471,W,1,9,1.4,21,"
"##MN+00 00 39 0156 02118 5097 443247 349202 204"
"149.943704"
"$GPGGA,223900,2551.4563,N,07921.5459,W,1,9,1.4,20,"
"##MN+00 00 40 0157 02117 5098 443261 349210 204"
"149.94375"
"$GPGGA,223904,2551.4565,N,07921.5446,W,1,9,1.4,20,"
"##MN+00 00 39 0157 02118 5099 443286 349222 204"
"149.943796"
"$GPGGA,223908,2551.4565,N,07921.5433,W,1,9,1.6,20,"
"##MN-00 00 40 0158 02118 5100 443334 349245 204"
"149.943843"
"$GPGGA,223912,2551.4568,N,07921.5420,W,1,9,1.4,20,"
"##MN-00 00 40 0159 02115 5100 443391 349266 204"
"149.943889"
"$GPGGA,223916,2551.4568,N,07921.5409,W,1,9,1.4,20,"
"##MN-00 00 39 0159 02115 5101 443437 349269 204"
"149.943947"
"$GPGGA,223920,2551.4572,N,07921.5396,W,1,9,1.4,20,"
"##MN-00 00 39 0160 02114 5102 443569 349319 204"
"149.943993"
"$GPGGA,223924,2551.4572,N,07921.5383,W,1,9,1.4,20,"
"##MN-00 00 40 0161 02114 5102 443698 349381 204"
"149.944039"
"$GPGGA,223928,2551.4576,N,07921.5369,W,1,9,1.4,20,"
"##MN+00 00 40 0162 02115 5103 443735 349393 204"
"149.944086"
"$GPGGA,223932,2551.4579,N,07921.5356,W,1,9,1.4,20,"
"##MN+00 00 40 0162 02113 5103 443745 349394 204"
"149.944132"
"$GPGGA,223936,2551.4581,N,07921.5344,W,1,9,1.4,20,"
"##MN+00 00 39 0163 02115 5104 443750 349394 204"
"149.944178"
"$GPGGA,223940,2551.4582,N,07921.5332,W,1,9,1.4,20,"
"##MN-00 00 47 0164 02116 5105 443747 349394 204"
"149.944225"
"#increment_net"
"$GPGGA,223944,2551.4583,N,07921.5320,W,1,9,1.4,20,"
"##MN-00 00 45 0164 02114 5106 443747 349393 204"
"149.944271"
"$GPGGA,223948,2551.4585,N,07921.5307,W,1,9,1.4,20,"
"##MN-00 00 41 0165 02116 5106 443736 349393 204"
"149.944317"
"$GPGGA,223952,2551.4584,N,07921.5295,W,1,9,1.4,20,"
"##MN-00 00 39 0166 02114 5107 443711 349389 204"
"149.944363"
"$GPGGA,223956,2551.4586,N,07921.5284,W,1,9,1.4,20,"
"##MN-00 00 40 0166 02114 5108 443644 349364 204"
"149.94441"
"$GPGGA,224000,2551.4586,N,07921.5272,W,1,9,1.4,20,"
"##MN-00 00 38 0167 02113 5109 443565 349336 204"
"149.944456"
"$GPGGA,224004,2551.4587,N,07921.5260,W,1,9,1.4,20,"
"##MN-00 00 39 0168 02111 5109 443546 349329 204"
"149.944502"
"$GPGGA,224008,2551.4587,N,07921.5248,W,1,9,1.4,20,"
"##MN-00 00 38 0169 02114 5110 443514 349313 204"
"149.944549"
"$GPGGA,224012,2551.4587,N,07921.5236,W,1,9,1.4,20,"
"##MN-00 00 39 0169 02112 5110 443504 349307 204"
"149.944595"
"$GPGGA,224016,2551.4588,N,07921.5225,W,1,9,1.4,20,"
"##MN-00 00 39 0170 02109 5111 443489 349302 204"
"149.944641"
"$GPGGA,224020,2551.4590,N,07921.5213,W,1,9,1.4,20,"
"##MN-00 00 39 0171 02112 5112 443494 349304 204"
"149.944688"
"$GPGGA,224024,2551.4590,N,07921.5201,W,1,9,1.4,20,"
"##MN-00 00 39 0171 02114 5112 443504 349300 204"
"149.944734"
"$GPGGA,224028,2551.4592,N,07921.5190,W,1,9,1.4,19,"
"##MN-00 00 39 0172 02112 5113 443571 349309 204"
"149.94478"
"$GPGGA,224033,2551.4593,N,07921.5176,W,1,9,1.4,19,"
"##MN+00 00 40 0173 02119 5114 443574 349329 204"
"149.944826"
"$GPGGA,224037,2551.4594,N,07921.5165,W,1,9,1.4,19,"
"##MN+00 00 40 0173 02121 5114 443707 349380 204"
"149.944873"
"$GPGGA,224041,2551.4594,N,07921.5154,W,1,9,1.4,19,"
"##MN+00 00 39 0174 02124 5115 443695 349384 204"
"149.944919"
"$GPGGA,224045,2551.4596,N,07921.5142,W,1,9,1.4,19,"
"##MN+00 00 41 0175 02128 5116 443712 349383 204"
"149.944965"
"$GPGGA,224049,2551.4597,N,07921.5130,W,1,9,1.4,19,"
"##MN+00 00 39 0175 02129 5116 443766 349410 204"
"149.945012"
"$GPGGA,224053,2551.4599,N,07921.5118,W,1,9,1.4,18,"
"##MN+00 00 38 0176 02134 5117 443884 349443 204"
"149.945058"
"$GPGGA,224056,2551.4597,N,07921.5110,W,1,9,1.4,18,"
"##MN-00 00 46 0177 02133 5118 443900 349450 204"
"149.945104"
"#increment_net"
"$GPGGA,224101,2551.4603,N,07921.5093,W,1,9,1.4,18,"
"##MN-00 00 44 0177 02133 5119 443904 349452 204"
"149.94515"
"$GPGGA,224105,2551.4604,N,07921.5082,W,1,9,1.4,18,"
"##MN-00 00 41 0178 02134 5120 443929 349462 204"
"149.945197"
"$GPGGA,224109,2551.4607,N,07921.5070,W,1,9,1.4,18,"
"##MN-00 00 40 0179 02132 5120 443952 349476 204"
"149.945243"
"$GPGGA,224113,2551.4608,N,07921.5057,W,1,9,1.4,18,"
"##MN-00 00 39 0179 02127 5121 443956 349472 204"
"149.945289"
"$GPGGA,224117,2551.4611,N,07921.5046,W,1,9,1.4,18,"
"##MN-00 00 35 0180 02126 5121 443946 349470 204"
"149.945336"
"$GPGGA,224121,2551.4612,N,07921.5033,W,1,9,1.4,18,"
"##MN-00 00 38 0181 02125 5122 443932 349465 204"
"149.945382"
"$GPGGA,224125,2551.4615,N,07921.5021,W,1,9,1.4,18,"
"##MN-00 00 38 0181 02125 5123 443932 349467 204"
"149.945428"
"$GPGGA,224129,2551.4619,N,07921.5010,W,1,9,1.4,17,"
"##MN-00 00 39 0182 02126 5124 443938 349467 204"
"149.945475"
"$GPGGA,224133,2551.4619,N,07921.4998,W,1,9,1.4,17,"
"##MN-00 00 38 0183 02124 5124 443946 349472 204"
"149.945521"
"$GPGGA,224137,2551.4621,N,07921.4987,W,1,8,1.4,17,"
"##MN+00 00 38 0183 02127 5125 443947 349469 204"
"149.945567"
"$GPGGA,224141,2551.4624,N,07921.4974,W,1,9,1.4,17,"
"##MN+00 00 38 0184 02125 5125 443950 349471 204"
"149.945613"
"$GPGGA,224145,2551.4626,N,07921.4962,W,1,9,1.4,17,"
"##MN+00 00 39 0185 02127 5126 443952 349472 204"
"149.94566"
"$GPGGA,224149,2551.4629,N,07921.4949,W,1,9,1.4,18,"
"##MN-00 00 37 0185 02127 5127 443952 349475 204"
"149.945706"
"$GPGGA,224153,2551.4632,N,07921.4938,W,1,9,1.4,18,"
"##MN-00 00 38 0186 02128 5127 443960 349480 204"
"149.945752"
"$GPGGA,224157,2551.4633,N,07921.4926,W,1,9,1.4,18,"
"##MN+00 00 38 0186 02125 5128 443962 349478 204"
"149.945799"
"$GPGGA,224201,2551.4636,N,07921.4914,W,1,9,1.4,18,"
"##MN+00 00 38 0187 02128 5129 443970 349480 204"
"149.945845"
"$GPGGA,224205,2551.4639,N,07921.4902,W,1,9,1.4,18,"
"##MN+00 00 37 0188 02124 5129 443976 349481 204"
"149.945891"
"$GPGGA,224209,2551.4641,N,07921.4891,W,1,9,1.4,19,"
"##MN-00 00 44 0188 02126 5130 443979 349483 204"
"149.945937"
"$GPGGA,224213,2551.4643,N,07921.4881,W,1,9,1.4,19,"
"##MN-00 00 43 0189 02126 5131 443981 349488 204"
"149.945984"
"#increment_net"
"$GPGGA,224217,2551.4641,N,07921.4870,W,1,9,1.4,19,"
"##MN-00 00 42 0190 02126 5131 443956 349481 204"
"149.94603"
"$GPGGA,224221,2551.4643,N,07921.4860,W,1,9,1.4,19,"
"##MN-00 00 39 0191 02131 5132 443965 349488 204"
"149.946076"
"$GPGGA,224225,2551.4644,N,07921.4851,W,1,9,1.4,19,"
"##MN-00 00 38 0192 02135 5132 443981 349489 204"
"149.946123"
"$GPGGA,224229,2551.4647,N,07921.4840,W,1,9,1.4,19,"
"##MN-00 00 40 0193 02131 5133 443987 349489 204"
"149.946169"
"$GPGGA,224233,2551.4648,N,07921.4828,W,1,8,1.5,19,"
"##MN-00 00 38 0194 02120 5133 443937 349566 204"
"149.946215"
"$GPGGA,224237,2551.4648,N,07921.4814,W,1,9,1.4,19,"
"##MN-00 00 38 0195 02110 5133 443882 349773 204"
"149.946262"
"$GPGGA,224241,2551.4646,N,07921.4802,W,1,9,1.4,19,"
"##MN-00 00 38 0196 02102 5134 443796 349962 204"
"149.946308"
"$GPGGA,224245,2551.4648,N,07921.4790,W,1,9,1.4,19,"
"##MN-00 00 38 0197 02093 5135 443616 349644 204"
"149.946354"
"$GPGGA,224249,2551.4651,N,07921.4780,W,1,8,1.5,19,"
"##MN-00 00 37 0198 02081 5135 443505 349434 204"
"149.9464"
"$GPGGA,224253,2551.4654,N,07921.4769,W,1,9,1.4,19,"
"##MN-00 00 37 0200 02072 5136 443401 349298 204"
"149.946447"
"$GPGGA,224257,2551.4652,N,07921.4757,W,1,8,1.5,19,"
"##MN-00 00 37 0201 02064 5137 443276 349271 204"
"149.946493"
"$GPGGA,224301,2551.4652,N,07921.4743,W,1,8,1.5,19,"
"##MN-00 00 37 0202 02051 5137 443125 349230 204"
"149.946539"
"$GPGGA,224305,2551.4652,N,07921.4732,W,1,9,1.4,19,"
"##MN-00 00 37 0203 02041 5138 443006 349160 204"
"149.946586"
"$GPGGA,224309,2551.4655,N,07921.4721,W,1,9,1.4,19,"
"##MN-00 00 37 0204 02031 5138 442970 349126 204"
"149.946632"
"$GPGGA,224313,2551.4659,N,07921.4709,W,1,9,1.4,19,"
"##MN-00 00 38 0205 02021 5139 442944 349113 204"
"149.946678"
"$GPGGA,224317,2551.4662,N,07921.4697,W,1,9,1.4,20,"
"##MN-00 00 35 0206 02009 5139 442911 349099 204"
"149.946725"
"$GPGGA,224321,2551.4664,N,07921.4685,W,1,9,1.4,20,"
"##MN-00 00 35 0207 01996 5140 442809 349078 204"
"149.946771"
"$GPGGA,224325,2551.4666,N,07921.4673,W,1,9,1.4,20,"
"##MN-00 00 33 0208 01983 5141 442679 349033 204"
"149.946817"
"$GPGGA,224329,2551.4668,N,07921.4660,W,1,9,1.4,20,"
"##MN-00 00 33 0209 01970 5141 442532 348991 204"
"149.946863"
"$GPGGA,224333,2551.4669,N,07921.4646,W,1,9,1.4,20,"
"##MN-00 00 33 0210 01957 5142 442447 348960 204"
"149.94691"
"$GPGGA,224337,2551.4672,N,07921.4634,W,1,9,1.4,20,"
"##MN-00 00 33 0212 01943 5142 442393 348954 204"
"149.946956"
"$GPGGA,224341,2551.4673,N,07921.4621,W,1,9,1.4,20,"
"##MN-00 00 33 0213 01929 5143 442360 348940 204"
"149.947002"
"$GPGGA,224345,2551.4674,N,07921.4607,W,1,9,1.4,20,"
"##MN-00 00 33 0214 01911 5144 442345 348941 204"
"149.947049"
"$GPGGA,224349,2551.4675,N,07921.4595,W,1,9,1.4,20,"
"##MN-00 00 33 0215 01898 5144 442305 348921 204"
"149.947095"
"$GPGGA,224353,2551.4677,N,07921.4581,W,1,9,1.4,20,"
"##MN-00 00 34 0216 01882 5145 442258 348913 204"
"149.947141"
"$GPGGA,224357,2551.4677,N,07921.4569,W,1,9,1.4,19,"
"##MN-00 00 34 0217 01866 5145 442260 348911 204"
"149.947199"
"$GPGGA,224401,2551.4678,N,07921.4555,W,1,9,1.4,19,"
"##MN-00 00 36 0219 01854 5146 442263 348913 204"
