" Tow: 1Es-A   RVWS/WS1406"
" Date: 05/29/2014"
" Temperature Probe #  2597    Conductivity Probe #  2870"
" Pressure Probe #  109"
" Flow Meter Calibration  4.71 (m/count)  "
"149.768576"
"$GPGGA,182645,2546.2576,N,07924.2880,W,1,10,1.4,14"
"##MN-00 00 54 0099 01846 5810 438455 850652 207"
"149.768623"
"$GPGGA,182653,2546.2578,N,07924.2852,W,1,10,1.4,15"
"##MN-00 00 51 0100 01848 5809 441194 348619 207"
"149.768669"
"$GPGGA,182657,2546.2578,N,07924.2837,W,1,10,1.4,15"
"##MN-00 00 49 0101 01848 5807 441208 348625 207"
"149.768715"
"$GPGGA,182701,2546.2578,N,07924.2821,W,1,10,1.4,15"
"##MN-00 00 52 0102 01848 5806 441246 348636 207"
"149.768762"
"$GPGGA,182705,2546.2578,N,07924.2804,W,1,10,1.4,15"
"##MN-00 00 54 0103 01847 5804 441286 348636 207"
"149.768808"
"$GPGGA,182709,2546.2578,N,07924.2788,W,1,10,1.4,15"
"##MN-00 00 54 0104 01854 5803 441265 348617 207"
"149.768854"
"$GPGGA,182713,2546.2578,N,07924.2772,W,1,10,1.4,15"
"##MN-00 00 52 0105 01857 5802 441260 348612 207"
"149.7689"
"$GPGGA,182717,2546.2578,N,07924.2754,W,1,10,1.4,15"
"##MN-00 00 52 0106 01857 5800 441293 348611 207"
"149.768947"
"$GPGGA,182721,2546.2578,N,07924.2736,W,1,10,1.4,15"
"##MN-00 00 50 0107 01863 5799 441261 348599 207"
"149.768993"
"$GPGGA,182725,2546.2578,N,07924.2717,W,1,10,1.4,15"
"##MN-00 00 51 0108 01865 5797 441250 348591 207"
"149.769039"
"$GPGGA,182729,2546.2580,N,07924.2698,W,1,10,1.4,15"
"##MN-00 00 54 0108 01871 5796 441246 348586 207"
"149.769086"
"$GPGGA,182733,2546.2580,N,07924.2678,W,1,10,1.4,15"
"##MN-00 00 54 0109 01875 5795 441256 348584 207"
"149.769132"
"$GPGGA,182737,2546.2583,N,07924.2658,W,1,10,1.4,15"
"##MN-00 00 53 0110 01877 5793 441277 348592 207"
"149.769178"
"$GPGGA,182741,2546.2583,N,07924.2640,W,1,10,1.4,15"
"##MN-00 00 53 0111 01881 5792 441284 348594 207"
"149.769225"
"$GPGGA,182745,2546.2585,N,07924.2622,W,1,10,1.4,15"
"##MN-00 00 53 0112 01885 5790 441297 348592 207"
"149.769271"
"$GPGGA,182749,2546.2585,N,07924.2604,W,1,10,1.4,15"
"##MN-00 00 53 0113 01890 5789 441355 348610 207"
"149.769317"
"$GPGGA,182753,2546.2588,N,07924.2585,W,1,10,1.4,15"
"##MN-00 00 52 0114 01894 5787 441369 348611 207"
"149.769363"
"$GPGGA,182757,2546.2589,N,07924.2568,W,1,10,1.4,15"
"##MN-00 00 55 0115 01901 5787 441414 348629 207"
"149.76941"
"$GPGGA,182801,2546.2591,N,07924.2555,W,1,10,1.4,15"
"##MN-00 00 53 0116 01905 5786 441496 348639 207"
"149.769456"
"$GPGGA,182805,2546.2592,N,07924.2532,W,1,10,1.4,15"
"##MN-00 00 54 0117 01911 5784 441513 348637 207"
"149.769502"
"$GPGGA,182809,2546.2592,N,07924.2514,W,1,10,1.4,15"
"##MN-00 00 54 0118 01912 5782 441566 348643 207"
"149.769549"
"$GPGGA,182813,2546.2595,N,07924.2500,W,1,10,1.4,15"
"##MN-00 00 53 0118 01918 5782 441608 348654 207"
"149.769595"
"$GPGGA,182817,2546.2594,N,07924.2483,W,1,10,1.4,15"
"##MN-00 00 52 0119 01925 5780 441688 348668 207"
"149.769641"
"$GPGGA,182821,2546.2596,N,07924.2462,W,1,10,1.4,15"
"##MN-00 00 54 0120 01928 5778 441764 348688 207"
"149.769687"
"$GPGGA,182825,2546.2594,N,07924.2445,W,1,10,1.4,15"
"##MN-00 00 53 0121 01932 5777 441847 348726 207"
"149.769734"
"$GPGGA,182829,2546.2596,N,07924.2428,W,1,10,1.4,15"
"##MN-00 00 54 0122 01938 5776 442063 348764 207"
"149.76978"
"$GPGGA,182833,2546.2594,N,07924.2411,W,1,10,1.4,15"
"##MN-00 00 53 0123 01943 5774 442293 348839 207"
"149.769826"
"$GPGGA,182837,2546.2595,N,07924.2394,W,1,10,1.4,15"
"##MN-00 00 52 0124 01946 5773 442403 348875 207"
"149.769873"
"$GPGGA,182841,2546.2595,N,07924.2375,W,1,10,1.4,15"
"##MN-00 00 55 0125 01952 5772 442500 348908 207"
"149.769919"
"$GPGGA,182845,2546.2594,N,07924.2357,W,1,10,1.4,15"
"##MN-00 00 54 0126 01955 5771 442548 348944 207"
"149.769965"
"$GPGGA,182849,2546.2593,N,07924.2339,W,1,10,1.4,15"
"##MN-00 00 51 0126 01958 5769 442578 348956 206"
"149.770012"
"$GPGGA,182853,2546.2594,N,07924.2322,W,1,10,1.4,15"
"##MN-00 00 52 0127 01963 5768 442591 348958 207"
"149.770058"
"$GPGGA,182857,2546.2595,N,07924.2306,W,1,10,1.4,15"
"##MN-00 00 52 0128 01968 5767 442596 348951 207"
"149.770104"
"$GPGGA,182901,2546.2595,N,07924.2290,W,1,10,1.4,15"
"##MN-00 00 51 0129 01966 5766 442601 348950 206"
"149.770151"
"$GPGGA,182905,2546.2594,N,07924.2275,W,1,10,1.4,15"
"##MN-00 00 52 0130 01967 5764 442602 348955 206"
"149.770197"
"$GPGGA,182909,2546.2594,N,07924.2259,W,1,10,1.4,15"
"##MN-00 00 49 0131 01968 5763 442600 348959 207"
"149.770243"
"$GPGGA,182913,2546.2594,N,07924.2242,W,1,10,1.4,15"
"##MN-00 00 51 0132 01968 5762 442594 348958 206"
"149.770289"
"$GPGGA,182917,2546.2596,N,07924.2226,W,1,10,1.4,15"
"##MN+00 00 51 0133 01969 5760 442592 348957 206"
"149.770336"
"$GPGGA,182921,2546.2596,N,07924.2209,W,1,10,1.4,16"
"##MN+00 00 51 0134 01968 5759 442594 348958 206"
"149.770382"
"$GPGGA,182926,2546.2596,N,07924.2187,W,1,10,1.4,16"
"##MN+00 00 51 0135 01970 5758 442593 348958 206"
"149.770428"
"$GPGGA,182930,2546.2599,N,07924.2169,W,1,10,1.4,16"
"##MN-00 00 49 0136 01971 5756 442592 348960 206"
"149.770475"
"$GPGGA,182934,2546.2598,N,07924.2151,W,1,10,1.4,16"
"##MN-00 00 52 0137 01969 5755 442588 348958 206"
"149.770521"
"$GPGGA,182938,2546.2600,N,07924.2133,W,1,10,1.4,16"
"##MN-00 00 51 0138 01970 5754 442588 348960 206"
"149.770567"
"$GPGGA,182942,2546.2601,N,07924.2115,W,1,10,1.4,16"
"##MN+00 00 51 0139 01969 5753 442591 348961 206"
"149.770613"
"$GPGGA,182946,2546.2603,N,07924.2098,W,1,10,1.4,16"
"##MN+00 00 49 0140 01970 5751 442591 348960 206"
"149.77066"
"$GPGGA,182950,2546.2603,N,07924.2080,W,1,10,1.4,16"
"##MN+00 00 60 0141 01972 5750 442585 348959 206"
"149.770706"
"#increment_net"
"$GPGGA,182954,2546.2604,N,07924.2061,W,1,10,1.4,16"
"##MN-00 00 56 0142 01971 5749 442588 348958 206"
"149.770752"
"$GPGGA,182958,2546.2607,N,07924.2043,W,1,10,1.4,16"
"##MN-00 00 51 0143 01972 5748 442594 348960 206"
"149.770799"
"$GPGGA,183002,2546.2609,N,07924.2025,W,1,10,1.4,16"
"##MN-00 00 50 0144 01972 5746 442598 348962 206"
"149.770856"
"$GPGGA,183006,2546.2609,N,07924.2006,W,1,10,1.4,16"
"##MN-00 00 50 0145 01971 5745 442600 348963 206"
"149.770903"
"$GPGGA,183010,2546.2609,N,07924.1989,W,1,10,1.4,16"
"##MN-00 00 51 0146 01970 5744 442595 348961 206"
"149.770949"
"$GPGGA,183014,2546.2610,N,07924.1970,W,1,10,1.4,16"
"##MN-00 00 50 0147 01971 5742 442590 348960 206"
"149.770995"
"$GPGGA,183018,2546.2613,N,07924.1953,W,1,10,1.4,16"
"##MN-00 00 51 0147 01972 5741 442590 348960 206"
"149.771042"
"$GPGGA,183022,2546.2614,N,07924.1935,W,1,10,1.4,16"
"##MN-00 00 51 0148 01969 5740 442592 348960 206"
"149.771088"
"$GPGGA,183026,2546.2615,N,07924.1918,W,1,10,1.4,16"
"##MN-00 00 52 0149 01969 5739 442591 348960 206"
"149.771134"
"$GPGGA,183030,2546.2616,N,07924.1900,W,1,10,1.4,16"
"##MN+00 00 51 0150 01968 5738 442598 349005 206"
"149.771181"
"$GPGGA,183034,2546.2617,N,07924.1884,W,1,10,1.4,16"
"##MN+00 00 51 0151 01970 5736 442598 348962 206"
"149.771227"
"$GPGGA,183038,2546.2619,N,07924.1866,W,1,10,1.4,16"
"##MN+00 00 52 0152 01969 5735 442600 348962 206"
"149.771273"
"$GPGGA,183042,2546.2621,N,07924.1851,W,1,10,1.4,16"
"##MN-00 00 51 0153 01967 5734 442606 348964 206"
"149.771319"
"$GPGGA,183046,2546.2622,N,07924.1834,W,1,10,1.4,16"
"##MN-00 00 51 0154 01970 5733 442612 348967 206"
"149.771366"
"$GPGGA,183050,2546.2624,N,07924.1816,W,1,10,1.4,16"
"##MN+00 00 53 0155 01967 5732 442615 348966 206"
"149.771412"
"$GPGGA,183054,2546.2625,N,07924.1801,W,1,10,1.4,16"
"##MN+00 00 51 0156 01969 5731 442616 348968 206"
"149.771458"
"$GPGGA,183058,2546.2625,N,07924.1783,W,1,10,1.4,16"
"##MN+00 00 54 0157 01968 5729 442613 348968 206"
"149.771505"
"$GPGGA,183102,2546.2627,N,07924.1763,W,1,10,1.4,16"
"##MN-00 00 52 0158 01970 5728 442607 348967 206"
"149.771551"
"$GPGGA,183106,2546.2627,N,07924.1745,W,1,10,1.4,16"
"##MN-00 00 55 0159 01968 5727 442606 348968 206"
"149.771597"
"#increment_net"
"$GPGGA,183110,2546.2627,N,07924.1727,W,1,10,1.4,16"
"##MN-00 00 53 0160 01966 5725 442612 348969 206"
"149.771643"
"$GPGGA,183114,2546.2627,N,07924.1709,W,1,10,1.4,16"
"##MN-00 00 55 0160 01968 5724 442619 348972 206"
"149.77169"
"$GPGGA,183118,2546.2630,N,07924.1691,W,1,9,1.4,16,"
"##MN-00 00 52 0161 01967 5723 442626 348976 206"
"149.771736"
"$GPGGA,183122,2546.2630,N,07924.1677,W,1,10,1.4,16"
"##MN-00 00 55 0162 01965 5722 442615 349138 206"
"149.771782"
"$GPGGA,183126,2546.2632,N,07924.1663,W,1,10,1.4,16"
"##MN-00 00 51 0163 01970 5721 442594 348968 206"
"149.771829"
"$GPGGA,183130,2546.2634,N,07924.1649,W,1,10,1.4,16"
"##MN-00 00 54 0164 01966 5719 442582 348964 206"
"149.771875"
"$GPGGA,183134,2546.2633,N,07924.1630,W,1,10,1.4,17"
"##MN-00 00 53 0165 01964 5718 442568 348958 206"
"149.771921"
"$GPGGA,183138,2546.2636,N,07924.1611,W,1,10,1.4,17"
"##MN-00 00 52 0166 01966 5717 442560 348955 206"
"149.771968"
"$GPGGA,183142,2546.2639,N,07924.1593,W,1,10,1.4,17"
"##MN-00 00 53 0167 01967 5716 442555 348955 206"
"149.772014"
"$GPGGA,183146,2546.2642,N,07924.1575,W,1,10,1.4,17"
"##MN-00 00 54 0168 01967 5715 442556 348954 206"
"149.77206"
"$GPGGA,183150,2546.2643,N,07924.1549,W,1,9,1.7,17,"
"##MN+00 00 52 0169 01968 5714 442561 348954 206"
"149.772106"
"$GPGGA,183154,2546.2645,N,07924.1530,W,1,10,1.4,17"
"##MN+00 00 54 0170 01966 5713 442567 348956 206"
"149.772153"
"$GPGGA,183158,2546.2646,N,07924.1509,W,1,10,1.4,17"
"##MN+00 00 55 0171 01966 5711 442578 348960 206"
"149.772199"
"$GPGGA,183202,2546.2646,N,07924.1489,W,1,10,1.4,17"
"##MN-00 00 53 0171 01964 5710 442593 348965 206"
"149.772245"
"$GPGGA,183206,2546.2650,N,07924.1464,W,1,9,1.7,17,"
"##MN-00 00 52 0172 01963 5709 442595 348967 206"
"149.772292"
"$GPGGA,183210,2546.2654,N,07924.1441,W,1,10,1.4,17"
"##MN+00 00 54 0173 01964 5708 442592 348967 206"
"149.772338"
"$GPGGA,183214,2546.2657,N,07924.1418,W,1,9,1.4,17,"
"##MN+00 00 53 0174 01963 5707 442586 348965 206"
"149.772384"
"$GPGGA,183218,2546.2661,N,07924.1397,W,1,9,1.4,16,"
"##MN+00 00 57 0175 01965 5705 442589 348965 206"
"149.772431"
"$GPGGA,183222,2546.2664,N,07924.1377,W,1,9,1.7,16,"
"##MN-00 00 57 0176 01963 5705 442589 348964 206"
"149.772477"
"$GPGGA,183226,2546.2668,N,07924.1354,W,1,9,1.7,16,"
"##MN-00 00 56 0177 01961 5704 442591 348965 206"
"149.772523"
"#increment_net"
"$GPGGA,183230,2546.2672,N,07924.1332,W,1,9,1.7,16,"
"##MN-00 00 58 0178 01961 5702 442595 348966 206"
"149.772569"
"$GPGGA,183234,2546.2675,N,07924.1311,W,1,9,1.7,15,"
"##MN-00 00 55 0179 01961 5701 442600 348968 206"
"149.772616"
"$GPGGA,183238,2546.2678,N,07924.1289,W,1,9,1.7,15,"
"##MN-00 00 57 0180 01961 5700 442603 348968 206"
"149.772662"
"$GPGGA,183242,2546.2680,N,07924.1268,W,1,9,1.7,15,"
"##MN-00 00 56 0181 01962 5699 442604 348968 206"
"149.772708"
"$GPGGA,183246,2546.2682,N,07924.1252,W,1,10,1.4,15"
"##MN-00 00 56 0182 01962 5698 442604 348969 206"
"149.772755"
"$GPGGA,183250,2546.2686,N,07924.1235,W,1,10,1.4,15"
"##MN-00 00 57 0183 01962 5697 442603 348968 206"
"149.772801"
"$GPGGA,183254,2546.2690,N,07924.1216,W,1,10,1.4,15"
"##MN-00 00 55 0184 01964 5696 442599 348968 206"
"149.772847"
"$GPGGA,183258,2546.2693,N,07924.1198,W,1,10,1.4,16"
"##MN-00 00 56 0185 01962 5695 442593 348966 206"
"149.772894"
"$GPGGA,183302,2546.2697,N,07924.1179,W,1,10,1.4,16"
"##MN-00 00 56 0186 01962 5693 442592 348965 206"
"149.77294"
"$GPGGA,183306,2546.2698,N,07924.1159,W,1,10,1.4,16"
"##MN-00 00 55 0187 01961 5692 442597 348966 206"
"149.772986"
"$GPGGA,183310,2546.2701,N,07924.1139,W,1,10,1.4,17"
"##MN-00 00 56 0188 01961 5691 442596 348966 206"
"149.773032"
"$GPGGA,183314,2546.2704,N,07924.1116,W,1,10,1.7,17"
"##MN-00 00 58 0189 01962 5690 442593 348965 206"
"149.773079"
"$GPGGA,183318,2546.2707,N,07924.1096,W,1,10,1.9,17"
"##MN+00 00 56 0190 01962 5689 442604 348967 206"
"149.773125"
"$GPGGA,183322,2546.2710,N,07924.1071,W,1,9,1.7,17,"
"##MN+00 00 55 0191 01961 5688 442614 348970 206"
"149.773171"
"$GPGGA,183326,2546.2712,N,07924.1049,W,1,8,1.4,17,"
"##MN+00 00 55 0192 01962 5687 442620 348972 206"
"149.773218"
"$GPGGA,183330,2546.2716,N,07924.1025,W,1,9,1.7,17,"
"##MN+00 00 56 0193 01961 5686 442623 348972 206"
"149.773264"
"$GPGGA,183334,2546.2721,N,07924.1002,W,1,9,1.9,17,"
"##MN+00 00 57 0194 01960 5685 442626 348972 206"
"149.77331"
"$GPGGA,183338,2546.2721,N,07924.0981,W,1,9,1.7,17,"
"##MN+00 00 57 0195 01961 5684 442613 348972 206"
"149.773357"
"$GPGGA,183342,2546.2722,N,07924.0962,W,1,9,1.7,16,"
"##MN-00 00 56 0196 01962 5683 442601 348969 206"
"149.773403"
"#increment_net"
"$GPGGA,183346,2546.2722,N,07924.0941,W,1,9,1.7,16,"
"##MN-00 00 56 0197 01960 5682 442600 348967 206"
"149.773449"
"$GPGGA,183350,2546.2728,N,07924.0918,W,1,9,1.7,16,"
"##MN-00 00 55 0198 01961 5680 442604 348968 206"
"149.773495"
"$GPGGA,183354,2546.2732,N,07924.0896,W,1,8,1.7,16,"
"##MN-00 00 56 0199 01962 5679 442609 348970 206"
"149.773542"
"$GPGGA,183359,2546.2737,N,07924.0868,W,1,9,1.7,16,"
"##MN-00 00 57 0200 01961 5678 442614 348969 206"
"149.773588"
"$GPGGA,183403,2546.2742,N,07924.0846,W,1,9,1.7,16,"
"##MN-00 00 56 0201 01960 5677 442611 348969 206"
"149.773634"
"$GPGGA,183406,2546.2744,N,07924.0829,W,1,9,1.7,16,"
"##MN-00 00 53 0202 01962 5676 442610 348969 206"
"149.773681"
"$GPGGA,183410,2546.2748,N,07924.0806,W,1,10,1.7,16"
"##MN-00 00 54 0202 01964 5675 442606 348968 206"
"149.773727"
"$GPGGA,183415,2546.2755,N,07924.0784,W,1,10,1.4,16"
"##MN-00 00 55 0203 01968 5674 442607 348967 206"
"149.773773"
"$GPGGA,183419,2546.2762,N,07924.0767,W,1,9,1.7,16,"
"##MN-00 00 52 0204 01970 5673 442611 348968 206"
"149.773819"
"$GPGGA,183423,2546.2768,N,07924.0748,W,1,9,1.7,16,"
"##MN+00 00 55 0205 01970 5672 442625 348970 206"
"149.773866"
"$GPGGA,183427,2546.2773,N,07924.0729,W,1,9,1.7,16,"
"##MN+00 00 54 0206 01968 5671 442630 348972 206"
"149.773912"
"$GPGGA,183431,2546.2779,N,07924.0710,W,1,9,1.7,16,"
"##MN+00 00 53 0206 01972 5670 442626 348971 206"
"149.77397"
"$GPGGA,183435,2546.2783,N,07924.0695,W,1,10,1.4,16"
"##MN-00 00 53 0207 01972 5669 442622 348969 206"
"149.774016"
"$GPGGA,183439,2546.2786,N,07924.0681,W,1,10,1.4,17"
"##MN-00 00 53 0208 01972 5668 442622 348969 206"
"149.774062"
"$GPGGA,183443,2546.2790,N,07924.0657,W,1,10,1.4,17"
"##MN-00 00 54 0209 01972 5667 442619 348968 206"
"149.774109"
"$GPGGA,183447,2546.2794,N,07924.0638,W,1,10,1.4,17"
"##MN+00 00 53 0210 01968 5666 442613 348966 206"
"149.774155"
"$GPGGA,183451,2546.2798,N,07924.0618,W,1,10,1.4,17"
"##MN+00 00 52 0211 01973 5665 442616 348966 206"
"149.774201"
"$GPGGA,183455,2546.2802,N,07924.0595,W,1,9,1.7,17,"
"##MN+00 00 53 0212 01973 5664 442617 348967 206"
"149.774248"
"#increment_net"
"$GPGGA,183459,2546.2805,N,07924.0578,W,1,9,1.5,17,"
"##MN-00 00 54 0212 01973 5663 442619 348969 206"
"149.774294"
"$GPGGA,183503,2546.2809,N,07924.0558,W,1,10,1.4,17"
"##MN-00 00 54 0213 01972 5662 442622 348969 206"
"149.77434"
"$GPGGA,183507,2546.2813,N,07924.0535,W,1,10,1.7,17"
"##MN-00 00 53 0214 01971 5661 442627 348970 206"
"149.774387"
"$GPGGA,183511,2546.2816,N,07924.0513,W,1,10,1.4,17"
"##MN-00 00 54 0215 01969 5659 442630 348973 206"
"149.774433"
"$GPGGA,183515,2546.2820,N,07924.0487,W,1,10,1.7,17"
"##MN-00 00 54 0216 01967 5659 442627 348973 206"
"149.774479"
"$GPGGA,183519,2546.2823,N,07924.0464,W,1,10,1.7,18"
"##MN-00 00 52 0217 01961 5658 442616 348973 206"
"149.774525"
"$GPGGA,183523,2546.2827,N,07924.0442,W,1,9,1.7,18,"
"##MN-00 00 56 0218 01954 5657 442611 348975 206"
"149.774572"
"$GPGGA,183527,2546.2829,N,07924.0428,W,1,10,1.4,18"
"##MN-00 00 54 0220 01945 5656 442598 348976 206"
"149.774618"
"$GPGGA,183531,2546.2833,N,07924.0410,W,1,10,1.4,19"
"##MN-00 00 56 0221 01938 5655 442593 348977 206"
"149.774664"
"$GPGGA,183535,2546.2835,N,07924.0390,W,1,9,1.9,19,"
"##MN-00 00 55 0222 01928 5654 442591 348980 206"
"149.774711"
"$GPGGA,183539,2546.2841,N,07924.0364,W,1,8,1.7,19,"
"##MN-00 00 55 0223 01919 5653 442538 348981 206"
"149.774757"
"$GPGGA,183543,2546.2845,N,07924.0340,W,1,9,1.7,19,"
"##MN-00 00 56 0224 01910 5652 442439 348956 206"
"149.774803"
"$GPGGA,183547,2546.2850,N,07924.0323,W,1,10,1.4,19"
"##MN-00 00 56 0226 01903 5651 442262 348922 206"
"149.77485"
"$GPGGA,183551,2546.2858,N,07924.0299,W,1,9,1.7,19,"
"##MN-00 00 55 0227 01896 5650 442067 348852 206"
"149.774896"
"$GPGGA,183555,2546.2867,N,07924.0277,W,1,10,1.7,19"
"##MN-00 00 55 0228 01885 5649 441810 348807 206"
"149.774942"
"$GPGGA,183559,2546.2873,N,07924.0250,W,1,8,1.7,19,"
"##MN-00 00 54 0229 01878 5647 441568 348834 206"
"149.774988"
"$GPGGA,183603,2546.2881,N,07924.0225,W,1,9,1.7,19,"
"##MN-00 00 56 0230 01870 5647 441356 348775 206"
"149.775035"
"$GPGGA,183607,2546.2885,N,07924.0203,W,1,8,1.9,18,"
"##MN-00 00 56 0232 01860 5646 441159 348714 206"
"149.775081"
"$GPGGA,183611,2546.2889,N,07924.0182,W,1,8,1.9,18,"
"##MN-00 00 58 0233 01854 5645 441134 348702 206"
"149.775127"
"$GPGGA,183615,2546.2896,N,07924.0167,W,1,8,1.5,18,"
"##MN-00 00 56 0234 01851 5644 441151 348689 206"
"149.775174"
"$GPGGA,183619,2546.2903,N,07924.0148,W,1,9,1.5,17,"
"##MN-00 00 57 0235 01848 5643 441156 348701 206"
"149.77522"
"$GPGGA,183623,2546.2910,N,07924.0125,W,1,10,1.4,17"
"##MN-00 00 57 0235 01846 5642 441198 348661 206"
"149.775266"
"$GPGGA,183627,2546.2920,N,07924.0102,W,1,10,1.4,17"
"##MN-00 00 51 0236 01851 5641 441384 359882 206"
" Tow: 1Es-A   RVWS/WS1406"
" Date: 05/29/2014"
" Temperature Probe #  2597    Conductivity Probe #  2870"
" Pressure Probe #  109"
" Flow Meter Calibration  4.71 (m/count)  "
"149.785613"
"$GPGGA,185117,2546.3929,N,07923.4109,W,1,9,1.7,17,"
"##MN-00 00 48 0087 01851 5444 445680 851981 206"
"149.78566"
"$GPGGA,185125,2546.3949,N,07923.4055,W,1,9,1.7,17,"
"##MN-00 00 50 0088 01850 5443 441659 356717 206"
"149.785706"
"$GPGGA,185129,2546.3960,N,07923.4029,W,1,9,1.7,17,"
"##MN-00 00 47 0088 01851 5443 441672 348841 206"
"149.785752"
"$GPGGA,185133,2546.3969,N,07923.4005,W,1,9,1.7,17,"
"##MN-00 00 52 0089 01852 5443 441671 348800 206"
"149.785799"
"$GPGGA,185137,2546.3979,N,07923.3982,W,1,9,1.6,17,"
"##MN-00 00 53 0090 01857 5443 441688 348762 206"
"149.785845"
"$GPGGA,185141,2546.3990,N,07923.3959,W,1,9,1.7,17,"
"##MN-00 00 53 0090 01864 5443 441706 348790 206"
"149.785891"
"$GPGGA,185145,2546.4001,N,07923.3935,W,1,9,1.7,17,"
"##MN-00 00 52 0091 01868 5442 441679 348730 206"
"149.785937"
"$GPGGA,185149,2546.4011,N,07923.3912,W,1,8,1.9,17,"
"##MN-00 00 51 0092 01875 5442 441660 348728 206"
"149.785984"
"$GPGGA,185153,2546.4019,N,07923.3890,W,1,8,1.9,17,"
"##MN-00 00 50 0093 01879 5442 441686 348747 206"
"149.78603"
"$GPGGA,185157,2546.4027,N,07923.3869,W,1,8,1.9,16,"
"##MN-00 00 49 0094 01888 5442 441789 348737 206"
"149.786076"
"$GPGGA,185201,2546.4037,N,07923.3848,W,1,8,1.9,16,"
"##MN-00 00 52 0094 01892 5442 441871 348751 206"
"149.786123"
"$GPGGA,185205,2546.4048,N,07923.3825,W,1,8,1.9,15,"
"##MN-00 00 52 0095 01896 5441 441863 348738 206"
"149.786169"
"$GPGGA,185209,2546.4058,N,07923.3802,W,1,8,1.9,15,"
"##MN-00 00 50 0096 01901 5441 441782 348729 206"
"149.786215"
"$GPGGA,185213,2546.4068,N,07923.3780,W,1,8,1.9,15,"
"##MN-00 00 53 0096 01905 5441 441737 348690 206"
"149.786262"
"$GPGGA,185217,2546.4077,N,07923.3758,W,1,8,1.9,14,"
"##MN-00 00 47 0097 01913 5441 441751 348692 206"
"149.786308"
"$GPGGA,185221,2546.4088,N,07923.3736,W,1,8,1.9,14,"
"##MN-00 00 52 0098 01915 5441 441834 348717 206"
"149.786354"
"$GPGGA,185225,2546.4099,N,07923.3713,W,1,8,1.9,14,"
"##MN-00 00 48 0098 01922 5441 441874 348732 206"
"149.7864"
"$GPGGA,185229,2546.4109,N,07923.3692,W,1,8,1.9,14,"
"##MN-00 00 52 0099 01926 5440 442029 348788 206"
"149.786447"
"$GPGGA,185233,2546.4120,N,07923.3669,W,1,8,1.9,14,"
"##MN-00 00 50 0100 01934 5440 441955 348760 206"
"149.786493"
"$GPGGA,185237,2546.4131,N,07923.3647,W,1,8,1.9,14,"
"##MN-00 00 49 0101 01937 5440 442023 348795 206"
"149.786539"
"$GPGGA,185241,2546.4138,N,07923.3633,W,1,8,1.9,13,"
"##MN-00 00 50 0102 01944 5439 442117 348831 206"
"149.786586"
"$GPGGA,185245,2546.4149,N,07923.3609,W,1,8,1.9,14,"
"##MN-00 00 49 0102 01949 5439 442204 348838 206"
"149.786632"
"$GPGGA,185249,2546.4160,N,07923.3587,W,1,8,1.9,14,"
"##MN-00 00 50 0103 01954 5439 442272 348852 206"
"149.786678"
"$GPGGA,185253,2546.4171,N,07923.3564,W,1,7,2.3,14,"
"##MN-00 00 49 0104 01960 5439 442317 348872 206"
"149.786725"
"$GPGGA,185257,2546.4181,N,07923.3547,W,1,8,1.9,14,"
"##MN-00 00 51 0105 01966 5439 442366 348899 206"
"149.786771"
"$GPGGA,185301,2546.4193,N,07923.3524,W,1,8,1.9,15,"
"##MN-00 00 51 0105 01971 5439 442583 348971 206"
"149.786817"
"$GPGGA,185305,2546.4204,N,07923.3500,W,1,8,1.9,15,"
"##MN-00 00 48 0106 01970 5438 442743 349002 206"
"149.786863"
"$GPGGA,185309,2546.4217,N,07923.3476,W,1,8,1.9,15,"
"##MN-00 00 48 0107 01969 5438 442777 349003 206"
"149.78691"
"$GPGGA,185313,2546.4228,N,07923.3453,W,1,8,1.9,15,"
"##MN-00 00 46 0108 01970 5438 442840 349046 206"
"149.786956"
"$GPGGA,185317,2546.4242,N,07923.3430,W,1,8,1.9,16,"
"##MN-00 00 46 0108 01971 5437 442888 349047 206"
"149.787002"
"$GPGGA,185321,2546.4254,N,07923.3408,W,1,8,1.9,16,"
"##MN-00 00 47 0109 01971 5437 442898 349041 206"
"149.787049"
"$GPGGA,185325,2546.4265,N,07923.3386,W,1,8,1.9,16,"
"##MN+00 00 47 0110 01973 5437 442907 349048 206"
"149.787095"
"$GPGGA,185329,2546.4278,N,07923.3364,W,1,8,1.9,16,"
"##MN+00 00 47 0111 01975 5437 442906 349052 206"
"149.787141"
"$GPGGA,185333,2546.4289,N,07923.3342,W,1,8,1.9,15,"
"##MN+00 00 45 0112 01975 5437 442904 349057 206"
"149.787187"
"$GPGGA,185337,2546.4301,N,07923.3320,W,1,8,1.9,15,"
"##MN+00 00 46 0113 01975 5436 442904 349053 206"
"149.787234"
"$GPGGA,185341,2546.4312,N,07923.3298,W,1,8,1.9,15,"
"##MN+00 00 44 0113 01976 5436 442911 349060 206"
"149.78728"
"$GPGGA,185345,2546.4323,N,07923.3275,W,1,8,1.9,15,"
"##MN+00 00 56 0114 01977 5436 442915 349062 206"
"149.787326"
"#increment_net"
"$GPGGA,185349,2546.4337,N,07923.3250,W,1,8,1.9,15,"
"##MN-00 00 51 0115 01978 5436 442915 349062 206"
"149.787373"
"$GPGGA,185353,2546.4351,N,07923.3224,W,1,9,1.7,15,"
"##MN-00 00 47 0115 01978 5435 442905 349060 206"
"149.787419"
"$GPGGA,185357,2546.4362,N,07923.3204,W,1,8,2.1,15,"
"##MN-00 00 46 0116 01975 5435 442898 349057 206"
"149.787465"
"$GPGGA,185401,2546.4376,N,07923.3182,W,1,8,2.1,16,"
"##MN-00 00 46 0117 01975 5435 442896 349057 206"
"149.787512"
"$GPGGA,185405,2546.4390,N,07923.3155,W,1,8,1.9,16,"
"##MN-00 00 45 0118 01976 5435 442898 349057 206"
"149.787558"
"$GPGGA,185409,2546.4404,N,07923.3136,W,1,8,1.9,16,"
"##MN-00 00 43 0118 01974 5435 442896 349056 206"
"149.787604"
"$GPGGA,185413,2546.4416,N,07923.3116,W,1,8,1.9,16,"
"##MN-00 00 48 0119 01974 5434 442899 349058 206"
"149.78765"
"$GPGGA,185417,2546.4427,N,07923.3094,W,1,8,1.9,16,"
"##MN-00 00 46 0120 01972 5434 442903 349058 206"
"149.787697"
"$GPGGA,185421,2546.4441,N,07923.3072,W,1,8,1.9,16,"
"##MN-00 00 46 0121 01975 5434 442908 349059 206"
"149.787743"
"$GPGGA,185425,2546.4453,N,07923.3051,W,1,8,1.9,16,"
"##MN-00 00 47 0121 01974 5433 442919 349060 206"
"149.787789"
"$GPGGA,185429,2546.4464,N,07923.3029,W,1,8,1.9,16,"
"##MN-00 00 45 0122 01974 5434 442932 349067 206"
"149.787836"
"$GPGGA,185433,2546.4475,N,07923.3008,W,1,8,1.9,16,"
"##MN+00 00 44 0123 01974 5433 442940 349068 206"
"149.787882"
"$GPGGA,185437,2546.4487,N,07923.2986,W,1,8,1.9,15,"
"##MN+00 00 46 0124 01976 5433 442947 349073 206"
"149.787928"
"$GPGGA,185441,2546.4499,N,07923.2964,W,1,8,1.9,15,"
"##MN+00 00 46 0124 01974 5433 442949 349074 206"
"149.787975"
"$GPGGA,185445,2546.4510,N,07923.2942,W,1,8,1.9,15,"
"##MN-00 00 46 0125 01973 5432 442950 349074 206"
"149.788021"
"$GPGGA,185449,2546.4521,N,07923.2922,W,1,8,1.9,15,"
"##MN-00 00 45 0126 01971 5432 442952 349075 206"
"149.788067"
"$GPGGA,185453,2546.4529,N,07923.2903,W,1,8,1.9,15,"
"##MN+00 00 46 0127 01973 5432 442953 349075 206"
"149.788113"
"$GPGGA,185457,2546.4539,N,07923.2882,W,1,8,1.9,16,"
"##MN+00 00 47 0127 01974 5431 442955 349076 206"
"149.78816"
"$GPGGA,185501,2546.4552,N,07923.2858,W,1,9,1.7,16,"
"##MN+00 00 55 0128 01973 5431 442957 349077 206"
"149.788206"
"#increment_net"
"$GPGGA,185505,2546.4567,N,07923.2831,W,1,9,1.7,17,"
"##MN-00 00 52 0129 01972 5431 442957 349077 206"
"149.788252"
"$GPGGA,185509,2546.4579,N,07923.2809,W,1,8,1.9,17,"
"##MN-00 00 48 0130 01971 5431 442954 349076 206"
"149.788299"
"$GPGGA,185513,2546.4593,N,07923.2787,W,1,7,2.3,17,"
"##MN-00 00 49 0130 01970 5430 442954 349076 206"
"149.788345"
"$GPGGA,185517,2546.4607,N,07923.2763,W,1,7,2.3,16,"
"##MN-00 00 46 0131 01969 5430 442923 349068 206"
"149.788391"
"$GPGGA,185522,2546.4622,N,07923.2738,W,1,8,2.1,16,"
"##MN-00 00 46 0132 01973 5430 442911 349064 206"
"149.788438"
"$GPGGA,185526,2546.4633,N,07923.2718,W,1,8,2.3,16,"
"##MN-00 00 46 0133 01972 5429 442911 349065 206"
"149.788484"
"$GPGGA,185530,2546.4647,N,07923.2694,W,1,8,1.9,16,"
"##MN-00 00 46 0134 01972 5429 442915 349065 206"
"149.78853"
"$GPGGA,185534,2546.4659,N,07923.2670,W,1,8,1.9,16,"
"##MN-00 00 46 0134 01974 5429 442914 349065 206"
"149.788576"
"$GPGGA,185538,2546.4670,N,07923.2649,W,1,8,1.9,16,"
"##MN-00 00 45 0135 01973 5429 442912 349064 206"
"149.788623"
"$GPGGA,185542,2546.4683,N,07923.2629,W,1,9,1.9,16,"
"##MN-00 00 45 0136 01972 5429 442914 349064 206"
"149.788681"
"$GPGGA,185545,2546.4691,N,07923.2611,W,1,9,1.9,16,"
"##MN+00 00 45 0137 01972 5429 442917 349065 206"
"149.788727"
"$GPGGA,185550,2546.4706,N,07923.2578,W,1,8,1.7,16,"
"##MN+00 00 46 0138 01971 5428 442924 349068 206"
"149.788773"
"$GPGGA,185554,2546.4717,N,07923.2553,W,1,7,1.7,16,"
"##MN+00 00 46 0139 01970 5428 442936 349070 206"
"149.788819"
"$GPGGA,185558,2546.4729,N,07923.2535,W,1,8,1.7,16,"
"##MN-00 00 45 0140 01970 5427 442939 349071 206"
"149.788866"
"$GPGGA,185602,2546.4738,N,07923.2516,W,1,8,1.9,16,"
"##MN+00 00 46 0140 01970 5427 442938 349072 206"
"149.788912"
"$GPGGA,185606,2546.4751,N,07923.2494,W,1,9,1.7,16,"
"##MN+00 00 46 0141 01972 5427 442941 349072 206"
"149.788958"
"$GPGGA,185610,2546.4762,N,07923.2475,W,1,8,1.9,16,"
"##MN+00 00 55 0142 01973 5427 442951 349074 206"
"149.789005"
"#increment_net"
"$GPGGA,185614,2546.4774,N,07923.2454,W,1,8,1.9,16,"
"##MN-00 00 51 0143 01972 5427 442950 349075 206"
"149.789051"
"$GPGGA,185618,2546.4787,N,07923.2433,W,1,8,1.9,16,"
"##MN-00 00 46 0144 01972 5427 442939 349073 206"
"149.789097"
"$GPGGA,185622,2546.4799,N,07923.2411,W,1,8,1.9,16,"
"##MN-00 00 45 0145 01972 5426 442923 349066 206"
"149.789143"
"$GPGGA,185626,2546.4810,N,07923.2390,W,1,8,1.9,16,"
"##MN-00 00 45 0145 01973 5426 442920 349064 206"
"149.78919"
"$GPGGA,185630,2546.4821,N,07923.2369,W,1,8,1.9,16,"
"##MN-00 00 44 0146 01973 5425 442916 349062 206"
"149.789236"
"$GPGGA,185634,2546.4834,N,07923.2347,W,1,8,1.9,15,"
"##MN-00 00 44 0147 01975 5425 442919 349063 206"
"149.789282"
"$GPGGA,185638,2546.4845,N,07923.2326,W,1,8,1.9,15,"
"##MN-00 00 43 0148 01972 5425 442936 349068 206"
"149.789329"
"$GPGGA,185642,2546.4857,N,07923.2304,W,1,8,1.9,15,"
"##MN-00 00 44 0149 01974 5425 442940 349070 206"
"149.789375"
"$GPGGA,185646,2546.4868,N,07923.2282,W,1,8,1.9,15,"
"##MN-00 00 43 0150 01976 5424 442941 349067 206"
"149.789421"
"$GPGGA,185650,2546.4881,N,07923.2259,W,1,8,2.3,15,"
"##MN-00 00 44 0150 01977 5424 442937 349066 206"
"149.789468"
"$GPGGA,185654,2546.4892,N,07923.2237,W,1,8,1.9,15,"
"##MN+00 00 43 0151 01976 5424 442940 349067 206"
"149.789514"
"$GPGGA,185658,2546.4901,N,07923.2220,W,1,8,1.9,15,"
"##MN+00 00 44 0152 01974 5424 442940 349067 206"
"149.78956"
"$GPGGA,185702,2546.4918,N,07923.2191,W,1,8,1.9,15,"
"##MN+00 00 44 0153 01974 5423 442947 349070 206"
"149.789606"
"$GPGGA,185706,2546.4930,N,07923.2170,W,1,8,1.9,15,"
"##MN-00 00 43 0154 01976 5423 442948 349070 206"
"149.789653"
"$GPGGA,185710,2546.4940,N,07923.2149,W,1,8,1.9,15,"
"##MN+00 00 43 0155 01975 5423 442947 349069 206"
"149.789699"
"$GPGGA,185714,2546.4951,N,07923.2129,W,1,8,1.9,15,"
"##MN+00 00 43 0155 01975 5423 442944 349068 206"
"149.789745"
"$GPGGA,185718,2546.4962,N,07923.2108,W,1,8,1.9,15,"
"##MN+00 00 53 0156 01980 5422 442946 349068 206"
"149.789792"
"#increment_net"
"$GPGGA,185722,2546.4975,N,07923.2087,W,1,8,1.9,14,"
"##MN-00 00 49 0157 01979 5422 442947 349069 206"
"149.789838"
"$GPGGA,185726,2546.4986,N,07923.2066,W,1,8,1.9,14,"
"##MN-00 00 45 0158 01978 5422 442949 349070 206"
"149.789884"
"$GPGGA,185730,2546.5001,N,07923.2045,W,1,8,1.9,14,"
"##MN-00 00 43 0159 01977 5421 442944 349069 206"
"149.789931"
"$GPGGA,185734,2546.5013,N,07923.2023,W,1,8,1.9,14,"
"##MN-00 00 42 0160 01978 5421 442937 349066 206"
"149.789977"
"$GPGGA,185738,2546.5024,N,07923.2002,W,1,8,1.9,14,"
"##MN-00 00 41 0160 01980 5421 442930 349063 206"
"149.790023"
"$GPGGA,185742,2546.5036,N,07923.1983,W,1,8,1.9,14,"
"##MN-00 00 42 0161 01980 5421 442917 349057 206"
"149.790069"
"$GPGGA,185746,2546.5049,N,07923.1961,W,1,8,1.9,14,"
"##MN-00 00 41 0162 01980 5420 442911 349056 206"
"149.790116"
"$GPGGA,185750,2546.5060,N,07923.1941,W,1,8,1.9,14,"
"##MN-00 00 41 0163 01982 5420 442908 349055 206"
"149.790162"
"$GPGGA,185754,2546.5073,N,07923.1923,W,1,8,1.9,14,"
"##MN+00 00 42 0164 01982 5420 442905 349055 206"
"149.790208"
"$GPGGA,185758,2546.5084,N,07923.1903,W,1,8,1.9,14,"
"##MN+00 00 41 0164 01984 5420 442906 349055 206"
"149.790255"
"$GPGGA,185802,2546.5094,N,07923.1883,W,1,8,1.9,14,"
"##MN+00 00 40 0165 01982 5419 442911 349056 206"
"149.790301"
"$GPGGA,185806,2546.5105,N,07923.1863,W,1,8,1.9,14,"
"##MN-00 00 41 0166 01983 5419 442916 349057 206"
"149.790347"
"$GPGGA,185810,2546.5114,N,07923.1843,W,1,8,1.9,14,"
"##MN-00 00 41 0167 01980 5419 442916 349057 206"
"149.790394"
"$GPGGA,185814,2546.5127,N,07923.1821,W,1,8,1.9,14,"
"##MN-00 00 40 0168 01981 5419 442913 349057 206"
"149.79044"
"$GPGGA,185818,2546.5139,N,07923.1799,W,1,8,1.9,14,"
"##MN+00 00 40 0168 01981 5419 442908 349055 206"
"149.790486"
"$GPGGA,185822,2546.5150,N,07923.1778,W,1,8,1.9,14,"
"##MN+00 00 40 0169 01983 5418 442895 349050 206"
"149.790532"
"$GPGGA,185826,2546.5161,N,07923.1758,W,1,8,1.9,14,"
"##MN+00 00 50 0170 01986 5418 442882 349046 206"
"149.790579"
"$GPGGA,185830,2546.5174,N,07923.1736,W,1,8,1.9,14,"
"##MN-00 00 46 0171 01984 5418 442881 349045 206"
"149.790625"
"#increment_net"
"$GPGGA,185834,2546.5186,N,07923.1713,W,1,8,1.9,14,"
"##MN-00 00 43 0172 01987 5418 442881 349045 206"
"149.790671"
"$GPGGA,185838,2546.5200,N,07923.1692,W,1,8,1.9,14,"
"##MN-00 00 43 0173 01991 5417 442880 349044 206"
"149.790718"
"$GPGGA,185842,2546.5211,N,07923.1669,W,1,8,1.9,14,"
"##MN-00 00 42 0174 01987 5417 442881 349044 206"
"149.790764"
"$GPGGA,185846,2546.5224,N,07923.1648,W,1,8,1.9,14,"
"##MN-00 00 41 0176 01980 5416 442881 349045 206"
"149.79081"
"$GPGGA,185850,2546.5236,N,07923.1625,W,1,8,1.9,14,"
"##MN-00 00 40 0177 01972 5416 442874 349046 206"
"149.790857"
"$GPGGA,185854,2546.5247,N,07923.1603,W,1,8,1.9,14,"
"##MN-00 00 40 0178 01966 5415 442855 349044 206"
"149.790903"
"$GPGGA,185858,2546.5260,N,07923.1580,W,1,8,1.9,14,"
"##MN-00 00 37 0179 01956 5415 442807 349031 206"
"149.790949"
"$GPGGA,185902,2546.5269,N,07923.1559,W,1,8,1.9,14,"
"##MN-00 00 39 0181 01949 5415 442649 349017 206"
"149.790995"
"$GPGGA,185906,2546.5282,N,07923.1536,W,1,8,1.9,13,"
"##MN-00 00 37 0182 01940 5414 442428 348935 206"
"149.791042"
"$GPGGA,185910,2546.5294,N,07923.1514,W,1,8,1.9,13,"
"##MN-00 00 39 0183 01928 5414 442096 348856 206"
"149.791088"
"$GPGGA,185914,2546.5305,N,07923.1492,W,1,8,1.9,13,"
"##MN-00 00 38 0184 01920 5414 441901 348782 206"
"149.791134"
"$GPGGA,185918,2546.5316,N,07923.1471,W,1,8,1.9,13,"
"##MN-00 00 37 0185 01910 5414 441546 348695 206"
"149.791181"
"$GPGGA,185922,2546.5327,N,07923.1449,W,1,8,1.9,13,"
"##MN-00 00 38 0187 01899 5414 441428 348652 206"
"149.791227"
"$GPGGA,185926,2546.5340,N,07923.1427,W,1,8,1.9,13,"
"##MN-00 00 41 0188 01887 5414 441361 348615 206"
"149.791273"
"$GPGGA,185930,2546.5351,N,07923.1405,W,1,8,2.0,13,"
"##MN-00 00 39 0189 01874 5413 441198 348546 206"
"149.791319"
"$GPGGA,185934,2546.5363,N,07923.1384,W,1,8,2.0,13,"
"##MN-00 00 37 0190 01864 5413 440913 348491 206"
"149.791366"
"$GPGGA,185938,2546.5374,N,07923.1364,W,1,8,2.0,13,"
"##MN-00 00 41 0191 01854 5413 440783 348404 206"
