" Tow: 1Es-B   RVWS/WS1406"
" Date: 05/29/2014"
" Temperature Probe #  2597    Conductivity Probe #  2870"
" Pressure Probe #  109"
" Flow Meter Calibration  4.71 (m/count)  "
"149.804884"
"$GPGGA,191902,2546.7548,N,07922.3599,W,1,11,1.4,21"
"##MN-00 00 48 0092 01853 5328 442430 733338 205"
"149.804931"
"$GPGGA,191910,2546.7558,N,07922.3554,W,1,11,1.5,21"
"##MN-00 00 45 0093 01850 5328 441596 348885 205"
"149.804977"
"$GPGGA,191914,2546.7565,N,07922.3533,W,1,11,1.4,22"
"##MN-00 00 49 0093 01854 5329 441615 348887 205"
"149.805023"
"$GPGGA,191918,2546.7573,N,07922.3515,W,1,11,1.4,22"
"##MN-00 00 47 0094 01850 5329 441611 348885 205"
"149.805069"
"$GPGGA,191922,2546.7581,N,07922.3495,W,1,11,1.7,22"
"##MN-00 00 51 0095 01860 5329 441625 348863 205"
"149.805116"
"$GPGGA,191926,2546.7592,N,07922.3476,W,1,11,1.6,22"
"##MN-00 00 51 0095 01866 5329 441630 348848 205"
"149.805162"
"$GPGGA,191930,2546.7600,N,07922.3458,W,1,10,1.4,22"
"##MN-00 00 51 0096 01873 5330 441641 348840 205"
"149.805208"
"$GPGGA,191934,2546.7607,N,07922.3439,W,1,11,1.4,22"
"##MN-00 00 49 0097 01879 5330 441646 348827 205"
"149.805255"
"$GPGGA,191938,2546.7616,N,07922.3421,W,1,11,1.4,23"
"##MN-00 00 51 0097 01888 5330 441653 348820 205"
"149.805301"
"$GPGGA,191943,2546.7625,N,07922.3397,W,1,11,1.4,23"
"##MN-00 00 49 0098 01894 5330 441732 348851 205"
"149.805347"
"$GPGGA,191947,2546.7635,N,07922.3377,W,1,11,1.4,24"
"##MN-00 00 50 0099 01898 5331 441889 348883 205"
"149.805394"
"$GPGGA,191951,2546.7641,N,07922.3356,W,1,11,1.4,24"
"##MN-00 00 50 0099 01906 5330 442014 348927 205"
"149.80544"
"$GPGGA,191955,2546.7650,N,07922.3337,W,1,10,1.5,24"
"##MN-00 00 51 0100 01911 5331 442283 348999 205"
"149.805498"
"$GPGGA,191959,2546.7659,N,07922.3315,W,1,11,1.4,24"
"##MN-00 00 50 0101 01921 5331 442467 349075 205"
"149.805544"
"$GPGGA,192003,2546.7661,N,07922.3289,W,1,10,1.7,25"
"##MN-00 00 51 0101 01928 5331 442532 349079 205"
"149.80559"
"$GPGGA,192007,2546.7671,N,07922.3267,W,1,10,1.5,24"
"##MN-00 00 49 0102 01935 5331 442662 349096 205"
"149.805637"
"$GPGGA,192011,2546.7676,N,07922.3246,W,1,10,1.4,24"
"##MN-00 00 49 0103 01943 5331 442694 349103 205"
"149.805683"
"$GPGGA,192015,2546.7685,N,07922.3224,W,1,11,1.4,24"
"##MN-00 00 48 0103 01947 5332 442704 349101 205"
"149.805729"
"$GPGGA,192019,2546.7696,N,07922.3204,W,1,11,1.4,24"
"##MN-00 00 49 0104 01955 5332 442719 349100 205"
"149.805775"
"$GPGGA,192023,2546.7704,N,07922.3188,W,1,11,1.5,23"
"##MN-00 00 49 0105 01961 5332 442733 349098 205"
"149.805822"
"$GPGGA,192027,2546.7710,N,07922.3169,W,1,11,1.7,23"
"##MN-00 00 50 0105 01967 5332 442748 349099 205"
"149.805868"
"$GPGGA,192031,2546.7718,N,07922.3148,W,1,11,1.4,23"
"##MN-00 00 47 0106 01974 5332 442764 349099 205"
"149.805914"
"$GPGGA,192035,2546.7725,N,07922.3129,W,1,11,1.4,23"
"##MN-00 00 49 0107 01979 5333 442769 349093 205"
"149.805961"
"$GPGGA,192039,2546.7735,N,07922.3105,W,1,11,1.4,23"
"##MN-00 00 44 0107 01977 5332 442771 349092 205"
"149.806007"
"$GPGGA,192043,2546.7744,N,07922.3082,W,1,11,1.4,23"
"##MN-00 00 45 0108 01976 5333 442774 349091 205"
"149.806053"
"$GPGGA,192047,2546.7751,N,07922.3063,W,1,11,1.4,22"
"##MN-00 00 42 0109 01975 5333 442781 349099 205"
"149.8061"
"$GPGGA,192051,2546.7758,N,07922.3043,W,1,11,1.4,22"
"##MN+00 00 45 0109 01978 5333 442784 349101 205"
"149.806146"
"$GPGGA,192055,2546.7766,N,07922.3026,W,1,11,1.4,22"
"##MN+00 00 43 0110 01978 5333 442786 349100 205"
"149.806192"
"$GPGGA,192059,2546.7773,N,07922.3007,W,1,11,1.4,22"
"##MN+00 00 46 0111 01978 5333 442787 349100 205"
"149.806238"
"$GPGGA,192103,2546.7779,N,07922.2989,W,1,11,1.4,22"
"##MN+00 00 42 0112 01976 5333 442787 349100 205"
"149.806285"
"$GPGGA,192107,2546.7784,N,07922.2970,W,1,11,1.4,22"
"##MN+00 00 53 0112 01982 5333 442787 349100 205"
"149.806331"
"$GPGGA,192111,2546.7791,N,07922.2949,W,1,11,1.4,22"
"##MN+00 00 50 0113 01979 5334 442784 349098 205"
"149.806377"
"#increment_net"
"$GPGGA,192115,2546.7801,N,07922.2925,W,1,11,1.4,22"
"##MN-00 00 46 0114 01977 5334 442783 349098 205"
"149.806424"
"$GPGGA,192119,2546.7811,N,07922.2900,W,1,11,1.4,22"
"##MN-00 00 46 0115 01978 5334 442786 349100 205"
"149.80647"
"$GPGGA,192123,2546.7817,N,07922.2880,W,1,10,1.7,21"
"##MN-00 00 44 0115 01976 5334 442791 349102 205"
"149.806516"
"$GPGGA,192127,2546.7826,N,07922.2860,W,1,11,1.4,21"
"##MN-00 00 44 0116 01977 5334 442794 349103 205"
"149.806563"
"$GPGGA,192131,2546.7834,N,07922.2839,W,1,11,1.4,21"
"##MN-00 00 45 0116 01977 5334 442795 349103 205"
"149.806609"
"$GPGGA,192135,2546.7841,N,07922.2820,W,1,11,1.4,21"
"##MN-00 00 45 0117 01978 5334 442795 349103 205"
"149.806655"
"$GPGGA,192139,2546.7851,N,07922.2799,W,1,11,1.4,21"
"##MN-00 00 43 0117 01975 5334 442795 349104 205"
"149.806701"
"$GPGGA,192143,2546.7858,N,07922.2781,W,1,11,1.4,21"
"##MN-00 00 44 0118 01976 5334 442793 349103 205"
"149.806748"
"$GPGGA,192147,2546.7865,N,07922.2764,W,1,11,1.4,21"
"##MN+00 00 44 0119 01975 5334 442792 349103 205"
"149.806794"
"$GPGGA,192151,2546.7870,N,07922.2745,W,1,11,1.4,21"
"##MN+00 00 46 0120 01976 5334 442791 349103 205"
"149.80684"
"$GPGGA,192155,2546.7878,N,07922.2722,W,1,10,1.7,21"
"##MN+00 00 45 0121 01975 5335 442792 349103 205"
"149.806887"
"$GPGGA,192159,2546.7882,N,07922.2704,W,1,11,1.4,21"
"##MN-00 00 45 0121 01976 5334 442791 349102 205"
"149.806933"
"$GPGGA,192203,2546.7891,N,07922.2684,W,1,11,1.4,21"
"##MN-00 00 44 0122 01977 5335 442791 349101 205"
"149.806979"
"$GPGGA,192207,2546.7899,N,07922.2663,W,1,11,1.4,22"
"##MN-00 00 45 0123 01976 5334 442792 349101 205"
"149.807025"
"$GPGGA,192211,2546.7909,N,07922.2643,W,1,11,1.4,22"
"##MN-00 00 44 0124 01975 5335 442793 349101 205"
"149.807072"
"$GPGGA,192215,2546.7917,N,07922.2621,W,1,11,1.4,22"
"##MN-00 00 45 0124 01975 5335 442796 349102 205"
"149.807118"
"$GPGGA,192219,2546.7928,N,07922.2601,W,1,11,1.4,22"
"##MN-00 00 43 0125 01976 5335 442799 349102 205"
"149.807164"
"$GPGGA,192223,2546.7935,N,07922.2581,W,1,11,1.4,22"
"##MN+00 00 44 0126 01978 5335 442803 349103 205"
"149.807211"
"$GPGGA,192227,2546.7946,N,07922.2559,W,1,11,1.4,22"
"##MN+00 00 54 0127 01980 5335 442803 349101 205"
"149.807257"
"$GPGGA,192231,2546.7953,N,07922.2540,W,1,11,1.4,22"
"##MN+00 00 50 0127 01978 5335 442804 349101 205"
"149.807303"
"$GPGGA,192235,2546.7964,N,07922.2521,W,1,11,1.4,22"
"##MN-00 00 44 0128 01981 5335 442807 349101 205"
"149.80735"
"#increment_net"
"$GPGGA,192239,2546.7975,N,07922.2504,W,1,10,1.4,22"
"##MN-00 00 44 0129 01980 5335 442810 349101 205"
"149.807396"
"$GPGGA,192243,2546.7986,N,07922.2484,W,1,11,1.4,21"
"##MN-00 00 43 0130 01980 5335 442811 349101 205"
"149.807442"
"$GPGGA,192247,2546.7993,N,07922.2464,W,1,11,1.4,22"
"##MN-00 00 45 0130 01982 5335 442815 349102 205"
"149.807488"
"$GPGGA,192251,2546.8000,N,07922.2440,W,1,8,2.2,22,"
"##MN-00 00 43 0131 01982 5335 442815 349101 205"
"149.807535"
"$GPGGA,192255,2546.8011,N,07922.2422,W,1,11,1.4,22"
"##MN-00 00 43 0132 01979 5336 442816 349100 205"
"149.807581"
"$GPGGA,192259,2546.8022,N,07922.2403,W,1,11,1.4,22"
"##MN-00 00 42 0132 01979 5336 442817 349100 205"
"149.807627"
"$GPGGA,192303,2546.8029,N,07922.2385,W,1,10,1.7,23"
"##MN-00 00 42 0133 01980 5335 442817 349101 205"
"149.807674"
"$GPGGA,192307,2546.8039,N,07922.2370,W,1,11,1.4,24"
"##MN-00 00 42 0134 01979 5336 442816 349100 205"
"149.80772"
"$GPGGA,192311,2546.8049,N,07922.2350,W,1,10,1.7,24"
"##MN-00 00 43 0135 01980 5336 442818 349100 205"
"149.807766"
"$GPGGA,192315,2546.8058,N,07922.2332,W,1,10,1.7,24"
"##MN-00 00 42 0135 01980 5336 442817 349099 205"
"149.807813"
"$GPGGA,192319,2546.8069,N,07922.2310,W,1,11,1.4,24"
"##MN+00 00 43 0136 01980 5336 442818 349098 205"
"149.807859"
"$GPGGA,192323,2546.8076,N,07922.2288,W,1,10,1.5,24"
"##MN+00 00 42 0137 01981 5335 442818 349097 205"
"149.807905"
"$GPGGA,192327,2546.8084,N,07922.2272,W,1,9,1.8,24,"
"##MN+00 00 43 0138 01981 5336 442820 349097 205"
"149.807951"
"$GPGGA,192331,2546.8094,N,07922.2258,W,1,10,1.4,24"
"##MN-00 00 43 0138 01981 5336 442821 349097 205"
"149.807998"
"$GPGGA,192335,2546.8104,N,07922.2239,W,1,10,1.7,25"
"##MN-00 00 43 0139 01979 5336 442822 349097 205"
"149.808044"
"$GPGGA,192339,2546.8112,N,07922.2218,W,1,11,1.4,25"
"##MN+00 00 43 0140 01982 5336 442823 349097 205"
"149.80809"
"$GPGGA,192343,2546.8120,N,07922.2196,W,1,11,1.4,25"
"##MN+00 00 51 0141 01980 5336 442822 349095 205"
"149.808137"
"$GPGGA,192347,2546.8129,N,07922.2177,W,1,11,1.4,25"
"##MN+00 00 49 0142 01984 5336 442820 349095 205"
"149.808183"
"#increment_net"
"$GPGGA,192351,2546.8136,N,07922.2159,W,1,11,1.4,26"
"##MN-00 00 43 0142 01981 5336 442813 349093 205"
"149.808229"
"$GPGGA,192355,2546.8145,N,07922.2137,W,1,11,1.4,26"
"##MN-00 00 42 0143 01980 5336 442810 349092 205"
"149.808275"
"$GPGGA,192359,2546.8154,N,07922.2116,W,1,11,1.4,26"
"##MN-00 00 41 0144 01978 5336 442803 349091 205"
"149.808322"
"$GPGGA,192403,2546.8163,N,07922.2094,W,1,10,1.7,26"
"##MN-00 00 42 0144 01978 5336 442795 349089 205"
"149.808368"
"$GPGGA,192407,2546.8173,N,07922.2073,W,1,11,1.7,25"
"##MN-00 00 42 0145 01978 5336 442792 349087 205"
"149.808414"
"$GPGGA,192412,2546.8185,N,07922.2047,W,1,11,1.4,25"
"##MN-00 00 42 0146 01978 5336 442791 349086 205"
"149.808461"
"$GPGGA,192415,2546.8192,N,07922.2028,W,1,11,1.4,25"
"##MN-00 00 42 0146 01977 5336 442791 349086 205"
"149.808507"
"$GPGGA,192419,2546.8202,N,07922.2006,W,1,11,1.5,25"
"##MN-00 00 42 0147 01980 5336 442791 349085 205"
"149.808553"
"$GPGGA,192423,2546.8208,N,07922.1986,W,1,11,1.5,24"
"##MN+00 00 41 0148 01979 5336 442791 349084 205"
"149.808611"
"$GPGGA,192427,2546.8213,N,07922.1964,W,1,11,1.5,24"
"##MN+00 00 42 0149 01980 5336 442791 349084 205"
"149.808657"
"$GPGGA,192432,2546.8224,N,07922.1945,W,1,11,1.4,24"
"##MN+00 00 41 0149 01979 5336 442791 349084 205"
"149.808704"
"$GPGGA,192436,2546.8230,N,07922.1932,W,1,10,1.4,24"
"##MN-00 00 40 0150 01981 5336 442789 349083 205"
"149.80875"
"$GPGGA,192440,2546.8242,N,07922.1911,W,1,10,1.7,23"
"##MN-00 00 41 0151 01978 5336 442788 349082 205"
"149.808796"
"$GPGGA,192444,2546.8249,N,07922.1894,W,1,10,1.4,23"
"##MN-00 00 40 0151 01979 5336 442788 349082 205"
"149.808843"
"$GPGGA,192448,2546.8255,N,07922.1878,W,1,11,1.4,23"
"##MN-00 00 40 0152 01977 5337 442786 349081 205"
"149.808889"
"$GPGGA,192452,2546.8264,N,07922.1859,W,1,10,1.4,23"
"##MN+00 00 42 0153 01979 5336 442786 349082 205"
"149.808935"
"$GPGGA,192456,2546.8274,N,07922.1838,W,1,11,1.4,23"
"##MN+00 00 49 0154 01979 5337 442786 349083 205"
"149.808981"
"$GPGGA,192500,2546.8289,N,07922.1811,W,1,11,1.4,23"
"##MN+00 00 48 0154 01979 5337 442788 349084 205"
"149.809028"
"#increment_net"
"$GPGGA,192504,2546.8299,N,07922.1789,W,1,10,1.4,23"
"##MN-00 00 42 0155 01979 5337 442788 349084 205"
"149.809074"
"$GPGGA,192508,2546.8307,N,07922.1770,W,1,11,1.4,23"
"##MN-00 00 43 0156 01977 5337 442782 349083 205"
"149.80912"
"$GPGGA,192512,2546.8315,N,07922.1753,W,1,10,1.4,22"
"##MN-00 00 43 0156 01980 5337 442774 349079 205"
"149.809167"
"$GPGGA,192516,2546.8326,N,07922.1732,W,1,11,1.4,22"
"##MN-00 00 43 0157 01981 5337 442770 349078 205"
"149.809213"
"$GPGGA,192520,2546.8335,N,07922.1715,W,1,10,1.5,22"
"##MN-00 00 41 0158 01979 5337 442771 349077 205"
"149.809259"
"$GPGGA,192524,2546.8344,N,07922.1694,W,1,10,1.5,22"
"##MN-00 00 42 0159 01981 5337 442777 349078 205"
"149.809306"
"$GPGGA,192528,2546.8354,N,07922.1670,W,1,10,1.9,22"
"##MN-00 00 40 0159 01979 5337 442783 349079 205"
"149.809352"
"$GPGGA,192532,2546.8365,N,07922.1647,W,1,10,1.4,22"
"##MN-00 00 42 0160 01981 5337 442777 349076 205"
"149.809398"
"$GPGGA,192536,2546.8376,N,07922.1626,W,1,11,1.4,21"
"##MN-00 00 42 0160 01979 5337 442774 349074 205"
"149.809444"
"$GPGGA,192540,2546.8387,N,07922.1605,W,1,11,1.4,21"
"##MN-00 00 40 0161 01980 5337 442772 349074 205"
"149.809491"
"$GPGGA,192544,2546.8398,N,07922.1583,W,1,10,1.4,21"
"##MN+00 00 42 0162 01982 5337 442771 349073 205"
"149.809537"
"$GPGGA,192548,2546.8405,N,07922.1565,W,1,10,1.4,21"
"##MN+00 00 41 0163 01981 5337 442771 349073 205"
"149.809583"
"$GPGGA,192552,2546.8411,N,07922.1552,W,1,11,1.4,21"
"##MN+00 00 40 0163 01984 5337 442773 349072 205"
"149.80963"
"$GPGGA,192556,2546.8423,N,07922.1528,W,1,10,1.4,21"
"##MN-00 00 40 0164 01982 5337 442779 349073 205"
"149.809676"
"$GPGGA,192600,2546.8436,N,07922.1503,W,1,11,1.4,22"
"##MN-00 00 40 0165 01984 5337 442781 349072 205"
"149.809722"
"$GPGGA,192604,2546.8445,N,07922.1484,W,1,10,1.4,22"
"##MN+00 00 41 0166 01984 5337 442781 349073 205"
"149.809769"
"$GPGGA,192608,2546.8456,N,07922.1466,W,1,11,1.7,22"
"##MN+00 00 49 0167 01986 5337 442778 349071 205"
"149.809815"
"#increment_net"
"$GPGGA,192612,2546.8466,N,07922.1447,W,1,10,1.4,22"
"##MN+00 00 47 0167 01987 5337 442781 349071 205"
"149.809861"
"$GPGGA,192616,2546.8476,N,07922.1427,W,1,11,1.7,22"
"##MN-00 00 44 0168 01988 5337 442777 349069 205"
"149.809907"
"$GPGGA,192620,2546.8490,N,07922.1400,W,1,11,1.7,22"
"##MN-00 00 42 0169 01991 5337 442774 349067 205"
"149.809954"
"$GPGGA,192624,2546.8495,N,07922.1383,W,1,11,1.4,22"
"##MN-00 00 40 0171 01989 5337 442773 349067 205"
"149.81"
"$GPGGA,192628,2546.8506,N,07922.1361,W,1,11,1.4,22"
"##MN-00 00 37 0172 01987 5337 442769 349065 205"
"149.810046"
"$GPGGA,192632,2546.8517,N,07922.1340,W,1,10,1.4,22"
"##MN-00 00 37 0173 01980 5336 442754 349062 205"
"149.810093"
"$GPGGA,192636,2546.8531,N,07922.1317,W,1,10,1.4,22"
"##MN-00 00 36 0174 01974 5337 442745 349063 205"
"149.810139"
"$GPGGA,192640,2546.8542,N,07922.1297,W,1,10,1.4,22"
"##MN-00 00 36 0175 01970 5337 442722 349060 205"
"149.810185"
"$GPGGA,192644,2546.8555,N,07922.1277,W,1,10,1.4,22"
"##MN-00 00 36 0176 01961 5337 442710 349060 205"
"149.810231"
"$GPGGA,192648,2546.8568,N,07922.1265,W,1,11,1.4,22"
"##MN-00 00 34 0177 01955 5337 442693 349056 205"
"149.810278"
"$GPGGA,192652,2546.8579,N,07922.1253,W,1,11,1.4,23"
"##MN-00 00 33 0178 01947 5337 442666 349049 205"
"149.810324"
"$GPGGA,192656,2546.8591,N,07922.1234,W,1,11,1.4,23"
"##MN-00 00 34 0179 01939 5337 442645 349046 205"
"149.81037"
"$GPGGA,192700,2546.8603,N,07922.1216,W,1,11,1.4,24"
"##MN-00 00 34 0180 01934 5337 442617 349040 205"
"149.810417"
"$GPGGA,192704,2546.8617,N,07922.1200,W,1,11,1.5,24"
"##MN-00 00 32 0181 01934 5337 442602 349032 205"
"149.810463"
"$GPGGA,192708,2546.8629,N,07922.1182,W,1,11,1.7,24"
"##MN-00 00 32 0182 01936 5337 442597 349031 205"
"149.810509"
"$GPGGA,192712,2546.8646,N,07922.1159,W,1,10,1.4,24"
"##MN-00 00 31 0183 01935 5337 442605 349034 205"
"149.810556"
"$GPGGA,192716,2546.8660,N,07922.1140,W,1,10,1.4,24"
"##MN-00 00 30 0184 01929 5337 442610 349035 205"
"149.810602"
"$GPGGA,192720,2546.8675,N,07922.1120,W,1,11,1.4,24"
"##MN-00 00 31 0185 01922 5337 442599 349035 205"
"149.810648"
"$GPGGA,192724,2546.8690,N,07922.1100,W,1,11,1.4,24"
"##MN-00 00 30 0186 01914 5337 442530 349010 205"
"149.810694"
"$GPGGA,192728,2546.8704,N,07922.1081,W,1,11,1.4,24"
"##MN-00 00 32 0186 01905 5337 442258 348921 205"
"149.810741"
"$GPGGA,192732,2546.8719,N,07922.1061,W,1,11,1.4,24"
"##MN-00 00 31 0187 01896 5337 442007 348901 205"
"149.810787"
"$GPGGA,192736,2546.8734,N,07922.1040,W,1,11,1.4,24"
"##MN-00 00 31 0188 01883 5337 441668 348813 205"
"149.810833"
"$GPGGA,192740,2546.8750,N,07922.1022,W,1,11,1.4,24"
"##MN-00 00 31 0190 01872 5337 441362 348719 205"
"149.81088"
"$GPGGA,192744,2546.8765,N,07922.1005,W,1,11,1.4,24"
"##MN-00 00 27 0190 01862 5337 440936 348609 205"
"149.810926"
"$GPGGA,192748,2546.8781,N,07922.0986,W,1,10,1.4,24"
"##MN-00 00 31 0191 01855 5337 440856 348612 205"
