" Tow: 1wm-b   RVWS/WS1406"
" Date: 05/28/2014"
" Temperature Probe #  2597    Conductivity Probe #  2870"
" Pressure Probe #  109"
" Flow Meter Calibration  4.71 (m/count)  "
"148.959178"
"$GPGGA,230105,2558.5782,N,07958.1183,W,1,9,1.5,14,"
"##MN-00 00 48 0365 01853 5372 000038 890509 205"
"148.959225"
"$GPGGA,230114,2558.5833,N,07958.1129,W,1,9,1.5,14,"
"##MN-00 00 52 0366 01853 5372 442131 348909 205"
"148.959271"
"$GPGGA,230118,2558.5855,N,07958.1104,W,1,9,1.5,14,"
"##MN-00 00 53 0366 01852 5372 442139 348925 205"
"148.959317"
"$GPGGA,230122,2558.5880,N,07958.1080,W,1,9,1.5,14,"
"##MN-00 00 50 0367 01855 5371 442091 348890 205"
"148.959363"
"$GPGGA,230126,2558.5901,N,07958.1055,W,1,9,1.5,14,"
"##MN-00 00 52 0368 01856 5371 442066 348853 205"
"148.95941"
"$GPGGA,230130,2558.5923,N,07958.1031,W,1,9,1.5,14,"
"##MN-00 00 51 0369 01863 5371 442070 348849 205"
"148.959456"
"$GPGGA,230134,2558.5948,N,07958.1007,W,1,9,1.5,14,"
"##MN-00 00 55 0369 01867 5371 442071 348838 205"
"148.959502"
"$GPGGA,230138,2558.5970,N,07958.0982,W,1,9,1.5,14,"
"##MN-00 00 51 0370 01870 5371 442092 348829 205"
"148.959549"
"$GPGGA,230142,2558.5994,N,07958.0959,W,1,9,1.5,14,"
"##MN-00 00 51 0371 01878 5370 442111 348829 205"
"148.959595"
"$GPGGA,230146,2558.6017,N,07958.0934,W,1,9,1.5,15,"
"##MN-00 00 51 0372 01886 5370 442244 349600 205"
"148.959641"
"$GPGGA,230150,2558.6039,N,07958.0910,W,1,9,1.5,15,"
"##MN-00 00 53 0372 01892 5370 442391 348905 205"
"148.959687"
"$GPGGA,230154,2558.6061,N,07958.0886,W,1,9,1.5,15,"
"##MN-00 00 53 0373 01896 5369 442429 348909 205"
"148.959734"
"$GPGGA,230158,2558.6084,N,07958.0862,W,1,9,1.5,15,"
"##MN-00 00 53 0374 01904 5369 442603 348971 205"
"148.95978"
"$GPGGA,230202,2558.6107,N,07958.0837,W,1,9,1.5,15,"
"##MN-00 00 52 0375 01909 5369 442692 348999 205"
"148.959826"
"$GPGGA,230206,2558.6131,N,07958.0812,W,1,9,1.5,15,"
"##MN-00 00 54 0376 01917 5369 442782 349011 205"
"148.959873"
"$GPGGA,230210,2558.6154,N,07958.0787,W,1,9,1.5,15,"
"##MN-00 00 53 0377 01924 5369 442780 348996 205"
"148.959919"
"$GPGGA,230214,2558.6176,N,07958.0763,W,1,9,1.5,15,"
"##MN-00 00 54 0377 01931 5369 442952 349089 205"
"148.959965"
"$GPGGA,230218,2558.6198,N,07958.0739,W,1,9,1.5,15,"
"##MN-00 00 52 0378 01937 5368 443082 349079 205"
"148.960012"
"$GPGGA,230222,2558.6222,N,07958.0714,W,1,9,1.5,16,"
"##MN-00 00 52 0379 01946 5368 443021 349077 205"
"148.960058"
"$GPGGA,230226,2558.6245,N,07958.0688,W,1,9,1.5,16,"
"##MN-00 00 52 0380 01951 5368 443100 349093 205"
"148.960104"
"$GPGGA,230230,2558.6266,N,07958.0664,W,1,9,1.5,16,"
"##MN-00 00 52 0381 01958 5368 443270 349174 205"
"148.96015"
"$GPGGA,230234,2558.6288,N,07958.0640,W,1,9,1.5,16,"
"##MN-00 00 54 0381 01963 5367 443503 349250 205"
"148.960197"
"$GPGGA,230238,2558.6310,N,07958.0616,W,1,9,1.5,16,"
"##MN-00 00 52 0382 01967 5367 443737 349296 205"
"148.960243"
"$GPGGA,230242,2558.6333,N,07958.0590,W,1,9,1.5,16,"
"##MN-00 00 52 0383 01977 5367 443783 349304 205"
"148.960289"
"$GPGGA,230246,2558.6356,N,07958.0566,W,1,9,1.5,16,"
"##MN-00 00 53 0384 01981 5367 443915 349369 205"
"148.960336"
"$GPGGA,230250,2558.6378,N,07958.0542,W,1,9,1.5,16,"
"##MN-00 00 51 0385 01989 5367 444237 349462 205"
"148.960382"
"$GPGGA,230254,2558.6400,N,07958.0519,W,1,9,1.5,16,"
"##MN-00 00 51 0385 01993 5367 444489 349548 205"
"148.960428"
"$GPGGA,230258,2558.6422,N,07958.0496,W,1,9,1.5,16,"
"##MN-00 00 54 0386 01999 5366 444842 349654 205"
"148.960475"
"$GPGGA,230302,2558.6443,N,07958.0472,W,1,9,1.5,16,"
"##MN-00 00 53 0387 02005 5366 445074 349717 205"
"148.960521"
"$GPGGA,230306,2558.6465,N,07958.0448,W,1,9,1.5,16,"
"##MN-00 00 52 0388 02007 5366 445102 349721 205"
"148.960567"
"$GPGGA,230310,2558.6487,N,07958.0426,W,1,8,1.5,16,"
"##MN-00 00 49 0388 02015 5366 445129 349737 205"
"148.960613"
"$GPGGA,230314,2558.6512,N,07958.0410,W,1,9,1.5,17,"
"##MN-00 00 52 0389 02021 5366 445118 349731 205"
"148.96066"
"$GPGGA,230318,2558.6534,N,07958.0389,W,1,8,1.5,17,"
"##MN-00 00 52 0390 02027 5366 445127 349737 205"
"148.960706"
"$GPGGA,230322,2558.6555,N,07958.0368,W,1,9,1.5,18,"
"##MN-00 00 54 0390 02030 5366 445129 349739 205"
"148.960752"
"$GPGGA,230326,2558.6580,N,07958.0348,W,1,9,1.5,19,"
"##MN-00 00 54 0391 02034 5365 445123 349737 205"
"148.960799"
"$GPGGA,230330,2558.6601,N,07958.0325,W,1,9,1.6,19,"
"##MN-00 00 51 0392 02043 5365 445138 349745 205"
"148.960845"
"$GPGGA,230334,2558.6622,N,07958.0303,W,1,9,1.5,19,"
"##MN-00 00 51 0393 02045 5365 445136 349740 205"
"148.960891"
"$GPGGA,230338,2558.6642,N,07958.0282,W,1,9,1.5,20,"
"##MN-00 00 53 0393 02048 5365 445168 349762 205"
"148.960938"
"$GPGGA,230342,2558.6663,N,07958.0260,W,1,9,1.5,20,"
"##MN-00 00 53 0394 02055 5365 445251 349792 205"
"148.960984"
"$GPGGA,230346,2558.6684,N,07958.0238,W,1,9,1.5,20,"
"##MN-00 00 52 0395 02060 5365 445309 349808 205"
"148.961042"
"$GPGGA,230350,2558.6703,N,07958.0217,W,1,9,1.5,20,"
"##MN-00 00 52 0396 02067 5365 445340 349814 205"
"148.961088"
"$GPGGA,230354,2558.6722,N,07958.0195,W,1,9,1.5,20,"
"##MN-00 00 51 0396 02072 5364 445399 349838 205"
"148.961134"
"$GPGGA,230359,2558.6747,N,07958.0167,W,1,9,1.5,20,"
"##MN-00 00 52 0397 02075 5364 445551 349892 205"
"148.961181"
"$GPGGA,230402,2558.6761,N,07958.0151,W,1,9,1.5,20,"
"##MN-00 00 52 0398 02082 5364 445827 350016 205"
"148.961227"
"$GPGGA,230407,2558.6787,N,07958.0121,W,1,9,1.5,20,"
"##MN-00 00 52 0398 02086 5364 446249 350142 205"
"148.961273"
"$GPGGA,230411,2558.6808,N,07958.0099,W,1,9,1.5,20,"
"##MN-00 00 48 0399 02090 5363 446722 350261 205"
"148.961319"
"$GPGGA,230415,2558.6826,N,07958.0077,W,1,9,1.5,20,"
"##MN-00 00 52 0400 02096 5363 447200 350424 205"
"148.961366"
"$GPGGA,230419,2558.6848,N,07958.0056,W,1,9,1.5,19,"
"##MN-00 00 52 0401 02100 5363 447601 350549 205"
"148.961412"
"$GPGGA,230422,2558.6863,N,07958.0040,W,1,9,1.5,19,"
"##MN-00 00 52 0401 02106 5363 447817 350636 205"
"148.961458"
"$GPGGA,230427,2558.6891,N,07958.0013,W,1,9,1.5,19,"
"##MN-00 00 52 0402 02110 5363 448089 350735 205"
"148.961505"
"$GPGGA,230431,2558.6912,N,07957.9993,W,1,9,1.5,19,"
"##MN-00 00 52 0403 02117 5362 448439 350844 205"
"148.961551"
"$GPGGA,230435,2558.6931,N,07957.9971,W,1,9,1.5,19,"
"##MN-00 00 52 0404 02123 5362 448835 350962 205"
"148.961597"
"$GPGGA,230439,2558.6951,N,07957.9948,W,1,9,1.5,19,"
"##MN-00 00 52 0405 02126 5362 449176 351045 205"
"148.961644"
"$GPGGA,230443,2558.6970,N,07957.9924,W,1,9,1.5,18,"
"##MN-00 00 50 0405 02125 5362 449541 351164 205"
"148.96169"
"$GPGGA,230447,2558.6991,N,07957.9901,W,1,9,1.5,18,"
"##MN-00 00 49 0406 02127 5361 449524 351157 205"
"148.961736"
"$GPGGA,230451,2558.7011,N,07957.9879,W,1,9,1.5,18,"
"##MN-00 00 47 0407 02127 5361 449436 351126 205"
"148.961782"
"$GPGGA,230455,2558.7032,N,07957.9858,W,1,9,1.5,18,"
"##MN-00 00 48 0408 02127 5361 449365 351111 205"
"148.961829"
"$GPGGA,230459,2558.7053,N,07957.9837,W,1,9,1.5,17,"
"##MN-00 00 51 0408 02123 5361 449462 351120 205"
"148.961875"
"$GPGGA,230503,2558.7075,N,07957.9815,W,1,9,1.5,17,"
"##MN-00 00 49 0409 02125 5360 449544 351157 205"
"148.961921"
"$GPGGA,230507,2558.7097,N,07957.9794,W,1,9,1.5,17,"
"##MN+00 00 49 0410 02126 5360 449699 351189 205"
"148.961968"
"$GPGGA,230511,2558.7119,N,07957.9772,W,1,9,1.5,17,"
"##MN+00 00 49 0411 02127 5360 449775 351213 205"
"148.962014"
"$GPGGA,230515,2558.7137,N,07957.9750,W,1,9,1.5,16,"
"##MN+00 00 51 0412 02127 5360 449941 351289 205"
"148.96206"
"$GPGGA,230519,2558.7159,N,07957.9730,W,1,9,1.5,16,"
"##MN+00 00 49 0413 02126 5360 449989 351308 205"
"148.962106"
"$GPGGA,230523,2558.7183,N,07957.9709,W,1,9,1.5,16,"
"##MN+00 00 48 0414 02125 5359 450004 351313 205"
"148.962153"
"$GPGGA,230527,2558.7205,N,07957.9689,W,1,9,1.5,16,"
"##MN+00 00 57 0415 02133 5359 450051 351322 205"
"148.962199"
"#increment_net"
"$GPGGA,230531,2558.7226,N,07957.9668,W,1,9,1.6,16,"
"##MN-00 00 52 0415 02128 5359 450146 351339 205"
"148.962245"
"$GPGGA,230535,2558.7248,N,07957.9644,W,1,9,1.5,16,"
"##MN-00 00 52 0416 02127 5358 450223 351376 205"
"148.962292"
"$GPGGA,230539,2558.7269,N,07957.9622,W,1,9,1.5,15,"
"##MN-00 00 50 0417 02125 5358 450200 351461 205"
"148.962338"
"$GPGGA,230543,2558.7291,N,07957.9601,W,1,9,1.5,15,"
"##MN-00 00 49 0418 02125 5358 450181 351376 205"
"148.962384"
"$GPGGA,230547,2558.7313,N,07957.9579,W,1,9,1.5,15,"
"##MN-00 00 49 0418 02126 5357 450134 351364 205"
"148.962431"
"$GPGGA,230551,2558.7334,N,07957.9558,W,1,9,1.5,15,"
"##MN-00 00 50 0419 02128 5357 450078 351349 205"
"148.962477"
"$GPGGA,230555,2558.7354,N,07957.9537,W,1,9,1.5,14,"
"##MN-00 00 48 0420 02125 5357 450072 351349 205"
"148.962523"
"$GPGGA,230559,2558.7376,N,07957.9516,W,1,9,1.5,14,"
"##MN-00 00 48 0421 02127 5356 450178 351359 205"
"148.962569"
"$GPGGA,230603,2558.7397,N,07957.9494,W,1,9,1.5,14,"
"##MN-00 00 50 0422 02125 5356 450216 351373 205"
"148.962616"
"$GPGGA,230607,2558.7419,N,07957.9471,W,1,9,1.7,14,"
"##MN-00 00 50 0423 02125 5356 450138 351364 205"
"148.962662"
"$GPGGA,230611,2558.7440,N,07957.9448,W,1,9,1.7,14,"
"##MN-00 00 48 0424 02123 5355 450053 351345 205"
"148.962708"
"$GPGGA,230615,2558.7462,N,07957.9426,W,1,9,1.7,14,"
"##MN+00 00 48 0425 02125 5355 449917 351305 205"
"148.962755"
"$GPGGA,230619,2558.7483,N,07957.9403,W,1,9,1.7,14,"
"##MN+00 00 50 0426 02122 5355 449810 351293 205"
"148.962801"
"$GPGGA,230623,2558.7504,N,07957.9380,W,1,9,1.5,13,"
"##MN+00 00 52 0426 02122 5354 449709 351233 205"
"148.962847"
"$GPGGA,230627,2558.7526,N,07957.9358,W,1,9,1.7,13,"
"##MN-00 00 50 0427 02123 5354 449640 351209 205"
"148.962893"
"$GPGGA,230631,2558.7549,N,07957.9335,W,1,9,1.7,13,"
"##MN+00 00 51 0428 02124 5354 449597 351193 205"
"148.96294"
"$GPGGA,230635,2558.7567,N,07957.9317,W,1,9,1.7,13,"
"##MN+00 00 48 0429 02126 5353 449416 351151 205"
"148.962986"
"$GPGGA,230639,2558.7589,N,07957.9299,W,1,9,1.5,13,"
"##MN+00 00 58 0430 02130 5353 449198 351079 205"
"148.963032"
"#increment_net"
"$GPGGA,230643,2558.7610,N,07957.9278,W,1,9,1.5,13,"
"##MN-00 00 53 0431 02126 5353 449168 351073 205"
"148.963079"
"$GPGGA,230647,2558.7631,N,07957.9257,W,1,9,1.5,14,"
"##MN-00 00 49 0431 02126 5352 449065 351041 205"
"148.963125"
"$GPGGA,230651,2558.7653,N,07957.9236,W,1,9,1.5,14,"
"##MN-00 00 49 0432 02126 5352 449033 351020 205"
"148.963171"
"$GPGGA,230655,2558.7672,N,07957.9215,W,1,9,1.5,14,"
"##MN-00 00 49 0433 02126 5351 449094 351037 205"
"148.963218"
"$GPGGA,230659,2558.7693,N,07957.9194,W,1,9,1.5,15,"
"##MN-00 00 48 0434 02128 5351 449173 351062 205"
"148.963264"
"$GPGGA,230703,2558.7712,N,07957.9173,W,1,9,1.5,15,"
"##MN-00 00 47 0435 02127 5351 449214 351067 205"
"148.96331"
"$GPGGA,230707,2558.7733,N,07957.9151,W,1,9,1.5,15,"
"##MN-00 00 47 0436 02125 5350 449402 351123 205"
"148.963356"
"$GPGGA,230711,2558.7755,N,07957.9129,W,1,9,1.5,16,"
"##MN+00 00 46 0437 02124 5350 449561 351174 205"
"148.963403"
"$GPGGA,230715,2558.7776,N,07957.9107,W,1,9,1.5,16,"
"##MN+00 00 48 0437 02123 5349 449626 351192 205"
"148.963449"
"$GPGGA,230719,2558.7795,N,07957.9084,W,1,9,1.5,16,"
"##MN+00 00 48 0438 02123 5349 449622 351196 205"
"148.963495"
"$GPGGA,230723,2558.7818,N,07957.9060,W,1,9,1.5,16,"
"##MN-00 00 48 0439 02124 5349 449628 351198 205"
"148.963542"
"$GPGGA,230727,2558.7838,N,07957.9037,W,1,9,1.5,16,"
"##MN-00 00 49 0440 02123 5348 449548 351174 205"
"148.963588"
"$GPGGA,230731,2558.7859,N,07957.9015,W,1,9,1.5,16,"
"##MN-00 00 47 0441 02124 5348 449449 351148 205"
"148.963634"
"$GPGGA,230735,2558.7881,N,07957.8993,W,1,9,1.5,16,"
"##MN-00 00 47 0442 02124 5348 449279 351114 205"
"148.963681"
"$GPGGA,230739,2558.7903,N,07957.8970,W,1,9,1.5,16,"
"##MN+00 00 47 0443 02124 5347 449208 351087 205"
"148.963727"
"$GPGGA,230743,2558.7924,N,07957.8948,W,1,9,1.5,16,"
"##MN+00 00 48 0444 02125 5347 449251 351093 205"
"148.963773"
"$GPGGA,230747,2558.7943,N,07957.8925,W,1,9,1.5,16,"
"##MN+00 00 58 0445 02123 5346 449394 351120 205"
"148.963819"
"#increment_net"
"$GPGGA,230751,2558.7964,N,07957.8903,W,1,9,1.5,16,"
"##MN-00 00 52 0446 02125 5346 449485 351144 205"
"148.963866"
"$GPGGA,230755,2558.7986,N,07957.8881,W,1,9,1.5,16,"
"##MN-00 00 49 0447 02124 5345 449507 351152 205"
"148.963912"
"$GPGGA,230759,2558.8008,N,07957.8860,W,1,9,1.5,16,"
"##MN-00 00 47 0447 02123 5345 449529 351158 205"
"148.963958"
"$GPGGA,230803,2558.8032,N,07957.8838,W,1,9,1.5,16,"
"##MN-00 00 46 0448 02124 5345 449559 351167 205"
"148.964005"
"$GPGGA,230807,2558.8053,N,07957.8815,W,1,9,1.5,16,"
"##MN-00 00 45 0449 02123 5344 449613 351182 205"
"148.964051"
"$GPGGA,230811,2558.8075,N,07957.8793,W,1,9,1.5,16,"
"##MN-00 00 45 0450 02122 5343 449633 351191 205"
"148.964097"
"$GPGGA,230815,2558.8094,N,07957.8771,W,1,9,1.5,16,"
"##MN-00 00 46 0451 02121 5343 449659 351197 205"
"148.964144"
"$GPGGA,230819,2558.8116,N,07957.8749,W,1,9,1.5,16,"
"##MN+00 00 47 0452 02121 5343 449591 351183 205"
"148.96419"
"$GPGGA,230823,2558.8137,N,07957.8726,W,1,9,1.5,16,"
"##MN+00 00 46 0453 02122 5343 449476 351179 205"
"148.964236"
"$GPGGA,230827,2558.8156,N,07957.8704,W,1,9,1.5,16,"
"##MN+00 00 45 0454 02124 5342 449346 351124 205"
"148.964294"
"$GPGGA,230831,2558.8177,N,07957.8683,W,1,9,1.5,16,"
"##MN-00 00 46 0455 02121 5342 449314 351113 205"
"148.96434"
"$GPGGA,230835,2558.8199,N,07957.8660,W,1,9,1.5,16,"
"##MN-00 00 46 0456 02122 5341 449272 351098 205"
"148.964387"
"$GPGGA,230839,2558.8221,N,07957.8638,W,1,9,1.5,16,"
"##MN-00 00 46 0457 02121 5341 449231 351085 205"
"148.964433"
"$GPGGA,230843,2558.8243,N,07957.8615,W,1,9,1.5,16,"
"##MN+00 00 46 0458 02122 5340 449099 351043 205"
"148.964479"
"$GPGGA,230848,2558.8270,N,07957.8589,W,1,9,1.5,16,"
"##MN+00 00 46 0459 02122 5340 449049 351027 205"
"148.964525"
"$GPGGA,230851,2558.8286,N,07957.8572,W,1,9,1.5,16,"
"##MN+00 00 56 0460 02126 5340 449219 351049 205"
"148.964572"
"#increment_net"
"$GPGGA,230856,2558.8311,N,07957.8545,W,1,9,1.5,16,"
"##MN-00 00 52 0460 02124 5339 449489 351085 205"
"148.964618"
"$GPGGA,230900,2558.8333,N,07957.8524,W,1,9,1.5,16,"
"##MN-00 00 48 0461 02123 5339 449669 351170 205"
"148.964664"
"$GPGGA,230904,2558.8354,N,07957.8506,W,1,9,1.5,16,"
"##MN-00 00 47 0462 02123 5339 449594 351176 205"
"148.964711"
"$GPGGA,230908,2558.8378,N,07957.8486,W,1,9,1.5,16,"
"##MN-00 00 44 0463 02125 5338 449441 351145 205"
"148.964757"
"$GPGGA,230912,2558.8401,N,07957.8466,W,1,9,1.5,16,"
"##MN-00 00 45 0464 02125 5338 449239 351076 205"
"148.964803"
"$GPGGA,230916,2558.8423,N,07957.8444,W,1,9,1.5,16,"
"##MN-00 00 46 0465 02124 5337 449124 351113 205"
"148.96485"
"$GPGGA,230920,2558.8444,N,07957.8423,W,1,9,1.5,16,"
"##MN-00 00 46 0466 02123 5337 449178 351066 205"
"148.964896"
"$GPGGA,230924,2558.8466,N,07957.8402,W,1,9,1.6,16,"
"##MN-00 00 45 0467 02125 5337 449337 351183 205"
"148.964942"
"$GPGGA,230928,2558.8487,N,07957.8380,W,1,8,1.5,16,"
"##MN-00 00 48 0468 02123 5336 449462 351149 205"
"148.964988"
"$GPGGA,230932,2558.8506,N,07957.8359,W,1,9,1.5,16,"
"##MN-00 00 46 0469 02124 5335 449527 351186 205"
"148.965035"
"$GPGGA,230936,2558.8528,N,07957.8338,W,1,9,1.5,16,"
"##MN-00 00 46 0470 02125 5335 449542 351170 205"
"148.965081"
"$GPGGA,230940,2558.8542,N,07957.8321,W,1,9,1.5,16,"
"##MN+00 00 46 0471 02125 5335 449543 351168 205"
"148.965127"
"$GPGGA,230944,2558.8564,N,07957.8298,W,1,9,1.5,16,"
"##MN+00 00 45 0472 02124 5334 449633 351190 205"
"148.965174"
"$GPGGA,230948,2558.8584,N,07957.8276,W,1,9,1.5,16,"
"##MN+00 00 45 0473 02126 5334 449731 351226 205"
"148.96522"
"$GPGGA,230952,2558.8611,N,07957.8253,W,1,9,1.5,16,"
"##MN+00 00 45 0474 02123 5334 449713 351221 205"
"148.965266"
"$GPGGA,230956,2558.8633,N,07957.8232,W,1,9,1.5,16,"
"##MN+00 00 44 0474 02124 5333 449581 351185 205"
"148.965312"
"$GPGGA,231000,2558.8654,N,07957.8209,W,1,9,1.6,16,"
"##MN+00 00 56 0475 02128 5333 449455 351151 205"
"148.965359"
"#increment_net"
"$GPGGA,231004,2558.8674,N,07957.8188,W,1,9,1.5,16,"
"##MN-00 00 52 0476 02126 5333 449485 351158 205"
"148.965405"
"$GPGGA,231008,2558.8694,N,07957.8165,W,1,9,1.5,17,"
"##MN-00 00 48 0477 02132 5332 449497 351164 205"
"148.965451"
"$GPGGA,231012,2558.8716,N,07957.8143,W,1,9,1.5,17,"
"##MN-00 00 49 0479 02133 5332 449658 351221 205"
"148.965498"
"$GPGGA,231016,2558.8736,N,07957.8121,W,1,9,1.6,18,"
"##MN-00 00 48 0480 02138 5331 449959 351283 205"
"148.965544"
"$GPGGA,231020,2558.8754,N,07957.8099,W,1,9,1.5,18,"
"##MN-00 00 45 0481 02144 5330 450132 351351 205"
"148.96559"
"$GPGGA,231024,2558.8773,N,07957.8073,W,1,9,1.5,18,"
"##MN-00 00 47 0482 02148 5329 450475 351466 205"
"148.965637"
"$GPGGA,231028,2558.8795,N,07957.8049,W,1,9,1.5,18,"
"##MN-00 00 46 0484 02149 5328 450717 351509 205"
"148.965683"
"$GPGGA,231032,2558.8819,N,07957.8025,W,1,9,1.5,18,"
"##MN-00 00 45 0485 02150 5328 450900 351569 205"
"148.965729"
"$GPGGA,231036,2558.8839,N,07957.8001,W,1,9,1.5,19,"
"##MN-00 00 45 0486 02154 5328 451120 351628 205"
"148.965775"
"$GPGGA,231040,2558.8859,N,07957.7977,W,1,9,1.5,19,"
"##MN-00 00 45 0487 02155 5328 451434 351677 205"
"148.965822"
"$GPGGA,231044,2558.8877,N,07957.7954,W,1,9,1.5,19,"
"##MN-00 00 45 0489 02158 5327 451866 351860 205"
"148.965868"
"$GPGGA,231048,2558.8896,N,07957.7930,W,1,9,1.5,19,"
"##MN-00 00 43 0490 02159 5327 452587 352116 205"
"148.965914"
"$GPGGA,231052,2558.8914,N,07957.7906,W,1,9,1.5,19,"
"##MN-00 00 43 0491 02159 5326 452954 352227 205"
"148.965961"
"$GPGGA,231056,2558.8933,N,07957.7881,W,1,9,1.5,19,"
"##MN-00 00 45 0492 02162 5326 453123 352275 205"
"148.966007"
"$GPGGA,231100,2558.8954,N,07957.7857,W,1,9,1.6,19,"
"##MN-00 00 45 0493 02161 5326 453252 352305 205"
"148.966053"
"$GPGGA,231104,2558.8972,N,07957.7832,W,1,9,1.6,19,"
"##MN-00 00 46 0495 02163 5325 453393 352347 205"
"148.9661"
"$GPGGA,231108,2558.8990,N,07957.7805,W,1,8,1.5,19,"
"##MN-00 00 46 0496 02165 5325 453537 352411 205"
"148.966146"
"$GPGGA,231112,2558.9012,N,07957.7783,W,1,9,1.5,19,"
"##MN-00 00 43 0497 02161 5324 453603 352422 205"
"148.966192"
"$GPGGA,231116,2558.9034,N,07957.7763,W,1,9,1.5,18,"
"##MN-00 00 42 0498 02155 5324 453345 352383 205"
"148.966238"
"$GPGGA,231120,2558.9052,N,07957.7737,W,1,8,1.5,18,"
"##MN-00 00 42 0500 02150 5324 452626 352245 205"
"148.966285"
"$GPGGA,231124,2558.9073,N,07957.7713,W,1,9,1.5,18,"
"##MN-00 00 43 0501 02145 5323 451288 351844 205"
"148.966331"
"$GPGGA,231128,2558.9092,N,07957.7689,W,1,9,1.5,18,"
"##MN-00 00 46 0502 02135 5323 450638 351674 205"
"148.966377"
"$GPGGA,231132,2558.9113,N,07957.7666,W,1,9,1.5,18,"
"##MN-00 00 44 0503 02128 5323 449821 351426 205"
"148.966424"
"$GPGGA,231136,2558.9133,N,07957.7643,W,1,9,1.5,18,"
"##MN-00 00 44 0505 02117 5322 448843 351164 205"
"148.96647"
"$GPGGA,231140,2558.9153,N,07957.7621,W,1,9,1.5,18,"
"##MN-00 00 46 0506 02106 5322 447729 350883 205"
"148.966516"
"$GPGGA,231144,2558.9174,N,07957.7597,W,1,9,1.5,18,"
"##MN-00 00 43 0507 02103 5321 446393 350595 205"
"148.966563"
"$GPGGA,231148,2558.9195,N,07957.7574,W,1,9,1.5,18,"
"##MN-00 00 46 0508 02092 5321 445960 350354 205"
"148.966609"
"$GPGGA,231152,2558.9214,N,07957.7549,W,1,9,1.5,18,"
"##MN-00 00 46 0510 02085 5320 445754 350232 205"
"148.966655"
"$GPGGA,231156,2558.9232,N,07957.7525,W,1,9,1.5,18,"
"##MN-00 00 49 0511 02077 5320 445551 350162 205"
"148.966701"
"$GPGGA,231200,2558.9251,N,07957.7501,W,1,9,1.5,18,"
"##MN-00 00 44 0513 02067 5319 445305 349922 205"
"148.966748"
"$GPGGA,231204,2558.9271,N,07957.7476,W,1,9,1.5,18,"
"##MN-00 00 52 0514 02057 5319 445162 349861 205"
"148.966794"
"$GPGGA,231208,2558.9289,N,07957.7450,W,1,8,1.5,17,"
"##MN-00 00 48 0515 02051 5318 445039 349793 205"
"148.96684"
"$GPGGA,231212,2558.9307,N,07957.7426,W,1,9,1.6,17,"
"##MN-00 00 45 0516 02043 5318 444958 349763 205"
"148.966887"
"$GPGGA,231216,2558.9326,N,07957.7401,W,1,8,1.5,17,"
"##MN-00 00 47 0517 02034 5318 444910 349719 205"
"148.966933"
"$GPGGA,231220,2558.9346,N,07957.7380,W,1,9,1.6,17,"
"##MN-00 00 46 0519 02030 5317 444849 349700 205"
"148.966979"
"$GPGGA,231224,2558.9366,N,07957.7356,W,1,8,1.5,17,"
"##MN-00 00 46 0520 02021 5317 444823 349689 205"
"148.967025"
"$GPGGA,231228,2558.9386,N,07957.7335,W,1,8,1.6,16,"
"##MN-00 00 46 0522 02014 5316 444796 349670 205"
"148.967072"
"$GPGGA,231232,2558.9406,N,07957.7313,W,1,9,1.6,16,"
"##MN-00 00 47 0523 02006 5316 444707 349628 205"
"148.967118"
"$GPGGA,231236,2558.9424,N,07957.7291,W,1,9,1.6,16,"
"##MN-00 00 48 0524 01995 5315 444526 349570 205"
"148.967164"
"$GPGGA,231240,2558.9446,N,07957.7270,W,1,9,1.6,16,"
"##MN-00 00 43 0526 01989 5315 444079 349442 205"
"148.967211"
"$GPGGA,231244,2558.9466,N,07957.7247,W,1,8,1.5,16,"
"##MN-00 00 44 0527 01978 5315 443669 349338 205"
"148.967257"
"$GPGGA,231248,2558.9485,N,07957.7225,W,1,8,1.5,15,"
"##MN-00 00 45 0528 01968 5314 443230 349226 205"
"148.967303"
"$GPGGA,231252,2558.9506,N,07957.7204,W,1,8,1.5,15,"
"##MN-00 00 46 0530 01958 5314 443094 349147 205"
"148.96735"
"$GPGGA,231256,2558.9524,N,07957.7180,W,1,9,1.6,15,"
"##MN-00 00 46 0531 01952 5313 443353 349470 205"
"148.967396"
"$GPGGA,231300,2558.9543,N,07957.7159,W,1,8,1.6,15,"
"##MN-00 00 46 0532 01938 5313 443672 349389 205"
"148.967442"
"$GPGGA,231305,2558.9570,N,07957.7131,W,1,9,1.5,15,"
"##MN-00 00 47 0533 01931 5313 443298 349254 205"
"148.967488"
"$GPGGA,231308,2558.9586,N,07957.7114,W,1,8,1.6,15,"
"##MN-00 00 47 0535 01919 5313 442836 349082 205"
"148.967546"
"$GPGGA,231312,2558.9608,N,07957.7096,W,1,9,1.5,15,"
"##MN-00 00 46 0536 01911 5312 442503 348999 205"
"148.967593"
"$GPGGA,231316,2558.9630,N,07957.7075,W,1,9,1.6,15,"
"##MN-00 00 46 0537 01901 5312 442426 348950 205"
"148.967639"
"$GPGGA,231320,2558.9650,N,07957.7051,W,1,8,1.6,15,"
"##MN-00 00 44 0539 01893 5312 442379 348937 205"
"148.967685"
"$GPGGA,231325,2558.9676,N,07957.7027,W,1,8,1.5,15,"
"##MN-00 00 47 0540 01879 5311 442391 348924 205"
"148.967731"
"$GPGGA,231328,2558.9691,N,07957.7011,W,1,9,1.6,15,"
"##MN-00 00 51 0541 01867 5311 442405 348911 205"
"148.967778"
"$GPGGA,231333,2558.9716,N,07957.6981,W,1,9,1.5,15,"
"##MN-00 00 50 0543 01859 5311 442405 348911 205"
