" Tow: 1wm-a   RVWS/WS1406"
" Date: 05/28/2014"
" Temperature Probe #  2597    Conductivity Probe #  2870"
" Pressure Probe #  109"
" Flow Meter Calibration  4.71 (m/count)  "
"148.929375"
"$GPGGA,221811,2557.1259,N,08000.5187,W,1,9,1.5,18,"
"##MN-00 00 49 0135 01841 6042 000017 738568 206"
"148.929421"
"$GPGGA,221819,2557.1288,N,08000.5144,W,1,9,1.5,18,"
"##MN-00 00 51 0136 01843 6040 443314 349256 206"
"148.929468"
"$GPGGA,221823,2557.1305,N,08000.5125,W,1,9,1.5,18,"
"##MN-00 00 52 0137 01840 6038 443319 349255 206"
"148.929514"
"$GPGGA,221827,2557.1317,N,08000.5106,W,1,9,1.5,18,"
"##MN-00 00 48 0138 01844 6036 443329 349258 206"
"148.92956"
"$GPGGA,221831,2557.1334,N,08000.5088,W,1,9,1.5,18,"
"##MN-00 00 49 0138 01844 6035 443306 349249 206"
"148.929607"
"$GPGGA,221835,2557.1346,N,08000.5070,W,1,9,1.5,18,"
"##MN-00 00 49 0139 01846 6032 443308 349243 206"
"148.929653"
"$GPGGA,221839,2557.1362,N,08000.5051,W,1,9,1.5,18,"
"##MN-00 00 48 0140 01848 6030 443331 349248 206"
"148.929699"
"$GPGGA,221843,2557.1375,N,08000.5032,W,1,9,1.5,18,"
"##MN-00 00 50 0140 01854 6028 443301 349235 206"
"148.929745"
"$GPGGA,221847,2557.1389,N,08000.5014,W,1,9,1.5,18,"
"##MN-00 00 49 0141 01859 6027 443287 349225 206"
"148.929792"
"$GPGGA,221851,2557.1404,N,08000.4996,W,1,9,1.5,17,"
"##MN-00 00 50 0142 01861 6025 443302 349228 206"
"148.929838"
"$GPGGA,221855,2557.1418,N,08000.4977,W,1,9,1.5,17,"
"##MN-00 00 52 0143 01868 6022 443374 349249 206"
"148.929884"
"$GPGGA,221859,2557.1432,N,08000.4959,W,1,9,1.5,17,"
"##MN-00 00 52 0143 01873 6021 443449 349271 206"
"148.929931"
"$GPGGA,221903,2557.1447,N,08000.4943,W,1,9,1.5,17,"
"##MN-00 00 51 0144 01877 6019 443377 349238 206"
"148.929977"
"$GPGGA,221907,2557.1461,N,08000.4925,W,1,9,1.5,16,"
"##MN-00 00 51 0145 01883 6017 443354 349218 206"
"148.930023"
"$GPGGA,221911,2557.1476,N,08000.4907,W,1,9,1.5,16,"
"##MN-00 00 52 0146 01887 6015 443369 349230 206"
"148.930069"
"$GPGGA,221915,2557.1490,N,08000.4888,W,1,9,1.5,16,"
"##MN-00 00 49 0147 01891 6013 443556 349304 206"
"148.930116"
"$GPGGA,221919,2557.1504,N,08000.4872,W,1,9,1.5,15,"
"##MN-00 00 50 0147 01897 6011 443724 349345 206"
"148.930162"
"$GPGGA,221923,2557.1518,N,08000.4853,W,1,9,1.5,15,"
"##MN-00 00 51 0148 01902 6009 443756 349336 206"
"148.930208"
"$GPGGA,221927,2557.1532,N,08000.4834,W,1,9,1.5,15,"
"##MN-00 00 49 0149 01906 6007 443829 349398 206"
"148.930255"
"$GPGGA,221931,2557.1545,N,08000.4815,W,1,9,1.5,15,"
"##MN-00 00 49 0150 01912 6005 443989 349448 206"
"148.930301"
"$GPGGA,221935,2557.1559,N,08000.4797,W,1,9,1.5,15,"
"##MN-00 00 51 0151 01914 6003 444134 349490 206"
"148.930347"
"$GPGGA,221939,2557.1573,N,08000.4778,W,1,9,1.5,15,"
"##MN-00 00 51 0152 01918 6001 444397 349545 206"
"148.930394"
"$GPGGA,221943,2557.1584,N,08000.4757,W,1,9,1.5,14,"
"##MN-00 00 52 0153 01923 5999 444580 349615 206"
"148.93044"
"$GPGGA,221947,2557.1598,N,08000.4737,W,1,9,1.5,14,"
"##MN-00 00 51 0153 01928 5997 444654 349661 206"
"148.930486"
"$GPGGA,221951,2557.1610,N,08000.4718,W,1,9,1.5,14,"
"##MN-00 00 51 0154 01929 5995 444845 349712 206"
"148.930532"
"$GPGGA,221955,2557.1624,N,08000.4697,W,1,9,1.5,14,"
"##MN-00 00 51 0155 01935 5993 444992 349745 206"
"148.930579"
"$GPGGA,221959,2557.1638,N,08000.4677,W,1,9,1.5,14,"
"##MN-00 00 50 0156 01937 5991 445124 349771 206"
"148.930625"
"$GPGGA,222003,2557.1649,N,08000.4656,W,1,9,1.5,14,"
"##MN-00 00 51 0157 01940 5989 445384 349921 206"
"148.930671"
"$GPGGA,222007,2557.1663,N,08000.4634,W,1,9,1.5,14,"
"##MN-00 00 49 0158 01942 5987 445644 349977 206"
"148.930718"
"$GPGGA,222011,2557.1674,N,08000.4611,W,1,9,1.5,14,"
"##MN-00 00 50 0159 01948 5985 445783 350014 206"
"148.930764"
"$GPGGA,222015,2557.1688,N,08000.4590,W,1,9,1.5,14,"
"##MN-00 00 51 0159 01950 5983 445888 350031 206"
"148.93081"
"$GPGGA,222019,2557.1700,N,08000.4568,W,1,9,1.5,14,"
"##MN-00 00 53 0160 01952 5981 445970 350046 206"
"148.930856"
"$GPGGA,222023,2557.1710,N,08000.4546,W,1,9,1.5,14,"
"##MN-00 00 51 0161 01955 5979 446014 350072 206"
"148.930903"
"$GPGGA,222027,2557.1721,N,08000.4524,W,1,9,1.5,14,"
"##MN-00 00 52 0162 01957 5978 446051 350078 206"
"148.930949"
"$GPGGA,222031,2557.1734,N,08000.4501,W,1,9,1.5,14,"
"##MN-00 00 51 0163 01963 5975 446069 350088 206"
"148.930995"
"$GPGGA,222035,2557.1747,N,08000.4477,W,1,9,1.5,14,"
"##MN-00 00 53 0164 01966 5974 446094 350093 206"
"148.931042"
"$GPGGA,222039,2557.1760,N,08000.4453,W,1,9,1.5,14,"
"##MN-00 00 51 0165 01967 5972 446110 350118 206"
"148.931088"
"$GPGGA,222043,2557.1772,N,08000.4430,W,1,9,1.5,14,"
"##MN-00 00 52 0166 01972 5970 446120 350125 206"
"148.931134"
"$GPGGA,222047,2557.1785,N,08000.4407,W,1,9,1.5,14,"
"##MN-00 00 53 0167 01975 5968 446125 350120 206"
"148.931181"
"$GPGGA,222051,2557.1797,N,08000.4383,W,1,9,1.5,14,"
"##MN-00 00 51 0168 01976 5966 446131 350124 206"
"148.931227"
"$GPGGA,222055,2557.1811,N,08000.4359,W,1,9,1.5,14,"
"##MN-00 00 53 0169 01982 5964 446153 350131 206"
"148.931273"
"$GPGGA,222100,2557.1828,N,08000.4329,W,1,9,1.5,14,"
"##MN-00 00 52 0170 01985 5962 446182 350136 206"
"148.931319"
"$GPGGA,222103,2557.1837,N,08000.4312,W,1,9,1.5,14,"
"##MN-00 00 55 0170 01990 5960 446228 350160 206"
"148.931366"
"$GPGGA,222108,2557.1855,N,08000.4281,W,1,9,1.5,14,"
"##MN-00 00 55 0171 01995 5958 446259 350170 206"
"148.931412"
"$GPGGA,222112,2557.1873,N,08000.4260,W,1,9,1.5,14,"
"##MN-00 00 59 0172 02006 5956 446272 350171 206"
"148.931458"
"$GPGGA,222115,2557.1888,N,08000.4245,W,1,9,1.5,14,"
"##MN-00 00 54 0173 02012 5954 446288 350175 206"
"148.931516"
"$GPGGA,222119,2557.1906,N,08000.4224,W,1,9,1.5,14,"
"##MN-00 00 54 0173 02021 5952 446331 350189 206"
"148.931563"
"$GPGGA,222124,2557.1927,N,08000.4198,W,1,9,1.5,14,"
"##MN-00 00 55 0174 02025 5950 446367 350198 206"
"148.931609"
"$GPGGA,222128,2557.1944,N,08000.4176,W,1,9,1.5,15,"
"##MN-00 00 54 0175 02030 5948 446403 350207 206"
"148.931655"
"$GPGGA,222132,2557.1959,N,08000.4155,W,1,9,1.5,15,"
"##MN-00 00 54 0176 02035 5946 446415 350211 206"
"148.931701"
"$GPGGA,222136,2557.1974,N,08000.4133,W,1,9,1.5,15,"
"##MN-00 00 55 0176 02042 5944 446473 350227 206"
"148.931748"
"$GPGGA,222140,2557.1985,N,08000.4108,W,1,8,1.5,15,"
"##MN-00 00 54 0177 02046 5942 446579 350263 206"
"148.931794"
"$GPGGA,222144,2557.1992,N,08000.4081,W,1,8,2.1,15,"
"##MN-00 00 53 0178 02052 5940 446658 350283 206"
"148.93184"
"$GPGGA,222148,2557.2003,N,08000.4056,W,1,8,1.5,14,"
"##MN-00 00 54 0179 02055 5938 446709 350283 206"
"148.931887"
"$GPGGA,222152,2557.2018,N,08000.4032,W,1,9,2.1,14,"
"##MN-00 00 54 0180 02061 5936 446848 350332 206"
"148.931933"
"$GPGGA,222156,2557.2034,N,08000.4007,W,1,9,2.1,14,"
"##MN-00 00 54 0180 02063 5934 447764 350596 206"
"148.931979"
"$GPGGA,222200,2557.2045,N,08000.3980,W,1,8,2.1,13,"
"##MN-00 00 55 0181 02067 5932 448834 350985 206"
"148.932025"
"$GPGGA,222204,2557.2057,N,08000.3953,W,1,8,2.1,13,"
"##MN-00 00 54 0182 02067 5930 449729 351258 206"
"148.932072"
"$GPGGA,222208,2557.2082,N,08000.3934,W,1,9,1.5,12,"
"##MN-00 00 52 0183 02076 5928 450393 351456 206"
"148.932118"
"$GPGGA,222212,2557.2105,N,08000.3913,W,1,9,1.5,12,"
"##MN-00 00 53 0183 02081 5926 450844 351575 206"
"148.932164"
"$GPGGA,222216,2557.2126,N,08000.3892,W,1,9,1.5,13,"
"##MN-00 00 54 0184 02085 5925 451297 351622 206"
"148.932211"
"$GPGGA,222220,2557.2143,N,08000.3870,W,1,9,1.5,13,"
"##MN-00 00 53 0185 02088 5922 451670 351842 206"
"148.932257"
"$GPGGA,222224,2557.2159,N,08000.3848,W,1,9,1.5,13,"
"##MN-00 00 52 0186 02094 5920 452101 351989 206"
"148.932303"
"$GPGGA,222228,2557.2173,N,08000.3824,W,1,9,1.5,14,"
"##MN-00 00 55 0187 02098 5918 452416 352087 206"
"148.93235"
"$GPGGA,222232,2557.2186,N,08000.3799,W,1,9,1.5,14,"
"##MN-00 00 55 0188 02099 5916 452755 352180 206"
"148.932396"
"$GPGGA,222236,2557.2195,N,08000.3772,W,1,9,1.5,14,"
"##MN-00 00 53 0188 02103 5914 453077 352261 206"
"148.932442"
"$GPGGA,222240,2557.2209,N,08000.3747,W,1,9,1.5,14,"
"##MN-00 00 54 0189 02104 5912 453240 352353 206"
"148.932488"
"$GPGGA,222244,2557.2226,N,08000.3724,W,1,9,2.1,14,"
"##MN-00 00 54 0190 02109 5910 453403 352382 206"
"148.932535"
"$GPGGA,222248,2557.2235,N,08000.3697,W,1,9,2.1,14,"
"##MN-00 00 54 0191 02110 5909 453596 352455 206"
"148.932581"
"$GPGGA,222252,2557.2251,N,08000.3674,W,1,9,2.1,14,"
"##MN-00 00 55 0192 02111 5906 453772 352504 206"
"148.932627"
"$GPGGA,222256,2557.2269,N,08000.3654,W,1,9,2.1,14,"
"##MN-00 00 53 0193 02109 5905 453824 352534 206"
"148.932674"
"$GPGGA,222300,2557.2285,N,08000.3631,W,1,9,2.1,14,"
"##MN-00 00 50 0194 02112 5902 453780 352533 206"
"148.93272"
"$GPGGA,222304,2557.2305,N,08000.3608,W,1,9,1.5,14,"
"##MN-00 00 52 0195 02111 5900 453757 352525 206"
"148.932766"
"$GPGGA,222308,2557.2323,N,08000.3585,W,1,9,1.5,14,"
"##MN-00 00 52 0196 02112 5898 453782 352532 206"
"148.932813"
"$GPGGA,222312,2557.2341,N,08000.3562,W,1,9,1.5,14,"
"##MN-00 00 51 0197 02112 5896 453806 352536 206"
"148.932859"
"$GPGGA,222316,2557.2357,N,08000.3539,W,1,9,1.5,15,"
"##MN-00 00 52 0198 02109 5894 453839 352554 206"
"148.932905"
"$GPGGA,222320,2557.2372,N,08000.3515,W,1,9,1.5,15,"
"##MN-00 00 52 0199 02110 5892 453786 352543 206"
"148.932951"
"$GPGGA,222324,2557.2385,N,08000.3498,W,1,9,1.5,16,"
"##MN-00 00 51 0200 02110 5890 453700 352524 206"
"148.932998"
"$GPGGA,222328,2557.2401,N,08000.3474,W,1,9,1.5,16,"
"##MN-00 00 52 0201 02110 5888 453607 352498 206"
"148.933044"
"$GPGGA,222332,2557.2415,N,08000.3451,W,1,9,1.5,17,"
"##MN+00 00 52 0202 02109 5886 453549 352480 206"
"148.93309"
"$GPGGA,222336,2557.2433,N,08000.3423,W,1,9,1.5,17,"
"##MN+00 00 52 0204 02110 5884 453506 352465 206"
"148.933137"
"$GPGGA,222340,2557.2450,N,08000.3400,W,1,9,1.5,17,"
"##MN+00 00 52 0205 02108 5882 453470 352457 206"
"148.933183"
"$GPGGA,222344,2557.2462,N,08000.3374,W,1,8,2.1,17,"
"##MN-00 00 52 0206 02108 5880 453500 352455 206"
"148.933229"
"$GPGGA,222348,2557.2477,N,08000.3351,W,1,9,1.6,18,"
"##MN+00 00 52 0207 02108 5877 453520 352456 206"
"148.933275"
"$GPGGA,222352,2557.2482,N,08000.3328,W,1,8,2.1,17,"
"##MN+00 00 51 0208 02109 5875 453556 352467 206"
"148.933322"
"$GPGGA,222356,2557.2498,N,08000.3310,W,1,9,2.1,17,"
"##MN+00 00 62 0209 02110 5873 453608 352477 206"
"148.933368"
"$GPGGA,222400,2557.2518,N,08000.3288,W,1,9,1.5,17,"
"##MN-00 00 56 0210 02111 5871 453734 352486 206"
"148.933414"
"$GPGGA,222404,2557.2531,N,08000.3267,W,1,9,2.1,17,"
"##MN-00 00 55 0211 02109 5869 453811 352517 206"
"148.933461"
"#increment_net"
"$GPGGA,222408,2557.2549,N,08000.3245,W,1,9,1.5,17,"
"##MN-00 00 53 0212 02110 5867 453816 352548 206"
"148.933507"
"$GPGGA,222412,2557.2565,N,08000.3222,W,1,9,2.1,17,"
"##MN-00 00 54 0213 02108 5865 453792 352543 206"
"148.933553"
"$GPGGA,222416,2557.2581,N,08000.3200,W,1,9,1.5,17,"
"##MN-00 00 53 0214 02109 5863 453766 352540 206"
"148.9336"
"$GPGGA,222420,2557.2596,N,08000.3179,W,1,9,1.5,17,"
"##MN-00 00 53 0215 02110 5861 453761 352536 206"
"148.933646"
"$GPGGA,222424,2557.2610,N,08000.3156,W,1,9,1.5,17,"
"##MN-00 00 53 0216 02110 5859 453781 352537 206"
"148.933692"
"$GPGGA,222428,2557.2625,N,08000.3132,W,1,9,1.5,17,"
"##MN-00 00 52 0217 02109 5856 453818 352549 206"
"148.933738"
"$GPGGA,222432,2557.2638,N,08000.3108,W,1,8,1.5,17,"
"##MN+00 00 55 0218 02105 5854 453831 352560 206"
"148.933785"
"$GPGGA,222436,2557.2646,N,08000.3080,W,1,9,1.5,16,"
"##MN+00 00 52 0219 02107 5852 453818 352557 206"
"148.933831"
"$GPGGA,222440,2557.2661,N,08000.3055,W,1,9,2.1,16,"
"##MN+00 00 53 0220 02107 5850 453769 352545 206"
"148.933877"
"$GPGGA,222444,2557.2679,N,08000.3032,W,1,9,2.1,16,"
"##MN-00 00 53 0221 02109 5848 453717 352541 206"
"148.933924"
"$GPGGA,222448,2557.2695,N,08000.3011,W,1,9,1.5,16,"
"##MN-00 00 53 0222 02107 5846 453608 352511 206"
"148.93397"
"$GPGGA,222452,2557.2708,N,08000.2988,W,1,8,1.5,15,"
"##MN-00 00 54 0224 02110 5844 453615 352506 206"
"148.934016"
"$GPGGA,222456,2557.2728,N,08000.2968,W,1,9,1.5,15,"
"##MN+00 00 52 0225 02108 5841 453599 352491 206"
"148.934062"
"$GPGGA,222500,2557.2739,N,08000.2945,W,1,8,2.1,15,"
"##MN+00 00 52 0226 02108 5839 453575 352483 206"
"148.934109"
"$GPGGA,222504,2557.2751,N,08000.2924,W,1,8,2.1,15,"
"##MN+00 00 61 0227 02112 5837 453558 352474 206"
"148.934155"
"#increment_net"
"$GPGGA,222508,2557.2769,N,08000.2904,W,1,8,1.5,15,"
"##MN-00 00 56 0228 02113 5835 453744 352517 206"
"148.934201"
"$GPGGA,222512,2557.2790,N,08000.2883,W,1,8,1.5,15,"
"##MN-00 00 52 0229 02112 5833 453843 352555 206"
"148.934248"
"$GPGGA,222516,2557.2805,N,08000.2860,W,1,9,2.0,15,"
"##MN-00 00 52 0230 02113 5831 453858 352563 206"
"148.934294"
"$GPGGA,222520,2557.2820,N,08000.2836,W,1,9,1.5,15,"
"##MN-00 00 52 0231 02111 5829 453864 352568 206"
"148.93434"
"$GPGGA,222524,2557.2838,N,08000.2814,W,1,8,1.5,15,"
"##MN-00 00 52 0232 02113 5827 453860 352568 206"
"148.934387"
"$GPGGA,222528,2557.2855,N,08000.2791,W,1,9,1.5,15,"
"##MN-00 00 51 0233 02113 5824 453849 352568 206"
"148.934433"
"$GPGGA,222532,2557.2874,N,08000.2771,W,1,9,1.5,15,"
"##MN-00 00 52 0234 02113 5822 453830 352564 206"
"148.934479"
"$GPGGA,222536,2557.2887,N,08000.2747,W,1,9,2.0,15,"
"##MN-00 00 50 0235 02113 5820 453824 352561 206"
"148.934525"
"$GPGGA,222540,2557.2905,N,08000.2725,W,1,9,1.5,15,"
"##MN-00 00 50 0236 02110 5818 453808 352555 206"
"148.934572"
"$GPGGA,222545,2557.2924,N,08000.2695,W,1,9,1.5,15,"
"##MN+00 00 50 0237 02112 5816 453748 352547 206"
"148.934618"
"$GPGGA,222548,2557.2939,N,08000.2680,W,1,8,1.5,15,"
"##MN+00 00 53 0238 02112 5814 453566 352477 206"
"148.934676"
"$GPGGA,222553,2557.2953,N,08000.2650,W,1,9,1.5,15,"
"##MN+00 00 51 0239 02112 5811 453502 352459 206"
"148.934722"
"$GPGGA,222557,2557.2971,N,08000.2630,W,1,9,1.5,15,"
"##MN-00 00 50 0240 02113 5810 453477 352448 206"
"148.934769"
"$GPGGA,222601,2557.2986,N,08000.2607,W,1,9,1.5,15,"
"##MN-00 00 53 0241 02112 5807 453473 352440 206"
"148.934815"
"$GPGGA,222605,2557.3008,N,08000.2587,W,1,9,1.5,15,"
"##MN+00 00 50 0242 02113 5805 453523 352454 206"
"148.934861"
"$GPGGA,222609,2557.3026,N,08000.2564,W,1,8,1.6,15,"
"##MN+00 00 51 0243 02113 5803 453575 352469 206"
"148.934907"
"$GPGGA,222613,2557.3049,N,08000.2543,W,1,9,1.4,16,"
"##MN+00 00 61 0244 02114 5801 453628 352480 206"
"148.934954"
"#increment_net"
"$GPGGA,222617,2557.3064,N,08000.2519,W,1,9,1.4,17,"
"##MN-00 00 54 0245 02114 5799 453664 352493 206"
"148.935"
"$GPGGA,222621,2557.3078,N,08000.2497,W,1,9,1.4,17,"
"##MN-00 00 51 0246 02113 5797 453557 352465 206"
"148.935046"
"$GPGGA,222625,2557.3094,N,08000.2475,W,1,9,1.4,17,"
"##MN-00 00 51 0247 02111 5795 453444 352429 206"
"148.935093"
"$GPGGA,222629,2557.3113,N,08000.2453,W,1,9,1.4,18,"
"##MN-00 00 49 0248 02115 5793 453345 352398 206"
"148.935139"
"$GPGGA,222633,2557.3130,N,08000.2432,W,1,9,1.4,18,"
"##MN+00 00 51 0249 02113 5791 453329 352395 206"
"148.935185"
"$GPGGA,222637,2557.3148,N,08000.2411,W,1,9,1.4,19,"
"##MN+00 00 50 0250 02113 5788 453402 352407 206"
"148.935231"
"$GPGGA,222641,2557.3167,N,08000.2391,W,1,9,1.4,19,"
"##MN+00 00 49 0251 02112 5786 453433 352416 206"
"148.935278"
"$GPGGA,222645,2557.3181,N,08000.2369,W,1,8,1.4,20,"
"##MN-00 00 49 0252 02110 5784 453455 352422 206"
"148.935324"
"$GPGGA,222649,2557.3195,N,08000.2348,W,1,7,1.4,20,"
"##MN-00 00 48 0253 02114 5782 453447 352425 206"
"148.93537"
"$GPGGA,222653,2557.3210,N,08000.2325,W,1,8,1.4,20,"
"##MN-00 00 48 0254 02114 5780 453346 352396 206"
"148.935417"
"$GPGGA,222657,2557.3227,N,08000.2301,W,1,9,1.4,20,"
"##MN-00 00 51 0255 02111 5778 453221 352360 206"
"148.935463"
"$GPGGA,222701,2557.3239,N,08000.2274,W,1,9,2.0,20,"
"##MN-00 00 50 0256 02110 5776 453141 352320 206"
"148.935509"
"$GPGGA,222705,2557.3256,N,08000.2252,W,1,8,1.4,20,"
"##MN-00 00 50 0257 02111 5774 453099 352311 206"
"148.935556"
"$GPGGA,222709,2557.3278,N,08000.2232,W,1,9,1.6,20,"
"##MN+00 00 50 0259 02110 5772 453093 352315 206"
"148.935602"
"$GPGGA,222713,2557.3289,N,08000.2209,W,1,8,1.5,20,"
"##MN+00 00 48 0260 02111 5770 453135 352320 206"
"148.935648"
"$GPGGA,222717,2557.3300,N,08000.2190,W,1,7,1.4,20,"
"##MN+00 00 60 0261 02113 5768 453172 352328 206"
"148.935694"
"#increment_net"
"$GPGGA,222721,2557.3318,N,08000.2168,W,1,9,1.4,20,"
"##MN-00 00 54 0262 02111 5766 453264 352350 206"
"148.935741"
"$GPGGA,222725,2557.3333,N,08000.2147,W,1,9,1.4,20,"
"##MN-00 00 51 0263 02111 5764 453217 352350 206"
"148.935787"
"$GPGGA,222729,2557.3350,N,08000.2124,W,1,8,1.6,20,"
"##MN-00 00 50 0264 02110 5762 453137 352330 206"
"148.935833"
"$GPGGA,222733,2557.3367,N,08000.2103,W,1,9,1.4,19,"
"##MN-00 00 51 0265 02110 5760 453100 352314 206"
"148.93588"
"$GPGGA,222737,2557.3380,N,08000.2079,W,1,9,1.4,19,"
"##MN-00 00 51 0266 02111 5758 452994 352293 206"
"148.935926"
"$GPGGA,222741,2557.3394,N,08000.2056,W,1,8,1.4,19,"
"##MN-00 00 50 0267 02110 5756 452832 352249 206"
"148.935972"
"$GPGGA,222745,2557.3411,N,08000.2032,W,1,8,1.6,19,"
"##MN-00 00 50 0268 02108 5754 452748 352239 206"
"148.936019"
"$GPGGA,222749,2557.3423,N,08000.2010,W,1,9,1.4,19,"
"##MN-00 00 49 0269 02111 5752 452800 352220 206"
"148.936065"
"$GPGGA,222753,2557.3438,N,08000.1987,W,1,8,1.6,19,"
"##MN-00 00 49 0270 02108 5750 452769 352211 206"
"148.936111"
"$GPGGA,222757,2557.3449,N,08000.1965,W,1,8,1.6,19,"
"##MN-00 00 48 0271 02107 5748 452727 352194 206"
"148.936157"
"$GPGGA,222801,2557.3463,N,08000.1942,W,1,9,1.4,19,"
"##MN+00 00 49 0273 02109 5746 452708 352190 206"
"148.936204"
"$GPGGA,222805,2557.3477,N,08000.1920,W,1,9,1.4,18,"
"##MN+00 00 49 0274 02108 5743 452710 352188 206"
"148.93625"
"$GPGGA,222809,2557.3494,N,08000.1899,W,1,9,1.5,18,"
"##MN+00 00 51 0275 02109 5742 452728 352189 206"
"148.936296"
"$GPGGA,222813,2557.3510,N,08000.1876,W,1,9,1.4,18,"
"##MN+00 00 50 0276 02106 5740 452730 352191 206"
"148.936343"
"$GPGGA,222817,2557.3523,N,08000.1851,W,1,8,2.0,18,"
"##MN+00 00 49 0277 02108 5737 452716 352185 206"
"148.936389"
"$GPGGA,222821,2557.3539,N,08000.1830,W,1,8,2.0,17,"
"##MN+00 00 61 0278 02110 5735 452735 352192 206"
"148.936435"
"#increment_net"
"$GPGGA,222825,2557.3552,N,08000.1807,W,1,9,1.4,17,"
"##MN-00 00 60 0279 02111 5734 452772 352198 206"
"148.936481"
"$GPGGA,222829,2557.3568,N,08000.1783,W,1,8,1.6,17,"
"##MN-00 00 56 0281 02114 5732 452852 352218 206"
"148.936528"
"$GPGGA,222833,2557.3589,N,08000.1763,W,1,8,1.6,16,"
"##MN-00 00 53 0282 02121 5730 453050 352252 206"
"148.936574"
"$GPGGA,222837,2557.3610,N,08000.1741,W,1,8,1.6,16,"
"##MN-00 00 53 0283 02123 5727 453301 352281 206"
"148.93662"
"$GPGGA,222841,2557.3625,N,08000.1720,W,1,8,1.6,17,"
"##MN-00 00 58 0285 02122 5724 453477 352390 206"
"148.936667"
"$GPGGA,222845,2557.3638,N,08000.1695,W,1,8,1.6,17,"
"##MN-00 00 53 0286 02119 5723 453554 352418 206"
"148.936713"
"$GPGGA,222849,2557.3647,N,08000.1670,W,1,8,1.6,16,"
"##MN-00 00 54 0288 02119 5721 453456 352421 206"
"148.936759"
"$GPGGA,222853,2557.3669,N,08000.1649,W,1,9,1.4,16,"
"##MN-00 00 52 0289 02117 5719 453312 352374 206"
"148.936806"
"$GPGGA,222857,2557.3686,N,08000.1628,W,1,9,1.4,16,"
"##MN-00 00 52 0291 02115 5717 453187 352338 206"
"148.936852"
"$GPGGA,222901,2557.3701,N,08000.1605,W,1,9,1.4,16,"
"##MN-00 00 52 0292 02113 5715 452907 352271 206"
"148.936898"
"$GPGGA,222905,2557.3715,N,08000.1586,W,1,9,1.4,17,"
"##MN-00 00 52 0294 02110 5713 452250 352092 206"
"148.936944"
"$GPGGA,222909,2557.3727,N,08000.1560,W,1,8,2.0,17,"
"##MN-00 00 53 0295 02106 5711 451853 352004 206"
"148.936991"
"$GPGGA,222913,2557.3734,N,08000.1532,W,1,6,1.9,17,"
"##MN-00 00 51 0297 02103 5710 451455 351877 206"
"148.937037"
"$GPGGA,222917,2557.3744,N,08000.1508,W,1,8,1.6,16,"
"##MN-00 00 52 0298 02098 5708 451098 351767 206"
"148.937083"
"$GPGGA,222921,2557.3758,N,08000.1482,W,1,8,1.6,16,"
"##MN-00 00 54 0300 02097 5706 450767 351623 206"
"148.93713"
"$GPGGA,222925,2557.3769,N,08000.1458,W,1,8,2.0,15,"
"##MN-00 00 54 0301 02094 5704 450096 351450 206"
"148.937176"
"$GPGGA,222929,2557.3780,N,08000.1432,W,1,8,2.0,15,"
"##MN-00 00 54 0303 02089 5702 449663 351312 206"
"148.937222"
"$GPGGA,222933,2557.3802,N,08000.1412,W,1,9,1.4,14,"
"##MN-00 00 54 0304 02086 5701 449102 351158 206"
"148.937268"
"$GPGGA,222937,2557.3819,N,08000.1389,W,1,9,1.5,14,"
"##MN-00 00 52 0305 02081 5699 448418 350944 206"
"148.937315"
"$GPGGA,222941,2557.3834,N,08000.1367,W,1,9,1.4,14,"
"##MN-00 00 52 0307 02077 5697 448009 350866 206"
"148.937361"
"$GPGGA,222945,2557.3849,N,08000.1344,W,1,9,1.5,15,"
"##MN-00 00 51 0308 02074 5695 447750 350737 206"
"148.937407"
"$GPGGA,222949,2557.3864,N,08000.1319,W,1,9,1.4,15,"
"##MN-00 00 54 0310 02071 5693 447541 350645 206"
"148.937454"
"$GPGGA,222953,2557.3877,N,08000.1292,W,1,9,1.5,15,"
"##MN-00 00 53 0311 02067 5691 447267 350571 206"
"148.9375"
"$GPGGA,222957,2557.3891,N,08000.1267,W,1,9,1.5,15,"
"##MN-00 00 54 0313 02062 5689 447046 350506 206"
"148.937546"
"$GPGGA,223001,2557.3904,N,08000.1243,W,1,9,1.4,15,"
"##MN-00 00 55 0314 02056 5688 447021 350468 206"
"148.937593"
"$GPGGA,223005,2557.3914,N,08000.1216,W,1,8,1.6,15,"
"##MN-00 00 52 0316 02052 5686 446725 350356 206"
"148.937639"
"$GPGGA,223009,2557.3925,N,08000.1190,W,1,8,2.0,15,"
"##MN-00 00 54 0317 02048 5684 446556 350350 206"
"148.937685"
"$GPGGA,223013,2557.3939,N,08000.1166,W,1,7,1.7,15,"
"##MN-00 00 50 0318 02045 5682 446487 350289 206"
"148.937732"
"$GPGGA,223017,2557.3949,N,08000.1143,W,1,8,1.6,15,"
"##MN-00 00 51 0320 02039 5681 446421 350254 206"
"148.937778"
"$GPGGA,223022,2557.3961,N,08000.1111,W,1,8,1.6,15,"
"##MN-00 00 57 0321 02036 5679 446398 350234 206"
"148.937836"
"$GPGGA,223025,2557.3975,N,08000.1096,W,1,9,1.4,15,"
"##MN-00 00 57 0323 02029 5677 446388 350207 206"
"148.937882"
"$GPGGA,223029,2557.3990,N,08000.1073,W,1,9,1.6,15,"
"##MN-00 00 54 0324 02028 5675 446369 350198 206"
"148.937928"
"$GPGGA,223034,2557.4012,N,08000.1047,W,1,9,1.5,15,"
"##MN-00 00 51 0325 02024 5674 446352 350195 206"
"148.937975"
"$GPGGA,223037,2557.4023,N,08000.1031,W,1,8,1.6,15,"
"##MN-00 00 49 0326 02021 5672 446341 350189 206"
"148.938021"
"$GPGGA,223042,2557.4045,N,08000.1005,W,1,8,1.6,15,"
"##MN-00 00 48 0328 02016 5670 446335 350186 206"
"148.938067"
"$GPGGA,223046,2557.4058,N,08000.0984,W,1,9,1.4,15,"
"##MN-00 00 48 0329 02009 5669 446322 350181 206"
"148.938113"
"$GPGGA,223050,2557.4072,N,08000.0962,W,1,9,1.4,15,"
"##MN-00 00 49 0331 02004 5667 446307 350175 206"
"148.93816"
"$GPGGA,223054,2557.4086,N,08000.0940,W,1,9,1.4,15,"
"##MN-00 00 48 0332 02002 5666 446279 350172 206"
"148.938206"
"$GPGGA,223058,2557.4098,N,08000.0915,W,1,8,1.5,15,"
"##MN-00 00 48 0333 01993 5664 446252 350158 206"
"148.938252"
"$GPGGA,223102,2557.4112,N,08000.0891,W,1,8,1.4,15,"
"##MN-00 00 49 0334 01986 5662 446232 350151 206"
"148.938299"
"$GPGGA,223106,2557.4126,N,08000.0868,W,1,9,1.6,15,"
"##MN-00 00 48 0336 01980 5661 446210 350149 206"
"148.938345"
"$GPGGA,223110,2557.4142,N,08000.0846,W,1,9,1.4,15,"
"##MN-00 00 46 0337 01972 5659 446186 350141 206"
"148.938391"
"$GPGGA,223114,2557.4155,N,08000.0821,W,1,8,1.6,15,"
"##MN-00 00 46 0339 01967 5658 446154 350129 206"
"148.938437"
"$GPGGA,223118,2557.4167,N,08000.0798,W,1,8,1.4,15,"
"##MN-00 00 46 0340 01957 5656 446134 350122 206"
"148.938484"
"$GPGGA,223122,2557.4182,N,08000.0773,W,1,8,1.9,16,"
"##MN-00 00 49 0341 01950 5655 446025 350091 206"
"148.93853"
"$GPGGA,223126,2557.4193,N,08000.0746,W,1,9,1.6,16,"
"##MN-00 00 45 0343 01942 5653 445499 349985 206"
"148.938576"
"$GPGGA,223130,2557.4213,N,08000.0724,W,1,9,1.6,16,"
"##MN-00 00 48 0344 01930 5652 444920 349814 206"
"148.938623"
"$GPGGA,223134,2557.4222,N,08000.0699,W,1,8,1.4,16,"
"##MN-00 00 48 0346 01920 5650 444506 349711 206"
"148.938669"
"$GPGGA,223138,2557.4238,N,08000.0676,W,1,9,1.4,16,"
"##MN-00 00 51 0347 01910 5649 444343 349605 206"
"148.938715"
"$GPGGA,223142,2557.4247,N,08000.0650,W,1,9,1.6,16,"
"##MN-00 00 49 0348 01900 5647 444139 349522 206"
"148.938762"
"$GPGGA,223146,2557.4261,N,08000.0628,W,1,9,1.4,16,"
"##MN-00 00 48 0350 01888 5646 443854 349458 206"
"148.938808"
"$GPGGA,223150,2557.4274,N,08000.0604,W,1,8,1.9,16,"
"##MN-00 00 48 0351 01877 5644 443731 349381 206"
"148.938854"
"$GPGGA,223154,2557.4289,N,08000.0578,W,1,8,1.6,16,"
"##MN-00 00 48 0353 01866 5643 443689 349328 206"
"148.9389"
"$GPGGA,223158,2557.4304,N,08000.0553,W,1,8,1.4,16,"
"##MN-00 00 50 0354 01855 5641 443596 349274 206"
"148.938947"
"$GPGGA,223202,2557.4318,N,08000.0530,W,1,8,1.6,16,"
"##MN-00 00 51 0356 01849 5639 443553 349280 206"
"148.938993"
"$GPGGA,223206,2557.4333,N,08000.0507,W,1,8,1.6,16,"
"##MN-00 00 54 0357 01848 5638 444048 428998 206"
"148.939039"
"$GPGGA,223210,2557.4346,N,08000.0485,W,1,8,1.6,16,"
"##MN-00 00 55 0357 01848 5637 447938 925134 206"
"148.939086"
"$GPGGA,223214,2557.4365,N,08000.0467,W,1,8,1.6,15,"
"##MN-00 00 42 0357 01848 5636 452313 925151 206"
"148.939132"
"$GPGGA,223218,2557.4388,N,08000.0450,W,1,9,1.4,15,"
"##MN-00 00 17 0358 01848 5635 454955 816747 206"
"148.939178"
"$GPGGA,223222,2557.4408,N,08000.0433,W,1,9,1.4,16,"
"##MN-00 00 25 0358 01846 5633 456768 925157 206"
"148.939225"
"$GPGGA,223226,2557.4428,N,08000.0417,W,1,9,1.4,16,"
"##MN-00 00 10 0358 01848 5632 458386 925158 206"
"148.939271"
"$GPGGA,223230,2557.4452,N,08000.0402,W,1,9,1.4,16,"
"##MN-00 00 22 0358 01847 5630 459285 925159 206"
"148.939317"
"$GPGGA,223234,2557.4473,N,08000.0388,W,1,9,1.4,16,"
"##MN-00 00 13 0358 01847 5629 459691 925157 206"
"148.939363"
"$GPGGA,223238,2557.4493,N,08000.0373,W,1,8,1.4,16,"
"##MN-00 00 03 0358 01847 5628 459769 925158 206"
"148.93941"
"$GPGGA,223242,2557.4514,N,08000.0360,W,1,8,1.6,16,"
"##MN-00 00 08 0358 01846 5627 459632 925139 206"
"148.939456"
"$GPGGA,223246,2557.4538,N,08000.0348,W,1,8,1.4,16,"
"##MN-00 00 07 0358 01846 5625 459232 925161 206"
"148.939502"
"$GPGGA,223250,2557.4558,N,08000.0334,W,1,8,1.5,16,"
"##MN-00 00 11 0358 01845 5624 458982 925163 206"
"148.939549"
"$GPGGA,223254,2557.4581,N,08000.0320,W,1,9,1.6,16,"
"##MN-00 00 14 0358 01851 5623 458758 925166 206"
