" Tow: 1ws-b   RVWS/WS1406"
" Date: 05/28/2014"
" Temperature Probe #  2597    Conductivity Probe #  2870"
" Pressure Probe #  109"
" Flow Meter Calibration  4.71 (m/count)  "
"148.794375"
"$GPGGA,190347,2548.6378,N,07957.2497,W,1,9,1.7,16,"
"##MN-00 00 49 0090 01842 6016 408738 844889 207"
"148.794421"
"$GPGGA,190355,2548.6422,N,07957.2493,W,1,9,1.7,17,"
"##MN-00 00 45 0091 01842 6017 439668 353727 207"
"148.794468"
"$GPGGA,190359,2548.6445,N,07957.2494,W,1,9,1.7,17,"
"##MN-00 00 48 0092 01843 6018 439673 348826 207"
"148.794514"
"$GPGGA,190403,2548.6469,N,07957.2496,W,1,9,1.7,17,"
"##MN-00 00 48 0093 01844 6020 439696 348082 207"
"148.79456"
"$GPGGA,190407,2548.6490,N,07957.2496,W,1,9,1.7,17,"
"##MN-00 00 49 0093 01842 6021 439742 348112 207"
"148.794606"
"$GPGGA,190411,2548.6514,N,07957.2497,W,1,9,1.7,17,"
"##MN-00 00 46 0094 01845 6022 439893 348231 207"
"148.794653"
"$GPGGA,190415,2548.6534,N,07957.2498,W,1,9,1.7,17,"
"##MN-00 00 48 0095 01843 6023 440030 348231 207"
"148.794699"
"$GPGGA,190419,2548.6555,N,07957.2500,W,1,9,1.7,17,"
"##MN-00 00 49 0096 01847 6025 440042 348256 207"
"148.794745"
"$GPGGA,190423,2548.6577,N,07957.2504,W,1,9,1.7,17,"
"##MN-00 00 48 0097 01845 6025 439957 348201 207"
"148.794792"
"$GPGGA,190427,2548.6599,N,07957.2511,W,1,9,1.7,17,"
"##MN-00 00 49 0098 01846 6026 439957 348188 207"
"148.794838"
"$GPGGA,190431,2548.6620,N,07957.2515,W,1,9,1.7,17,"
"##MN-00 00 51 0099 01848 6027 439989 348171 207"
"148.794884"
"$GPGGA,190435,2548.6641,N,07957.2519,W,1,9,1.7,17,"
"##MN-00 00 50 0099 01850 6028 439933 348155 207"
"148.794931"
"$GPGGA,190439,2548.6664,N,07957.2525,W,1,9,1.7,17,"
"##MN-00 00 51 0100 01852 6028 440051 348518 207"
"148.794977"
"$GPGGA,190443,2548.6685,N,07957.2530,W,1,9,1.7,17,"
"##MN-00 00 49 0101 01855 6029 440153 348195 207"
"148.795023"
"$GPGGA,190447,2548.6706,N,07957.2536,W,1,9,1.7,17,"
"##MN-00 00 52 0102 01858 6030 440155 348221 207"
"148.795069"
"$GPGGA,190451,2548.6727,N,07957.2543,W,1,9,1.7,17,"
"##MN-00 00 49 0103 01859 6030 440112 348191 207"
"148.795116"
"$GPGGA,190455,2548.6747,N,07957.2551,W,1,9,1.7,17,"
"##MN-00 00 51 0104 01861 6031 440309 348223 207"
"148.795162"
"$GPGGA,190459,2548.6768,N,07957.2559,W,1,9,1.7,17,"
"##MN-00 00 48 0105 01864 6031 440381 348283 207"
"148.795208"
"$GPGGA,190503,2548.6789,N,07957.2566,W,1,9,1.7,17,"
"##MN-00 00 50 0106 01867 6031 440753 348482 207"
"148.795255"
"$GPGGA,190507,2548.6811,N,07957.2574,W,1,9,1.7,17,"
"##MN-00 00 52 0107 01873 6031 441151 348565 207"
"148.795301"
"$GPGGA,190511,2548.6830,N,07957.2583,W,1,9,1.7,17,"
"##MN-00 00 48 0108 01874 6032 441526 348657 207"
"148.795347"
"$GPGGA,190515,2548.6852,N,07957.2592,W,1,9,1.7,16,"
"##MN-00 00 49 0108 01872 6032 441847 348788 207"
"148.795394"
"$GPGGA,190519,2548.6873,N,07957.2601,W,1,9,1.7,16,"
"##MN-00 00 51 0109 01877 6031 442126 348785 207"
"148.79544"
"$GPGGA,190523,2548.6895,N,07957.2610,W,1,9,1.7,16,"
"##MN-00 00 51 0110 01883 6032 442208 348892 207"
"148.795486"
"$GPGGA,190527,2548.6917,N,07957.2617,W,1,9,1.7,16,"
"##MN-00 00 51 0111 01883 6032 442418 348898 207"
"148.795532"
"$GPGGA,190531,2548.6940,N,07957.2624,W,1,9,1.7,16,"
"##MN-00 00 51 0112 01892 6031 442634 349000 207"
"148.795579"
"$GPGGA,190535,2548.6963,N,07957.2630,W,1,9,1.7,16,"
"##MN-00 00 52 0113 01895 6031 443012 349166 207"
"148.795625"
"$GPGGA,190539,2548.6985,N,07957.2635,W,1,9,1.7,16,"
"##MN-00 00 49 0114 01897 6031 443280 349199 207"
"148.795671"
"$GPGGA,190543,2548.7007,N,07957.2641,W,1,9,1.7,15,"
"##MN-00 00 50 0115 01904 6030 443356 349253 207"
"148.795718"
"$GPGGA,190547,2548.7029,N,07957.2646,W,1,9,1.7,15,"
"##MN-00 00 49 0115 01907 6030 443465 349264 207"
"148.795764"
"$GPGGA,190551,2548.7052,N,07957.2652,W,1,9,1.7,15,"
"##MN-00 00 47 0116 01910 6030 443612 349315 207"
"148.79581"
"$GPGGA,190555,2548.7074,N,07957.2656,W,1,9,1.7,15,"
"##MN-00 00 48 0117 01914 6029 443760 349387 207"
"148.795856"
"$GPGGA,190559,2548.7096,N,07957.2659,W,1,9,1.7,15,"
"##MN-00 00 45 0118 01919 6029 443875 349422 207"
"148.795903"
"$GPGGA,190603,2548.7119,N,07957.2664,W,1,9,1.7,15,"
"##MN-00 00 46 0118 01923 6028 443986 349444 207"
"148.795949"
"$GPGGA,190607,2548.7141,N,07957.2668,W,1,9,1.7,15,"
"##MN-00 00 49 0119 01925 6028 443997 349458 207"
"148.795995"
"$GPGGA,190611,2548.7162,N,07957.2671,W,1,9,1.7,15,"
"##MN-00 00 47 0120 01928 6027 444001 349455 207"
"148.796042"
"$GPGGA,190615,2548.7186,N,07957.2673,W,1,9,1.7,15,"
"##MN-00 00 47 0121 01933 6027 444036 349471 207"
"148.796088"
"$GPGGA,190619,2548.7209,N,07957.2677,W,1,9,1.7,14,"
"##MN-00 00 50 0121 01935 6026 444073 349480 207"
"148.796134"
"$GPGGA,190623,2548.7231,N,07957.2681,W,1,9,1.7,14,"
"##MN-00 00 49 0122 01937 6025 444094 349487 207"
"148.796181"
"$GPGGA,190627,2548.7253,N,07957.2684,W,1,9,1.7,14,"
"##MN-00 00 48 0123 01941 6025 444103 349491 207"
"148.796227"
"$GPGGA,190631,2548.7274,N,07957.2685,W,1,9,1.7,14,"
"##MN-00 00 47 0124 01945 6024 444110 349490 207"
"148.796273"
"$GPGGA,190635,2548.7298,N,07957.2685,W,1,9,1.7,14,"
"##MN-00 00 47 0124 01950 6023 444134 349503 207"
"148.796319"
"$GPGGA,190639,2548.7320,N,07957.2686,W,1,9,1.7,14,"
"##MN-00 00 49 0125 01955 6022 444162 349506 207"
"148.796366"
"$GPGGA,190643,2548.7342,N,07957.2689,W,1,9,1.7,14,"
"##MN-00 00 48 0126 01962 6021 444174 349512 207"
"148.796412"
"$GPGGA,190647,2548.7364,N,07957.2691,W,1,9,1.7,14,"
"##MN-00 00 46 0127 01966 6020 444212 349523 207"
"148.796458"
"$GPGGA,190651,2548.7385,N,07957.2693,W,1,9,1.7,14,"
"##MN-00 00 47 0127 01968 6019 444254 349535 207"
"148.796505"
"$GPGGA,190655,2548.7407,N,07957.2695,W,1,9,1.7,15,"
"##MN-00 00 46 0128 01973 6018 444270 349542 207"
"148.796551"
"$GPGGA,190659,2548.7426,N,07957.2699,W,1,9,1.7,15,"
"##MN-00 00 48 0129 01982 6017 444308 349552 207"
"148.796597"
"$GPGGA,190703,2548.7448,N,07957.2702,W,1,9,1.7,15,"
"##MN-00 00 46 0129 01980 6016 444329 349554 207"
"148.796643"
"$GPGGA,190707,2548.7469,N,07957.2704,W,1,9,1.7,15,"
"##MN-00 00 49 0130 01985 6015 444339 349558 207"
"148.79669"
"$GPGGA,190711,2548.7490,N,07957.2710,W,1,9,1.7,15,"
"##MN-00 00 48 0131 01992 6014 444336 349557 207"
"148.796736"
"$GPGGA,190715,2548.7509,N,07957.2715,W,1,9,1.7,15,"
"##MN-00 00 50 0131 01996 6012 444357 349562 207"
"148.796794"
"$GPGGA,190719,2548.7531,N,07957.2721,W,1,9,1.7,15,"
"##MN-00 00 46 0132 01999 6011 444383 349568 207"
"148.79684"
"$GPGGA,190723,2548.7551,N,07957.2727,W,1,9,1.7,16,"
"##MN-00 00 46 0133 01992 6010 444400 349568 207"
"148.796887"
"$GPGGA,190728,2548.7577,N,07957.2738,W,1,9,1.7,16,"
"##MN-00 00 45 0134 01993 6009 444401 349577 207"
"148.796933"
"$GPGGA,190732,2548.7596,N,07957.2747,W,1,9,1.7,16,"
"##MN-00 00 46 0135 01992 6008 444388 349573 207"
"148.796979"
"$GPGGA,190736,2548.7618,N,07957.2757,W,1,9,1.7,16,"
"##MN-00 00 47 0135 01994 6006 444383 349571 207"
"148.797025"
"$GPGGA,190740,2548.7639,N,07957.2765,W,1,9,1.7,16,"
"##MN-00 00 46 0136 01994 6005 444378 349569 207"
"148.797072"
"$GPGGA,190743,2548.7657,N,07957.2771,W,1,9,1.7,16,"
"##MN-00 00 47 0137 01997 6004 444376 349568 207"
"148.797118"
"$GPGGA,190748,2548.7686,N,07957.2780,W,1,9,1.7,15,"
"##MN-00 00 48 0138 01995 6002 444376 349568 207"
"148.797164"
"$GPGGA,190752,2548.7708,N,07957.2787,W,1,9,1.7,15,"
"##MN-00 00 48 0139 02001 6001 444387 349574 207"
"148.797211"
"$GPGGA,190756,2548.7730,N,07957.2794,W,1,9,1.7,15,"
"##MN-00 00 48 0139 02002 6000 444400 349576 207"
"148.797257"
"$GPGGA,190800,2548.7754,N,07957.2800,W,1,9,1.7,15,"
"##MN+00 00 46 0140 02002 5998 444402 349574 207"
"148.797303"
"$GPGGA,190804,2548.7777,N,07957.2805,W,1,9,1.7,15,"
"##MN+00 00 58 0141 02006 5997 444405 349575 207"
"148.79735"
"$GPGGA,190808,2548.7802,N,07957.2809,W,1,9,1.7,15,"
"##MN+00 00 53 0142 02005 5995 444410 349577 207"
"148.797396"
"$GPGGA,190812,2548.7824,N,07957.2813,W,1,9,1.7,14,"
"##MN-00 00 49 0143 02007 5994 444410 349577 207"
"148.797442"
"$GPGGA,190816,2548.7849,N,07957.2816,W,1,9,1.7,14,"
"##MN-00 00 47 0143 02007 5992 444412 349579 207"
"148.797488"
"$GPGGA,190820,2548.7870,N,07957.2821,W,1,9,1.7,14,"
"##MN-00 00 46 0144 02010 5991 444417 349580 207"
"148.797535"
"$GPGGA,190824,2548.7894,N,07957.2825,W,1,9,1.7,14,"
"##MN-00 00 46 0145 02007 5989 444418 349581 207"
"148.797581"
"$GPGGA,190828,2548.7917,N,07957.2830,W,1,9,1.7,14,"
"##MN-00 00 44 0146 02004 5988 444413 349579 207"
"148.797627"
"$GPGGA,190832,2548.7942,N,07957.2833,W,1,9,1.7,14,"
"##MN-00 00 45 0146 02005 5986 444402 349576 207"
"148.797674"
"$GPGGA,190836,2548.7968,N,07957.2836,W,1,9,1.7,14,"
"##MN-00 00 41 0147 02001 5984 444399 349576 207"
"148.79772"
"$GPGGA,190840,2548.7993,N,07957.2839,W,1,9,1.7,14,"
"##MN-00 00 45 0148 01998 5983 444401 349577 207"
"148.797766"
"$GPGGA,190844,2548.8018,N,07957.2843,W,1,9,1.7,14,"
"##MN-00 00 45 0149 01997 5981 444405 349578 207"
"148.797812"
"$GPGGA,190848,2548.8044,N,07957.2847,W,1,9,1.7,14,"
"##MN-00 00 44 0149 01999 5980 444400 349577 207"
"148.797859"
"$GPGGA,190852,2548.8069,N,07957.2850,W,1,9,1.7,14,"
"##MN-00 00 46 0150 02001 5978 444397 349577 207"
"148.797905"
"$GPGGA,190856,2548.8096,N,07957.2852,W,1,9,1.7,14,"
"##MN-00 00 45 0151 02003 5977 444401 349579 207"
"148.797951"
"$GPGGA,190900,2548.8120,N,07957.2854,W,1,9,1.7,14,"
"##MN-00 00 44 0152 02004 5974 444399 349578 207"
"148.797998"
"$GPGGA,190904,2548.8145,N,07957.2857,W,1,9,1.7,14,"
"##MN-00 00 43 0152 02006 5973 444405 349579 207"
"148.798044"
"$GPGGA,190908,2548.8170,N,07957.2858,W,1,9,1.7,14,"
"##MN-00 00 43 0153 02005 5972 444413 349581 207"
"148.79809"
"$GPGGA,190912,2548.8192,N,07957.2861,W,1,9,1.7,14,"
"##MN-00 00 43 0154 02002 5970 444409 349580 207"
"148.798137"
"$GPGGA,190916,2548.8216,N,07957.2865,W,1,9,1.7,14,"
"##MN-00 00 44 0155 02002 5968 444408 349580 207"
"148.798183"
"$GPGGA,190920,2548.8238,N,07957.2867,W,1,9,1.7,14,"
"##MN-00 00 43 0156 02000 5966 444401 349581 207"
"148.798229"
"$GPGGA,190924,2548.8260,N,07957.2870,W,1,9,1.7,14,"
"##MN+00 00 44 0156 02002 5965 444408 349581 207"
"148.798275"
"$GPGGA,190928,2548.8282,N,07957.2873,W,1,9,1.7,14,"
"##MN+00 00 43 0157 02000 5963 444407 349579 207"
"148.798322"
"$GPGGA,190932,2548.8304,N,07957.2876,W,1,9,1.7,14,"
"##MN+00 00 43 0158 01998 5962 444405 349579 207"
"148.798368"
"$GPGGA,190936,2548.8325,N,07957.2879,W,1,9,1.7,14,"
"##MN-00 00 45 0159 01995 5960 444401 349578 207"
"148.798414"
"$GPGGA,190940,2548.8347,N,07957.2883,W,1,9,1.7,14,"
"##MN-00 00 46 0159 01997 5958 444412 349580 207"
"148.798461"
"#increment_net"
"$GPGGA,190944,2548.8368,N,07957.2887,W,1,9,1.7,14,"
"##MN-00 00 46 0160 01997 5956 444406 349581 207"
"148.798507"
"$GPGGA,190948,2548.8390,N,07957.2891,W,1,9,1.7,14,"
"##MN-00 00 46 0161 01994 5955 444408 349581 207"
"148.798553"
"$GPGGA,190952,2548.8411,N,07957.2894,W,1,9,1.7,14,"
"##MN-00 00 46 0162 01996 5953 444407 349582 207"
"148.7986"
"$GPGGA,190956,2548.8434,N,07957.2899,W,1,9,1.7,14,"
"##MN-00 00 45 0163 01992 5951 444402 349581 207"
"148.798646"
"$GPGGA,191000,2548.8455,N,07957.2904,W,1,9,1.7,14,"
"##MN-00 00 46 0163 01993 5950 444400 349580 207"
"148.798692"
"$GPGGA,191004,2548.8477,N,07957.2908,W,1,9,1.7,14,"
"##MN-00 00 45 0164 01994 5948 444399 349578 207"
"148.798738"
"$GPGGA,191008,2548.8499,N,07957.2911,W,1,9,1.7,14,"
"##MN-00 00 46 0165 01992 5946 444391 349578 207"
"148.798785"
"$GPGGA,191012,2548.8521,N,07957.2917,W,1,9,1.7,14,"
"##MN-00 00 46 0166 01995 5944 444396 349580 207"
"148.798831"
"$GPGGA,191016,2548.8545,N,07957.2923,W,1,9,1.7,14,"
"##MN-00 00 44 0166 01992 5943 444398 349580 207"
"148.798877"
"$GPGGA,191020,2548.8566,N,07957.2928,W,1,9,1.7,14,"
"##MN-00 00 47 0167 01992 5941 444392 349580 207"
"148.798924"
"$GPGGA,191024,2548.8589,N,07957.2934,W,1,9,1.7,14,"
"##MN-00 00 46 0168 01992 5939 444399 349582 207"
"148.79897"
"$GPGGA,191028,2548.8611,N,07957.2937,W,1,9,1.7,14,"
"##MN-00 00 45 0169 01991 5938 444405 349582 207"
"148.799016"
"$GPGGA,191032,2548.8633,N,07957.2942,W,1,9,1.7,14,"
"##MN-00 00 47 0170 01992 5935 444405 349583 207"
"148.799062"
"$GPGGA,191036,2548.8657,N,07957.2948,W,1,9,1.7,14,"
"##MN+00 00 48 0170 01992 5934 444413 349585 207"
"148.799109"
"$GPGGA,191040,2548.8679,N,07957.2953,W,1,9,1.7,14,"
"##MN+00 00 54 0171 01992 5932 444412 349584 207"
"148.799155"
"$GPGGA,191044,2548.8701,N,07957.2959,W,1,9,1.7,14,"
"##MN+00 00 51 0172 01993 5930 444419 349587 207"
"148.799201"
"$GPGGA,191048,2548.8725,N,07957.2965,W,1,9,1.7,14,"
"##MN+00 00 50 0173 01990 5929 444425 349588 207"
"148.799248"
"$GPGGA,191052,2548.8747,N,07957.2973,W,1,9,1.7,14,"
"##MN+00 00 46 0173 01992 5927 444425 349589 207"
"148.799294"
"$GPGGA,191056,2548.8770,N,07957.2980,W,1,9,1.7,14,"
"##MN+00 00 47 0174 01993 5925 444426 349589 207"
"148.79934"
"#increment_net"
"$GPGGA,191100,2548.8792,N,07957.2986,W,1,9,1.7,14,"
"##MN-00 00 45 0175 01993 5923 444431 349590 207"
"148.799387"
"$GPGGA,191104,2548.8813,N,07957.2993,W,1,9,1.7,14,"
"##MN-00 00 45 0176 01991 5921 444430 349591 207"
"148.799433"
"$GPGGA,191108,2548.8839,N,07957.3000,W,1,9,1.7,14,"
"##MN-00 00 45 0177 01992 5919 444442 349594 207"
"148.799479"
"$GPGGA,191112,2548.8859,N,07957.3007,W,1,9,1.7,14,"
"##MN-00 00 46 0178 01991 5918 444450 349596 207"
"148.799525"
"$GPGGA,191116,2548.8882,N,07957.3014,W,1,9,1.7,14,"
"##MN-00 00 49 0178 01989 5916 444458 349599 207"
"148.799572"
"$GPGGA,191120,2548.8911,N,07957.3025,W,1,9,1.7,14,"
"##MN-00 00 45 0179 01993 5914 444459 349608 207"
"148.799618"
"$GPGGA,191124,2548.8939,N,07957.3036,W,1,9,1.7,15,"
"##MN-00 00 46 0180 01992 5912 444453 349607 207"
"148.799664"
"$GPGGA,191128,2548.8965,N,07957.3045,W,1,9,1.7,15,"
"##MN-00 00 47 0181 01992 5910 444462 349608 207"
"148.799711"
"$GPGGA,191132,2548.8987,N,07957.3053,W,1,9,1.7,16,"
"##MN+00 00 44 0182 01993 5909 444462 349608 207"
"148.799757"
"$GPGGA,191136,2548.9011,N,07957.3060,W,1,9,1.7,16,"
"##MN+00 00 54 0182 01990 5907 444458 349606 207"
"148.799803"
"$GPGGA,191140,2548.9034,N,07957.3069,W,1,9,1.7,17,"
"##MN+00 00 50 0183 01990 5905 444455 349606 207"
"148.79985"
"$GPGGA,191144,2548.9057,N,07957.3078,W,1,9,1.7,17,"
"##MN-00 00 47 0184 01991 5903 444456 349607 207"
"148.799896"
"$GPGGA,191148,2548.9080,N,07957.3086,W,1,9,1.7,17,"
"##MN-00 00 44 0185 01992 5901 444460 349606 207"
"148.799942"
"$GPGGA,191152,2548.9102,N,07957.3096,W,1,9,1.7,17,"
"##MN-00 00 45 0185 01990 5900 444453 349601 207"
"148.80"
"$GPGGA,191157,2548.9133,N,07957.3107,W,1,9,1.7,17,"
"##MN-00 00 45 0186 01991 5898 444444 349594 207"
"148.800046"
"$GPGGA,191200,2548.9155,N,07957.3118,W,1,8,1.7,17,"
"##MN-00 00 44 0187 01990 5896 444437 349593 207"
"148.800093"
"$GPGGA,191205,2548.9171,N,07957.3123,W,1,9,1.7,17,"
"##MN-00 00 44 0188 01992 5894 444433 349592 207"
"148.800139"
"$GPGGA,191208,2548.9193,N,07957.3132,W,1,9,1.7,17,"
"##MN+00 00 45 0189 01988 5893 444429 349589 207"
"148.800185"
"$GPGGA,191213,2548.9214,N,07957.3140,W,1,9,1.7,17,"
"##MN+00 00 44 0190 01991 5891 444416 349587 207"
"148.800231"
"$GPGGA,191217,2548.9249,N,07957.3157,W,1,9,1.7,17,"
"##MN+00 00 45 0191 01990 5889 444422 349587 207"
"148.800278"
"$GPGGA,191221,2548.9275,N,07957.3168,W,1,8,1.7,17,"
"##MN-00 00 44 0192 01989 5887 444421 349588 207"
"148.800324"
"#increment_net"
"$GPGGA,191225,2548.9297,N,07957.3179,W,1,9,1.7,17,"
"##MN-00 00 44 0193 01987 5885 444424 349588 207"
"148.80037"
"$GPGGA,191229,2548.9318,N,07957.3187,W,1,8,2.8,17,"
"##MN-00 00 44 0193 01985 5883 444427 349590 207"
"148.800417"
"$GPGGA,191233,2548.9341,N,07957.3199,W,1,8,2.8,17,"
"##MN-00 00 44 0194 01988 5882 444426 349591 207"
"148.800463"
"$GPGGA,191237,2548.9368,N,07957.3212,W,1,9,1.7,17,"
"##MN-00 00 43 0195 01986 5880 444431 349591 207"
"148.800509"
"$GPGGA,191241,2548.9393,N,07957.3223,W,1,9,1.7,18,"
"##MN-00 00 43 0196 01986 5878 444435 349593 207"
"148.800556"
"$GPGGA,191245,2548.9411,N,07957.3230,W,1,9,1.7,18,"
"##MN-00 00 45 0197 01985 5877 444422 349588 207"
"148.800602"
"$GPGGA,191249,2548.9437,N,07957.3242,W,1,9,1.7,18,"
"##MN-00 00 44 0198 01989 5875 444417 349587 207"
"148.800648"
"$GPGGA,191253,2548.9458,N,07957.3252,W,1,9,1.7,18,"
"##MN-00 00 43 0199 01985 5873 444422 349588 207"
"148.800694"
"$GPGGA,191257,2548.9485,N,07957.3266,W,1,9,1.7,18,"
"##MN-00 00 45 0200 01984 5871 444427 349590 207"
"148.800741"
"$GPGGA,191301,2548.9510,N,07957.3277,W,1,9,1.7,18,"
"##MN-00 00 45 0200 01985 5870 444425 349589 207"
"148.800787"
"$GPGGA,191305,2548.9538,N,07957.3289,W,1,9,1.7,19,"
"##MN-00 00 45 0201 01985 5868 444417 349588 207"
"148.800833"
"$GPGGA,191309,2548.9561,N,07957.3299,W,1,9,1.7,19,"
"##MN-00 00 45 0202 01985 5866 444415 349587 207"
"148.80088"
"$GPGGA,191313,2548.9583,N,07957.3310,W,1,9,1.7,19,"
"##MN-00 00 44 0203 01983 5864 444407 349585 207"
"148.800926"
"$GPGGA,191317,2548.9607,N,07957.3321,W,1,9,1.7,19,"
"##MN+00 00 44 0204 01982 5862 444411 349586 207"
"148.800972"
"$GPGGA,191321,2548.9629,N,07957.3332,W,1,9,1.7,19,"
"##MN+00 00 54 0205 01987 5861 444418 349586 207"
"148.801019"
"$GPGGA,191325,2548.9648,N,07957.3342,W,1,8,2.7,19,"
"##MN+00 00 51 0206 01986 5859 444416 349586 207"
"148.801065"
"$GPGGA,191329,2548.9669,N,07957.3353,W,1,9,1.7,19,"
"##MN-00 00 48 0207 01985 5857 444411 349585 207"
"148.801111"
"$GPGGA,191333,2548.9688,N,07957.3363,W,1,8,2.7,18,"
"##MN-00 00 46 0208 01985 5856 444408 349583 207"
"148.801157"
"$GPGGA,191337,2548.9709,N,07957.3372,W,1,8,2.7,18,"
"##MN-00 00 45 0209 01987 5854 444415 349585 207"
"148.801204"
"#increment_net"
"$GPGGA,191341,2548.9740,N,07957.3386,W,1,9,1.7,17,"
"##MN-00 00 45 0209 01984 5852 444419 349586 207"
"148.80125"
"$GPGGA,191345,2548.9764,N,07957.3400,W,1,9,1.7,17,"
"##MN-00 00 47 0210 01985 5851 444422 349587 207"
"148.801296"
"$GPGGA,191349,2548.9792,N,07957.3411,W,1,9,1.7,17,"
"##MN-00 00 47 0211 01985 5849 444426 349589 207"
"148.801343"
"$GPGGA,191353,2548.9818,N,07957.3425,W,1,9,1.7,17,"
"##MN-00 00 44 0212 01984 5847 444426 349590 207"
"148.801389"
"$GPGGA,191357,2548.9845,N,07957.3439,W,1,9,1.7,17,"
"##MN-00 00 45 0213 01986 5845 444425 349587 207"
"148.801435"
"$GPGGA,191401,2548.9871,N,07957.3452,W,1,9,1.7,18,"
"##MN-00 00 44 0214 01989 5844 444425 349589 207"
"148.801481"
"$GPGGA,191405,2548.9894,N,07957.3468,W,1,9,1.7,18,"
"##MN-00 00 44 0215 01986 5842 444423 349589 207"
"148.801528"
"$GPGGA,191409,2548.9919,N,07957.3480,W,1,9,1.7,18,"
"##MN-00 00 45 0216 01986 5840 444421 349588 207"
"148.801574"
"$GPGGA,191413,2548.9941,N,07957.3493,W,1,9,1.7,18,"
"##MN-00 00 46 0217 01986 5838 444418 349587 207"
"148.80162"
"$GPGGA,191417,2548.9966,N,07957.3505,W,1,9,1.7,18,"
"##MN-00 00 45 0218 01986 5837 444416 349586 207"
"148.801667"
"$GPGGA,191421,2548.9990,N,07957.3519,W,1,9,1.7,18,"
"##MN-00 00 45 0219 01983 5835 444413 349586 207"
"148.801713"
"$GPGGA,191425,2549.0012,N,07957.3530,W,1,9,1.7,18,"
"##MN+00 00 45 0220 01985 5833 444409 349585 207"
"148.801759"
"$GPGGA,191429,2549.0036,N,07957.3542,W,1,9,1.7,18,"
"##MN+00 00 45 0221 01985 5832 444404 349584 207"
"148.801806"
"$GPGGA,191433,2549.0059,N,07957.3555,W,1,9,1.7,18,"
"##MN+00 00 45 0222 01986 5830 444409 349584 207"
"148.801852"
"$GPGGA,191437,2549.0084,N,07957.3569,W,1,9,1.7,18,"
"##MN-00 00 45 0223 01985 5828 444412 349585 207"
"148.801898"
"$GPGGA,191441,2549.0107,N,07957.3581,W,1,9,1.7,18,"
"##MN+00 00 45 0224 01986 5826 444408 349584 207"
"148.801944"
"$GPGGA,191445,2549.0132,N,07957.3595,W,1,9,1.7,18,"
"##MN+00 00 56 0225 01988 5825 444417 349585 207"
"148.801991"
"#increment_net"
"$GPGGA,191449,2549.0157,N,07957.3609,W,1,9,1.7,18,"
"##MN+00 00 53 0226 01986 5823 444418 349585 207"
"148.802037"
"$GPGGA,191453,2549.0181,N,07957.3624,W,1,9,1.7,18,"
"##MN-00 00 51 0227 01989 5821 444426 349587 207"
"148.802083"
"$GPGGA,191457,2549.0206,N,07957.3639,W,1,9,1.7,18,"
"##MN-00 00 49 0228 01995 5820 444440 349590 207"
"148.80213"
"$GPGGA,191501,2549.0229,N,07957.3656,W,1,9,1.7,18,"
"##MN-00 00 48 0229 01997 5818 444434 349589 207"
"148.802176"
"$GPGGA,191505,2549.0255,N,07957.3671,W,1,9,1.7,17,"
"##MN-00 00 45 0230 02000 5816 444440 349589 207"
"148.802222"
"$GPGGA,191509,2549.0280,N,07957.3686,W,1,9,1.7,17,"
"##MN-00 00 44 0232 01999 5814 444449 349591 207"
"148.802269"
"$GPGGA,191513,2549.0304,N,07957.3703,W,1,9,1.7,17,"
"##MN-00 00 44 0233 01995 5812 444449 349591 207"
"148.802315"
"$GPGGA,191517,2549.0327,N,07957.3718,W,1,9,1.7,17,"
"##MN-00 00 45 0234 01994 5811 444439 349589 207"
"148.802361"
"$GPGGA,191521,2549.0352,N,07957.3735,W,1,9,1.7,17,"
"##MN-00 00 45 0235 01986 5809 444423 349586 207"
"148.802407"
"$GPGGA,191525,2549.0374,N,07957.3750,W,1,9,1.7,17,"
"##MN-00 00 46 0237 01985 5808 444402 349582 207"
"148.802454"
"$GPGGA,191529,2549.0399,N,07957.3766,W,1,9,1.7,16,"
"##MN-00 00 44 0238 01978 5806 444371 349574 207"
"148.8025"
"$GPGGA,191533,2549.0421,N,07957.3783,W,1,9,1.7,16,"
"##MN-00 00 44 0239 01973 5804 444336 349570 207"
"148.802546"
"$GPGGA,191537,2549.0445,N,07957.3798,W,1,9,1.7,16,"
"##MN-00 00 45 0241 01966 5803 444309 349559 207"
"148.802593"
"$GPGGA,191541,2549.0468,N,07957.3815,W,1,9,1.7,16,"
"##MN-00 00 44 0242 01963 5801 444272 349543 207"
"148.802639"
"$GPGGA,191545,2549.0492,N,07957.3829,W,1,9,1.7,16,"
"##MN-00 00 43 0243 01956 5800 444227 349535 207"
"148.802685"
"$GPGGA,191549,2549.0515,N,07957.3844,W,1,9,1.7,15,"
"##MN-00 00 42 0245 01947 5798 444155 349507 207"
"148.802732"
"$GPGGA,191553,2549.0539,N,07957.3862,W,1,9,1.7,15,"
"##MN-00 00 43 0246 01943 5796 444062 349486 207"
"148.802778"
"$GPGGA,191557,2549.0562,N,07957.3877,W,1,9,1.7,15,"
"##MN-00 00 44 0247 01935 5795 444018 349472 207"
"148.802824"
"$GPGGA,191601,2549.0584,N,07957.3892,W,1,9,1.7,15,"
"##MN-00 00 49 0249 01927 5793 443805 349415 207"
"148.80287"
"$GPGGA,191605,2549.0608,N,07957.3909,W,1,9,1.7,15,"
"##MN-00 00 46 0250 01920 5791 443700 349380 207"
"148.802917"
"$GPGGA,191609,2549.0630,N,07957.3924,W,1,9,1.7,15,"
"##MN-00 00 45 0251 01914 5790 443615 349342 207"
"148.802963"
"$GPGGA,191613,2549.0655,N,07957.3939,W,1,9,1.7,15,"
"##MN-00 00 44 0253 01908 5789 443530 349339 207"
"148.803009"
"$GPGGA,191617,2549.0677,N,07957.3956,W,1,9,1.7,14,"
"##MN-00 00 43 0254 01901 5787 443364 349283 207"
"148.803056"
"$GPGGA,191621,2549.0701,N,07957.3971,W,1,9,1.7,14,"
"##MN-00 00 45 0255 01896 5785 443131 349225 207"
"148.803102"
"$GPGGA,191625,2549.0724,N,07957.3988,W,1,8,1.7,14,"
"##MN-00 00 45 0257 01889 5784 442902 349158 207"
"148.803148"
"$GPGGA,191629,2549.0746,N,07957.4007,W,1,9,1.7,14,"
"##MN-00 00 45 0258 01878 5782 442577 349074 207"
"148.803194"
"$GPGGA,191633,2549.0768,N,07957.4025,W,1,9,1.7,14,"
"##MN-00 00 44 0260 01874 5781 442268 348988 207"
"148.803252"
"$GPGGA,191637,2549.0789,N,07957.4044,W,1,9,1.7,14,"
"##MN-00 00 44 0261 01865 5779 441560 348797 207"
"148.803299"
"$GPGGA,191642,2549.0818,N,07957.4064,W,1,9,1.7,15,"
"##MN-00 00 46 0262 01861 5778 441023 348700 207"
"148.803345"
"$GPGGA,191646,2549.0842,N,07957.4079,W,1,9,1.7,15,"
"##MN-00 00 45 0264 01852 5776 440495 348425 207"
"148.803391"
"$GPGGA,191650,2549.0865,N,07957.4093,W,1,9,1.7,15,"
"##MN-00 00 49 0265 01849 5775 440120 348327 207"
