" Tow: 1ws-a   RVWS/WS1406"
" Date: 05/28/2014"
" Temperature Probe #  2597    Conductivity Probe #  2870"
" Pressure Probe #  109"
" Flow Meter Calibration  4.71 (m/count)  "
"148.723391"
"$GPGGA,172135,2542.9323,N,08000.1055,W,1,9,2.0,12,"
"##MN-00 00 00 0084 01799 7991 391974 923702 209"
"148.723437"
"$GPGGA,172142,2542.9370,N,08000.1174,W,1,8,2.0,12,"
"##MN-00 00 00 0084 01801 7994 385609 925506 209"
"148.723484"
"$GPGGA,172146,2542.9395,N,08000.1239,W,1,9,2.0,12,"
"##MN-00 00 00 0084 01802 7998 385448 925506 209"
"148.72353"
"$GPGGA,172150,2542.9420,N,08000.1301,W,1,9,2.0,11,"
"##MN-00 00 00 0084 01802 8000 382851 925507 209"
"148.723576"
"$GPGGA,172154,2542.9445,N,08000.1363,W,1,8,2.0,11,"
"##MN-00 00 00 0084 01802 8003 382919 925506 209"
"148.723623"
"$GPGGA,172158,2542.9471,N,08000.1424,W,1,9,2.0,11,"
"##MN-00 00 00 0084 01800 8007 381785 925506 209"
"148.723669"
"$GPGGA,172202,2542.9495,N,08000.1488,W,1,9,2.0,12,"
"##MN-00 00 00 0084 01801 8009 380464 925507 209"
"148.723715"
"$GPGGA,172206,2542.9521,N,08000.1551,W,1,9,2.0,12,"
"##MN-00 00 00 0084 01804 8012 380363 925506 209"
"148.723762"
"$GPGGA,172210,2542.9550,N,08000.1618,W,1,9,2.0,12,"
"##MN-00 00 00 0084 01803 8015 381904 925506 209"
"148.723808"
"$GPGGA,172214,2542.9576,N,08000.1680,W,1,9,2.0,12,"
"##MN-00 00 00 0084 01801 8018 382647 925506 209"
"148.723854"
"$GPGGA,172218,2542.9597,N,08000.1743,W,1,9,2.0,12,"
"##MN-00 00 00 0084 01802 8020 382152 925506 209"
"148.7239"
"$GPGGA,172222,2542.9626,N,08000.1808,W,1,9,2.0,12,"
"##MN-00 00 00 0084 01803 8022 382717 925506 209"
"148.723947"
"#resetparam"
"$GPGGA,172226,2542.9655,N,08000.1873,W,1,9,2.0,12,"
"##MN-00 00 00 0084 01803 8025 381661 925506 209"
"148.723993"
"$GPGGA,172229,2542.9673,N,08000.1925,W,1,9,2.0,12,"
"##MN-00 00 00 0084 01804 8028 380269 925506 209"
"148.724039"
"$GPGGA,172235,2542.9713,N,08000.2023,W,1,9,2.0,12,"
"##MN-00 00 00 0084 01804 8030 381551 925506 209"
"148.724086"
"$GPGGA,172239,2542.9735,N,08000.2089,W,1,9,2.0,12,"
"##MN-00 00 00 0084 01805 8033 383195 925506 209"
"148.724132"
"$GPGGA,172243,2542.9760,N,08000.2153,W,1,9,2.0,12,"
"##MN-00 00 00 0084 01804 8035 384676 925506 209"
"148.724178"
"$GPGGA,172247,2542.9785,N,08000.2218,W,1,9,2.0,12,"
"##MN-00 00 00 0084 01803 8037 385341 925506 209"
"148.724225"
"$GPGGA,172251,2542.9809,N,08000.2284,W,1,9,2.0,12,"
"##MN-00 00 00 0084 01804 8039 385410 925506 209"
"148.724271"
"$GPGGA,172255,2542.9832,N,08000.2346,W,1,7,2.1,12,"
"##MN-00 00 00 0084 01803 8042 384286 925506 209"
"148.724329"
"$GPGGA,172259,2542.9854,N,08000.2413,W,1,9,2.0,13,"
"##MN-00 00 00 0084 01806 8044 382560 925505 209"
"148.724375"
"$GPGGA,172303,2542.9881,N,08000.2475,W,1,8,2.0,13,"
"##MN-00 00 00 0084 01805 8046 383380 925507 209"
"148.724421"
"$GPGGA,172307,2542.9908,N,08000.2537,W,1,9,2.0,13,"
"##MN-00 00 00 0084 01803 8048 383023 925506 209"
"148.724468"
"$GPGGA,172311,2542.9930,N,08000.2601,W,1,8,2.0,13,"
"##MN-00 00 05 0084 01805 8050 383289 925506 209"
"148.724514"
"$GPGGA,172315,2542.9953,N,08000.2666,W,1,8,2.0,14,"
"##MN-00 00 05 0084 01803 8052 385225 925506 209"
"148.72456"
"$GPGGA,172319,2542.9977,N,08000.2731,W,1,8,2.0,14,"
"##MN-00 00 00 0084 01802 8054 384335 925506 209"
"148.724607"
"$GPGGA,172323,2543.0002,N,08000.2794,W,1,8,2.0,14,"
"##MN-00 00 00 0084 01804 8057 384188 925506 209"
"148.724653"
"$GPGGA,172327,2543.0031,N,08000.2859,W,1,8,2.0,14,"
"##MN-00 00 36 0084 01805 8058 384967 925506 209"
"148.724699"
"$GPGGA,172331,2543.0056,N,08000.2926,W,1,9,2.0,14,"
"##MN-00 00 57 0084 01804 8060 385095 925506 209"
"148.724745"
"$GPGGA,172335,2543.0081,N,08000.2991,W,1,8,2.0,14,"
"##MN-00 00 77 0084 01806 8062 385073 925506 209"
"148.724792"
"$GPGGA,172339,2543.0106,N,08000.3056,W,1,8,2.0,14,"
"##MN-00 00 90 0084 01803 8064 384382 925506 209"
"148.724838"
"$GPGGA,172343,2543.0132,N,08000.3122,W,1,9,2.0,14,"
"##MN-00 00 90 0084 01803 8066 382994 925507 209"
"148.724884"
"$GPGGA,172347,2543.0157,N,08000.3190,W,1,9,2.0,14,"
"##MN-00 00 90 0084 01805 8068 383391 925507 209"
"148.724931"
"$GPGGA,172351,2543.0182,N,08000.3262,W,1,8,2.0,14,"
"##MN-00 00 90 0084 01803 8070 382600 925507 209"
"148.724977"
"$GPGGA,172355,2543.0206,N,08000.3331,W,1,8,2.0,13,"
"##MN-00 00 90 0084 01805 8072 381591 925506 209"
"148.725023"
"$GPGGA,172359,2543.0232,N,08000.3393,W,1,8,2.0,13,"
"##MN-00 00 90 0084 01805 8074 382885 925507 209"
"148.725069"
"$GPGGA,172403,2543.0255,N,08000.3459,W,1,9,2.0,12,"
"##MN-00 00 90 0084 01804 8076 382776 925507 209"
"148.725116"
"$GPGGA,172407,2543.0279,N,08000.3523,W,1,8,2.0,12,"
"##MN-00 00 90 0084 01805 8077 384440 925507 209"
"148.725162"
"$GPGGA,172411,2543.0305,N,08000.3585,W,1,8,2.0,12,"
"##MN-00 00 90 0084 01803 8079 384198 925506 209"
"148.725208"
"$GPGGA,172415,2543.0327,N,08000.3650,W,1,8,2.0,12,"
"##MN-00 00 90 0084 01805 8081 384162 925507 209"
"148.725255"
"$GPGGA,172419,2543.0351,N,08000.3715,W,1,8,2.1,12,"
"##MN-00 00 90 0084 01804 8083 384986 925506 209"
"148.725301"
"$GPGGA,172423,2543.0374,N,08000.3784,W,1,8,2.0,12,"
"##MN-00 00 90 0084 01806 8084 385038 925507 209"
"148.725347"
"$GPGGA,172427,2543.0398,N,08000.3849,W,1,8,2.0,12,"
"##MN-00 00 90 0084 01806 8086 383140 925506 210"
"148.725394"
"$GPGGA,172431,2543.0424,N,08000.3913,W,1,8,2.0,12,"
"##MN-00 00 83 0084 01804 8088 382823 925506 209"
"148.72544"
"$GPGGA,172435,2543.0448,N,08000.3978,W,1,8,2.0,12,"
"##MN-00 00 73 0084 01808 8090 383266 925507 209"
"148.725486"
"$GPGGA,172439,2543.0475,N,08000.4042,W,1,9,2.0,13,"
"##MN-00 00 69 0084 01804 8092 382315 925506 209"
"148.725532"
"$GPGGA,172443,2543.0500,N,08000.4111,W,1,9,2.0,13,"
"##MN-00 00 78 0084 01805 8093 382012 925506 209"
"148.725579"
"$GPGGA,172447,2543.0526,N,08000.4180,W,1,9,2.0,13,"
"##MN-00 00 79 0084 01805 8095 383201 925506 210"
"148.725625"
"$GPGGA,172451,2543.0550,N,08000.4245,W,1,8,2.0,13,"
"##MN-00 00 81 0084 01806 8097 383302 925506 209"
"148.725671"
"$GPGGA,172455,2543.0573,N,08000.4315,W,1,7,2.0,13,"
"##MN-00 00 82 0084 01804 8099 382675 925506 210"
"148.725718"
"$GPGGA,172459,2543.0593,N,08000.4361,W,1,8,2.0,13,"
"##MN-00 00 83 0084 01804 8101 381542 925506 209"
"148.725764"
"$GPGGA,172503,2543.0625,N,08000.4444,W,1,8,2.0,13,"
"##MN-00 00 83 0084 01807 8102 380777 925506 210"
"148.72581"
"$GPGGA,172507,2543.0649,N,08000.4509,W,1,9,2.0,13,"
"##MN-00 00 86 0084 01805 8105 379529 925506 210"
"148.725856"
"$GPGGA,172511,2543.0674,N,08000.4574,W,1,9,2.0,13,"
"##MN-00 00 86 0084 01806 8106 379637 925507 210"
"148.725903"
"$GPGGA,172515,2543.0699,N,08000.4639,W,1,9,2.0,13,"
"##MN-00 00 87 0084 01804 8108 380995 925507 210"
"148.725949"
"$GPGGA,172519,2543.0727,N,08000.4704,W,1,9,2.0,13,"
"##MN-00 00 89 0084 01804 8110 381460 925507 210"
"148.725995"
"$GPGGA,172523,2543.0749,N,08000.4769,W,1,8,2.0,13,"
"##MN-00 00 90 0084 01806 8111 380630 925506 210"
"148.726042"
"$GPGGA,172527,2543.0775,N,08000.4837,W,1,9,2.0,13,"
"##MN-00 00 90 0084 01806 8113 381001 925507 210"
"148.726088"
"$GPGGA,172531,2543.0806,N,08000.4899,W,1,9,2.0,13,"
"##MN-00 00 90 0084 01806 8115 381303 925507 210"
"148.726134"
"$GPGGA,172535,2543.0831,N,08000.4960,W,1,8,2.0,12,"
"##MN-00 00 90 0084 01803 8116 381997 925506 210"
"148.726181"
"$GPGGA,172539,2543.0855,N,08000.5025,W,1,9,2.0,12,"
"##MN-00 00 90 0084 01805 8118 382600 925506 210"
"148.726227"
"$GPGGA,172543,2543.0878,N,08000.5092,W,1,9,2.0,12,"
"##MN-00 00 90 0084 01805 8120 384168 925507 210"
"148.726273"
"$GPGGA,172547,2543.0902,N,08000.5163,W,1,9,2.0,12,"
"##MN-00 00 90 0084 01805 8121 384269 925506 210"
"148.726319"
"$GPGGA,172551,2543.0927,N,08000.5229,W,1,8,2.0,12,"
"##MN+00 00 90 0084 01805 8123 383549 925507 210"
"148.726366"
"$GPGGA,172555,2543.0952,N,08000.5296,W,1,8,2.0,12,"
"##MN+00 00 90 0084 01806 8125 382634 925506 210"
"148.726412"
"$GPGGA,172559,2543.0976,N,08000.5357,W,1,8,2.0,12,"
"##MN+00 00 90 0084 01805 8127 381845 925506 209"
"148.726458"
"$GPGGA,172603,2543.0999,N,08000.5421,W,1,8,2.0,13,"
"##MN-00 00 90 0084 01805 8128 380541 925507 210"
"148.726505"
"$GPGGA,172607,2543.1024,N,08000.5488,W,1,8,2.0,13,"
"##MN+00 00 90 0084 01807 8130 378689 925507 210"
"148.726551"
"$GPGGA,172611,2543.1046,N,08000.5557,W,1,7,2.1,13,"
"##MN+00 00 90 0084 01803 8132 376872 925506 210"
"148.726597"
"$GPGGA,172615,2543.1075,N,08000.5615,W,1,9,2.0,13,"
"##MN+00 00 90 0084 01803 8133 375537 925506 210"
"148.726643"
"$GPGGA,172619,2543.1097,N,08000.5679,W,1,9,2.0,13,"
"##MN-00 00 90 0084 01803 8135 375750 925506 210"
"148.72669"
"$GPGGA,172623,2543.1121,N,08000.5752,W,1,7,2.1,13,"
"##MN-00 00 90 0084 01806 8137 375138 925507 210"
"148.726736"
"$GPGGA,172627,2543.1144,N,08000.5820,W,1,8,2.0,13,"
"##MN-00 00 90 0084 01805 8138 374264 925506 210"
"148.726782"
"$GPGGA,172631,2543.1171,N,08000.5886,W,1,9,2.0,13,"
"##MN-00 00 90 0084 01803 8140 373415 925507 210"
"148.726829"
"$GPGGA,172635,2543.1196,N,08000.5952,W,1,9,2.0,12,"
"##MN-00 00 90 0084 01803 8142 373087 925507 209"
"148.726875"
"$GPGGA,172639,2543.1219,N,08000.6020,W,1,9,2.0,12,"
"##MN-00 00 90 0084 01806 8143 373939 925506 210"
"148.726921"
"$GPGGA,172643,2543.1244,N,08000.6087,W,1,8,2.0,12,"
"##MN-00 00 90 0084 01804 8145 373723 925506 210"
"148.726968"
"$GPGGA,172647,2543.1270,N,08000.6149,W,1,9,2.0,12,"
"##MN-00 00 90 0084 01804 8147 374825 925506 210"
"148.727014"
"$GPGGA,172651,2543.1297,N,08000.6219,W,1,8,2.0,12,"
"##MN-00 00 90 0084 01805 8148 374783 925506 210"
"148.72706"
"$GPGGA,172655,2543.1321,N,08000.6286,W,1,7,2.1,11,"
"##MN-00 00 90 0084 01803 8149 374082 925506 210"
"148.727106"
"$GPGGA,172659,2543.1348,N,08000.6351,W,1,8,2.0,11,"
"##MN-00 00 90 0084 01803 8151 374817 925506 209"
"148.727153"
"$GPGGA,172703,2543.1371,N,08000.6420,W,1,9,1.9,11,"
"##MN-00 00 90 0084 01804 8152 375722 925506 210"
"148.727199"
"$GPGGA,172708,2543.1403,N,08000.6501,W,1,8,2.0,11,"
"##MN-00 00 90 0084 01803 8154 373974 925506 210"
"148.727245"
"$GPGGA,172711,2543.1422,N,08000.6551,W,1,9,1.9,11,"
"##MN-00 00 90 0084 01804 8155 373757 925507 209"
"148.727292"
"$GPGGA,172716,2543.1451,N,08000.6629,W,1,9,1.9,10,"
"##MN-00 00 90 0084 01805 8157 373755 925506 210"
"148.727338"
"$GPGGA,172720,2543.1476,N,08000.6695,W,1,8,2.0,10,"
"##MN-00 00 90 0084 01803 8158 372971 925506 210"
"148.727384"
"$GPGGA,172724,2543.1501,N,08000.6756,W,1,9,1.9,10,"
"##MN-00 00 90 0084 01803 8160 372736 925506 210"
"148.727431"
"$GPGGA,172728,2543.1525,N,08000.6825,W,1,8,2.0,10,"
"##MN-00 00 90 0084 01802 8161 373086 925506 210"
"148.727477"
"$GPGGA,172732,2543.1551,N,08000.6893,W,1,8,2.0,10,"
"##MN-00 00 90 0084 01805 8163 372953 925506 210"
"148.727523"
"$GPGGA,172736,2543.1576,N,08000.6960,W,1,8,2.0,10,"
"##MN-00 00 90 0084 01804 8164 373802 925506 209"
"148.727581"
"$GPGGA,172740,2543.1599,N,08000.7023,W,1,8,2.0,10,"
"##MN-00 00 90 0084 01804 8166 374175 925506 210"
"148.727627"
"$GPGGA,172744,2543.1624,N,08000.7086,W,1,9,1.9,10,"
"##MN-00 00 90 0084 01805 8167 375451 925506 210"
"148.727674"
"$GPGGA,172748,2543.1648,N,08000.7147,W,1,9,2.0,10,"
"##MN-00 00 90 0084 01804 8168 375656 925506 210"
"148.72772"
"$GPGGA,172752,2543.1673,N,08000.7211,W,1,9,1.9,10,"
"##MN-00 00 90 0084 01805 8170 374672 925506 210"
"148.727766"
"$GPGGA,172756,2543.1699,N,08000.7277,W,1,9,2.0,10,"
"##MN-00 00 90 0084 01805 8171 375411 925505 210"
"148.727813"
"$GPGGA,172800,2543.1722,N,08000.7344,W,1,9,2.0,10,"
"##MN-00 00 90 0084 01806 8173 374485 925506 210"
"148.727859"
"$GPGGA,172804,2543.1746,N,08000.7411,W,1,8,2.0,10,"
"##MN-00 00 90 0084 01804 8175 373604 925505 210"
"148.727905"
"$GPGGA,172808,2543.1768,N,08000.7478,W,1,9,2.0,10,"
"##MN-00 00 90 0084 01803 8176 373240 925506 210"
"148.727951"
"$GPGGA,172812,2543.1792,N,08000.7543,W,1,8,1.9,10,"
"##MN-00 00 90 0084 01803 8177 371974 925506 210"
"148.727998"
"$GPGGA,172816,2543.1815,N,08000.7610,W,1,8,2.0,10,"
"##MN-00 00 90 0084 01805 8178 372000 925506 209"
"148.728044"
"$GPGGA,172820,2543.1840,N,08000.7677,W,1,8,2.0,9,M"
"##MN-00 00 90 0084 01805 8180 372437 925506 210"
"148.72809"
"$GPGGA,172824,2543.1865,N,08000.7740,W,1,9,2.0,9,M"
"##MN-00 00 90 0084 01804 8181 372680 925506 210"
"148.728137"
"$GPGGA,172828,2543.1888,N,08000.7805,W,1,9,2.0,9,M"
"##MN-00 00 90 0084 01804 8183 372121 925506 210"
"148.728183"
"$GPGGA,172832,2543.1913,N,08000.7872,W,1,9,1.9,9,M"
"##MN-00 00 90 0084 01804 8184 370588 925507 210"
"148.728229"
"$GPGGA,172836,2543.1941,N,08000.7935,W,1,9,1.9,9,M"
"##MN-00 00 90 0084 01805 8185 372623 925506 210"
"148.728275"
"$GPGGA,172840,2543.1964,N,08000.8002,W,1,9,1.9,9,M"
"##MN-00 00 90 0084 01805 8187 374280 925506 210"
"148.728322"
"$GPGGA,172844,2543.1991,N,08000.8065,W,1,9,2.0,9,M"
"##MN-00 00 90 0084 01806 8188 373988 925506 210"
"148.728368"
"$GPGGA,172848,2543.2016,N,08000.8132,W,1,8,2.0,9,M"
"##MN-00 00 90 0084 01803 8189 374587 925506 210"
"148.728414"
"$GPGGA,172852,2543.2039,N,08000.8201,W,1,8,2.0,10,"
"##MN-00 00 90 0084 01805 8191 374534 925505 210"
"148.728461"
"$GPGGA,172856,2543.2064,N,08000.8267,W,1,8,2.0,10,"
"##MN-00 00 90 0084 01803 0000 373771 925507 210"
"148.728507"
"$GPGGA,172900,2543.2087,N,08000.8328,W,1,9,2.0,10,"
"##MN-00 00 90 0084 01805 0001 373175 925505 210"
"148.728553"
"$GPGGA,172904,2543.2111,N,08000.8393,W,1,9,1.9,10,"
"##MN-00 00 90 0084 01805 0003 372057 925506 209"
"148.7286"
"$GPGGA,172908,2543.2135,N,08000.8454,W,1,8,1.9,10,"
"##MN-00 00 90 0084 01806 0004 371253 925506 210"
"148.728646"
"$GPGGA,172912,2543.2159,N,08000.8519,W,1,9,2.0,10,"
"##MN-00 00 90 0084 01805 0005 370967 925506 210"
"148.728692"
"$GPGGA,172916,2543.2183,N,08000.8581,W,1,9,1.9,10,"
"##MN-00 00 90 0084 01805 0007 371136 925506 210"
"148.728738"
"$GPGGA,172920,2543.2208,N,08000.8649,W,1,9,2.0,10,"
"##MN-00 00 90 0084 01804 0008 372429 925506 210"
"148.728785"
"$GPGGA,172924,2543.2233,N,08000.8714,W,1,8,1.9,10,"
"##MN-00 00 90 0084 01803 0009 374963 925506 210"
"148.728831"
"$GPGGA,172928,2543.2256,N,08000.8782,W,1,8,2.0,10,"
"##MN-00 00 90 0084 01802 0011 377380 925506 210"
"148.728877"
"$GPGGA,172932,2543.2281,N,08000.8847,W,1,9,2.0,10,"
"##MN-00 00 90 0084 01803 0012 379265 925506 209"
"148.728924"
"$GPGGA,172936,2543.2306,N,08000.8913,W,1,9,2.0,10,"
"##MN-00 00 90 0084 01804 0013 380114 925506 210"
"148.72897"
"$GPGGA,172940,2543.2329,N,08000.8978,W,1,9,1.9,10,"
"##MN-00 00 90 0084 01805 0015 379822 925506 210"
"148.729016"
"$GPGGA,172944,2543.2354,N,08000.9043,W,1,9,1.9,10,"
"##MN-00 00 90 0084 01802 0016 380654 925506 210"
"148.729062"
"$GPGGA,172948,2543.2379,N,08000.9111,W,1,9,1.9,10,"
"##MN-00 00 90 0084 01801 0017 382334 925505 210"
"148.729109"
"$GPGGA,172952,2543.2404,N,08000.9176,W,1,9,1.9,10,"
"##MN-00 00 90 0084 01802 0018 383620 925505 210"
"148.729155"
"$GPGGA,172956,2543.2430,N,08000.9238,W,1,9,1.9,10,"
"##MN-00 00 90 0084 01802 0020 384017 925506 210"
"148.729201"
"$GPGGA,173000,2543.2453,N,08000.9306,W,1,8,2.0,10,"
"##MN-00 00 90 0084 01804 0020 386754 925506 210"
"148.729248"
"$GPGGA,173004,2543.2476,N,08000.9373,W,1,8,2.0,10,"
"##MN-00 00 90 0084 01802 0022 388021 925506 209"
"148.729294"
"$GPGGA,173008,2543.2500,N,08000.9440,W,1,8,1.9,10,"
"##MN-00 00 90 0084 01804 0023 389093 925506 210"
"148.72934"
"$GPGGA,173012,2543.2520,N,08000.9503,W,1,7,2.0,10,"
"##MN-00 00 90 0084 01801 0025 388922 925506 210"
"148.729387"
"$GPGGA,173016,2543.2544,N,08000.9566,W,1,7,1.9,10,"
"##MN-00 00 90 0084 01805 0026 389090 925506 210"
"148.729433"
"$GPGGA,173020,2543.2570,N,08000.9632,W,1,8,1.9,10,"
"##MN-00 00 90 0084 01804 0027 388275 925506 209"
"148.729479"
"$GPGGA,173024,2543.2594,N,08000.9697,W,1,8,2.0,10,"
"##MN-00 00 90 0084 01804 0028 388531 925506 209"
"148.729525"
"$GPGGA,173028,2543.2617,N,08000.9763,W,1,9,2.0,10,"
"##MN-00 00 90 0084 01804 0030 388985 925505 209"
"148.729572"
"$GPGGA,173032,2543.2643,N,08000.9823,W,1,9,1.9,10,"
"##MN-00 00 90 0084 01805 0031 386887 925506 210"
"148.729618"
"$GPGGA,173036,2543.2668,N,08000.9888,W,1,8,1.9,10,"
"##MN-00 00 90 0084 01804 0032 385906 925506 209"
"148.729664"
"$GPGGA,173040,2543.2692,N,08000.9956,W,1,9,1.9,10,"
"##MN-00 00 90 0084 01805 0033 387871 925505 209"
"148.729711"
"$GPGGA,173044,2543.2717,N,08001.0022,W,1,9,1.9,10,"
"##MN-00 00 90 0084 01804 0034 387355 925506 210"
"148.729757"
"$GPGGA,173048,2543.2744,N,08001.0087,W,1,9,1.9,10,"
"##MN-00 00 90 0084 01805 0036 387437 925505 210"
"148.729803"
"$GPGGA,173052,2543.2768,N,08001.0150,W,1,9,1.9,10,"
"##MN-00 00 90 0084 01804 0037 387563 925506 210"
"148.729849"
"$GPGGA,173056,2543.2793,N,08001.0213,W,1,9,1.9,10,"
"##MN-00 00 90 0084 01800 0038 388949 925506 209"
"148.729896"
"$GPGGA,173100,2543.2819,N,08001.0275,W,1,9,1.9,10,"
"##MN-00 00 90 0084 01801 0039 389228 925505 209"
"148.729942"
"$GPGGA,173104,2543.2842,N,08001.0339,W,1,8,1.9,10,"
"##MN-00 00 90 0084 01805 0040 389273 925506 210"
"148.729988"
"$GPGGA,173108,2543.2870,N,08001.0398,W,1,9,1.9,10,"
"##MN-00 00 90 0084 01802 0042 389783 925506 210"
"148.730035"
"$GPGGA,173112,2543.2894,N,08001.0462,W,1,9,1.9,10,"
"##MN-00 00 90 0084 01803 0043 389667 925506 209"
"148.730081"
"$GPGGA,173116,2543.2917,N,08001.0529,W,1,9,2.0,11,"
"##MN-00 00 90 0084 01803 0044 389767 925506 210"
"148.730127"
"$GPGGA,173120,2543.2942,N,08001.0596,W,1,9,1.9,11,"
"##MN-00 00 90 0084 01803 0045 388979 925506 210"
"148.730174"
"$GPGGA,173124,2543.2966,N,08001.0659,W,1,9,1.9,11,"
"##MN-00 00 90 0084 01803 0046 388950 925506 209"
"148.73022"
"$GPGGA,173128,2543.2989,N,08001.0727,W,1,8,2.0,11,"
"##MN-00 00 90 0084 01805 0047 389228 925506 209"
"148.730266"
"$GPGGA,173132,2543.3013,N,08001.0792,W,1,9,2.0,11,"
"##MN-00 00 90 0084 01804 0049 389253 925506 210"
"148.730313"
"$GPGGA,173136,2543.3036,N,08001.0857,W,1,8,1.9,11,"
"##MN-00 00 90 0084 01804 0050 387336 925506 209"
"148.730359"
"$GPGGA,173140,2543.3058,N,08001.0922,W,1,8,2.0,11,"
"##MN-00 00 90 0084 01804 0051 385362 925506 209"
"148.730405"
"$GPGGA,173144,2543.3083,N,08001.0986,W,1,9,1.9,11,"
"##MN-00 00 90 0084 01801 0052 384450 925506 209"
"148.730451"
"$GPGGA,173148,2543.3105,N,08001.1049,W,1,9,1.9,11,"
"##MN-00 00 90 0084 01804 0054 385561 925506 209"
"148.730498"
"$GPGGA,173152,2543.3130,N,08001.1116,W,1,9,1.9,11,"
"##MN-00 00 90 0084 01801 0055 386197 925506 209"
"148.730544"
"$GPGGA,173157,2543.3158,N,08001.1199,W,1,9,1.9,11,"
"##MN-00 00 90 0084 01803 0056 387642 925506 210"
"148.73059"
"$GPGGA,173200,2543.3174,N,08001.1247,W,1,9,1.9,12,"
"##MN-00 00 90 0084 01806 0057 388734 925506 209"
"148.730637"
"$GPGGA,173205,2543.3205,N,08001.1331,W,1,9,1.9,12,"
"##MN-00 00 90 0084 01804 0058 388447 925506 209"
"148.730683"
"$GPGGA,173208,2543.3224,N,08001.1380,W,1,9,1.9,12,"
"##MN-00 00 90 0084 01804 0060 388012 925506 209"
"148.730729"
"$GPGGA,173213,2543.3256,N,08001.1463,W,1,9,1.9,12,"
"##MN-00 00 90 0084 01803 0061 387709 925506 209"
"148.730775"
"$GPGGA,173217,2543.3282,N,08001.1525,W,1,9,1.9,12,"
"##MN-00 00 90 0084 01802 0062 386239 925506 210"
"148.730833"
"$GPGGA,173221,2543.3304,N,08001.1586,W,1,8,1.9,12,"
"##MN-00 00 90 0084 01803 0063 386399 925506 209"
"148.73088"
"$GPGGA,173225,2543.3329,N,08001.1647,W,1,9,2.0,12,"
"##MN-00 00 90 0084 01805 0064 387153 925505 209"
"148.730926"
"$GPGGA,173229,2543.3351,N,08001.1712,W,1,9,1.9,12,"
"##MN-00 00 90 0084 01803 0065 386858 925505 209"
"148.730972"
"$GPGGA,173233,2543.3376,N,08001.1775,W,1,8,1.9,13,"
"##MN-00 00 90 0084 01804 0066 385084 925506 210"
"148.731019"
"$GPGGA,173237,2543.3401,N,08001.1836,W,1,9,1.9,13,"
"##MN-00 00 90 0084 01802 0067 383732 925506 209"
"148.731065"
"$GPGGA,173241,2543.3425,N,08001.1900,W,1,9,1.9,13,"
"##MN-00 00 90 0084 01802 0068 382955 925505 209"
"148.731111"
"$GPGGA,173245,2543.3448,N,08001.1966,W,1,9,1.9,13,"
"##MN-00 00 90 0084 01803 0069 384521 925506 209"
"148.731157"
"$GPGGA,173249,2543.3465,N,08001.2014,W,1,9,1.9,13,"
"##MN-00 00 90 0084 01803 0071 386162 925506 210"
"148.731204"
"$GPGGA,173253,2543.3494,N,08001.2095,W,1,9,1.9,13,"
"##MN-00 00 90 0084 01804 0072 385331 925506 209"
"148.73125"
"$GPGGA,173257,2543.3517,N,08001.2160,W,1,9,1.9,13,"
"##MN-00 00 90 0084 01803 0073 384990 925506 209"
"148.731296"
"$GPGGA,173301,2543.3541,N,08001.2223,W,1,9,1.9,13,"
"##MN-00 00 90 0084 01800 0074 383471 925505 209"
"148.731343"
"$GPGGA,173305,2543.3564,N,08001.2288,W,1,9,1.9,13,"
"##MN-00 00 90 0084 01803 0076 382110 925505 209"
"148.731389"
"$GPGGA,173309,2543.3588,N,08001.2353,W,1,9,1.9,13,"
"##MN-00 00 90 0084 01804 0077 381442 925506 209"
"148.731435"
"$GPGGA,173313,2543.3611,N,08001.2418,W,1,9,1.9,13,"
"##MN-00 00 90 0084 01801 0078 382401 925505 209"
"148.731481"
"$GPGGA,173317,2543.3633,N,08001.2483,W,1,9,1.9,13,"
"##MN-00 00 90 0084 01801 0079 383411 925506 209"
"148.731528"
"$GPGGA,173321,2543.3657,N,08001.2548,W,1,9,1.9,13,"
"##MN-00 00 90 0084 01801 0080 384251 925505 209"
"148.731574"
"$GPGGA,173325,2543.3680,N,08001.2613,W,1,9,1.9,13,"
"##MN-00 00 90 0084 01801 0081 384795 925506 209"
"148.73162"
"$GPGGA,173329,2543.3704,N,08001.2678,W,1,9,1.9,13,"
"##MN-00 00 90 0084 01803 0082 382852 925506 209"
"148.731667"
"$GPGGA,173333,2543.3727,N,08001.2743,W,1,9,1.9,13,"
"##MN-00 00 90 0084 01803 0083 380918 925506 209"
"148.731713"
"$GPGGA,173337,2543.3751,N,08001.2805,W,1,9,1.9,13,"
"##MN-00 00 90 0084 01803 0084 379485 925506 209"
"148.731759"
"$GPGGA,173341,2543.3773,N,08001.2868,W,1,9,1.9,13,"
"##MN-00 00 90 0084 01802 0086 381006 925505 209"
"148.731806"
"$GPGGA,173345,2543.3795,N,08001.2930,W,1,9,1.9,13,"
"##MN-00 00 90 0084 01803 0087 382937 925505 209"
"148.731852"
"$GPGGA,173349,2543.3819,N,08001.2992,W,1,9,1.9,13,"
"##MN-00 00 90 0084 01805 0088 382614 925505 209"
"148.731898"
"$GPGGA,173353,2543.3842,N,08001.3053,W,1,9,1.9,13,"
"##MN-00 00 90 0084 01802 0089 381446 925505 209"
"148.731944"
"$GPGGA,173357,2543.3867,N,08001.3115,W,1,9,1.9,13,"
"##MN-00 00 90 0084 01802 0090 382205 925505 209"
"148.731991"
"$GPGGA,173401,2543.3891,N,08001.3177,W,1,9,1.9,13,"
"##MN-00 00 90 0084 01802 0091 382964 925505 209"
"148.732037"
"$GPGGA,173405,2543.3914,N,08001.3238,W,1,9,1.9,13,"
"##MN-00 00 90 0084 01805 0093 383970 925505 209"
"148.732083"
"$GPGGA,173409,2543.3938,N,08001.3300,W,1,9,1.9,13,"
"##MN-00 00 90 0084 01802 0094 383679 925505 209"
"148.73213"
"$GPGGA,173413,2543.3961,N,08001.3363,W,1,9,1.9,13,"
"##MN-00 00 90 0084 01801 0095 383025 925505 209"
"148.732176"
"$GPGGA,173417,2543.3985,N,08001.3423,W,1,9,1.9,13,"
"##MN-00 00 90 0084 01802 0096 384075 925505 209"
"148.732222"
"$GPGGA,173421,2543.4008,N,08001.3484,W,1,9,1.9,13,"
"##MN-00 00 90 0084 01802 0097 383436 925505 209"
"148.732268"
"$GPGGA,173425,2543.4030,N,08001.3544,W,1,9,1.9,13,"
"##MN-00 00 90 0084 01804 0098 382316 925505 209"
"148.732315"
"$GPGGA,173429,2543.4055,N,08001.3605,W,1,9,1.9,13,"
"##MN-00 00 90 0084 01803 0099 382423 925505 209"
"148.732361"
"$GPGGA,173433,2543.4079,N,08001.3663,W,1,9,1.9,13,"
"##MN-00 00 90 0084 01801 0100 382237 925504 209"
"148.732407"
"$GPGGA,173437,2543.4102,N,08001.3721,W,1,9,1.9,13,"
"##MN-00 00 90 0084 01802 0101 383564 925506 209"
"148.732454"
"$GPGGA,173441,2543.4127,N,08001.3779,W,1,9,1.9,13,"
"##MN-00 00 90 0084 01802 0102 384440 925505 209"
"148.7325"
"$GPGGA,173445,2543.4152,N,08001.3834,W,1,9,1.9,13,"
"##MN-00 00 90 0084 01804 0104 385421 925506 209"
"148.732546"
"$GPGGA,173449,2543.4177,N,08001.3887,W,1,9,1.9,13,"
"##MN-00 00 90 0084 01800 0105 385946 925505 209"
"148.732593"
"$GPGGA,173453,2543.4203,N,08001.3938,W,1,9,1.9,13,"
"##MN-00 00 90 0084 01802 0106 386575 925506 209"
"148.732639"
"$GPGGA,173457,2543.4228,N,08001.3988,W,1,9,1.9,13,"
"##MN-00 00 90 0084 01803 0107 386514 925505 209"
"148.732685"
"$GPGGA,173501,2543.4256,N,08001.4035,W,1,9,1.9,13,"
"##MN-00 00 90 0084 01802 0108 387377 925506 209"
"148.732732"
"$GPGGA,173505,2543.4283,N,08001.4082,W,1,9,1.9,13,"
"##MN-00 00 90 0084 01801 0109 387723 925505 209"
"148.732778"
"$GPGGA,173509,2543.4310,N,08001.4127,W,1,9,1.9,13,"
"##MN-00 00 90 0084 01803 0111 387258 925505 209"
"148.732824"
"$GPGGA,173513,2543.4336,N,08001.4173,W,1,9,1.9,13,"
"##MN-00 00 90 0084 01802 0111 386623 925505 209"
"148.73287"
"$GPGGA,173517,2543.4362,N,08001.4217,W,1,9,1.9,13,"
"##MN-00 00 90 0084 01801 0113 386351 925505 209"
"148.732917"
"$GPGGA,173521,2543.4388,N,08001.4263,W,1,9,1.9,14,"
"##MN-00 00 90 0084 01804 0114 386911 925506 209"
"148.732963"
"$GPGGA,173525,2543.4415,N,08001.4304,W,1,9,1.9,14,"
"##MN-00 00 90 0084 01803 0114 386694 925505 209"
"148.733009"
"$GPGGA,173529,2543.4442,N,08001.4343,W,1,9,1.9,14,"
"##MN-00 00 90 0084 01800 0116 388372 925506 209"
"148.733056"
"$GPGGA,173533,2543.4467,N,08001.4382,W,1,9,1.9,14,"
"##MN-00 00 90 0084 01801 0117 389483 925505 209"
"148.733102"
"$GPGGA,173537,2543.4495,N,08001.4419,W,1,9,1.9,15,"
"##MN-00 00 90 0084 01804 0118 388050 925505 209"
"148.733148"
"$GPGGA,173541,2543.4521,N,08001.4458,W,1,9,1.9,15,"
"##MN-00 00 90 0084 01800 0119 387343 925505 209"
"148.733194"
"$GPGGA,173545,2543.4550,N,08001.4494,W,1,9,1.9,15,"
"##MN-00 00 90 0084 01803 0120 387241 925505 209"
"148.733241"
"$GPGGA,173549,2543.4576,N,08001.4530,W,1,9,1.9,15,"
"##MN-00 00 90 0084 01802 0122 388560 925505 209"
"148.733287"
"$GPGGA,173553,2543.4605,N,08001.4564,W,1,9,1.9,15,"
"##MN-00 00 90 0084 01803 0122 389367 925505 209"
"148.733333"
"$GPGGA,173557,2543.4633,N,08001.4599,W,1,9,1.9,15,"
"##MN-00 00 90 0084 01803 0124 387862 925505 209"
"148.73338"
"$GPGGA,173601,2543.4661,N,08001.4631,W,1,9,1.9,15,"
"##MN-00 00 90 0084 01803 0125 387713 925505 209"
"148.733426"
"$GPGGA,173605,2543.4691,N,08001.4661,W,1,9,1.9,15,"
"##MN-00 00 90 0084 01800 0126 388108 925505 209"
"148.733472"
"$GPGGA,173609,2543.4719,N,08001.4693,W,1,8,1.9,15,"
"##MN-00 00 90 0084 01802 0127 389041 925505 209"
"148.733519"
"$GPGGA,173613,2543.4748,N,08001.4723,W,1,9,2.0,15,"
"##MN-00 00 90 0084 01801 0128 388899 925505 209"
"148.733565"
"$GPGGA,173617,2543.4778,N,08001.4751,W,1,9,1.9,15,"
"##MN-00 00 90 0084 01801 0129 387790 925506 209"
"148.733611"
"$GPGGA,173622,2543.4818,N,08001.4787,W,1,9,1.9,16,"
"##MN-00 00 90 0084 01802 0130 388506 925505 209"
"148.733657"
"$GPGGA,173626,2543.4846,N,08001.4819,W,1,9,1.9,16,"
"##MN-00 00 90 0084 01802 0131 388823 925505 209"
"148.733704"
"$GPGGA,173630,2543.4875,N,08001.4848,W,1,9,1.9,16,"
"##MN-00 00 90 0084 01800 0132 389575 925506 209"
"148.73375"
"$GPGGA,173633,2543.4896,N,08001.4870,W,1,9,1.9,16,"
"##MN-00 00 90 0084 01804 0133 389266 925505 209"
"148.733796"
"$GPGGA,173637,2543.4925,N,08001.4899,W,1,9,1.9,16,"
"##MN-00 00 90 0084 01801 0134 389423 925505 209"
"148.733843"
"$GPGGA,173642,2543.4962,N,08001.4932,W,1,9,1.9,17,"
"##MN-00 00 90 0084 01801 0135 390598 925505 209"
"148.733889"
"$GPGGA,173646,2543.4990,N,08001.4958,W,1,9,2.0,17,"
"##MN-00 00 90 0084 01802 0136 390508 925505 209"
"148.733935"
"$GPGGA,173650,2543.5022,N,08001.4980,W,1,9,1.9,17,"
"##MN-00 00 90 0084 01802 0137 390950 925505 209"
"148.733981"
"$GPGGA,173654,2543.5049,N,08001.5004,W,1,9,2.0,17,"
"##MN-00 00 90 0084 01800 0139 391111 925505 209"
"148.734039"
"$GPGGA,173658,2543.5081,N,08001.5025,W,1,9,1.9,17,"
"##MN-00 00 90 0084 01801 0139 392606 925505 209"
"148.734086"
"$GPGGA,173702,2543.5112,N,08001.5045,W,1,9,1.9,17,"
"##MN-00 00 90 0084 01802 0140 393334 925506 209"
"148.734132"
"$GPGGA,173706,2543.5142,N,08001.5066,W,1,9,1.9,17,"
"##MN-00 00 90 0084 01801 0141 392524 925505 209"
"148.734178"
"$GPGGA,173710,2543.5172,N,08001.5087,W,1,9,1.9,17,"
"##MN-00 00 90 0084 01801 0142 391625 925505 209"
"148.734225"
"$GPGGA,173714,2543.5203,N,08001.5106,W,1,9,1.9,17,"
"##MN-00 00 90 0084 01804 0143 392793 925505 209"
"148.734271"
"$GPGGA,173718,2543.5233,N,08001.5126,W,1,9,1.9,17,"
"##MN-00 00 90 0084 01801 0145 393939 925505 209"
"148.734317"
"$GPGGA,173722,2543.5262,N,08001.5145,W,1,8,2.0,17,"
"##MN-00 00 90 0084 01800 0145 394352 925505 209"
"148.734363"
"$GPGGA,173726,2543.5291,N,08001.5164,W,1,8,1.9,17,"
"##MN-00 00 90 0084 01801 0146 394699 925505 209"
"148.73441"
"$GPGGA,173730,2543.5322,N,08001.5182,W,1,8,1.9,17,"
"##MN-00 00 90 0084 01802 0148 395223 925505 209"
"148.734456"
"$GPGGA,173734,2543.5352,N,08001.5202,W,1,9,1.9,17,"
"##MN-00 00 90 0084 01804 0148 396192 925506 209"
"148.734502"
"$GPGGA,173738,2543.5381,N,08001.5218,W,1,9,1.9,17,"
"##MN-00 00 90 0084 01801 0149 398511 925505 209"
"148.734549"
"$GPGGA,173742,2543.5412,N,08001.5236,W,1,9,1.9,17,"
"##MN-00 00 90 0084 01803 0151 399708 925505 209"
"148.734595"
"$GPGGA,173746,2543.5442,N,08001.5253,W,1,9,1.9,17,"
"##MN-00 00 90 0084 01800 0151 400913 925505 209"
"148.734641"
"$GPGGA,173750,2543.5471,N,08001.5271,W,1,8,1.9,17,"
"##MN-00 00 90 0084 01803 0152 402694 925505 209"
"148.734687"
"$GPGGA,173754,2543.5501,N,08001.5287,W,1,8,1.9,17,"
"##MN-00 00 90 0084 01799 0153 404441 925505 209"
"148.734734"
"$GPGGA,173758,2543.5533,N,08001.5304,W,1,9,1.9,17,"
"##MN-00 00 90 0084 01800 0154 404827 925505 209"
"148.73478"
"$GPGGA,173802,2543.5564,N,08001.5322,W,1,8,1.9,17,"
"##MN-00 00 90 0084 01799 0155 404731 925506 209"
"148.734826"
"$GPGGA,173806,2543.5594,N,08001.5337,W,1,9,1.9,17,"
"##MN-00 00 90 0084 01803 0156 404357 925505 209"
"148.734873"
"$GPGGA,173810,2543.5623,N,08001.5354,W,1,9,1.9,17,"
"##MN-00 00 90 0084 01801 0157 404022 925506 209"
"148.734919"
"$GPGGA,173814,2543.5655,N,08001.5369,W,1,8,1.9,17,"
"##MN-00 00 90 0084 01801 0158 403561 925505 209"
"148.734965"
"$GPGGA,173818,2543.5683,N,08001.5392,W,1,9,2.0,17,"
"##MN-00 00 90 0084 01801 0159 402577 925505 209"
"148.735012"
"$GPGGA,173822,2543.5714,N,08001.5409,W,1,9,1.9,18,"
"##MN-00 00 90 0084 01802 0160 401789 925505 209"
"148.735058"
"$GPGGA,173826,2543.5746,N,08001.5426,W,1,8,1.9,18,"
"##MN-00 00 90 0084 01801 0161 401214 925506 209"
"148.735104"
"$GPGGA,173830,2543.5778,N,08001.5437,W,1,9,1.9,19,"
"##MN-00 00 90 0084 01800 0162 400192 925506 209"
"148.73515"
"$GPGGA,173834,2543.5808,N,08001.5448,W,1,9,1.9,19,"
"##MN-00 00 90 0084 01801 0163 400307 925506 209"
"148.735197"
"$GPGGA,173838,2543.5839,N,08001.5462,W,1,9,1.9,20,"
"##MN-00 00 90 0084 01800 0164 398616 925506 209"
"148.735243"
"$GPGGA,173842,2543.5868,N,08001.5477,W,1,7,1.9,20,"
"##MN-00 00 90 0084 01799 0165 397841 925506 209"
"148.735289"
"$GPGGA,173846,2543.5898,N,08001.5487,W,1,8,2.0,21,"
"##MN-00 00 90 0084 01800 0165 396839 925506 209"
"148.735336"
"$GPGGA,173850,2543.5926,N,08001.5499,W,1,9,1.9,21,"
"##MN-00 00 90 0084 01800 0166 395780 925506 209"
"148.735382"
"$GPGGA,173854,2543.5955,N,08001.5513,W,1,8,1.9,21,"
"##MN-00 00 90 0084 01802 0167 395095 925506 209"
"148.735428"
"$GPGGA,173858,2543.5983,N,08001.5527,W,1,8,2.0,21,"
"##MN-00 00 90 0084 01802 0168 394938 925506 209"
"148.735475"
"$GPGGA,173902,2543.6013,N,08001.5538,W,1,9,1.9,22,"
"##MN-00 00 90 0084 01803 0169 394927 925506 209"
"148.735521"
"$GPGGA,173906,2543.6042,N,08001.5551,W,1,9,1.9,22,"
"##MN-00 00 90 0084 01800 0170 394128 925505 209"
"148.735567"
"$GPGGA,173910,2543.6068,N,08001.5567,W,1,9,1.9,22,"
"##MN-00 00 90 0084 01800 0171 393348 925505 209"
"148.735613"
"$GPGGA,173914,2543.6096,N,08001.5581,W,1,9,1.9,22,"
"##MN-00 00 90 0084 01801 0172 393997 925506 209"
"148.73566"
"$GPGGA,173918,2543.6126,N,08001.5593,W,1,9,1.9,22,"
"##MN-00 00 90 0084 01800 0173 393567 925506 209"
"148.735706"
"$GPGGA,173922,2543.6156,N,08001.5607,W,1,8,1.9,22,"
"##MN-00 00 90 0084 01800 0174 392809 925506 209"
"148.735752"
"$GPGGA,173926,2543.6183,N,08001.5625,W,1,8,2.0,21,"
"##MN-00 00 90 0084 01799 0174 392935 925506 209"
"148.735799"
"$GPGGA,173930,2543.6212,N,08001.5640,W,1,8,2.0,21,"
"##MN-00 00 90 0084 01802 0175 392465 925506 209"
"148.735845"
"$GPGGA,173934,2543.6240,N,08001.5655,W,1,9,2.0,21,"
"##MN-00 00 90 0084 01801 0176 392574 925506 209"
"148.735891"
"$GPGGA,173938,2543.6270,N,08001.5668,W,1,8,1.9,21,"
"##MN-00 00 90 0084 01802 0177 393334 925506 209"
"148.735938"
"$GPGGA,173942,2543.6299,N,08001.5677,W,1,8,1.9,20,"
"##MN-00 00 90 0084 01801 0178 393452 925506 209"
"148.735984"
"$GPGGA,173946,2543.6327,N,08001.5695,W,1,8,1.9,20,"
"##MN-00 00 90 0084 01800 0179 393354 925506 209"
"148.73603"
"$GPGGA,173950,2543.6353,N,08001.5712,W,1,8,1.9,20,"
"##MN-00 00 90 0084 01802 0180 391680 925506 209"
"148.736076"
"$GPGGA,173954,2543.6382,N,08001.5728,W,1,7,1.9,20,"
"##MN-00 00 90 0084 01801 0180 390868 925506 209"
"148.736123"
"$GPGGA,173958,2543.6407,N,08001.5746,W,1,8,1.9,20,"
"##MN-00 00 90 0084 01802 0181 392838 925506 209"
"148.736169"
"$GPGGA,174002,2543.6438,N,08001.5753,W,1,8,1.9,20,"
"##MN-00 00 90 0084 01799 0182 393445 925506 209"
"148.736215"
"$GPGGA,174006,2543.6467,N,08001.5766,W,1,9,1.8,21,"
"##MN-00 00 90 0084 01799 0182 394930 925506 209"
"148.736262"
"$GPGGA,174010,2543.6497,N,08001.5780,W,1,7,1.8,21,"
"##MN-00 00 90 0084 01801 0183 395149 925506 209"
"148.736308"
"$GPGGA,174014,2543.6527,N,08001.5789,W,1,8,1.8,22,"
"##MN-00 00 90 0084 01803 0184 395698 925507 209"
"148.736354"
"$GPGGA,174018,2543.6550,N,08001.5802,W,1,9,2.0,22,"
"##MN-00 00 90 0084 01799 0185 395651 925506 209"
"148.7364"
"$GPGGA,174022,2543.6586,N,08001.5821,W,1,9,2.0,22,"
"##MN-00 00 90 0084 01801 0186 395387 925507 209"
"148.736447"
"$GPGGA,174026,2543.6613,N,08001.5838,W,1,8,2.0,23,"
"##MN-00 00 90 0084 01800 0186 396437 925506 209"
"148.736493"
"$GPGGA,174030,2543.6635,N,08001.5845,W,1,9,1.8,23,"
"##MN-00 00 90 0084 01802 0187 396977 925506 209"
"148.736539"
"$GPGGA,174034,2543.6664,N,08001.5860,W,1,9,1.8,23,"
"##MN-00 00 90 0084 01802 0188 397688 925506 209"
"148.736586"
"$GPGGA,174038,2543.6700,N,08001.5874,W,1,8,1.8,23,"
"##MN-00 00 90 0084 01799 0189 397846 925506 209"
"148.736632"
"$GPGGA,174042,2543.6729,N,08001.5886,W,1,8,3.7,23,"
"##MN-00 00 90 0084 01799 0189 397698 925506 209"
"148.736678"
"$GPGGA,174046,2543.6761,N,08001.5888,W,1,8,3.3,23,"
"##MN-00 00 90 0084 01796 0190 398054 925506 209"
"148.736725"
"$GPGGA,174050,2543.6793,N,08001.5897,W,1,8,1.8,23,"
"##MN-00 00 90 0084 01801 0191 397070 925507 209"
"148.736771"
"$GPGGA,174054,2543.6816,N,08001.5918,W,1,9,1.8,22,"
"##MN-00 00 90 0084 01800 0192 396074 925506 209"
"148.736817"
"$GPGGA,174058,2543.6844,N,08001.5937,W,1,9,2.0,22,"
"##MN-00 00 90 0084 01801 0193 395588 925506 209"
"148.736863"
"$GPGGA,174103,2543.6877,N,08001.5958,W,1,8,2.0,22,"
"##MN-00 00 90 0084 01799 0193 396297 925507 209"
"148.73691"
"$GPGGA,174107,2543.6906,N,08001.5969,W,1,8,2.0,22,"
"##MN-00 00 90 0084 01800 0194 396102 925506 209"
"148.736956"
"$GPGGA,174111,2543.6937,N,08001.5977,W,1,9,1.8,22,"
"##MN-00 00 90 0084 01801 0194 395445 925507 209"
"148.737002"
"$GPGGA,174114,2543.6955,N,08001.5991,W,1,9,1.8,22,"
"##MN-00 00 90 0084 01799 0195 395978 925507 209"
"148.737049"
"$GPGGA,174118,2543.6982,N,08001.6005,W,1,9,1.8,22,"
"##MN-00 00 90 0084 01799 0196 395600 925506 209"
"148.737095"
"$GPGGA,174123,2543.7018,N,08001.6022,W,1,9,1.8,22,"
"##MN-00 00 90 0084 01799 0197 395606 925506 209"
"148.737153"
"$GPGGA,174127,2543.7045,N,08001.6040,W,1,9,1.8,22,"
"##MN-00 00 90 0084 01801 0197 395757 925506 209"
"148.737199"
"$GPGGA,174131,2543.7072,N,08001.6055,W,1,9,1.8,22,"
"##MN-00 00 90 0084 01800 0198 395772 925507 209"
"148.737245"
"$GPGGA,174135,2543.7101,N,08001.6069,W,1,9,1.8,22,"
"##MN-00 00 90 0084 01799 0199 397035 925507 209"
"148.737292"
"$GPGGA,174139,2543.7129,N,08001.6082,W,1,9,1.8,21,"
"##MN-00 00 90 0084 01797 0199 398195 925506 209"
"148.737338"
"$GPGGA,174143,2543.7155,N,08001.6095,W,1,9,1.8,21,"
"##MN-00 00 90 0084 01800 0200 397606 925507 209"
"148.737384"
"$GPGGA,174147,2543.7183,N,08001.6107,W,1,9,1.8,21,"
"##MN-00 00 90 0084 01801 0201 397672 925507 209"
"148.737431"
"$GPGGA,174151,2543.7209,N,08001.6120,W,1,9,1.8,20,"
"##MN-00 00 90 0084 01799 0201 397010 925506 209"
"148.737477"
"$GPGGA,174155,2543.7238,N,08001.6134,W,1,9,1.8,20,"
"##MN-00 00 90 0084 01800 0202 397373 925507 209"
"148.737523"
"$GPGGA,174159,2543.7263,N,08001.6149,W,1,9,1.8,20,"
"##MN-00 00 90 0084 01799 0202 396138 925506 209"
"148.737569"
"$GPGGA,174203,2543.7292,N,08001.6163,W,1,8,2.0,20,"
"##MN-00 00 90 0084 01799 0203 395414 925506 209"
"148.737616"
"$GPGGA,174207,2543.7323,N,08001.6175,W,1,9,1.8,19,"
"##MN-00 00 90 0084 01799 0204 394683 925507 209"
"148.737662"
"$GPGGA,174211,2543.7352,N,08001.6189,W,1,8,2.0,19,"
"##MN-00 00 90 0084 01801 0204 394724 925508 209"
"148.737708"
"$GPGGA,174215,2543.7379,N,08001.6203,W,1,9,1.8,18,"
"##MN-00 00 90 0084 01799 0205 394370 925507 209"
"148.737755"
"$GPGGA,174219,2543.7407,N,08001.6217,W,1,9,1.8,18,"
"##MN-00 00 90 0084 01800 0206 392851 925507 209"
"148.737801"
"$GPGGA,174223,2543.7433,N,08001.6229,W,1,9,1.8,18,"
"##MN-00 00 90 0084 01800 0206 393142 925506 209"
"148.737847"
"$GPGGA,174227,2543.7462,N,08001.6243,W,1,9,1.8,17,"
"##MN-00 00 90 0084 01802 0207 394203 925507 209"
"148.737894"
"$GPGGA,174231,2543.7490,N,08001.6257,W,1,9,1.8,17,"
"##MN-00 00 90 0084 01798 0207 395097 925507 209"
"148.73794"
"$GPGGA,174235,2543.7518,N,08001.6270,W,1,9,1.8,16,"
"##MN-00 00 90 0084 01800 0208 395310 925507 209"
"148.737986"
"$GPGGA,174239,2543.7544,N,08001.6283,W,1,9,1.8,16,"
"##MN-00 00 90 0084 01798 0209 394432 925507 209"
"148.738032"
"$GPGGA,174243,2543.7567,N,08001.6294,W,1,9,1.5,16,"
"##MN-00 00 90 0084 01799 0209 395097 925507 209"
"148.738079"
"$GPGGA,174247,2543.7594,N,08001.6305,W,1,10,1.5,16"
"##MN-00 00 90 0084 01798 0210 394135 925508 209"
"148.738125"
"$GPGGA,174251,2543.7621,N,08001.6319,W,1,10,1.5,16"
"##MN-00 00 90 0084 01802 0210 395334 925507 209"
"148.738171"
"$GPGGA,174255,2543.7650,N,08001.6335,W,1,10,1.5,16"
"##MN-00 00 90 0084 01799 0211 394921 925507 209"
"148.738218"
"$GPGGA,174259,2543.7678,N,08001.6348,W,1,10,1.5,17"
"##MN-00 00 90 0084 01797 0211 394913 925507 209"
"148.738264"
"$GPGGA,174303,2543.7703,N,08001.6365,W,1,9,2.7,17,"
"##MN-00 00 89 0084 01800 0212 394763 925507 209"
"148.73831"
"$GPGGA,174307,2543.7733,N,08001.6366,W,1,10,1.5,17"
"##MN-00 00 90 0084 01799 0213 395373 925507 209"
"148.738357"
"$GPGGA,174311,2543.7755,N,08001.6392,W,1,9,2.7,17,"
"##MN-00 00 90 0084 01799 0213 394608 925508 209"
"148.738403"
"$GPGGA,174315,2543.7782,N,08001.6405,W,1,10,1.5,18"
"##MN-00 00 90 0084 01799 0214 393546 925506 209"
"148.738449"
"$GPGGA,174319,2543.7809,N,08001.6414,W,1,10,1.5,18"
"##MN-00 00 90 0084 01800 0214 393233 925507 209"
"148.738495"
"$GPGGA,174323,2543.7838,N,08001.6420,W,1,10,1.5,18"
"##MN-00 00 90 0084 01799 0215 393331 925507 209"
"148.738542"
"$GPGGA,174327,2543.7867,N,08001.6427,W,1,10,1.5,18"
"##MN-00 00 90 0084 01798 0215 394857 925507 209"
"148.738588"
"$GPGGA,174331,2543.7894,N,08001.6439,W,1,9,2.7,17,"
"##MN-00 00 90 0084 01799 0216 395146 925507 209"
"148.738634"
"$GPGGA,174335,2543.7920,N,08001.6457,W,1,10,1.5,17"
"##MN-00 00 90 0084 01796 0216 395251 925507 209"
"148.738681"
"$GPGGA,174339,2543.7946,N,08001.6472,W,1,9,1.5,17,"
"##MN-00 00 90 0084 01800 0217 394782 925508 209"
"148.738727"
"$GPGGA,174343,2543.7971,N,08001.6490,W,1,10,1.5,17"
"##MN-00 00 90 0084 01799 0217 394216 925507 209"
"148.738773"
"$GPGGA,174347,2543.8000,N,08001.6503,W,1,10,1.5,17"
"##MN-00 00 90 0084 01799 0218 394039 925507 209"
"148.738819"
"$GPGGA,174351,2543.8029,N,08001.6511,W,1,10,1.5,17"
"##MN-00 00 90 0084 01800 0218 394329 925507 209"
"148.738866"
"$GPGGA,174355,2543.8057,N,08001.6522,W,1,10,1.5,16"
"##MN-00 00 90 0084 01798 0219 393781 925507 209"
"148.738912"
"$GPGGA,174359,2543.8083,N,08001.6535,W,1,10,1.5,16"
"##MN-00 00 90 0084 01799 0219 392570 925507 209"
"148.738958"
"$GPGGA,174403,2543.8111,N,08001.6544,W,1,9,1.5,16,"
"##MN-00 00 90 0084 01800 0220 392890 925507 209"
"148.739005"
"$GPGGA,174407,2543.8138,N,08001.6555,W,1,10,1.5,16"
"##MN-00 00 90 0084 01801 0220 394288 925507 209"
"148.739051"
"$GPGGA,174411,2543.8165,N,08001.6568,W,1,10,1.5,15"
"##MN-00 00 90 0084 01799 0221 396345 925507 209"
"148.739097"
"$GPGGA,174415,2543.8192,N,08001.6577,W,1,10,1.5,15"
"##MN-00 00 90 0084 01799 0221 397563 925507 209"
"148.739144"
"$GPGGA,174419,2543.8219,N,08001.6589,W,1,9,1.5,15,"
"##MN-00 00 90 0084 01799 0221 398790 925507 209"
"148.73919"
"$GPGGA,174423,2543.8246,N,08001.6598,W,1,10,1.7,15"
"##MN-00 00 90 0084 01800 0222 398474 925507 209"
"148.739236"
"$GPGGA,174427,2543.8273,N,08001.6609,W,1,9,1.5,15,"
"##MN-00 00 90 0084 01802 0223 400337 925507 209"
"148.739282"
"$GPGGA,174431,2543.8300,N,08001.6620,W,1,9,1.5,15,"
"##MN-00 00 90 0084 01799 0223 400384 925507 209"
"148.739329"
"$GPGGA,174435,2543.8329,N,08001.6631,W,1,9,1.5,15,"
"##MN-00 00 90 0084 01799 0224 400780 925508 209"
"148.739375"
"$GPGGA,174439,2543.8354,N,08001.6641,W,1,10,1.5,15"
"##MN-00 00 90 0084 01799 0224 400512 925507 209"
"148.739421"
"$GPGGA,174443,2543.8376,N,08001.6652,W,1,9,1.5,15,"
"##MN-00 00 90 0084 01801 0225 401146 925507 209"
"148.739468"
"$GPGGA,174447,2543.8402,N,08001.6663,W,1,10,1.5,15"
"##MN-00 00 90 0084 01800 0225 401952 925507 209"
"148.739514"
"$GPGGA,174451,2543.8427,N,08001.6674,W,1,10,1.5,14"
"##MN-00 00 90 0084 01800 0225 403561 925507 209"
"148.73956"
"$GPGGA,174455,2543.8452,N,08001.6687,W,1,9,1.5,14,"
"##MN-00 00 90 0084 01802 0226 403998 925507 209"
"148.739606"
"$GPGGA,174459,2543.8480,N,08001.6698,W,1,10,1.5,14"
"##MN-00 00 90 0084 01801 0226 403492 925507 209"
"148.739653"
"$GPGGA,174503,2543.8506,N,08001.6709,W,1,10,1.5,14"
"##MN-00 00 90 0084 01800 0227 404089 925507 209"
"148.739699"
"$GPGGA,174507,2543.8530,N,08001.6720,W,1,10,1.5,14"
"##MN-00 00 90 0084 01800 0227 405232 925507 209"
"148.739745"
"$GPGGA,174511,2543.8556,N,08001.6730,W,1,10,1.5,14"
"##MN-00 00 90 0084 01799 0228 405258 925507 209"
"148.739792"
"$GPGGA,174515,2543.8581,N,08001.6741,W,1,10,1.5,14"
"##MN-00 00 90 0084 01801 0228 404178 925508 209"
"148.739838"
"$GPGGA,174519,2543.8609,N,08001.6752,W,1,10,1.5,14"
"##MN-00 00 90 0084 01798 0229 402834 925508 209"
"148.739884"
"$GPGGA,174523,2543.8635,N,08001.6763,W,1,10,1.5,14"
"##MN-00 00 90 0084 01801 0229 402850 925507 209"
"148.739931"
"$GPGGA,174528,2543.8667,N,08001.6778,W,1,9,1.5,14,"
"##MN-00 00 90 0084 01801 0229 402289 925507 209"
"148.739977"
"$GPGGA,174531,2543.8689,N,08001.6786,W,1,10,1.5,14"
"##MN-00 00 90 0084 01801 0230 401510 925507 209"
"148.740023"
"$GPGGA,174536,2543.8727,N,08001.6800,W,1,10,1.5,13"
"##MN-00 00 90 0084 01799 0230 400081 925507 209"
"148.740069"
"$GPGGA,174539,2543.8745,N,08001.6807,W,1,10,1.5,13"
"##MN-00 00 90 0084 01799 0231 399669 925507 209"
"148.740116"
"$GPGGA,174544,2543.8774,N,08001.6818,W,1,10,1.5,13"
"##MN-00 00 90 0084 01801 0231 400518 925507 209"
"148.740162"
"$GPGGA,174547,2543.8795,N,08001.6826,W,1,10,1.5,13"
"##MN-00 00 90 0084 01800 0231 401212 925507 209"
"148.740208"
"$GPGGA,174551,2543.8821,N,08001.6837,W,1,10,1.5,13"
"##MN-00 00 90 0084 01799 0232 401722 925507 209"
"148.740255"
"$GPGGA,174555,2543.8852,N,08001.6848,W,1,9,1.5,13,"
"##MN-00 00 90 0084 01798 0232 400639 925507 209"
"148.740301"
"$GPGGA,174600,2543.8882,N,08001.6865,W,1,9,1.5,13,"
"##MN-00 00 90 0084 01799 0233 399869 925507 209"
"148.740359"
"$GPGGA,174604,2543.8911,N,08001.6876,W,1,10,1.5,13"
"##MN-00 00 90 0084 01801 0233 397967 925508 209"
"148.740405"
"$GPGGA,174608,2543.8938,N,08001.6889,W,1,10,1.5,13"
"##MN-00 00 90 0084 01797 0233 396250 925507 209"
"148.740451"
"$GPGGA,174612,2543.8965,N,08001.6900,W,1,10,1.5,13"
"##MN-00 00 90 0084 01799 0234 396615 925507 209"
"148.740498"
"$GPGGA,174616,2543.8990,N,08001.6912,W,1,10,1.5,13"
"##MN-00 00 90 0084 01801 0234 397211 925508 209"
"148.740544"
"$GPGGA,174620,2543.9016,N,08001.6926,W,1,10,1.5,14"
"##MN-00 00 90 0084 01798 0234 396362 925507 209"
"148.74059"
"$GPGGA,174624,2543.9041,N,08001.6938,W,1,10,1.5,14"
"##MN-00 00 90 0084 01798 0235 397347 925507 209"
"148.740637"
"$GPGGA,174628,2543.9065,N,08001.6951,W,1,10,1.5,14"
"##MN-00 00 90 0084 01799 0235 397319 925508 209"
"148.740683"
"$GPGGA,174632,2543.9090,N,08001.6963,W,1,10,1.5,13"
"##MN-00 00 90 0084 01798 0236 396507 925507 209"
"148.740729"
"$GPGGA,174636,2543.9113,N,08001.6976,W,1,10,1.5,13"
"##MN-00 00 90 0084 01800 0236 397353 925508 209"
"148.740775"
"$GPGGA,174640,2543.9138,N,08001.6991,W,1,10,1.5,13"
"##MN-00 00 90 0084 01800 0237 396547 925508 209"
"148.740822"
"$GPGGA,174644,2543.9164,N,08001.7005,W,1,10,1.5,13"
"##MN-00 00 90 0084 01799 0237 395751 925508 209"
"148.740868"
"$GPGGA,174648,2543.9188,N,08001.7019,W,1,10,1.5,13"
"##MN-00 00 90 0084 01801 0237 395793 925507 209"
"148.740914"
"$GPGGA,174652,2543.9213,N,08001.7034,W,1,10,1.5,13"
"##MN-00 00 90 0084 01799 0238 395811 925508 209"
"148.740961"
"$GPGGA,174656,2543.9236,N,08001.7050,W,1,10,1.5,13"
"##MN-00 00 90 0084 01797 0238 395054 925508 209"
"148.741007"
"$GPGGA,174700,2543.9261,N,08001.7074,W,1,10,1.5,14"
"##MN-00 00 90 0084 01800 0238 394746 925508 209"
"148.741053"
"$GPGGA,174704,2543.9286,N,08001.7095,W,1,10,1.5,14"
"##MN-00 00 90 0084 01799 0238 394050 925507 209"
"148.7411"
"$GPGGA,174708,2543.9310,N,08001.7117,W,1,10,1.5,14"
"##MN-00 00 90 0084 01800 0239 392322 925507 209"
"148.741146"
"$GPGGA,174712,2543.9337,N,08001.7129,W,1,10,1.5,15"
"##MN-00 00 90 0084 01801 0239 391401 925507 209"
"148.741192"
"$GPGGA,174716,2543.9362,N,08001.7146,W,1,10,1.5,15"
"##MN-00 00 90 0084 01800 0239 390556 925507 209"
"148.741238"
"$GPGGA,174720,2543.9387,N,08001.7161,W,1,10,1.5,15"
"##MN-00 00 90 0084 01799 0240 390448 925508 209"
"148.741285"
"$GPGGA,174724,2543.9413,N,08001.7175,W,1,10,1.5,15"
"##MN-00 00 90 0084 01799 0240 391447 925507 209"
"148.741331"
"$GPGGA,174728,2543.9438,N,08001.7186,W,1,10,1.5,15"
"##MN-00 00 90 0084 01798 0240 392458 925508 209"
"148.741377"
"$GPGGA,174732,2543.9464,N,08001.7198,W,1,10,1.5,15"
"##MN-00 00 90 0084 01800 0241 392835 925508 209"
"148.741424"
"$GPGGA,174736,2543.9492,N,08001.7209,W,1,10,1.5,15"
"##MN-00 00 90 0084 01799 0241 392605 925508 209"
"148.74147"
"$GPGGA,174740,2543.9518,N,08001.7220,W,1,10,1.5,15"
"##MN-00 00 90 0084 01799 0241 391343 925507 209"
"148.741516"
"$GPGGA,174744,2543.9539,N,08001.7232,W,1,10,1.5,15"
"##MN-00 00 90 0084 01801 0242 389522 925507 209"
"148.741563"
"$GPGGA,174748,2543.9565,N,08001.7244,W,1,10,1.5,15"
"##MN-00 00 90 0084 01799 0242 388904 925508 209"
"148.741609"
"$GPGGA,174752,2543.9592,N,08001.7258,W,1,10,1.5,14"
"##MN-00 00 90 0084 01798 0242 388954 925508 209"
"148.741655"
"$GPGGA,174756,2543.9622,N,08001.7276,W,1,10,1.5,15"
"##MN-00 00 90 0084 01800 0242 389031 925507 209"
"148.741701"
"$GPGGA,174800,2543.9641,N,08001.7287,W,1,10,1.5,15"
"##MN-00 00 90 0084 01799 0242 388308 925507 209"
"148.741748"
"$GPGGA,174804,2543.9665,N,08001.7308,W,1,10,1.5,15"
"##MN-00 00 90 0084 01799 0243 387186 925507 209"
"148.741794"
"$GPGGA,174808,2543.9694,N,08001.7332,W,1,10,1.8,15"
"##MN-00 00 90 0084 01798 0243 386732 925508 209"
"148.74184"
"$GPGGA,174812,2543.9717,N,08001.7356,W,1,10,1.5,15"
"##MN-00 00 90 0084 01797 0243 385863 925507 209"
"148.741887"
"$GPGGA,174816,2543.9741,N,08001.7381,W,1,9,1.5,15,"
"##MN-00 00 90 0084 01800 0243 385115 925508 209"
"148.741933"
"$GPGGA,174820,2543.9763,N,08001.7408,W,1,9,1.5,15,"
"##MN-00 00 90 0084 01799 0244 384004 925508 209"
"148.741979"
"$GPGGA,174824,2543.9789,N,08001.7440,W,1,8,1.7,15,"
"##MN-00 00 90 0084 01800 0244 382626 925508 209"
"148.742025"
"$GPGGA,174828,2543.9818,N,08001.7467,W,1,9,1.6,15,"
"##MN-00 00 90 0084 01798 0244 381302 925507 209"
"148.742072"
"$GPGGA,174832,2543.9846,N,08001.7486,W,1,9,1.6,16,"
"##MN-00 00 90 0084 01801 0244 380335 925507 209"
"148.742118"
"$GPGGA,174836,2543.9872,N,08001.7507,W,1,10,1.7,16"
"##MN-00 00 90 0084 01800 0245 381347 925508 209"
"148.742164"
"$GPGGA,174840,2543.9899,N,08001.7525,W,1,9,3.0,17,"
"##MN-00 00 90 0084 01799 0245 382994 925507 209"
"148.742211"
"$GPGGA,174844,2543.9925,N,08001.7541,W,1,9,1.6,17,"
"##MN-00 00 90 0084 01802 0246 383177 925507 209"
"148.742257"
"$GPGGA,174848,2543.9951,N,08001.7561,W,1,8,1.6,17,"
"##MN-00 00 90 0084 01799 0246 383489 925508 209"
"148.742303"
"$GPGGA,174852,2543.9983,N,08001.7573,W,1,9,1.5,18,"
"##MN-00 00 90 0084 01800 0246 383583 925508 209"
"148.74235"
"$GPGGA,174856,2544.0013,N,08001.7585,W,1,10,1.5,18"
"##MN-00 00 90 0084 01801 0246 384168 925508 209"
"148.742396"
"$GPGGA,174900,2544.0042,N,08001.7601,W,1,9,1.9,19,"
"##MN-00 00 90 0084 01799 0246 385642 925507 209"
"148.742442"
"$GPGGA,174904,2544.0070,N,08001.7615,W,1,10,1.5,19"
"##MN-00 00 90 0084 01799 0246 387246 925507 209"
"148.742488"
"$GPGGA,174908,2544.0103,N,08001.7627,W,1,9,1.7,20,"
"##MN-00 00 90 0084 01798 0247 389088 925507 209"
"148.742535"
"$GPGGA,174912,2544.0134,N,08001.7641,W,1,9,1.6,20,"
"##MN-00 00 90 0084 01799 0247 391726 925507 209"
"148.742581"
"$GPGGA,174916,2544.0164,N,08001.7657,W,1,9,1.7,21,"
"##MN-00 00 90 0084 01799 0247 392574 925507 209"
"148.742627"
"$GPGGA,174920,2544.0193,N,08001.7673,W,1,9,1.8,21,"
"##MN-00 00 90 0084 01800 0247 393019 925507 209"
"148.742674"
"$GPGGA,174924,2544.0222,N,08001.7692,W,1,7,2.6,21,"
"##MN-00 00 90 0084 01799 0248 393433 925507 209"
"148.74272"
"$GPGGA,174928,2544.0253,N,08001.7710,W,1,7,1.7,20,"
"##MN-00 00 90 0084 01799 0248 392329 925507 209"
"148.742766"
"$GPGGA,174932,2544.0286,N,08001.7729,W,1,9,1.6,20,"
"##MN-00 00 90 0084 01798 0248 392410 925507 209"
"148.742812"
"$GPGGA,174936,2544.0318,N,08001.7753,W,1,10,1.5,21"
"##MN-00 00 90 0084 01802 0248 392527 925507 209"
"148.742859"
"$GPGGA,174940,2544.0351,N,08001.7775,W,1,9,1.6,21,"
"##MN-00 00 90 0084 01797 0249 391135 925507 209"
"148.742905"
"$GPGGA,174944,2544.0383,N,08001.7796,W,1,10,1.5,21"
"##MN-00 00 90 0084 01799 0249 390595 925508 209"
"148.742951"
"$GPGGA,174948,2544.0414,N,08001.7818,W,1,10,1.5,22"
"##MN-00 00 90 0084 01800 0249 391477 925507 209"
"148.742998"
"$GPGGA,174952,2544.0446,N,08001.7836,W,1,10,1.5,22"
"##MN-00 00 90 0084 01799 0249 392693 925508 209"
"148.743044"
"$GPGGA,174956,2544.0475,N,08001.7857,W,1,10,1.5,22"
"##MN-00 00 90 0084 01798 0249 395191 925507 209"
"148.74309"
"$GPGGA,175000,2544.0507,N,08001.7876,W,1,10,1.6,22"
"##MN-00 00 90 0084 01800 0250 398201 925507 209"
"148.743137"
"$GPGGA,175004,2544.0536,N,08001.7894,W,1,10,1.5,22"
"##MN-00 00 90 0084 01800 0250 401037 925508 209"
"148.743183"
"$GPGGA,175008,2544.0565,N,08001.7913,W,1,8,1.9,22,"
"##MN-00 00 90 0084 01800 0250 402344 925507 209"
"148.743229"
"$GPGGA,175013,2544.0602,N,08001.7934,W,1,10,1.5,22"
"##MN-00 00 90 0084 01799 0250 402241 925507 209"
"148.743275"
"$GPGGA,175016,2544.0626,N,08001.7945,W,1,9,1.6,22,"
"##MN-00 00 90 0084 01798 0251 403631 925508 209"
"148.743322"
"$GPGGA,175020,2544.0656,N,08001.7960,W,1,9,1.9,21,"
"##MN-00 00 90 0084 01800 0251 404827 925507 209"
"148.743368"
"$GPGGA,175025,2544.0691,N,08001.7977,W,1,8,1.9,21,"
"##MN-00 00 90 0084 01798 0251 403641 925507 209"
"148.743414"
"$GPGGA,175028,2544.0714,N,08001.7989,W,1,8,1.9,21,"
"##MN-00 00 90 0084 01800 0251 402692 925507 209"
"148.743461"
"$GPGGA,175033,2544.0753,N,08001.8007,W,1,10,1.5,20"
"##MN-00 00 90 0084 01799 0251 402720 925506 209"
"148.743507"
"$GPGGA,175037,2544.0782,N,08001.8020,W,1,10,1.5,20"
"##MN-00 00 90 0084 01798 0252 402852 925507 209"
"148.743553"
"$GPGGA,175041,2544.0813,N,08001.8033,W,1,10,1.5,20"
"##MN-00 00 90 0084 01798 0252 403391 925508 209"
"148.743611"
"$GPGGA,175045,2544.0843,N,08001.8046,W,1,10,1.5,20"
"##MN-00 00 90 0084 01799 0252 403773 925507 209"
"148.743657"
"$GPGGA,175049,2544.0873,N,08001.8058,W,1,10,1.5,19"
"##MN-00 00 90 0084 01798 0252 403878 925507 209"
"148.743704"
"$GPGGA,175053,2544.0907,N,08001.8066,W,1,10,1.5,19"
"##MN-00 00 90 0084 01801 0252 403497 925507 209"
"148.74375"
"$GPGGA,175057,2544.0938,N,08001.8085,W,1,9,1.5,19,"
"##MN-00 00 89 0084 01800 0252 403646 925507 209"
"148.743796"
"$GPGGA,175101,2544.0965,N,08001.8103,W,1,10,1.5,19"
"##MN-00 00 89 0084 01800 0253 402890 925507 209"
"148.743843"
"$GPGGA,175105,2544.0988,N,08001.8137,W,1,9,1.6,19,"
"##MN-00 00 89 0084 01799 0253 402423 925507 209"
"148.743889"
"$GPGGA,175109,2544.1014,N,08001.8183,W,1,10,1.9,19"
"##MN-00 00 89 0084 01799 0253 401450 925507 209"
"148.743935"
"$GPGGA,175113,2544.1042,N,08001.8235,W,1,10,1.5,19"
"##MN-00 00 90 0084 01798 0253 400249 925507 209"
"148.743982"
"$GPGGA,175117,2544.1078,N,08001.8300,W,1,10,1.5,19"
"##MN-00 00 90 0084 01798 0253 398479 925508 209"
"148.744028"
"$GPGGA,175121,2544.1122,N,08001.8367,W,1,9,1.8,19,"
"##MN-00 00 90 0084 01799 0253 397705 925507 209"
"148.744074"
"$GPGGA,175125,2544.1176,N,08001.8434,W,1,10,1.5,19"
"##MN-00 00 90 0084 01796 0253 398504 925507 209"
"148.74412"
"$GPGGA,175129,2544.1244,N,08001.8499,W,1,9,1.8,19,"
"##MN-00 00 89 0084 01798 0253 400011 925507 209"
"148.744167"
"$GPGGA,175133,2544.1316,N,08001.8556,W,1,10,1.5,19"
"##MN-00 00 90 0084 01799 0253 401379 925507 209"
"148.744213"
"$GPGGA,175137,2544.1396,N,08001.8609,W,1,10,1.5,19"
"##MN-00 00 90 0084 01797 0253 403354 925507 209"
"148.744259"
"$GPGGA,175141,2544.1486,N,08001.8650,W,1,10,1.5,19"
"##MN-00 00 90 0084 01801 0252 406971 925508 209"
"148.744306"
"$GPGGA,175145,2544.1581,N,08001.8685,W,1,9,1.5,19,"
"##MN-00 00 89 0084 01798 0251 410494 925507 209"
"148.744352"
"$GPGGA,175149,2544.1685,N,08001.8708,W,1,10,1.5,19"
"##MN-00 00 90 0084 01800 0250 412290 925507 209"
"148.744398"
"$GPGGA,175153,2544.1794,N,08001.8719,W,1,10,1.6,19"
"##MN-00 00 89 0084 01798 0249 412025 925508 209"
"148.744444"
"$GPGGA,175157,2544.1906,N,08001.8717,W,1,10,1.5,19"
"##MN-00 00 89 0084 01796 0248 410414 925507 209"
"148.744491"
"$GPGGA,175201,2544.2023,N,08001.8705,W,1,10,1.7,18"
"##MN-00 00 90 0084 01798 0247 409248 925508 209"
"148.744537"
"$GPGGA,175205,2544.2141,N,08001.8685,W,1,10,1.5,19"
"##MN-00 00 90 0084 01800 0245 407933 925508 209"
"148.744583"
"$GPGGA,175209,2544.2258,N,08001.8658,W,1,8,1.6,19,"
"##MN-00 00 90 0084 01797 0243 406457 925507 209"
"148.74463"
"$GPGGA,175213,2544.2372,N,08001.8624,W,1,9,1.5,18,"
"##MN-00 00 90 0084 01799 0242 405931 925507 209"
"148.744676"
"$GPGGA,175217,2544.2484,N,08001.8580,W,1,10,1.5,18"
"##MN-00 00 90 0084 01798 0240 404562 925507 209"
"148.744722"
"$GPGGA,175221,2544.2594,N,08001.8533,W,1,10,1.5,18"
"##MN-00 00 90 0084 01798 0237 401831 925507 209"
"148.744769"
"$GPGGA,175225,2544.2699,N,08001.8476,W,1,10,1.5,18"
"##MN-00 00 90 0084 01798 0235 399224 925507 209"
"148.744815"
"$GPGGA,175229,2544.2801,N,08001.8414,W,1,10,1.5,18"
"##MN-00 00 90 0084 01801 0232 397193 925508 209"
"148.744861"
"$GPGGA,175233,2544.2898,N,08001.8347,W,1,9,1.7,18,"
"##MN-00 00 90 0084 01798 0229 395824 925507 209"
"148.744907"
"$GPGGA,175237,2544.2990,N,08001.8274,W,1,10,1.5,18"
"##MN-00 00 90 0084 01798 0226 395465 925507 209"
"148.744954"
"$GPGGA,175241,2544.3076,N,08001.8198,W,1,10,1.5,18"
"##MN-00 00 89 0084 01799 0223 395131 925507 209"
"148.745"
"$GPGGA,175245,2544.3156,N,08001.8116,W,1,10,1.5,18"
"##MN-00 00 90 0084 01800 0219 393909 925508 209"
"148.745046"
"$GPGGA,175249,2544.3235,N,08001.8029,W,1,10,1.5,18"
"##MN-00 00 90 0084 01799 0216 394165 925507 209"
"148.745093"
"$GPGGA,175253,2544.3308,N,08001.7938,W,1,10,1.5,18"
"##MN-00 00 90 0084 01801 0211 393943 925508 209"
"148.745139"
"$GPGGA,175257,2544.3386,N,08001.7847,W,1,10,1.5,18"
"##MN-00 00 90 0084 01798 0207 395180 925507 209"
"148.745185"
"$GPGGA,175301,2544.3463,N,08001.7757,W,1,10,1.5,18"
"##MN-00 00 90 0084 01800 0202 397208 925508 209"
"148.745231"
"$GPGGA,175305,2544.3545,N,08001.7667,W,1,10,1.5,18"
"##MN-00 00 89 0084 01799 0198 397306 925507 209"
"148.745278"
"$GPGGA,175309,2544.3628,N,08001.7581,W,1,10,1.5,17"
"##MN-00 00 90 0084 01800 0193 396787 925507 209"
"148.745324"
"$GPGGA,175313,2544.3716,N,08001.7498,W,1,10,1.5,17"
"##MN-00 00 90 0084 01802 0188 396675 925507 209"
"148.74537"
"$GPGGA,175317,2544.3809,N,08001.7420,W,1,10,1.5,17"
"##MN-00 00 90 0084 01801 0183 395114 925507 209"
"148.745417"
"$GPGGA,175321,2544.3910,N,08001.7347,W,1,10,1.5,17"
"##MN-00 00 90 0084 01799 0177 393496 925508 209"
"148.745463"
"$GPGGA,175325,2544.4015,N,08001.7276,W,1,10,1.5,17"
"##MN-00 00 89 0084 01801 0171 393230 925508 209"
"148.745509"
"$GPGGA,175329,2544.4120,N,08001.7209,W,1,10,1.5,16"
"##MN-00 00 90 0084 01802 0165 392014 925508 209"
"148.745556"
"$GPGGA,175333,2544.4227,N,08001.7143,W,1,10,1.5,16"
"##MN-00 00 90 0084 01802 0159 390652 925507 209"
"148.745602"
"$GPGGA,175337,2544.4333,N,08001.7077,W,1,10,1.5,16"
"##MN-00 00 90 0084 01803 0152 388686 925508 209"
"148.745648"
"$GPGGA,175341,2544.4438,N,08001.7010,W,1,10,1.5,16"
"##MN-00 00 90 0084 01803 0146 387405 925508 209"
"148.745694"
"$GPGGA,175345,2544.4543,N,08001.6944,W,1,10,1.5,16"
"##MN-00 00 90 0084 01803 0139 386574 925507 209"
"148.745741"
"$GPGGA,175349,2544.4648,N,08001.6876,W,1,10,1.5,16"
"##MN-00 00 89 0084 01804 0132 386226 925507 209"
"148.745787"
"$GPGGA,175353,2544.4751,N,08001.6808,W,1,9,1.5,15,"
"##MN-00 00 90 0084 01803 0125 385837 925508 209"
"148.745833"
"$GPGGA,175357,2544.4853,N,08001.6734,W,1,10,1.5,15"
"##MN-00 00 90 0084 01803 0118 385603 925507 209"
"148.74588"
"$GPGGA,175401,2544.4951,N,08001.6660,W,1,10,1.5,15"
"##MN-00 00 90 0084 01803 0110 384769 925507 209"
"148.745926"
"$GPGGA,175405,2544.5045,N,08001.6587,W,1,10,1.5,15"
"##MN-00 00 90 0084 01803 0110 384769 925507 209"
"148.746875"
""
"##MN-00 00 90 0084 01802 8103 391329 923513 209"
"148.746921"
"$GPGGA,175531,2544.7071,N,08001.4917,W,1,10,1.5,18"
"##MN-00 00 90 0084 01805 8096 381582 925508 209"
"148.746968"
"$GPGGA,175535,2544.7165,N,08001.4835,W,1,10,1.5,18"
"##MN-00 00 90 0084 01802 8090 381123 925507 209"
"148.747014"
"$GPGGA,175539,2544.7260,N,08001.4754,W,1,10,1.5,18"
"##MN-00 00 89 0084 01801 8082 380029 925508 209"
"148.74706"
"$GPGGA,175543,2544.7379,N,08001.4658,W,1,10,1.5,18"
"##MN-00 00 90 0084 01803 8075 379675 925508 209"
"148.747106"
"$GPGGA,175547,2544.7475,N,08001.4581,W,1,9,1.7,18,"
"##MN-00 00 90 0084 01804 8068 379802 925507 209"
"148.747153"
"$GPGGA,175551,2544.7545,N,08001.4523,W,1,10,1.5,18"
"##MN-00 00 90 0084 01806 8060 380445 925507 209"
"148.747199"
"$GPGGA,175555,2544.7665,N,08001.4426,W,1,10,1.5,18"
"##MN-00 00 90 0084 01807 8053 379311 925507 209"
"148.747245"
"$GPGGA,175559,2544.7764,N,08001.4349,W,1,10,1.5,18"
"##MN-00 00 89 0084 01806 8045 379146 925507 209"
"148.747292"
"$GPGGA,175603,2544.7862,N,08001.4270,W,1,10,1.5,18"
"##MN-00 00 90 0084 01808 8038 378417 925507 209"
"148.747338"
"$GPGGA,175607,2544.7959,N,08001.4195,W,1,10,1.5,18"
"##MN-00 00 89 0084 01808 8030 376887 925507 209"
"148.747384"
"$GPGGA,175611,2544.8055,N,08001.4119,W,1,9,1.5,18,"
"##MN-00 00 90 0084 01808 8023 376131 925507 209"
"148.747431"
"$GPGGA,175615,2544.8154,N,08001.4046,W,1,10,1.5,18"
"##MN-00 00 90 0084 01809 8015 375423 925507 209"
"148.747477"
"$GPGGA,175619,2544.8250,N,08001.3970,W,1,9,1.5,18,"
"##MN-00 00 90 0084 01807 8008 374364 925507 209"
"148.747523"
"$GPGGA,175623,2544.8349,N,08001.3892,W,1,10,1.5,18"
"##MN-00 00 90 0084 01807 8000 373448 925507 209"
"148.747569"
"$GPGGA,175627,2544.8448,N,08001.3816,W,1,9,1.5,18,"
"##MN-00 00 90 0084 01807 7993 373146 925507 209"
"148.747616"
"$GPGGA,175631,2544.8546,N,08001.3739,W,1,10,1.5,17"
"##MN-00 00 90 0084 01807 7985 373021 925508 209"
"148.747662"
"$GPGGA,175635,2544.8644,N,08001.3661,W,1,9,2.4,17,"
"##MN-00 00 90 0084 01808 7978 372749 925507 209"
"148.747708"
"$GPGGA,175639,2544.8743,N,08001.3583,W,1,10,1.5,17"
"##MN-00 00 90 0084 01809 7970 372516 925507 209"
"148.747755"
"$GPGGA,175643,2544.8839,N,08001.3507,W,1,9,1.7,18,"
"##MN-00 00 90 0084 01809 7963 372319 925507 209"
"148.747801"
"$GPGGA,175647,2544.8933,N,08001.3430,W,1,10,1.5,18"
"##MN-00 00 89 0084 01806 7955 372515 925507 209"
"148.747847"
"$GPGGA,175651,2544.9027,N,08001.3350,W,1,10,1.5,18"
"##MN-00 00 90 0084 01808 7947 372397 925507 209"
"148.747893"
"$GPGGA,175655,2544.9123,N,08001.3267,W,1,10,1.5,18"
"##MN-00 00 90 0084 01808 7940 372100 925507 209"
"148.74794"
"$GPGGA,175659,2544.9218,N,08001.3188,W,1,10,1.5,18"
"##MN-00 00 90 0084 01810 7933 371757 925507 209"
"148.747986"
"$GPGGA,175703,2544.9314,N,08001.3109,W,1,10,1.5,18"
"##MN-00 00 90 0084 01809 7925 371299 925506 209"
"148.748032"
"$GPGGA,175707,2544.9409,N,08001.3031,W,1,10,1.5,18"
"##MN-00 00 90 0084 01811 7917 373043 925507 209"
"148.748079"
"$GPGGA,175711,2544.9507,N,08001.2953,W,1,10,1.5,18"
"##MN-00 00 90 0084 01812 7910 373646 925507 209"
"148.748125"
"$GPGGA,175715,2544.9604,N,08001.2876,W,1,10,1.5,19"
"##MN-00 00 90 0084 01811 7902 373319 925507 209"
"148.748171"
"$GPGGA,175719,2544.9701,N,08001.2799,W,1,10,1.5,19"
"##MN-00 00 90 0084 01810 7895 373223 925507 209"
"148.748218"
"$GPGGA,175723,2544.9798,N,08001.2721,W,1,10,1.5,19"
"##MN-00 00 90 0084 01811 7888 372750 925507 209"
"148.748264"
