" Tow: 2Cd-B   RVWS/WS1406"
" Date: 05/30/2014"
" Temperature Probe #  2597    Conductivity Probe #  2870"
" Pressure Probe #  109"
" Flow Meter Calibration  4.71 (m/count)  "
"150.995995"
"$GPGGA,235407,2523.4576,N,07940.7838,W,1,9,1.7,21,"
"##MN-00 00 38 0084 01853 5320 450459 925289 203"
"150.996042"
"$GPGGA,235416,2523.4597,N,07940.7815,W,1,8,1.6,21,"
"##MN-00 00 35 0084 01853 5320 445319 877611 203"
"150.996088"
"$GPGGA,235420,2523.4603,N,07940.7797,W,1,8,1.6,21,"
"##MN-00 00 38 0085 01856 5320 436862 445702 203"
"150.996134"
"$GPGGA,235424,2523.4610,N,07940.7782,W,1,9,1.7,21,"
"##MN-00 00 40 0085 01861 5320 436866 348548 203"
"150.996192"
"$GPGGA,235428,2523.4619,N,07940.7770,W,1,9,1.6,21,"
"##MN-00 00 43 0086 01866 5320 436857 347636 203"
"150.996238"
"$GPGGA,235432,2523.4626,N,07940.7761,W,1,9,1.6,21,"
"##MN-00 00 45 0086 01868 5320 436881 350069 203"
"150.996285"
"$GPGGA,235436,2523.4636,N,07940.7745,W,1,9,2.4,21,"
"##MN-00 00 46 0087 01871 5319 436863 349455 203"
"150.996331"
"$GPGGA,235440,2523.4646,N,07940.7739,W,1,9,1.6,21,"
"##MN-00 00 46 0088 01878 5319 436837 347454 203"
"150.996377"
"$GPGGA,235444,2523.4659,N,07940.7722,W,1,9,1.6,21,"
"##MN-00 00 47 0088 01884 5319 436832 347434 203"
"150.996424"
"$GPGGA,235448,2523.4669,N,07940.7710,W,1,8,1.7,21,"
"##MN-00 00 48 0089 01891 5319 436852 347430 203"
"150.99647"
"$GPGGA,235452,2523.4677,N,07940.7702,W,1,8,1.6,21,"
"##MN-00 00 48 0090 01894 5319 436835 347404 203"
"150.996516"
"$GPGGA,235456,2523.4690,N,07940.7685,W,1,8,1.7,22,"
"##MN-00 00 48 0090 01899 5319 436840 347406 203"
"150.996562"
"$GPGGA,235500,2523.4701,N,07940.7681,W,1,8,1.7,22,"
"##MN-00 00 48 0091 01906 5319 436882 347424 203"
"150.996609"
"$GPGGA,235504,2523.4712,N,07940.7666,W,1,9,1.6,22,"
"##MN-00 00 46 0092 01911 5319 436937 347422 203"
"150.996655"
"$GPGGA,235508,2523.4724,N,07940.7666,W,1,9,1.6,22,"
"##MN-00 00 48 0092 01918 5319 436961 347416 203"
"150.996701"
"$GPGGA,235512,2523.4738,N,07940.7659,W,1,9,1.6,22,"
"##MN-00 00 48 0093 01926 5319 437106 347467 203"
"150.996748"
"$GPGGA,235516,2523.4749,N,07940.7652,W,1,9,1.6,22,"
"##MN-00 00 46 0094 01930 5319 437227 347493 203"
"150.996794"
"$GPGGA,235520,2523.4760,N,07940.7644,W,1,9,1.6,22,"
"##MN-00 00 48 0094 01938 5319 437311 347524 203"
"150.99684"
"$GPGGA,235524,2523.4771,N,07940.7634,W,1,9,1.6,22,"
"##MN-00 00 46 0095 01944 5320 437397 347564 203"
"150.996887"
"$GPGGA,235528,2523.4781,N,07940.7621,W,1,9,1.6,22,"
"##MN-00 00 47 0095 01953 5320 437724 347694 203"
"150.996933"
"$GPGGA,235532,2523.4792,N,07940.7606,W,1,9,1.7,22,"
"##MN-00 00 48 0096 01958 5320 438051 347764 203"
"150.996979"
"$GPGGA,235536,2523.4802,N,07940.7594,W,1,9,1.6,22,"
"##MN-00 00 46 0097 01965 5320 438193 347792 203"
"150.997025"
"$GPGGA,235540,2523.4811,N,07940.7580,W,1,8,1.6,23,"
"##MN-00 00 46 0097 01970 5320 438250 347820 203"
"150.997072"
"$GPGGA,235544,2523.4824,N,07940.7572,W,1,8,1.7,23,"
"##MN-00 00 46 0098 01976 5320 438296 347830 203"
"150.997118"
"$GPGGA,235548,2523.4835,N,07940.7560,W,1,8,1.7,23,"
"##MN-00 00 45 0098 01982 5320 438350 347846 203"
"150.997164"
"$GPGGA,235552,2523.4846,N,07940.7549,W,1,9,1.7,23,"
"##MN-00 00 46 0099 01987 5320 438393 347852 203"
"150.997211"
"$GPGGA,235556,2523.4859,N,07940.7542,W,1,9,1.7,23,"
"##MN-00 00 46 0099 01994 5320 438403 347855 203"
"150.997257"
"$GPGGA,235600,2523.4870,N,07940.7532,W,1,8,1.6,23,"
"##MN-00 00 45 0100 02003 5320 438420 347860 203"
"150.997303"
"$GPGGA,235604,2523.4883,N,07940.7527,W,1,8,1.7,24,"
"##MN-00 00 45 0101 02006 5321 438440 347866 203"
"150.99735"
"$GPGGA,235608,2523.4894,N,07940.7516,W,1,8,1.7,24,"
"##MN-00 00 46 0101 02013 5321 438459 347873 203"
"150.997396"
"$GPGGA,235612,2523.4907,N,07940.7506,W,1,8,1.6,24,"
"##MN-00 00 44 0102 02019 5321 438484 347879 203"
"150.997442"
"$GPGGA,235616,2523.4919,N,07940.7497,W,1,8,1.7,24,"
"##MN-00 00 47 0102 02024 5321 438507 347886 203"
"150.997488"
"$GPGGA,235620,2523.4933,N,07940.7491,W,1,8,1.6,24,"
"##MN-00 00 44 0103 02030 5321 438535 347897 203"
"150.997535"
"$GPGGA,235624,2523.4944,N,07940.7478,W,1,8,1.7,24,"
"##MN-00 00 45 0103 02037 5321 438549 347903 203"
"150.997581"
"$GPGGA,235628,2523.4955,N,07940.7470,W,1,9,1.7,23,"
"##MN-00 00 44 0104 02039 5321 438557 347904 203"
"150.997627"
"$GPGGA,235632,2523.4969,N,07940.7462,W,1,8,1.6,23,"
"##MN-00 00 45 0104 02045 5322 438570 347909 203"
"150.997674"
"$GPGGA,235636,2523.4983,N,07940.7455,W,1,9,1.6,23,"
"##MN-00 00 44 0105 02051 5322 438580 347911 203"
"150.99772"
"$GPGGA,235640,2523.4998,N,07940.7446,W,1,10,1.5,23"
"##MN-00 00 45 0106 02056 5322 438582 347913 203"
"150.997766"
"$GPGGA,235644,2523.5013,N,07940.7441,W,1,10,1.5,23"
"##MN-00 00 45 0106 02062 5322 438588 347914 203"
"150.997813"
"$GPGGA,235648,2523.5027,N,07940.7434,W,1,10,1.5,23"
"##MN-00 00 45 0107 02065 5323 438598 347918 203"
"150.997859"
"$GPGGA,235652,2523.5040,N,07940.7422,W,1,10,1.5,23"
"##MN-00 00 44 0107 02071 5323 438635 347935 203"
"150.997905"
"$GPGGA,235656,2523.5051,N,07940.7408,W,1,10,1.5,22"
"##MN-00 00 45 0108 02074 5323 438691 347962 203"
"150.997951"
"$GPGGA,235700,2523.5062,N,07940.7395,W,1,10,1.7,22"
"##MN-00 00 42 0108 02079 5323 438756 347970 203"
"150.997998"
"$GPGGA,235704,2523.5074,N,07940.7386,W,1,10,1.5,22"
"##MN-00 00 44 0109 02085 5323 438807 347982 203"
"150.998044"
"$GPGGA,235708,2523.5085,N,07940.7372,W,1,9,1.7,22,"
"##MN-00 00 44 0109 02087 5323 438861 347998 203"
"150.99809"
"$GPGGA,235712,2523.5096,N,07940.7358,W,1,9,1.7,22,"
"##MN-00 00 46 0110 02093 5324 438920 348011 203"
"150.998137"
"$GPGGA,235716,2523.5107,N,07940.7344,W,1,9,1.7,22,"
"##MN-00 00 43 0111 02098 5324 438984 348024 203"
"150.998183"
"$GPGGA,235720,2523.5118,N,07940.7332,W,1,10,1.5,23"
"##MN-00 00 44 0111 02100 5324 439033 348037 203"
"150.998229"
"$GPGGA,235724,2523.5132,N,07940.7327,W,1,10,1.7,23"
"##MN-00 00 44 0112 02104 5324 439076 348049 203"
"150.998275"
"$GPGGA,235728,2523.5146,N,07940.7322,W,1,9,1.5,22,"
"##MN-00 00 43 0112 02112 5324 439132 348062 203"
"150.998322"
"$GPGGA,235732,2523.5157,N,07940.7311,W,1,9,1.5,22,"
"##MN-00 00 44 0113 02115 5325 439150 348067 203"
"150.998368"
"$GPGGA,235736,2523.5171,N,07940.7303,W,1,10,1.5,22"
"##MN-00 00 44 0113 02120 5325 439154 348069 203"
"150.998414"
"$GPGGA,235740,2523.5183,N,07940.7293,W,1,9,1.5,22,"
"##MN-00 00 44 0114 02126 5325 439173 348075 203"
"150.998461"
"$GPGGA,235744,2523.5197,N,07940.7286,W,1,10,1.5,22"
"##MN-00 00 45 0114 02134 5326 439199 348081 203"
"150.998507"
"$GPGGA,235748,2523.5208,N,07940.7276,W,1,10,1.7,21"
"##MN-00 00 44 0115 02136 5326 439212 348081 203"
"150.998553"
"$GPGGA,235752,2523.5219,N,07940.7261,W,1,10,1.7,21"
"##MN-00 00 42 0116 02142 5326 439257 348087 203"
"150.9986"
"$GPGGA,235756,2523.5230,N,07940.7252,W,1,9,1.5,21,"
"##MN-00 00 44 0116 02146 5326 439348 348116 203"
"150.998646"
"$GPGGA,235800,2523.5240,N,07940.7238,W,1,10,1.7,21"
"##MN-00 00 44 0117 02152 5326 439531 348188 203"
"150.998692"
"$GPGGA,235804,2523.5253,N,07940.7227,W,1,10,1.7,21"
"##MN-00 00 43 0117 02157 5326 439962 348297 203"
"150.998738"
"$GPGGA,235808,2523.5265,N,07940.7216,W,1,10,1.7,21"
"##MN-00 00 44 0118 02166 5327 440447 348468 203"
"150.998785"
"$GPGGA,235812,2523.5277,N,07940.7208,W,1,9,1.5,21,"
"##MN-00 00 44 0118 02171 5327 440975 348650 203"
"150.998831"
"$GPGGA,235817,2523.5294,N,07940.7198,W,1,10,1.5,21"
"##MN-00 00 45 0119 02176 5327 442222 349099 203"
"150.998877"
"$GPGGA,235821,2523.5307,N,07940.7190,W,1,9,1.7,21,"
"##MN-00 00 44 0119 02182 5328 443607 349737 203"
"150.998924"
"$GPGGA,235825,2523.5318,N,07940.7179,W,1,9,1.8,21,"
"##MN-00 00 45 0120 02187 5328 445508 350098 203"
"150.99897"
"$GPGGA,235829,2523.5333,N,07940.7175,W,1,9,1.6,21,"
"##MN-00 00 44 0120 02191 5328 445745 350191 203"
"150.999016"
"$GPGGA,235833,2523.5342,N,07940.7159,W,1,9,1.6,20,"
"##MN-00 00 43 0121 02198 5328 445989 350370 203"
"150.999063"
"$GPGGA,235837,2523.5356,N,07940.7148,W,1,8,1.6,20,"
"##MN-00 00 45 0121 02202 5329 446426 350439 203"
"150.999109"
"$GPGGA,235841,2523.5369,N,07940.7136,W,1,8,1.8,21,"
"##MN-00 00 42 0122 02205 5329 446533 350455 203"
"150.999155"
"$GPGGA,235845,2523.5384,N,07940.7136,W,1,8,1.8,21,"
"##MN-00 00 42 0122 02210 5329 446595 350491 203"
"150.999201"
"$GPGGA,235849,2523.5398,N,07940.7131,W,1,9,1.6,20,"
"##MN-00 00 44 0123 02218 5329 446645 350509 203"
"150.999248"
"$GPGGA,235853,2523.5407,N,07940.7118,W,1,8,1.6,20,"
"##MN-00 00 43 0124 02223 5329 446663 350522 203"
"150.999306"
"$GPGGA,235857,2523.5417,N,07940.7103,W,1,8,1.8,20,"
"##MN-00 00 43 0124 02228 5330 446688 350533 203"
"150.999352"
"$GPGGA,235901,2523.5428,N,07940.7092,W,1,9,1.6,20,"
"##MN-00 00 43 0125 02237 5330 446729 350551 203"
"150.999398"
"$GPGGA,235905,2523.5441,N,07940.7084,W,1,8,1.7,20,"
"##MN-00 00 42 0125 02238 5331 446823 350598 203"
"150.999444"
"$GPGGA,235909,2523.5454,N,07940.7073,W,1,8,1.8,20,"
"##MN-00 00 45 0125 02248 5330 446862 350599 203"
"150.999491"
"$GPGGA,235913,2523.5468,N,07940.7065,W,1,9,1.6,20,"
"##MN-00 00 43 0126 02252 5331 446857 350594 203"
"150.999537"
"$GPGGA,235917,2523.5479,N,07940.7055,W,1,9,1.6,21,"
"##MN-00 00 44 0126 02259 5331 446889 350605 203"
"150.999583"
"$GPGGA,235921,2523.5490,N,07940.7048,W,1,9,1.6,21,"
"##MN-00 00 43 0127 02263 5331 446926 350620 203"
"150.99963"
"$GPGGA,235925,2523.5501,N,07940.7039,W,1,9,1.6,21,"
"##MN-00 00 44 0128 02269 5331 446970 350649 203"
"150.999676"
"$GPGGA,235929,2523.5513,N,07940.7030,W,1,9,1.6,21,"
"##MN-00 00 43 0128 02272 5331 447038 350674 203"
"150.999722"
"$GPGGA,235933,2523.5525,N,07940.7021,W,1,9,1.6,21,"
"##MN-00 00 43 0129 02281 5331 447070 350676 203"
"150.999768"
"$GPGGA,235937,2523.5535,N,07940.7011,W,1,9,1.6,20,"
"##MN-00 00 43 0129 02286 5331 447044 350659 203"
"150.999815"
"$GPGGA,235941,2523.5547,N,07940.7002,W,1,9,1.6,20,"
"##MN-00 00 42 0130 02292 5332 447051 350658 203"
"150.999861"
"$GPGGA,235945,2523.5558,N,07940.6991,W,1,9,1.6,20,"
"##MN-00 00 43 0130 02296 5332 447064 350659 203"
"150.999907"
"$GPGGA,235949,2523.5569,N,07940.6982,W,1,9,1.6,20,"
"##MN-00 00 43 0131 02298 5331 447078 350662 203"
"150.999954"
"$GPGGA,235953,2523.5580,N,07940.6973,W,1,9,1.6,20,"
"##MN-00 00 43 0131 02308 5332 447086 350668 203"
"151.00"
"$GPGGA,235957,2523.5594,N,07940.6964,W,1,9,1.6,20,"
"##MN-00 00 44 0132 02312 5332 447140 350689 203"
"151.000046"
"$GPGGA,000001,2523.5605,N,07940.6955,W,1,8,1.7,20,"
"##MN-00 00 41 0132 02313 5332 447177 350697 203"
"151.000093"
"$GPGGA,000006,2523.5620,N,07940.6944,W,1,9,1.6,19,"
"##MN-00 00 38 0133 02312 5332 447190 350704 203"
"151.000139"
"$GPGGA,000010,2523.5634,N,07940.6936,W,1,8,1.7,19,"
"##MN-00 00 37 0133 02313 5332 447192 350702 203"
"151.000185"
"$GPGGA,000013,2523.5643,N,07940.6928,W,1,8,1.7,19,"
"##MN-00 00 37 0134 02312 5332 447191 350704 203"
"151.000231"
"$GPGGA,000018,2523.5658,N,07940.6917,W,1,8,1.7,19,"
"##MN-00 00 40 0135 02313 5332 447193 350708 203"
"151.000278"
"$GPGGA,000022,2523.5674,N,07940.6910,W,1,9,1.6,19,"
"##MN+00 00 38 0135 02312 5332 447200 350712 203"
"151.000324"
"$GPGGA,000026,2523.5685,N,07940.6900,W,1,8,1.7,20,"
"##MN+00 00 40 0136 02316 5332 447222 350722 203"
"151.00037"
"$GPGGA,000030,2523.5695,N,07940.6889,W,1,8,1.6,20,"
"##MN+00 00 38 0136 02313 5332 447264 350740 203"
"151.000417"
"$GPGGA,000034,2523.5710,N,07940.6881,W,1,9,1.6,20,"
"##MN+00 00 38 0137 02314 5332 447298 350760 203"
"151.000463"
"$GPGGA,000038,2523.5723,N,07940.6872,W,1,9,1.6,20,"
"##MN+00 00 40 0138 02314 5332 447335 350764 203"
"151.000509"
"$GPGGA,000042,2523.5734,N,07940.6863,W,1,9,1.6,20,"
"##MN+00 00 46 0138 02315 5332 447356 350773 203"
"151.000556"
"$GPGGA,000046,2523.5745,N,07940.6854,W,1,9,1.6,20,"
"##MN-00 00 43 0139 02315 5332 447366 350772 203"
"151.000602"
"$GPGGA,000050,2523.5757,N,07940.6845,W,1,9,1.6,20,"
"##MN-00 00 42 0139 02313 5332 447355 350772 203"
"151.000648"
"#increment_net"
"$GPGGA,000054,2523.5768,N,07940.6835,W,1,9,1.6,20,"
"##MN-00 00 38 0140 02316 5332 447305 350758 203"
"151.000694"
"$GPGGA,000058,2523.5779,N,07940.6826,W,1,9,1.6,20,"
"##MN-00 00 40 0140 02313 5332 447266 350745 203"
"151.000741"
"$GPGGA,000102,2523.5790,N,07940.6816,W,1,9,1.6,20,"
"##MN-00 00 38 0141 02315 5332 447235 350733 203"
"151.000787"
"$GPGGA,000106,2523.5802,N,07940.6807,W,1,9,1.6,20,"
"##MN-00 00 39 0142 02312 5331 447223 350726 203"
"151.000845"
"$GPGGA,000110,2523.5811,N,07940.6793,W,1,9,1.6,20,"
"##MN-00 00 37 0142 02312 5331 447214 350723 203"
"151.000891"
"$GPGGA,000114,2523.5822,N,07940.6782,W,1,9,1.6,20,"
"##MN-00 00 37 0143 02313 5332 447225 350723 203"
"151.000938"
"$GPGGA,000118,2523.5835,N,07940.6771,W,1,9,1.6,20,"
"##MN-00 00 38 0143 02312 5332 447232 350727 203"
"151.000984"
"$GPGGA,000122,2523.5847,N,07940.6761,W,1,9,1.6,21,"
"##MN-00 00 36 0144 02314 5331 447236 350727 203"
"151.00103"
"$GPGGA,000126,2523.5858,N,07940.6751,W,1,9,1.6,21,"
"##MN-00 00 38 0145 02313 5331 447258 350741 203"
"151.001076"
"$GPGGA,000130,2523.5869,N,07940.6742,W,1,9,1.6,21,"
"##MN-00 00 38 0145 02314 5331 447291 350751 203"
"151.001123"
"$GPGGA,000134,2523.5880,N,07940.6734,W,1,8,1.6,21,"
"##MN+00 00 39 0146 02312 5331 447346 350768 203"
"151.001169"
"$GPGGA,000138,2523.5893,N,07940.6726,W,1,9,1.6,22,"
"##MN+00 00 36 0146 02313 5331 447364 350774 203"
"151.001215"
"$GPGGA,000142,2523.5904,N,07940.6718,W,1,9,1.6,22,"
"##MN+00 00 38 0147 02316 5331 447370 350777 203"
"151.001262"
"$GPGGA,000146,2523.5916,N,07940.6710,W,1,9,1.6,22,"
"##MN-00 00 38 0148 02313 5331 447367 350776 203"
"151.001308"
"$GPGGA,000150,2523.5930,N,07940.6702,W,1,9,1.6,23,"
"##MN-00 00 38 0148 02314 5331 447370 350777 203"
"151.001354"
"$GPGGA,000154,2523.5941,N,07940.6694,W,1,9,1.6,23,"
"##MN-00 00 36 0149 02315 5331 447375 350779 203"
"151.0014"
"$GPGGA,000158,2523.5955,N,07940.6687,W,1,9,1.6,23,"
"##MN-00 00 36 0149 02313 5330 447374 350778 203"
"151.001447"
"$GPGGA,000202,2523.5966,N,07940.6677,W,1,9,1.6,23,"
"##MN-00 00 37 0150 02316 5331 447374 350779 203"
"151.001493"
"$GPGGA,000206,2523.5977,N,07940.6668,W,1,9,1.6,23,"
"##MN+00 00 36 0151 02313 5331 447377 350780 203"
"151.001539"
"$GPGGA,000210,2523.5988,N,07940.6661,W,1,9,1.6,22,"
"##MN+00 00 38 0151 02313 5330 447382 350782 203"
"151.001586"
"$GPGGA,000214,2523.5999,N,07940.6654,W,1,9,1.7,22,"
"##MN+00 00 43 0152 02316 5330 447383 350782 203"
"151.001632"
"$GPGGA,000218,2523.6013,N,07940.6647,W,1,9,1.6,22,"
"##MN-00 00 44 0152 02315 5330 447391 350784 203"
"151.001678"
"#increment_net"
"$GPGGA,000222,2523.6026,N,07940.6640,W,1,9,1.6,22,"
"##MN-00 00 38 0153 02317 5330 447388 350784 203"
"151.001725"
"$GPGGA,000226,2523.6039,N,07940.6634,W,1,9,1.6,22,"
"##MN-00 00 40 0153 02314 5329 447380 350782 203"
"151.001771"
"$GPGGA,000230,2523.6049,N,07940.6626,W,1,9,1.6,22,"
"##MN-00 00 36 0154 02315 5329 447374 350779 203"
"151.001817"
"$GPGGA,000234,2523.6063,N,07940.6617,W,1,9,1.6,22,"
"##MN-00 00 37 0154 02314 5329 447372 350777 203"
"151.001863"
"$GPGGA,000238,2523.6073,N,07940.6609,W,1,9,1.9,22,"
"##MN-00 00 36 0155 02313 5329 447365 350776 203"
"151.00191"
"$GPGGA,000242,2523.6084,N,07940.6602,W,1,9,1.6,22,"
"##MN-00 00 36 0155 02313 5329 447345 350775 203"
"151.001956"
"$GPGGA,000246,2523.6093,N,07940.6594,W,1,9,1.6,22,"
"##MN-00 00 37 0156 02313 5329 447329 350766 203"
"151.002002"
"$GPGGA,000250,2523.6104,N,07940.6587,W,1,9,1.7,23,"
"##MN-00 00 37 0157 02313 5329 447314 350759 203"
"151.002049"
"$GPGGA,000254,2523.6118,N,07940.6579,W,1,9,1.6,23,"
"##MN-00 00 37 0157 02312 5328 447314 350757 203"
"151.002095"
"$GPGGA,000258,2523.6131,N,07940.6572,W,1,9,1.6,23,"
"##MN-00 00 37 0158 02313 5328 447305 350753 203"
"151.002141"
"$GPGGA,000302,2523.6143,N,07940.6563,W,1,9,1.6,23,"
"##MN+00 00 38 0158 02313 5328 447309 350758 203"
"151.002187"
"$GPGGA,000306,2523.6153,N,07940.6555,W,1,9,1.6,24,"
"##MN+00 00 37 0159 02313 5328 447307 350762 203"
"151.002234"
"$GPGGA,000310,2523.6165,N,07940.6546,W,1,9,1.6,24,"
"##MN+00 00 37 0160 02311 5328 447306 350761 203"
"151.00228"
"$GPGGA,000314,2523.6179,N,07940.6538,W,1,9,1.9,24,"
"##MN-00 00 37 0160 02312 5327 447316 350763 203"
"151.002326"
"$GPGGA,000318,2523.6190,N,07940.6530,W,1,9,1.6,24,"
"##MN-00 00 38 0161 02311 5327 447319 350768 203"
"151.002373"
"$GPGGA,000322,2523.6201,N,07940.6522,W,1,9,1.6,24,"
"##MN-00 00 38 0161 02311 5328 447321 350766 203"
"151.002419"
"$GPGGA,000326,2523.6212,N,07940.6515,W,1,9,1.6,25,"
"##MN-00 00 38 0162 02313 5327 447323 350765 203"
"151.002465"
"$GPGGA,000330,2523.6225,N,07940.6508,W,1,9,1.6,25,"
"##MN-00 00 37 0163 02312 5327 447334 350770 203"
"151.002512"
"$GPGGA,000334,2523.6237,N,07940.6501,W,1,9,1.6,25,"
"##MN+00 00 37 0163 02313 5327 447354 350776 203"
"151.002558"
"$GPGGA,000338,2523.6248,N,07940.6494,W,1,9,1.6,25,"
"##MN+00 00 37 0164 02312 5326 447358 350776 203"
"151.002604"
"$GPGGA,000342,2523.6262,N,07940.6485,W,1,9,1.6,25,"
"##MN+00 00 42 0165 02315 5326 447370 350779 203"
"151.00265"
"#increment_net"
"$GPGGA,000346,2523.6276,N,07940.6477,W,1,9,1.6,25,"
"##MN-00 00 43 0165 02314 5326 447381 350784 203"
"151.002697"
"$GPGGA,000350,2523.6288,N,07940.6467,W,1,9,1.6,25,"
"##MN-00 00 39 0166 02314 5326 447378 350782 203"
"151.002743"
"$GPGGA,000354,2523.6301,N,07940.6459,W,1,9,1.6,24,"
"##MN-00 00 39 0166 02313 5326 447380 350782 203"
"151.002789"
"$GPGGA,000358,2523.6313,N,07940.6450,W,1,9,1.6,24,"
"##MN-00 00 37 0167 02313 5325 447384 350784 203"
"151.002836"
"$GPGGA,000402,2523.6324,N,07940.6441,W,1,9,1.6,23,"
"##MN-00 00 38 0167 02313 5325 447390 350785 203"
"151.002882"
"$GPGGA,000406,2523.6339,N,07940.6432,W,1,8,1.6,23,"
"##MN-00 00 37 0168 02312 5325 447401 350787 203"
"151.002928"
"$GPGGA,000410,2523.6350,N,07940.6424,W,1,9,1.6,23,"
"##MN-00 00 36 0169 02315 5325 447405 350790 203"
"151.002975"
"$GPGGA,000414,2523.6364,N,07940.6415,W,1,9,1.6,23,"
"##MN-00 00 36 0169 02315 5324 447412 350791 203"
"151.003021"
"$GPGGA,000418,2523.6377,N,07940.6408,W,1,9,1.6,22,"
"##MN-00 00 34 0170 02315 5324 447419 350795 203"
"151.003067"
"$GPGGA,000422,2523.6391,N,07940.6399,W,1,9,1.6,22,"
"##MN-00 00 37 0170 02313 5324 447432 350799 203"
"151.003113"
"$GPGGA,000426,2523.6404,N,07940.6391,W,1,9,1.6,22,"
"##MN-00 00 35 0171 02316 5324 447433 350800 203"
"151.00316"
"$GPGGA,000430,2523.6415,N,07940.6383,W,1,9,1.6,21,"
"##MN+00 00 37 0171 02314 5324 447442 350806 203"
"151.003206"
"$GPGGA,000434,2523.6429,N,07940.6374,W,1,9,1.6,21,"
"##MN+00 00 36 0172 02314 5323 447447 350808 203"
"151.003252"
"$GPGGA,000438,2523.6440,N,07940.6364,W,1,9,1.6,21,"
"##MN+00 00 36 0173 02315 5323 447450 350808 203"
"151.003299"
"$GPGGA,000442,2523.6453,N,07940.6354,W,1,9,1.6,21,"
"##MN-00 00 36 0173 02315 5323 447464 350821 203"
"151.003345"
"$GPGGA,000446,2523.6465,N,07940.6345,W,1,9,1.6,21,"
"##MN-00 00 34 0174 02315 5323 447471 350821 203"
"151.003391"
"$GPGGA,000450,2523.6478,N,07940.6336,W,1,9,1.7,20,"
"##MN-00 00 37 0174 02313 5323 447489 350826 203"
"151.003438"
"$GPGGA,000455,2523.6494,N,07940.6326,W,1,8,1.7,21,"
"##MN-00 00 36 0175 02315 5323 447485 350825 203"
"151.003484"
"$GPGGA,000459,2523.6507,N,07940.6318,W,1,9,1.6,21,"
"##MN-00 00 36 0175 02313 5322 447496 350829 203"
"151.00353"
"$GPGGA,000502,2523.6516,N,07940.6311,W,1,9,1.9,21,"
"##MN+00 00 36 0176 02314 5322 447497 350829 203"
"151.003576"
"$GPGGA,000507,2523.6532,N,07940.6300,W,1,9,1.6,21,"
"##MN+00 00 34 0177 02315 5321 447496 350830 203"
"151.003623"
"$GPGGA,000510,2523.6540,N,07940.6293,W,1,9,1.9,21,"
"##MN+00 00 42 0177 02318 5322 447491 350825 203"
"151.003669"
"#increment_net"
"$GPGGA,000515,2523.6555,N,07940.6282,W,1,9,1.6,21,"
"##MN-00 00 41 0178 02316 5321 447502 350827 203"
"151.003715"
"$GPGGA,000519,2523.6566,N,07940.6273,W,1,9,1.6,21,"
"##MN-00 00 40 0178 02314 5321 447504 350828 203"
"151.003762"
"$GPGGA,000523,2523.6576,N,07940.6265,W,1,9,1.6,21,"
"##MN-00 00 37 0179 02313 5321 447507 350831 203"
"151.003808"
"$GPGGA,000527,2523.6587,N,07940.6258,W,1,9,1.6,22,"
"##MN-00 00 36 0180 02316 5321 447510 350833 203"
"151.003854"
"$GPGGA,000531,2523.6599,N,07940.6251,W,1,9,1.6,22,"
"##MN-00 00 36 0180 02316 5320 447509 350832 203"
"151.0039"
"$GPGGA,000535,2523.6612,N,07940.6243,W,1,9,1.6,22,"
"##MN-00 00 34 0181 02315 5320 447509 350832 203"
"151.003947"
"$GPGGA,000539,2523.6624,N,07940.6235,W,1,9,1.6,22,"
"##MN-00 00 36 0182 02314 5320 447511 350833 203"
"151.003993"
"$GPGGA,000543,2523.6637,N,07940.6228,W,1,9,1.6,23,"
"##MN-00 00 34 0182 02314 5320 447511 350832 203"
"151.004039"
"$GPGGA,000547,2523.6651,N,07940.6220,W,1,9,1.6,23,"
"##MN-00 00 35 0183 02315 5320 447514 350836 203"
"151.004097"
"$GPGGA,000551,2523.6663,N,07940.6212,W,1,9,1.7,23,"
"##MN-00 00 34 0184 02315 5319 447525 350842 203"
"151.004144"
"$GPGGA,000555,2523.6677,N,07940.6205,W,1,9,1.6,23,"
"##MN+00 00 33 0184 02315 5319 447536 350847 203"
"151.00419"
"$GPGGA,000559,2523.6691,N,07940.6196,W,1,9,1.6,23,"
"##MN+00 00 36 0185 02315 5319 447541 350848 203"
"151.004236"
"$GPGGA,000603,2523.6703,N,07940.6188,W,1,9,1.6,22,"
"##MN+00 00 36 0185 02316 5318 447546 350849 203"
"151.004282"
"$GPGGA,000607,2523.6717,N,07940.6178,W,1,8,1.7,22,"
"##MN-00 00 34 0186 02316 5318 447553 350851 203"
"151.004329"
"$GPGGA,000611,2523.6729,N,07940.6168,W,1,9,1.6,22,"
"##MN-00 00 36 0187 02318 5318 447555 350852 203"
"151.004375"
"$GPGGA,000615,2523.6740,N,07940.6158,W,1,9,1.6,22,"
"##MN-00 00 36 0187 02318 5318 447555 350853 203"
"151.004421"
"$GPGGA,000619,2523.6754,N,07940.6150,W,1,9,1.6,22,"
"##MN-00 00 34 0188 02318 5318 447556 350852 203"
"151.004468"
"$GPGGA,000623,2523.6765,N,07940.6139,W,1,9,1.6,22,"
"##MN+00 00 36 0188 02316 5317 447560 350854 203"
"151.004514"
"$GPGGA,000627,2523.6778,N,07940.6130,W,1,8,1.6,22,"
"##MN+00 00 34 0189 02319 5317 447561 350854 203"
"151.00456"
"$GPGGA,000631,2523.6792,N,07940.6123,W,1,9,1.6,22,"
"##MN+00 00 41 0190 02316 5317 447559 350853 203"
"151.004606"
"$GPGGA,000635,2523.6804,N,07940.6115,W,1,9,1.6,22,"
"##MN-00 00 40 0191 02315 5317 447561 350853 203"
"151.004653"
"#increment_net"
"$GPGGA,000639,2523.6816,N,07940.6108,W,1,9,1.6,22,"
"##MN-00 00 37 0191 02319 5317 447563 350853 203"
"151.004699"
"$GPGGA,000643,2523.6828,N,07940.6100,W,1,9,1.6,22,"
"##MN-00 00 35 0192 02320 5316 447572 350860 203"
"151.004745"
"$GPGGA,000647,2523.6840,N,07940.6093,W,1,9,1.6,22,"
"##MN-00 00 34 0193 02326 5316 447610 350878 203"
"151.004792"
"$GPGGA,000651,2523.6851,N,07940.6086,W,1,9,1.6,22,"
"##MN-00 00 34 0194 02328 5316 447650 350894 203"
"151.004838"
"$GPGGA,000655,2523.6862,N,07940.6078,W,1,9,1.6,22,"
"##MN-00 00 33 0195 02330 5315 447692 350915 203"
"151.004884"
"$GPGGA,000659,2523.6873,N,07940.6069,W,1,9,1.6,22,"
"##MN-00 00 33 0196 02334 5315 447746 350920 203"
"151.004931"
"$GPGGA,000703,2523.6884,N,07940.6061,W,1,9,1.6,22,"
"##MN-00 00 31 0197 02335 5315 447720 350890 203"
"151.004977"
"$GPGGA,000707,2523.6897,N,07940.6051,W,1,9,1.6,22,"
"##MN-00 00 33 0198 02328 5314 447730 350899 203"
"151.005023"
"$GPGGA,000711,2523.6908,N,07940.6042,W,1,9,1.6,22,"
"##MN-00 00 32 0199 02326 5314 447738 350914 203"
"151.005069"
"$GPGGA,000715,2523.6920,N,07940.6033,W,1,9,1.6,22,"
"##MN-00 00 32 0200 02317 5314 447664 350885 203"
"151.005116"
"$GPGGA,000719,2523.6931,N,07940.6024,W,1,9,1.6,21,"
"##MN-00 00 31 0201 02308 5314 447559 350848 203"
"151.005162"
"$GPGGA,000723,2523.6942,N,07940.6014,W,1,9,1.6,21,"
"##MN-00 00 32 0202 02303 5314 447492 350824 203"
"151.005208"
"$GPGGA,000727,2523.6956,N,07940.6005,W,1,9,1.6,21,"
"##MN-00 00 31 0203 02298 5313 447464 350816 203"
"151.005255"
"$GPGGA,000731,2523.6967,N,07940.5993,W,1,9,1.6,20,"
"##MN-00 00 32 0204 02288 5313 447410 350803 203"
"151.005301"
"$GPGGA,000735,2523.6978,N,07940.5985,W,1,9,1.6,20,"
"##MN-00 00 32 0205 02283 5313 447363 350789 203"
"151.005347"
"$GPGGA,000739,2523.6991,N,07940.5971,W,1,9,1.6,20,"
"##MN-00 00 31 0206 02278 5313 447298 350769 203"
"151.005394"
"$GPGGA,000743,2523.7002,N,07940.5959,W,1,9,1.6,20,"
"##MN-00 00 31 0207 02271 5312 447200 350746 203"
"151.00544"
"$GPGGA,000747,2523.7014,N,07940.5951,W,1,9,1.6,20,"
"##MN-00 00 30 0208 02264 5312 447116 350716 203"
"151.005486"
"$GPGGA,000751,2523.7029,N,07940.5942,W,1,8,1.9,20,"
"##MN-00 00 30 0209 02259 5311 447037 350681 203"
"151.005532"
"$GPGGA,000755,2523.7040,N,07940.5932,W,1,9,1.6,20,"
"##MN-00 00 28 0209 02250 5311 446952 350655 203"
"151.005579"
"$GPGGA,000759,2523.7052,N,07940.5920,W,1,9,1.6,20,"
"##MN-00 00 30 0210 02243 5311 446874 350630 203"
"151.005625"
"$GPGGA,000803,2523.7064,N,07940.5908,W,1,9,1.6,19,"
"##MN-00 00 30 0211 02235 5311 446832 350614 203"
"151.005671"
"$GPGGA,000807,2523.7075,N,07940.5897,W,1,9,1.6,19,"
"##MN-00 00 29 0212 02228 5311 446784 350596 203"
"151.005718"
"$GPGGA,000811,2523.7086,N,07940.5886,W,1,9,1.6,19,"
"##MN-00 00 29 0213 02221 5310 446756 350603 203"
"151.005764"
"$GPGGA,000815,2523.7097,N,07940.5874,W,1,9,1.6,19,"
"##MN-00 00 30 0214 02214 5310 446741 350599 203"
"151.00581"
"$GPGGA,000819,2523.7108,N,07940.5863,W,1,9,1.6,19,"
"##MN-00 00 31 0215 02204 5310 446716 350576 203"
"151.005856"
"$GPGGA,000823,2523.7119,N,07940.5853,W,1,9,1.6,19,"
"##MN-00 00 31 0216 02200 5309 446602 350527 203"
"151.005903"
"$GPGGA,000827,2523.7130,N,07940.5843,W,1,9,1.6,19,"
"##MN-00 00 30 0217 02190 5310 446577 350827 203"
"151.005949"
"$GPGGA,000831,2523.7144,N,07940.5833,W,1,9,1.6,19,"
"##MN-00 00 30 0218 02184 5309 446499 350670 203"
"151.005995"
"$GPGGA,000835,2523.7157,N,07940.5823,W,1,9,1.6,19,"
"##MN-00 00 29 0219 02175 5309 445436 350207 203"
"151.006042"
"$GPGGA,000839,2523.7169,N,07940.5814,W,1,9,1.6,19,"
"##MN-00 00 28 0220 02168 5309 443138 349609 203"
"151.006088"
"$GPGGA,000843,2523.7182,N,07940.5803,W,1,9,1.6,19,"
"##MN-00 00 28 0221 02161 5308 441566 349115 203"
"151.006134"
"$GPGGA,000847,2523.7194,N,07940.5793,W,1,9,1.6,19,"
"##MN-00 00 28 0222 02156 5308 440598 348908 203"
"151.006181"
"$GPGGA,000851,2523.7205,N,07940.5780,W,1,9,1.6,19,"
"##MN-00 00 29 0223 02148 5308 440025 348621 203"
"151.006227"
"$GPGGA,000855,2523.7216,N,07940.5767,W,1,9,1.6,19,"
"##MN-00 00 29 0224 02141 5308 439616 348378 203"
"151.006273"
"$GPGGA,000859,2523.7229,N,07940.5756,W,1,9,1.6,19,"
"##MN-00 00 29 0225 02131 5307 439393 348277 203"
"151.006319"
"$GPGGA,000903,2523.7241,N,07940.5745,W,1,9,1.6,19,"
"##MN-00 00 28 0226 02124 5307 439285 348245 203"
"151.006366"
"$GPGGA,000907,2523.7253,N,07940.5735,W,1,9,1.6,19,"
"##MN-00 00 27 0227 02112 5307 439236 348191 203"
"151.006412"
"$GPGGA,000911,2523.7263,N,07940.5725,W,1,9,1.6,19,"
"##MN-00 00 28 0228 02105 5307 439203 348168 203"
"151.006458"
"$GPGGA,000915,2523.7276,N,07940.5714,W,1,9,1.6,19,"
"##MN-00 00 28 0229 02100 5307 439179 348181 203"
"151.006505"
"$GPGGA,000919,2523.7287,N,07940.5704,W,1,9,1.6,19,"
"##MN-00 00 28 0230 02090 5306 439139 348135 203"
"151.006551"
"$GPGGA,000923,2523.7298,N,07940.5693,W,1,9,1.6,19,"
"##MN-00 00 29 0231 02083 5306 439081 348093 203"
"151.006597"
"$GPGGA,000927,2523.7310,N,07940.5682,W,1,9,1.6,19,"
"##MN-00 00 31 0232 02074 5306 439003 348058 203"
"151.006644"
"$GPGGA,000931,2523.7321,N,07940.5670,W,1,9,1.6,19,"
"##MN-00 00 31 0233 02066 5306 438867 348044 203"
"151.00669"
"$GPGGA,000935,2523.7332,N,07940.5658,W,1,9,1.6,19,"
"##MN-00 00 31 0233 02057 5306 438787 348007 203"
"151.006736"
"$GPGGA,000940,2523.7346,N,07940.5641,W,1,9,1.6,19,"
"##MN-00 00 32 0234 02053 5306 438706 347994 203"
"151.006782"
"$GPGGA,000943,2523.7354,N,07940.5632,W,1,9,1.6,19,"
"##MN-00 00 32 0236 02041 5305 438640 347967 203"
"151.006829"
"$GPGGA,000947,2523.7365,N,07940.5621,W,1,9,1.6,19,"
"##MN-00 00 31 0237 02033 5306 438598 347954 203"
"151.006875"
"$GPGGA,000951,2523.7375,N,07940.5607,W,1,9,1.6,19,"
"##MN-00 00 31 0237 02022 5306 438570 347941 203"
"151.006921"
"$GPGGA,000956,2523.7389,N,07940.5591,W,1,9,1.6,19,"
"##MN-00 00 31 0238 02011 5306 438537 347911 203"
"151.006968"
"$GPGGA,001000,2523.7400,N,07940.5582,W,1,9,1.6,20,"
"##MN-00 00 32 0239 02008 5305 438516 347909 203"
"151.007014"
"$GPGGA,001004,2523.7415,N,07940.5569,W,1,9,1.6,20,"
"##MN-00 00 30 0240 01995 5305 438486 347901 203"
                                                                                                                      