" Tow: 2Cd-A   RVWS/WS1406"
" Date: 05/30/2014"
" Temperature Probe #  2597    Conductivity Probe #  2870"
" Pressure Probe #  109"
" Flow Meter Calibration  4.71 (m/count)  "
"150.973403"
"$GPGGA,232142,2523.0721,N,07941.2212,W,1,9,1.5,21,"
"##MN-00 00 47 0084 01858 5261 442954 918910 204"
"150.973449"
"$GPGGA,232150,2523.0724,N,07941.2181,W,1,9,1.5,20,"
"##MN-00 00 52 0085 01855 5261 436569 350270 204"
"150.973495"
"$GPGGA,232154,2523.0726,N,07941.2167,W,1,9,1.5,20,"
"##MN-00 00 55 0085 01857 5262 436519 348485 204"
"150.973542"
"$GPGGA,232158,2523.0728,N,07941.2152,W,1,9,1.5,20,"
"##MN-00 00 55 0086 01863 5262 436527 347361 204"
"150.973588"
"$GPGGA,232202,2523.0731,N,07941.2138,W,1,9,1.5,20,"
"##MN-00 00 55 0087 01868 5262 436501 347341 204"
"150.973634"
"$GPGGA,232206,2523.0734,N,07941.2125,W,1,9,1.5,20,"
"##MN-00 00 55 0088 01872 5262 436481 347385 204"
"150.973681"
"$GPGGA,232210,2523.0738,N,07941.2112,W,1,9,1.5,20,"
"##MN-00 00 55 0089 01874 5263 436451 347329 204"
"150.973727"
"$GPGGA,232214,2523.0740,N,07941.2100,W,1,9,1.5,20,"
"##MN-00 00 55 0090 01881 5263 436472 347305 204"
"150.973773"
"$GPGGA,232218,2523.0745,N,07941.2088,W,1,9,1.5,19,"
"##MN-00 00 56 0091 01886 5263 436517 347327 204"
"150.973819"
"$GPGGA,232222,2523.0748,N,07941.2076,W,1,9,1.5,19,"
"##MN-00 00 54 0092 01890 5264 436560 347332 204"
"150.973866"
"$GPGGA,232226,2523.0753,N,07941.2064,W,1,9,1.5,19,"
"##MN-00 00 55 0093 01894 5264 436592 347301 204"
"150.973912"
"$GPGGA,232230,2523.0757,N,07941.2053,W,1,9,1.5,19,"
"##MN-00 00 52 0094 01898 5264 436628 347323 204"
"150.973958"
"$GPGGA,232234,2523.0764,N,07941.2043,W,1,9,1.5,19,"
"##MN-00 00 56 0095 01901 5264 436840 347368 204"
"150.974005"
"$GPGGA,232238,2523.0768,N,07941.2034,W,1,8,2.3,18,"
"##MN-00 00 55 0096 01907 5265 436901 347372 204"
"150.974051"
"$GPGGA,232242,2523.0774,N,07941.2023,W,1,8,2.3,18,"
"##MN-00 00 55 0097 01911 5265 436947 347377 204"
"150.974097"
"$GPGGA,232246,2523.0778,N,07941.2013,W,1,8,2.3,17,"
"##MN-00 00 52 0098 01911 5266 436898 347369 204"
"150.974144"
"$GPGGA,232250,2523.0782,N,07941.2000,W,1,9,2.3,17,"
"##MN-00 00 53 0099 01915 5265 437050 347416 204"
"150.97419"
"$GPGGA,232254,2523.0786,N,07941.1987,W,1,9,2.3,17,"
"##MN-00 00 54 0100 01920 5266 437176 347437 204"
"150.974236"
"$GPGGA,232258,2523.0789,N,07941.1974,W,1,9,2.3,16,"
"##MN-00 00 54 0101 01925 5267 437304 347460 204"
"150.974282"
"$GPGGA,232302,2523.0793,N,07941.1960,W,1,9,2.3,16,"
"##MN-00 00 54 0102 01927 5267 437430 347493 204"
"150.974329"
"$GPGGA,232306,2523.0796,N,07941.1946,W,1,9,2.3,16,"
"##MN-00 00 54 0103 01931 5267 437408 347506 204"
"150.974375"
"$GPGGA,232311,2523.0799,N,07941.1928,W,1,9,2.3,16,"
"##MN-00 00 53 0104 01933 5267 437406 347512 204"
"150.974421"
"$GPGGA,232315,2523.0799,N,07941.1913,W,1,9,2.3,16,"
"##MN-00 00 55 0105 01933 5268 437545 347554 204"
"150.974468"
"$GPGGA,232319,2523.0803,N,07941.1899,W,1,9,2.3,16,"
"##MN-00 00 54 0106 01935 5268 437646 347586 204"
"150.974514"
"$GPGGA,232323,2523.0804,N,07941.1885,W,1,9,2.3,16,"
"##MN-00 00 55 0107 01939 5269 437908 347630 204"
"150.97456"
"$GPGGA,232327,2523.0805,N,07941.1871,W,1,9,2.3,16,"
"##MN-00 00 57 0108 01941 5269 438075 347670 204"
"150.974607"
"$GPGGA,232331,2523.0807,N,07941.1857,W,1,9,2.3,16,"
"##MN-00 00 55 0109 01947 5269 438152 347740 204"
"150.974653"
"$GPGGA,232335,2523.0808,N,07941.1845,W,1,9,2.2,16,"
"##MN-00 00 53 0110 01949 5270 438187 347748 204"
"150.974699"
"$GPGGA,232339,2523.0811,N,07941.1832,W,1,9,2.2,15,"
"##MN-00 00 58 0111 01953 5270 438219 347768 204"
"150.974745"
"$GPGGA,232343,2523.0814,N,07941.1819,W,1,9,2.3,15,"
"##MN-00 00 55 0112 01956 5271 438235 347779 204"
"150.974792"
"$GPGGA,232347,2523.0817,N,07941.1805,W,1,9,2.2,15,"
"##MN-00 00 54 0113 01958 5271 438238 347777 204"
"150.974838"
"$GPGGA,232351,2523.0818,N,07941.1790,W,1,9,2.2,15,"
"##MN-00 00 57 0114 01963 5272 438244 347778 204"
"150.974884"
"$GPGGA,232355,2523.0822,N,07941.1777,W,1,9,2.3,15,"
"##MN-00 00 55 0115 01964 5272 438247 347780 204"
"150.974931"
"$GPGGA,232359,2523.0824,N,07941.1763,W,1,9,2.2,15,"
"##MN-00 00 55 0116 01969 5272 438248 347780 204"
"150.974977"
"$GPGGA,232403,2523.0826,N,07941.1749,W,1,9,2.2,15,"
"##MN-00 00 56 0117 01973 5273 438250 347780 204"
"150.975023"
"$GPGGA,232407,2523.0827,N,07941.1733,W,1,9,2.3,15,"
"##MN-00 00 55 0118 01978 5273 438263 347783 204"
"150.975069"
"$GPGGA,232411,2523.0829,N,07941.1719,W,1,9,2.2,15,"
"##MN-00 00 54 0119 01982 5273 438279 347786 204"
"150.975116"
"$GPGGA,232415,2523.0833,N,07941.1705,W,1,9,2.2,15,"
"##MN-00 00 56 0120 01984 5274 438301 347792 204"
"150.975162"
"$GPGGA,232419,2523.0835,N,07941.1690,W,1,9,2.3,15,"
"##MN-00 00 57 0121 01987 5274 438318 347798 204"
"150.975208"
"$GPGGA,232423,2523.0837,N,07941.1677,W,1,9,2.2,15,"
"##MN-00 00 55 0122 01990 5275 438332 347810 204"
"150.975255"
"$GPGGA,232427,2523.0840,N,07941.1663,W,1,9,2.2,16,"
"##MN-00 00 55 0123 01995 5275 438343 347812 204"
"150.975301"
"$GPGGA,232431,2523.0842,N,07941.1649,W,1,9,2.3,16,"
"##MN-00 00 55 0124 01998 5276 438347 347813 204"
"150.975347"
"$GPGGA,232435,2523.0846,N,07941.1635,W,1,9,2.2,16,"
"##MN-00 00 56 0125 01999 5276 438351 347814 204"
"150.975394"
"$GPGGA,232439,2523.0846,N,07941.1621,W,1,9,2.2,16,"
"##MN-00 00 55 0126 02002 5276 438368 347819 204"
"150.97544"
"$GPGGA,232443,2523.0849,N,07941.1607,W,1,9,2.3,16,"
"##MN-00 00 56 0127 02004 5277 438389 347828 204"
"150.975486"
"$GPGGA,232447,2523.0852,N,07941.1593,W,1,9,2.2,16,"
"##MN-00 00 56 0128 02008 5277 438403 347833 204"
"150.975532"
"$GPGGA,232451,2523.0854,N,07941.1580,W,1,9,2.2,16,"
"##MN-00 00 55 0130 02011 5278 438413 347836 204"
"150.975579"
"$GPGGA,232455,2523.0857,N,07941.1565,W,1,9,2.3,16,"
"##MN-00 00 56 0131 02014 5278 438422 347841 204"
"150.975625"
"$GPGGA,232459,2523.0860,N,07941.1550,W,1,9,2.2,16,"
"##MN-00 00 56 0132 02016 5278 438443 347850 204"
"150.975671"
"$GPGGA,232503,2523.0862,N,07941.1537,W,1,9,2.2,16,"
"##MN-00 00 57 0133 02021 5279 438463 347857 204"
"150.975729"
"$GPGGA,232507,2523.0863,N,07941.1522,W,1,9,2.2,15,"
"##MN-00 00 57 0134 02024 5279 438485 347866 204"
"150.975775"
"$GPGGA,232511,2523.0867,N,07941.1507,W,1,9,2.2,15,"
"##MN-00 00 55 0135 02026 5280 438504 347874 204"
"150.975822"
"$GPGGA,232515,2523.0869,N,07941.1492,W,1,9,2.2,15,"
"##MN-00 00 56 0136 02028 5280 438521 347880 204"
"150.975868"
"$GPGGA,232519,2523.0872,N,07941.1478,W,1,9,2.2,15,"
"##MN-00 00 55 0137 02031 5281 438528 347882 204"
"150.975914"
"$GPGGA,232523,2523.0874,N,07941.1463,W,1,9,2.2,15,"
"##MN-00 00 57 0138 02036 5281 438537 347883 204"
"150.975961"
"$GPGGA,232527,2523.0878,N,07941.1449,W,1,9,2.2,15,"
"##MN-00 00 56 0139 02039 5282 438545 347888 204"
"150.976007"
"$GPGGA,232531,2523.0880,N,07941.1434,W,1,9,2.2,15,"
"##MN-00 00 55 0140 02041 5282 438551 347890 204"
"150.976053"
"$GPGGA,232535,2523.0882,N,07941.1419,W,1,9,2.2,15,"
"##MN-00 00 56 0141 02045 5282 438555 347891 204"
"150.9761"
"$GPGGA,232539,2523.0886,N,07941.1404,W,1,9,2.2,15,"
"##MN-00 00 55 0142 02049 5283 438557 347893 204"
"150.976146"
"$GPGGA,232543,2523.0887,N,07941.1389,W,1,9,2.2,15,"
"##MN-00 00 55 0143 02050 5283 438559 347894 204"
"150.976192"
"$GPGGA,232547,2523.0891,N,07941.1374,W,1,9,2.2,15,"
"##MN-00 00 56 0144 02054 5284 438563 347893 204"
"150.976238"
"$GPGGA,232551,2523.0894,N,07941.1358,W,1,9,2.2,15,"
"##MN-00 00 54 0145 02054 5285 438577 347898 204"
"150.976285"
"$GPGGA,232555,2523.0897,N,07941.1342,W,1,9,2.2,15,"
"##MN-00 00 55 0146 02058 5285 438590 347903 204"
"150.976331"
"$GPGGA,232559,2523.0901,N,07941.1327,W,1,9,2.2,15,"
"##MN-00 00 54 0147 02061 5285 438601 347905 204"
"150.976377"
"$GPGGA,232603,2523.0904,N,07941.1312,W,1,9,2.2,15,"
"##MN-00 00 54 0148 02063 5286 438613 347908 204"
"150.976424"
"$GPGGA,232607,2523.0907,N,07941.1297,W,1,9,2.2,15,"
"##MN-00 00 57 0149 02065 5286 438621 347911 204"
"150.97647"
"$GPGGA,232611,2523.0911,N,07941.1283,W,1,9,2.2,15,"
"##MN-00 00 55 0150 02067 5286 438638 347918 204"
"150.976516"
"$GPGGA,232615,2523.0915,N,07941.1268,W,1,9,2.2,15,"
"##MN-00 00 56 0151 02070 5287 438657 347920 204"
"150.976563"
"$GPGGA,232619,2523.0918,N,07941.1253,W,1,9,2.2,15,"
"##MN-00 00 57 0152 02074 5287 438683 347930 204"
"150.976609"
"$GPGGA,232623,2523.0923,N,07941.1237,W,1,9,2.2,15,"
"##MN-00 00 56 0153 02077 5287 438713 347939 204"
"150.976655"
"$GPGGA,232627,2523.0927,N,07941.1223,W,1,9,2.2,15,"
"##MN-00 00 55 0154 02081 5288 438740 347943 204"
"150.976701"
"$GPGGA,232631,2523.0929,N,07941.1207,W,1,9,2.2,15,"
"##MN-00 00 55 0155 02085 5288 438783 347951 204"
"150.976748"
"$GPGGA,232635,2523.0932,N,07941.1192,W,1,9,2.2,15,"
"##MN-00 00 55 0156 02087 5289 438835 347959 204"
"150.976794"
"$GPGGA,232639,2523.0934,N,07941.1177,W,1,9,2.2,15,"
"##MN-00 00 55 0157 02088 5289 438877 347967 204"
"150.97684"
"$GPGGA,232643,2523.0936,N,07941.1162,W,1,9,2.2,16,"
"##MN-00 00 57 0158 02092 5290 438899 347981 204"
"150.976887"
"$GPGGA,232647,2523.0941,N,07941.1147,W,1,9,2.4,16,"
"##MN-00 00 55 0159 02095 5290 438928 347996 204"
"150.976933"
"$GPGGA,232651,2523.0949,N,07941.1133,W,1,9,2.4,16,"
"##MN-00 00 54 0160 02099 5291 438948 348000 204"
"150.976979"
"$GPGGA,232655,2523.0956,N,07941.1118,W,1,8,2.5,16,"
"##MN-00 00 56 0161 02103 5291 438965 348003 204"
"150.977025"
"$GPGGA,232659,2523.0961,N,07941.1102,W,1,8,2.4,16,"
"##MN-00 00 56 0162 02106 5292 438994 348010 204"
"150.977072"
"$GPGGA,232703,2523.0966,N,07941.1088,W,1,8,2.4,16,"
"##MN-00 00 55 0163 02111 5292 439021 348017 204"
"150.977118"
"$GPGGA,232707,2523.0974,N,07941.1078,W,1,8,2.5,15,"
"##MN-00 00 56 0164 02116 5292 439060 348025 204"
"150.977164"
"$GPGGA,232711,2523.0983,N,07941.1068,W,1,8,2.4,15,"
"##MN-00 00 56 0165 02120 5293 439092 348039 204"
"150.977211"
"$GPGGA,232715,2523.0990,N,07941.1056,W,1,8,2.4,14,"
"##MN-00 00 55 0166 02124 5293 439134 348048 204"
"150.977257"
"$GPGGA,232719,2523.0997,N,07941.1041,W,1,8,2.5,14,"
"##MN-00 00 56 0167 02132 5294 439156 348051 204"
"150.977303"
"$GPGGA,232723,2523.1005,N,07941.1028,W,1,8,2.4,14,"
"##MN-00 00 56 0168 02139 5294 439189 348065 204"
"150.97735"
"$GPGGA,232727,2523.1010,N,07941.1014,W,1,9,2.4,13,"
"##MN-00 00 54 0169 02144 5294 439218 348065 204"
"150.977396"
"$GPGGA,232731,2523.1020,N,07941.1001,W,1,9,2.2,13,"
"##MN-00 00 56 0170 02149 5295 439347 348099 204"
"150.977442"
"$GPGGA,232735,2523.1028,N,07941.0990,W,1,9,2.2,13,"
"##MN-00 00 54 0171 02156 5295 439444 348104 204"
"150.977488"
"$GPGGA,232739,2523.1035,N,07941.0978,W,1,9,2.2,13,"
"##MN-00 00 55 0171 02162 5296 439566 348145 204"
"150.977535"
"$GPGGA,232743,2523.1042,N,07941.0966,W,1,9,2.2,14,"
"##MN-00 00 54 0172 02170 5296 439760 348204 204"
"150.977581"
"$GPGGA,232747,2523.1050,N,07941.0955,W,1,9,2.2,14,"
"##MN-00 00 52 0173 02177 5297 440670 348709 204"
"150.977627"
"$GPGGA,232751,2523.1059,N,07941.0945,W,1,9,2.2,14,"
"##MN-00 00 53 0174 02183 5297 442138 349049 204"
"150.977674"
"$GPGGA,232756,2523.1068,N,07941.0933,W,1,9,2.2,14,"
"##MN-00 00 55 0175 02190 5298 444046 349829 204"
"150.97772"
"$GPGGA,232800,2523.1075,N,07941.0924,W,1,9,2.2,15,"
"##MN-00 00 54 0175 02196 5298 445496 350097 204"
"150.977766"
"$GPGGA,232804,2523.1082,N,07941.0919,W,1,9,2.2,15,"
"##MN-00 00 54 0176 02204 5299 446107 350285 204"
"150.977813"
"$GPGGA,232808,2523.1089,N,07941.0915,W,1,9,2.2,15,"
"##MN-00 00 54 0177 02211 5299 446277 350344 204"
"150.977859"
"$GPGGA,232812,2523.1096,N,07941.0913,W,1,9,2.2,15,"
"##MN-00 00 51 0177 02217 5299 446435 350402 204"
"150.977905"
"$GPGGA,232816,2523.1102,N,07941.0907,W,1,9,2.5,15,"
"##MN-00 00 51 0178 02225 5300 446519 350456 204"
"150.977951"
"$GPGGA,232820,2523.1110,N,07941.0907,W,1,9,2.5,15,"
"##MN-00 00 52 0179 02229 5300 446545 350462 204"
"150.977998"
"$GPGGA,232824,2523.1117,N,07941.0903,W,1,9,2.2,15,"
"##MN-00 00 52 0180 02233 5300 446566 350457 204"
"150.978044"
"$GPGGA,232828,2523.1124,N,07941.0899,W,1,8,2.2,15,"
"##MN-00 00 52 0181 02238 5301 446584 350480 204"
"150.97809"
"$GPGGA,232832,2523.1129,N,07941.0892,W,1,9,2.2,15,"
"##MN-00 00 52 0181 02243 5301 446614 350499 204"
"150.978137"
"$GPGGA,232836,2523.1136,N,07941.0889,W,1,9,2.2,16,"
"##MN-00 00 50 0182 02248 5301 446648 350513 204"
"150.978183"
"$GPGGA,232840,2523.1140,N,07941.0881,W,1,9,2.5,16,"
"##MN-00 00 50 0183 02254 5302 446689 350534 204"
"150.978229"
"$GPGGA,232844,2523.1149,N,07941.0882,W,1,8,2.2,16,"
"##MN-00 00 49 0184 02255 5302 446735 350540 204"
"150.978275"
"$GPGGA,232848,2523.1154,N,07941.0870,W,1,9,2.5,16,"
"##MN-00 00 50 0185 02258 5302 446779 350536 204"
"150.978322"
"$GPGGA,232852,2523.1157,N,07941.0861,W,1,8,2.2,16,"
"##MN-00 00 48 0185 02262 5302 446831 350574 204"
"150.978368"
"$GPGGA,232856,2523.1162,N,07941.0860,W,1,8,2.5,16,"
"##MN-00 00 51 0186 02263 5303 446903 350604 204"
"150.978414"
"$GPGGA,232900,2523.1169,N,07941.0862,W,1,9,2.2,16,"
"##MN-00 00 48 0187 02263 5303 446922 350610 204"
"150.978461"
"$GPGGA,232904,2523.1172,N,07941.0857,W,1,9,2.2,16,"
"##MN-00 00 49 0188 02265 5303 446930 350604 204"
"150.978507"
"$GPGGA,232908,2523.1175,N,07941.0853,W,1,9,2.2,16,"
"##MN-00 00 49 0189 02265 5303 446931 350605 204"
"150.978553"
"$GPGGA,232912,2523.1176,N,07941.0848,W,1,9,2.2,16,"
"##MN-00 00 50 0190 02266 5304 446938 350607 204"
"150.9786"
"$GPGGA,232916,2523.1178,N,07941.0842,W,1,9,2.2,16,"
"##MN-00 00 49 0191 02265 5304 446941 350611 204"
"150.978646"
"$GPGGA,232920,2523.1178,N,07941.0837,W,1,9,2.2,16,"
"##MN-00 00 50 0192 02268 5304 446943 350614 204"
"150.978692"
"$GPGGA,232924,2523.1180,N,07941.0832,W,1,9,2.2,16,"
"##MN-00 00 48 0192 02267 5304 446942 350614 204"
"150.978738"
"$GPGGA,232928,2523.1178,N,07941.0828,W,1,9,2.2,15,"
"##MN-00 00 49 0193 02266 5305 446941 350614 204"
"150.978785"
"$GPGGA,232932,2523.1180,N,07941.0823,W,1,9,2.2,15,"
"##MN-00 00 50 0194 02267 5305 446941 350617 204"
"150.978831"
"$GPGGA,232936,2523.1178,N,07941.0819,W,1,9,2.2,15,"
"##MN-00 00 51 0195 02268 5305 446940 350617 204"
"150.978877"
"$GPGGA,232940,2523.1180,N,07941.0815,W,1,9,2.2,15,"
"##MN-00 00 50 0196 02270 5305 446941 350618 204"
"150.978924"
"$GPGGA,232944,2523.1182,N,07941.0811,W,1,9,2.2,15,"
"##MN-00 00 52 0197 02272 5305 446943 350619 204"
"150.978981"
"$GPGGA,232948,2523.1182,N,07941.0808,W,1,9,2.2,15,"
"##MN-00 00 52 0198 02274 5305 446950 350622 204"
"150.979028"
"$GPGGA,232952,2523.1184,N,07941.0803,W,1,9,2.2,15,"
"##MN-00 00 52 0199 02277 5305 446953 350621 204"
"150.979074"
"$GPGGA,232956,2523.1187,N,07941.0799,W,1,9,2.2,15,"
"##MN-00 00 52 0200 02281 5305 446958 350622 204"
"150.97912"
"$GPGGA,233000,2523.1190,N,07941.0796,W,1,9,2.2,15,"
"##MN-00 00 52 0201 02281 5305 446963 350623 204"
"150.979167"
"$GPGGA,233004,2523.1191,N,07941.0792,W,1,9,2.2,15,"
"##MN-00 00 51 0202 02286 5306 446965 350623 204"
"150.979213"
"$GPGGA,233008,2523.1194,N,07941.0788,W,1,9,2.2,15,"
"##MN-00 00 53 0203 02285 5306 446968 350624 204"
"150.979259"
"$GPGGA,233012,2523.1197,N,07941.0787,W,1,9,2.2,15,"
"##MN-00 00 51 0204 02289 5306 446971 350624 204"
"150.979306"
"$GPGGA,233016,2523.1200,N,07941.0784,W,1,9,2.2,15,"
"##MN-00 00 50 0204 02292 5306 446975 350625 204"
"150.979352"
"$GPGGA,233020,2523.1201,N,07941.0781,W,1,9,2.2,15,"
"##MN-00 00 52 0205 02293 5306 446988 350632 204"
"150.979398"
"$GPGGA,233024,2523.1204,N,07941.0778,W,1,9,2.2,15,"
"##MN-00 00 51 0206 02295 5306 447001 350634 204"
"150.979444"
"$GPGGA,233028,2523.1205,N,07941.0777,W,1,9,2.2,15,"
"##MN-00 00 51 0207 02297 5306 447010 350636 204"
"150.979491"
"$GPGGA,233032,2523.1208,N,07941.0774,W,1,9,2.2,15,"
"##MN-00 00 52 0208 02300 5306 447029 350642 204"
"150.979537"
"$GPGGA,233036,2523.1209,N,07941.0773,W,1,9,2.2,15,"
"##MN-00 00 52 0209 02304 5306 447038 350644 204"
"150.979583"
"$GPGGA,233040,2523.1212,N,07941.0770,W,1,9,2.2,15,"
"##MN-00 00 53 0210 02304 5306 447045 350647 204"
"150.97963"
"$GPGGA,233044,2523.1215,N,07941.0767,W,1,9,2.2,15,"
"##MN-00 00 52 0211 02306 5306 447057 350650 204"
"150.979676"
"$GPGGA,233048,2523.1218,N,07941.0766,W,1,9,2.2,15,"
"##MN-00 00 50 0212 02305 5306 447067 350652 204"
"150.979722"
"$GPGGA,233052,2523.1221,N,07941.0763,W,1,9,2.2,15,"
"##MN-00 00 52 0213 02304 5306 447072 350656 204"
"150.979769"
"$GPGGA,233056,2523.1223,N,07941.0760,W,1,9,2.2,14,"
"##MN-00 00 52 0214 02304 5306 447070 350657 204"
"150.979815"
"$GPGGA,233100,2523.1227,N,07941.0758,W,1,9,2.2,14,"
"##MN-00 00 52 0215 02301 5306 447065 350657 204"
"150.979861"
"$GPGGA,233104,2523.1230,N,07941.0756,W,1,9,2.2,14,"
"##MN-00 00 51 0216 02303 5306 447060 350655 204"
"150.979907"
"$GPGGA,233108,2523.1232,N,07941.0755,W,1,9,2.2,14,"
"##MN-00 00 50 0217 02304 5306 447058 350655 204"
"150.979954"
"$GPGGA,233112,2523.1236,N,07941.0752,W,1,9,2.2,14,"
"##MN-00 00 51 0218 02304 5306 447055 350654 204"
"150.98"
"$GPGGA,233116,2523.1238,N,07941.0750,W,1,9,2.2,14,"
"##MN-00 00 52 0219 02306 5306 447058 350655 204"
"150.980046"
"$GPGGA,233120,2523.1241,N,07941.0751,W,1,9,2.2,14,"
"##MN-00 00 53 0220 02306 5306 447065 350657 204"
"150.980093"
"$GPGGA,233124,2523.1245,N,07941.0748,W,1,9,2.2,14,"
"##MN-00 00 53 0221 02311 5306 447070 350657 204"
"150.980139"
"$GPGGA,233128,2523.1248,N,07941.0746,W,1,9,2.2,14,"
"##MN-00 00 53 0222 02307 5306 447076 350658 204"
"150.980185"
"$GPGGA,233132,2523.1251,N,07941.0744,W,1,9,2.2,14,"
"##MN-00 00 50 0223 02310 5306 447083 350661 204"
"150.980231"
"$GPGGA,233136,2523.1254,N,07941.0744,W,1,9,2.2,14,"
"##MN-00 00 51 0224 02307 5306 447083 350662 204"
"150.980278"
"$GPGGA,233140,2523.1256,N,07941.0742,W,1,9,2.2,14,"
"##MN-00 00 53 0225 02308 5306 447081 350662 204"
"150.980324"
"$GPGGA,233144,2523.1259,N,07941.0742,W,1,9,2.2,14,"
"##MN+00 00 51 0226 02307 5306 447081 350663 204"
"150.98037"
"$GPGGA,233148,2523.1262,N,07941.0742,W,1,9,2.2,14,"
"##MN+00 00 53 0227 02306 5306 447081 350662 204"
"150.980417"
"$GPGGA,233152,2523.1263,N,07941.0741,W,1,9,2.2,14,"
"##MN+00 00 53 0228 02304 5306 447079 350662 204"
"150.980463"
"$GPGGA,233156,2523.1264,N,07941.0741,W,1,9,2.4,15,"
"##MN+00 00 53 0229 02304 5306 447081 350663 204"
"150.980509"
"$GPGGA,233200,2523.1266,N,07941.0741,W,1,9,2.2,15,"
"##MN+00 00 51 0229 02304 5306 447080 350663 204"
"150.980556"
"$GPGGA,233204,2523.1270,N,07941.0741,W,1,8,2.2,16,"
"##MN+00 00 62 0230 02309 5306 447083 350663 204"
"150.980602"
"#increment_net"
"$GPGGA,233208,2523.1274,N,07941.0741,W,1,9,2.4,16,"
"##MN-00 00 58 0231 02309 5306 447090 350665 204"
"150.980648"
"$GPGGA,233212,2523.1277,N,07941.0741,W,1,9,2.2,16,"
"##MN-00 00 54 0232 02304 5306 447094 350667 204"
"150.980694"
"$GPGGA,233216,2523.1280,N,07941.0741,W,1,9,2.2,17,"
"##MN-00 00 53 0233 02306 5305 447092 350667 204"
"150.980741"
"$GPGGA,233220,2523.1283,N,07941.0741,W,1,9,2.2,17,"
"##MN-00 00 52 0234 02304 5306 447086 350666 204"
"150.980787"
"$GPGGA,233224,2523.1286,N,07941.0741,W,1,9,2.2,17,"
"##MN-00 00 52 0235 02301 5305 447081 350665 204"
"150.980833"
"$GPGGA,233228,2523.1288,N,07941.0741,W,1,9,2.2,18,"
"##MN-00 00 52 0236 02301 5305 447074 350662 204"
"150.98088"
"$GPGGA,233233,2523.1294,N,07941.0740,W,1,9,2.2,18,"
"##MN-00 00 50 0237 02302 5305 447069 350660 204"
"150.980926"
"$GPGGA,233237,2523.1297,N,07941.0741,W,1,9,2.2,18,"
"##MN-00 00 51 0238 02300 5305 447065 350659 204"
"150.980972"
"$GPGGA,233241,2523.1301,N,07941.0741,W,1,9,2.2,18,"
"##MN+00 00 51 0239 02302 5305 447062 350658 204"
"150.981019"
"$GPGGA,233245,2523.1306,N,07941.0741,W,1,9,2.2,18,"
"##MN+00 00 53 0240 02299 5305 447060 350657 204"
"150.981065"
"$GPGGA,233249,2523.1310,N,07941.0744,W,1,8,2.4,18,"
"##MN+00 00 51 0242 02301 5305 447059 350657 204"
"150.981111"
"$GPGGA,233253,2523.1315,N,07941.0743,W,1,9,2.2,18,"
"##MN-00 00 52 0242 02300 5304 447055 350656 204"
"150.981157"
"$GPGGA,233257,2523.1318,N,07941.0744,W,1,9,2.2,18,"
"##MN-00 00 52 0243 02300 5304 447052 350654 204"
"150.981204"
"$GPGGA,233301,2523.1321,N,07941.0744,W,1,9,2.2,18,"
"##MN-00 00 53 0244 02298 5304 447050 350654 204"
"150.98125"
"$GPGGA,233305,2523.1326,N,07941.0743,W,1,9,2.2,18,"
"##MN+00 00 53 0245 02300 5304 447049 350653 204"
"150.981296"
"$GPGGA,233309,2523.1328,N,07941.0744,W,1,9,2.2,18,"
"##MN+00 00 54 0246 02298 5304 447049 350653 204"
"150.981343"
"$GPGGA,233313,2523.1331,N,07941.0744,W,1,9,2.2,18,"
"##MN+00 00 63 0247 02299 5304 447048 350653 204"
"150.981389"
"#increment_net"
"$GPGGA,233317,2523.1335,N,07941.0744,W,1,9,2.2,18,"
"##MN-00 00 56 0248 02298 5304 447050 350653 204"
"150.981435"
"$GPGGA,233321,2523.1338,N,07941.0744,W,1,9,2.2,18,"
"##MN-00 00 55 0249 02297 5304 447052 350654 204"
"150.981481"
"$GPGGA,233325,2523.1341,N,07941.0745,W,1,9,2.2,18,"
"##MN-00 00 51 0250 02295 5304 447048 350653 204"
"150.981528"
"$GPGGA,233329,2523.1344,N,07941.0746,W,1,9,2.2,18,"
"##MN-00 00 53 0251 02293 5304 447043 350652 204"
"150.981574"
"$GPGGA,233333,2523.1346,N,07941.0746,W,1,9,2.2,18,"
"##MN-00 00 52 0252 02292 5303 447036 350650 204"
"150.98162"
"$GPGGA,233337,2523.1347,N,07941.0746,W,1,9,2.2,18,"
"##MN-00 00 54 0253 02292 5303 447031 350648 204"
"150.981667"
"$GPGGA,233341,2523.1350,N,07941.0746,W,1,9,2.2,18,"
"##MN-00 00 52 0254 02291 5303 447025 350647 204"
"150.981713"
"$GPGGA,233345,2523.1355,N,07941.0746,W,1,9,2.2,18,"
"##MN-00 00 53 0255 02292 5303 447023 350647 204"
"150.981759"
"$GPGGA,233349,2523.1359,N,07941.0748,W,1,9,2.2,18,"
"##MN+00 00 51 0256 02291 5303 447023 350646 204"
"150.981806"
"$GPGGA,233353,2523.1364,N,07941.0751,W,1,9,2.2,18,"
"##MN+00 00 51 0257 02291 5303 447023 350645 204"
"150.981852"
"$GPGGA,233357,2523.1367,N,07941.0749,W,1,9,2.2,18,"
"##MN+00 00 52 0258 02291 5302 447021 350645 204"
"150.981898"
"$GPGGA,233401,2523.1371,N,07941.0749,W,1,9,2.2,18,"
"##MN-00 00 53 0259 02293 5302 447020 350645 204"
"150.981944"
"$GPGGA,233405,2523.1377,N,07941.0751,W,1,9,2.2,18,"
"##MN-00 00 52 0260 02291 5303 447020 350644 204"
"150.981991"
"$GPGGA,233409,2523.1381,N,07941.0749,W,1,9,2.2,18,"
"##MN-00 00 52 0261 02291 5302 447020 350644 204"
"150.982037"
"$GPGGA,233413,2523.1385,N,07941.0748,W,1,9,2.2,18,"
"##MN-00 00 52 0262 02293 5302 447021 350644 204"
"150.982083"
"$GPGGA,233417,2523.1389,N,07941.0746,W,1,9,2.2,18,"
"##MN+00 00 53 0263 02291 5302 447022 350644 204"
"150.98213"
"$GPGGA,233421,2523.1391,N,07941.0745,W,1,9,2.2,18,"
"##MN+00 00 51 0265 02292 5302 447022 350645 204"
"150.982176"
"$GPGGA,233425,2523.1396,N,07941.0744,W,1,9,2.2,17,"
"##MN+00 00 62 0266 02296 5302 447022 350644 204"
"150.982234"
"#increment_net"
"$GPGGA,233429,2523.1400,N,07941.0741,W,1,9,2.2,17,"
"##MN-00 00 56 0267 02294 5302 447025 350644 204"
"150.98228"
"$GPGGA,233433,2523.1404,N,07941.0740,W,1,9,2.2,17,"
"##MN-00 00 52 0268 02294 5302 447028 350645 204"
"150.982326"
"$GPGGA,233437,2523.1407,N,07941.0737,W,1,9,2.2,17,"
"##MN-00 00 50 0269 02294 5301 447026 350645 204"
"150.982373"
"$GPGGA,233441,2523.1410,N,07941.0733,W,1,9,2.2,17,"
"##MN-00 00 49 0270 02291 5301 447022 350645 204"
"150.982419"
"$GPGGA,233445,2523.1412,N,07941.0731,W,1,9,2.2,17,"
"##MN-00 00 50 0271 02294 5301 447019 350645 204"
"150.982465"
"$GPGGA,233449,2523.1417,N,07941.0730,W,1,9,2.2,17,"
"##MN-00 00 49 0272 02292 5301 447015 350644 204"
"150.982512"
"$GPGGA,233453,2523.1421,N,07941.0729,W,1,9,2.2,17,"
"##MN-00 00 49 0273 02293 5301 447008 350641 204"
"150.982558"
"$GPGGA,233457,2523.1424,N,07941.0727,W,1,9,2.2,17,"
"##MN-00 00 48 0274 02291 5301 447002 350640 204"
"150.982604"
"$GPGGA,233501,2523.1428,N,07941.0726,W,1,9,2.2,17,"
"##MN-00 00 49 0275 02289 5300 446999 350639 204"
"150.98265"
"$GPGGA,233505,2523.1431,N,07941.0725,W,1,9,2.2,17,"
"##MN-00 00 49 0276 02291 5300 446997 350638 204"
"150.982697"
"$GPGGA,233509,2523.1436,N,07941.0723,W,1,9,2.2,16,"
"##MN+00 00 49 0277 02290 5300 446995 350637 204"
"150.982743"
"$GPGGA,233513,2523.1440,N,07941.0720,W,1,9,2.2,16,"
"##MN+00 00 50 0278 02291 5300 446994 350637 204"
"150.982789"
"$GPGGA,233517,2523.1445,N,07941.0719,W,1,9,2.2,16,"
"##MN+00 00 50 0279 02293 5300 446994 350636 204"
"150.982836"
"$GPGGA,233521,2523.1450,N,07941.0715,W,1,9,2.2,16,"
"##MN-00 00 49 0280 02293 5300 446996 350636 204"
"150.982882"
"$GPGGA,233525,2523.1457,N,07941.0713,W,1,9,2.2,16,"
"##MN+00 00 52 0281 02294 5300 447000 350637 204"
"150.982928"
"$GPGGA,233529,2523.1462,N,07941.0710,W,1,9,2.2,16,"
"##MN+00 00 50 0282 02299 5300 447009 350640 204"
"150.982975"
"$GPGGA,233533,2523.1469,N,07941.0708,W,1,9,2.2,16,"
"##MN+00 00 62 0283 02304 5299 447019 350641 204"
"150.983021"
"#increment_net"
"$GPGGA,233537,2523.1478,N,07941.0706,W,1,9,2.2,16,"
"##MN-00 00 55 0283 02304 5299 447029 350643 204"
"150.983067"
"$GPGGA,233541,2523.1485,N,07941.0704,W,1,9,2.2,15,"
"##MN-00 00 52 0284 02308 5299 447040 350646 204"
"150.983113"
"$GPGGA,233545,2523.1490,N,07941.0698,W,1,9,2.2,15,"
"##MN-00 00 51 0285 02308 5299 447046 350646 204"
"150.98316"
"$GPGGA,233549,2523.1497,N,07941.0693,W,1,9,2.2,15,"
"##MN-00 00 50 0286 02311 5299 447058 350649 204"
"150.983206"
"$GPGGA,233553,2523.1505,N,07941.0687,W,1,9,2.2,15,"
"##MN-00 00 49 0287 02315 5299 447074 350654 204"
"150.983252"
"$GPGGA,233557,2523.1512,N,07941.0681,W,1,9,2.2,15,"
"##MN-00 00 49 0288 02317 5299 447082 350657 204"
"150.983299"
"$GPGGA,233601,2523.1521,N,07941.0676,W,1,9,2.2,15,"
"##MN-00 00 48 0289 02318 5299 447088 350661 204"
"150.983345"
"$GPGGA,233605,2523.1527,N,07941.0670,W,1,9,2.2,15,"
"##MN-00 00 49 0290 02322 5299 447093 350664 204"
"150.983391"
"$GPGGA,233609,2523.1537,N,07941.0670,W,1,9,2.2,15,"
"##MN+00 00 49 0291 02322 5298 447102 350666 204"
"150.983438"
"$GPGGA,233613,2523.1547,N,07941.0669,W,1,9,2.2,15,"
"##MN+00 00 48 0292 02326 5298 447112 350668 204"
"150.983484"
"$GPGGA,233617,2523.1555,N,07941.0669,W,1,8,2.5,14,"
"##MN+00 00 48 0293 02328 5298 447115 350669 204"
"150.98353"
"$GPGGA,233621,2523.1563,N,07941.0661,W,1,9,2.2,14,"
"##MN-00 00 48 0294 02331 5298 447124 350673 204"
"150.983576"
"$GPGGA,233625,2523.1570,N,07941.0654,W,1,9,2.2,14,"
"##MN-00 00 49 0294 02331 5298 447138 350678 204"
"150.983623"
"$GPGGA,233629,2523.1577,N,07941.0650,W,1,8,2.5,13,"
"##MN-00 00 48 0295 02336 5297 447150 350681 204"
"150.983669"
"$GPGGA,233633,2523.1586,N,07941.0645,W,1,9,2.2,13,"
"##MN+00 00 49 0296 02336 5298 447160 350685 204"
"150.983715"
"$GPGGA,233637,2523.1595,N,07941.0643,W,1,9,2.2,12,"
"##MN+00 00 48 0297 02338 5297 447171 350689 204"
"150.983762"
"$GPGGA,233641,2523.1604,N,07941.0639,W,1,9,2.2,12,"
"##MN+00 00 56 0298 02340 5297 447178 350690 203"
"150.983808"
"$GPGGA,233645,2523.1609,N,07941.0632,W,1,8,2.5,12,"
"##MN-00 00 54 0299 02345 5297 447189 350691 203"
"150.983854"
"#increment_net"
"$GPGGA,233649,2523.1616,N,07941.0624,W,1,8,2.5,11,"
"##MN-00 00 50 0300 02351 5297 447206 350695 203"
"150.9839"
"$GPGGA,233653,2523.1620,N,07941.0614,W,1,8,2.5,11,"
"##MN-00 00 49 0301 02355 5297 447273 350723 203"
"150.983947"
"$GPGGA,233657,2523.1627,N,07941.0607,W,1,8,2.5,11,"
"##MN-00 00 49 0302 02357 5296 447345 350754 203"
"150.983993"
"$GPGGA,233701,2523.1631,N,07941.0592,W,1,8,2.5,11,"
"##MN-00 00 52 0304 02353 5296 447365 350756 203"
"150.984039"
"$GPGGA,233705,2523.1638,N,07941.0586,W,1,8,2.5,11,"
"##MN-00 00 51 0305 02351 5295 447359 350755 203"
"150.984086"
"$GPGGA,233709,2523.1649,N,07941.0585,W,1,9,2.2,11,"
"##MN-00 00 53 0307 02347 5295 447351 350753 203"
"150.984132"
"$GPGGA,233714,2523.1660,N,07941.0579,W,1,9,2.2,11,"
"##MN-00 00 48 0308 02344 5295 447327 350744 203"
"150.984178"
"$GPGGA,233718,2523.1667,N,07941.0573,W,1,9,2.2,11,"
"##MN-00 00 48 0309 02339 5295 447242 350717 203"
"150.984225"
"$GPGGA,233722,2523.1674,N,07941.0567,W,1,9,2.2,11,"
"##MN-00 00 48 0311 02329 5295 447204 350707 203"
"150.984271"
"$GPGGA,233726,2523.1678,N,07941.0563,W,1,9,2.2,11,"
"##MN-00 00 48 0312 02324 5295 447167 350694 203"
"150.984317"
"$GPGGA,233730,2523.1682,N,07941.0557,W,1,9,2.2,11,"
"##MN-00 00 50 0313 02315 5294 447127 350688 203"
"150.984363"
"$GPGGA,233733,2523.1686,N,07941.0554,W,1,9,2.2,11,"
"##MN-00 00 48 0315 02306 5294 447100 350680 203"
"150.98441"
"$GPGGA,233738,2523.1693,N,07941.0550,W,1,9,2.2,11,"
"##MN-00 00 47 0316 02295 5294 447053 350663 203"
"150.984456"
"$GPGGA,233742,2523.1700,N,07941.0545,W,1,9,2.2,12,"
"##MN-00 00 49 0317 02285 5294 447012 350655 203"
"150.984502"
"$GPGGA,233746,2523.1706,N,07941.0542,W,1,9,2.2,12,"
"##MN-00 00 47 0319 02277 5294 446970 350639 203"
"150.984549"
"$GPGGA,233750,2523.1711,N,07941.0537,W,1,9,2.2,12,"
"##MN-00 00 50 0320 02266 5294 446938 350631 203"
"150.984595"
"$GPGGA,233754,2523.1717,N,07941.0532,W,1,9,2.2,12,"
"##MN-00 00 49 0322 02254 5294 446905 350618 203"
"150.984641"
"$GPGGA,233758,2523.1722,N,07941.0527,W,1,9,2.2,12,"
"##MN-00 00 47 0323 02246 5294 446822 350603 203"
"150.984687"
"$GPGGA,233802,2523.1729,N,07941.0521,W,1,9,2.2,12,"
"##MN-00 00 49 0324 02234 5293 446730 350576 203"
"150.984734"
"$GPGGA,233806,2523.1735,N,07941.0517,W,1,9,2.2,12,"
"##MN-00 00 51 0326 02224 5294 446656 350542 203"
"150.98478"
"$GPGGA,233810,2523.1740,N,07941.0512,W,1,9,2.2,12,"
"##MN-00 00 49 0327 02215 5293 446603 350530 203"
"150.984826"
"$GPGGA,233814,2523.1747,N,07941.0507,W,1,9,2.2,12,"
"##MN-00 00 48 0328 02201 5293 446530 350506 203"
"150.984873"
"$GPGGA,233818,2523.1751,N,07941.0504,W,1,9,2.2,13,"
"##MN-00 00 52 0329 02189 5293 446464 350484 203"
"150.984919"
"$GPGGA,233822,2523.1758,N,07941.0500,W,1,9,2.2,13,"
"##MN-00 00 48 0331 02176 5293 446079 350383 203"
"150.984965"
"$GPGGA,233826,2523.1765,N,07941.0497,W,1,9,2.2,13,"
"##MN-00 00 48 0332 02164 5293 444309 349893 203"
"150.985012"
"$GPGGA,233830,2523.1772,N,07941.0493,W,1,9,2.2,13,"
"##MN-00 00 48 0334 02152 5292 442068 349348 203"
"150.985058"
"$GPGGA,233834,2523.1778,N,07941.0491,W,1,9,2.1,13,"
"##MN-00 00 48 0335 02143 5292 440442 348918 203"
"150.985104"
"$GPGGA,233838,2523.1783,N,07941.0488,W,1,9,2.1,14,"
"##MN-00 00 46 0336 02127 5292 439462 348474 203"
"150.98515"
"$GPGGA,233842,2523.1789,N,07941.0486,W,1,9,2.1,14,"
"##MN-00 00 46 0338 02113 5291 439203 348282 203"
"150.985197"
"$GPGGA,233846,2523.1796,N,07941.0482,W,1,9,2.1,14,"
"##MN-00 00 50 0339 02102 5291 439097 348210 203"
"150.985243"
"$GPGGA,233850,2523.1801,N,07941.0479,W,1,9,2.1,14,"
"##MN-00 00 47 0341 02091 5291 439013 348123 203"
"150.985289"
"$GPGGA,233854,2523.1807,N,07941.0477,W,1,9,2.1,14,"
"##MN-00 00 49 0342 02078 5291 438909 348073 203"
"150.985336"
"$GPGGA,233858,2523.1815,N,07941.0473,W,1,9,2.1,14,"
"##MN-00 00 48 0344 02065 5291 438851 348084 203"
"150.985382"
"$GPGGA,233902,2523.1819,N,07941.0470,W,1,9,2.1,14,"
"##MN-00 00 48 0345 02052 5291 438746 348017 203"
"150.985428"
"$GPGGA,233906,2523.1826,N,07941.0465,W,1,9,2.1,14,"
"##MN-00 00 47 0347 02039 5290 438633 347982 203"
"150.985486"
"$GPGGA,233910,2523.1830,N,07941.0463,W,1,9,2.1,14,"
"##MN-00 00 46 0348 02027 5291 438560 347966 203"
"150.985532"
"$GPGGA,233914,2523.1837,N,07941.0459,W,1,9,2.1,14,"
"##MN-00 00 46 0350 02010 5291 438486 347924 203"
"150.985579"
"$GPGGA,233918,2523.1844,N,07941.0455,W,1,9,2.1,14,"
"##MN-00 00 50 0351 01994 5291 438437 347900 203"
"150.985625"
"$GPGGA,233922,2523.1848,N,07941.0453,W,1,9,2.1,15,"
"##MN-00 00 46 0352 01979 5291 438376 347886 203"
"150.985671"
"$GPGGA,233926,2523.1855,N,07941.0450,W,1,9,2.1,15,"
"##MN-00 00 46 0354 01965 5291 438316 347861 203"
"150.985718"
"$GPGGA,233930,2523.1859,N,07941.0447,W,1,9,2.1,15,"
"##MN-00 00 46 0355 01950 5290 438242 347827 203"
"150.985764"
"$GPGGA,233934,2523.1865,N,07941.0444,W,1,9,2.1,15,"
"##MN-00 00 47 0357 01935 5291 438158 347824 203"
"150.98581"
"$GPGGA,233938,2523.1870,N,07941.0441,W,1,9,2.1,15,"
"##MN-00 00 50 0358 01916 5291 437640 347689 203"
"150.985856"
"$GPGGA,233942,2523.1875,N,07941.0437,W,1,9,2.1,15,"
"##MN-00 00 52 0360 01901 5291 437093 347476 203"
"150.985903"
"$GPGGA,233946,2523.1880,N,07941.0434,W,1,9,2.1,15,"
"##MN-00 00 49 0361 01887 5291 436859 347420 203"
"150.985949"
"$GPGGA,233950,2523.1887,N,07941.0430,W,1,9,2.1,15,"
"##MN-00 00 47 0363 01870 5291 436788 347390 203"
"150.985995"
"$GPGGA,233954,2523.1893,N,07941.0425,W,1,9,2.1,15,"
"##MN-00 00 51 0364 01853 5291 436729 347353 203"
"150.986042"
"$GPGGA,233958,2523.1899,N,07941.0421,W,1,9,2.1,15,"
"##MN-00 00 49 0366 01855 5290 436701 347346 203"
"150.986088"
"$GPGGA,234002,2523.1906,N,07941.0417,W,1,9,2.1,15,"
"##MN-00 00 51 0366 01854 5291 436737 347338 203"
"150.986134"
"$GPGGA,234006,2523.1913,N,07941.0414,W,1,9,2.1,15,"
"##MN-00 00 42 0368 01852 5291 436722 347332 203"
"150.986181"
"$GPGGA,234010,2523.1920,N,07941.0412,W,1,9,2.1,15,"
"##MN-00 00 49 0369 01855 5291 436693 348262 203"
"150.986227"
"$GPGGA,234014,2523.1927,N,07941.0412,W,1,9,2.1,15,"
"##MN-00 00 42 0370 01855 5291 436716 348377 203"
"150.986273"
"$GPGGA,234018,2523.1933,N,07941.0408,W,1,9,2.1,15,"
"##MN-00 00 40 0371 01855 5291 436768 347514 203"
"150.986319"
"$GPGGA,234022,2523.1944,N,07941.0405,W,1,9,2.1,15,"
"##MN-00 00 42 0371 01851 5291 443256 429128 203"
"150.986366"
"$GPGGA,234026,2523.1956,N,07941.0402,W,1,9,2.1,15,"
"##MN-00 00 27 0371 01854 5291 450727 916476 203"
