" Tow: 2Cm-A   RVWS/WS1406"
" Date: 05/30/2014"
" Temperature Probe #  2597    Conductivity Probe #  2870"
" Pressure Probe #  109"
" Flow Meter Calibration  4.71 (m/count)  "
"150.878125"
"$GPGGA,210431,2519.7397,N,07937.8685,W,1,10,1.5,20"
"##MN-00 00 20 0084 01839 6632 421475 906021 205"
"150.878171"
"$GPGGA,210438,2519.7444,N,07937.8656,W,1,10,1.5,20"
"##MN-00 00 21 0085 01839 6632 435193 349991 205"
"150.878218"
"$GPGGA,210442,2519.7473,N,07937.8639,W,1,10,1.5,20"
"##MN-00 00 23 0085 01838 6631 435239 352505 205"
"150.878264"
"$GPGGA,210446,2519.7502,N,07937.8623,W,1,10,1.5,20"
"##MN-00 00 25 0086 01839 6631 435171 346905 205"
"150.87831"
"$GPGGA,210450,2519.7523,N,07937.8610,W,1,10,1.5,20"
"##MN-00 00 26 0086 01841 6631 435248 346973 205"
"150.878356"
"$GPGGA,210454,2519.7558,N,07937.8591,W,1,9,1.5,20,"
"##MN-00 00 27 0086 01839 6630 435211 346995 205"
"150.878403"
"$GPGGA,210459,2519.7592,N,07937.8571,W,1,10,1.5,20"
"##MN-00 00 27 0087 01837 6629 435238 347031 205"
"150.878449"
"$GPGGA,210502,2519.7613,N,07937.8559,W,1,9,1.6,20,"
"##MN-00 00 28 0087 01836 6629 435212 350681 205"
"150.878495"
"$GPGGA,210506,2519.7639,N,07937.8545,W,1,10,1.5,20"
"##MN-00 00 28 0088 01838 6629 435209 347058 205"
"150.878542"
"$GPGGA,210511,2519.7675,N,07937.8523,W,1,9,1.6,20,"
"##MN-00 00 29 0088 01837 6628 435190 347074 205"
"150.878588"
"$GPGGA,210515,2519.7704,N,07937.8503,W,1,10,1.5,21"
"##MN-00 00 30 0089 01837 6627 435171 350813 205"
"150.878634"
"$GPGGA,210519,2519.7732,N,07937.8483,W,1,9,1.6,21,"
"##MN-00 00 33 0090 01837 6626 435109 347563 205"
"150.878681"
"$GPGGA,210523,2519.7760,N,07937.8464,W,1,10,1.5,21"
"##MN-00 00 38 0090 01842 6626 435180 347087 205"
"150.878727"
"$GPGGA,210527,2519.7787,N,07937.8442,W,1,10,1.5,21"
"##MN-00 00 39 0091 01849 6624 435465 347157 205"
"150.878773"
"$GPGGA,210531,2519.7815,N,07937.8418,W,1,10,1.5,21"
"##MN-00 00 39 0091 01850 6623 435536 347194 205"
"150.878819"
"$GPGGA,210535,2519.7841,N,07937.8394,W,1,10,1.5,21"
"##MN-00 00 40 0092 01854 6623 436172 347368 205"
"150.878866"
"$GPGGA,210539,2519.7867,N,07937.8371,W,1,10,1.5,21"
"##MN-00 00 41 0092 01857 6621 436548 347500 205"
"150.878912"
"$GPGGA,210543,2519.7894,N,07937.8344,W,1,9,1.6,21,"
"##MN-00 00 42 0093 01858 6620 437228 347726 205"
"150.878958"
"$GPGGA,210547,2519.7921,N,07937.8319,W,1,10,1.5,21"
"##MN-00 00 44 0094 01864 6619 437387 347777 205"
"150.879005"
"$GPGGA,210551,2519.7946,N,07937.8292,W,1,10,1.5,21"
"##MN-00 00 43 0094 01868 6618 437645 347818 205"
"150.879051"
"$GPGGA,210555,2519.7971,N,07937.8267,W,1,10,1.5,21"
"##MN-00 00 45 0095 01873 6616 437776 347855 205"
"150.879097"
"$GPGGA,210559,2519.7996,N,07937.8241,W,1,8,1.9,21,"
"##MN-00 00 48 0096 01877 6615 437864 347875 205"
"150.879144"
"$GPGGA,210603,2519.8018,N,07937.8212,W,1,8,1.9,21,"
"##MN-00 00 46 0096 01880 6613 437910 347886 205"
"150.87919"
"$GPGGA,210607,2519.8042,N,07937.8184,W,1,8,1.9,21,"
"##MN-00 00 46 0097 01883 6612 437980 347903 205"
"150.879236"
"$GPGGA,210611,2519.8064,N,07937.8156,W,1,9,1.8,21,"
"##MN-00 00 49 0098 01888 6610 438030 347915 205"
"150.879282"
"$GPGGA,210615,2519.8086,N,07937.8129,W,1,9,1.8,21,"
"##MN-00 00 47 0099 01890 6609 438069 347919 205"
"150.879329"
"$GPGGA,210619,2519.8107,N,07937.8103,W,1,9,1.8,20,"
"##MN-00 00 48 0099 01897 6607 438086 347923 205"
"150.879375"
"$GPGGA,210623,2519.8127,N,07937.8076,W,1,9,1.8,20,"
"##MN-00 00 48 0100 01903 6605 438114 347928 205"
"150.879421"
"$GPGGA,210627,2519.8148,N,07937.8050,W,1,9,1.8,20,"
"##MN-00 00 49 0101 01908 6603 438146 347930 205"
"150.879468"
"$GPGGA,210631,2519.8169,N,07937.8023,W,1,9,1.8,20,"
"##MN-00 00 49 0102 01913 6602 438225 347959 205"
"150.879514"
"$GPGGA,210635,2519.8188,N,07937.7997,W,1,9,1.8,20,"
"##MN-00 00 48 0102 01916 6600 438271 347972 205"
"150.87956"
"$GPGGA,210639,2519.8208,N,07937.7969,W,1,9,1.8,20,"
"##MN-00 00 47 0103 01920 6598 438298 347972 205"
"150.879606"
"$GPGGA,210643,2519.8225,N,07937.7942,W,1,9,1.8,20,"
"##MN-00 00 48 0104 01923 6596 438312 347968 205"
"150.879653"
"$GPGGA,210647,2519.8243,N,07937.7914,W,1,9,1.8,20,"
"##MN-00 00 46 0105 01926 6594 438325 347970 205"
"150.879699"
"$GPGGA,210651,2519.8263,N,07937.7886,W,1,9,1.8,20,"
"##MN-00 00 47 0106 01933 6592 438349 347978 205"
"150.879745"
"$GPGGA,210655,2519.8279,N,07937.7857,W,1,9,1.8,20,"
"##MN-00 00 48 0106 01936 6589 438359 347977 205"
"150.879792"
"$GPGGA,210659,2519.8297,N,07937.7828,W,1,9,1.8,20,"
"##MN-00 00 48 0107 01938 6587 438369 347979 205"
"150.879838"
"$GPGGA,210703,2519.8313,N,07937.7802,W,1,9,1.8,20,"
"##MN-00 00 49 0108 01937 6585 438368 347976 205"
"150.879884"
"$GPGGA,210707,2519.8328,N,07937.7777,W,1,9,1.8,20,"
"##MN-00 00 48 0109 01941 6583 438371 347978 205"
"150.879931"
"$GPGGA,210711,2519.8342,N,07937.7750,W,1,9,1.8,20,"
"##MN-00 00 50 0110 01948 6580 438371 347977 205"
"150.879977"
"$GPGGA,210715,2519.8357,N,07937.7722,W,1,9,1.8,20,"
"##MN-00 00 51 0111 01950 6579 438377 347978 205"
"150.880023"
"$GPGGA,210719,2519.8369,N,07937.7696,W,1,9,1.8,20,"
"##MN-00 00 49 0111 01952 6576 438385 347979 205"
"150.880069"
"$GPGGA,210723,2519.8382,N,07937.7669,W,1,9,1.8,20,"
"##MN-00 00 50 0112 01957 6573 438389 347978 205"
"150.880116"
"$GPGGA,210727,2519.8394,N,07937.7643,W,1,9,1.8,20,"
"##MN-00 00 51 0113 01959 6571 438396 347979 205"
"150.880162"
"$GPGGA,210731,2519.8405,N,07937.7616,W,1,9,1.8,21,"
"##MN-00 00 50 0114 01960 6569 438402 347977 205"
"150.880208"
"$GPGGA,210735,2519.8414,N,07937.7589,W,1,9,1.8,21,"
"##MN-00 00 50 0115 01962 6566 438403 347978 205"
"150.880255"
"$GPGGA,210739,2519.8423,N,07937.7562,W,1,9,1.8,21,"
"##MN-00 00 50 0116 01965 6564 438413 347978 205"
"150.880301"
"$GPGGA,210743,2519.8430,N,07937.7533,W,1,9,1.8,20,"
"##MN-00 00 50 0117 01963 6562 438429 347981 205"
"150.880347"
"$GPGGA,210747,2519.8438,N,07937.7505,W,1,9,1.8,20,"
"##MN-00 00 50 0118 01965 6559 438440 347985 205"
"150.880394"
"$GPGGA,210751,2519.8445,N,07937.7477,W,1,9,1.8,20,"
"##MN-00 00 51 0119 01965 6556 438451 347986 205"
"150.880451"
"$GPGGA,210755,2519.8451,N,07937.7450,W,1,9,1.8,20,"
"##MN-00 00 51 0120 01965 6554 438467 347991 205"
"150.880498"
"$GPGGA,210759,2519.8458,N,07937.7423,W,1,9,1.8,20,"
"##MN-00 00 54 0121 01971 6551 438474 347992 205"
"150.880544"
"$GPGGA,210803,2519.8463,N,07937.7396,W,1,9,1.8,20,"
"##MN-00 00 52 0122 01971 6548 438479 347996 205"
"150.88059"
"$GPGGA,210807,2519.8470,N,07937.7369,W,1,9,1.7,19,"
"##MN-00 00 53 0123 01973 6546 438483 347997 205"
"150.880637"
"$GPGGA,210811,2519.8477,N,07937.7342,W,1,9,1.7,19,"
"##MN-00 00 54 0124 01976 6543 438487 347998 205"
"150.880683"
"$GPGGA,210815,2519.8484,N,07937.7314,W,1,9,1.7,19,"
"##MN-00 00 53 0125 01978 6541 438494 347999 205"
"150.880729"
"$GPGGA,210819,2519.8490,N,07937.7287,W,1,9,1.7,19,"
"##MN-00 00 54 0126 01981 6538 438499 348000 205"
"150.880775"
"$GPGGA,210823,2519.8495,N,07937.7259,W,1,9,1.7,19,"
"##MN-00 00 54 0127 01983 6535 438505 348000 205"
"150.880822"
"$GPGGA,210827,2519.8501,N,07937.7232,W,1,8,1.9,19,"
"##MN-00 00 54 0128 01985 6533 438510 348001 205"
"150.880868"
"$GPGGA,210831,2519.8506,N,07937.7205,W,1,9,1.7,18,"
"##MN-00 00 55 0129 01988 6530 438516 348001 205"
"150.880914"
"$GPGGA,210835,2519.8511,N,07937.7176,W,1,9,1.9,18,"
"##MN-00 00 55 0130 01993 6527 438522 348001 205"
"150.880961"
"$GPGGA,210839,2519.8517,N,07937.7150,W,1,8,1.7,18,"
"##MN-00 00 56 0131 01996 6524 438527 348001 205"
"150.881007"
"$GPGGA,210843,2519.8521,N,07937.7125,W,1,9,1.7,18,"
"##MN-00 00 52 0132 01999 6522 438547 348009 205"
"150.881053"
"$GPGGA,210847,2519.8527,N,07937.7100,W,1,9,1.7,18,"
"##MN-00 00 55 0133 02001 6519 438561 348008 205"
"150.8811"
"$GPGGA,210851,2519.8532,N,07937.7073,W,1,9,1.7,18,"
"##MN-00 00 54 0134 02008 6516 438561 348006 205"
"150.881146"
"$GPGGA,210855,2519.8541,N,07937.7045,W,1,9,1.7,18,"
"##MN-00 00 55 0135 02011 6513 438567 348006 205"
"150.881192"
"$GPGGA,210859,2519.8549,N,07937.7017,W,1,9,1.7,17,"
"##MN-00 00 55 0136 02014 6510 438573 348009 205"
"150.881238"
"$GPGGA,210903,2519.8556,N,07937.6989,W,1,9,1.7,17,"
"##MN-00 00 55 0137 02019 6507 438574 348007 205"
"150.881285"
"$GPGGA,210907,2519.8563,N,07937.6960,W,1,9,1.7,17,"
"##MN-00 00 55 0138 02022 6505 438578 348006 205"
"150.881331"
"$GPGGA,210911,2519.8571,N,07937.6932,W,1,9,1.7,17,"
"##MN-00 00 55 0139 02026 6502 438584 348008 205"
"150.881377"
"$GPGGA,210915,2519.8581,N,07937.6905,W,1,9,1.7,17,"
"##MN-00 00 55 0140 02032 6499 438589 348007 205"
"150.881424"
"$GPGGA,210919,2519.8591,N,07937.6879,W,1,9,1.7,17,"
"##MN-00 00 57 0141 02038 6496 438598 348008 205"
"150.88147"
"$GPGGA,210923,2519.8599,N,07937.6859,W,1,9,1.7,17,"
"##MN-00 00 56 0142 02047 6493 438605 348009 205"
"150.881516"
"$GPGGA,210927,2519.8610,N,07937.6838,W,1,9,1.7,18,"
"##MN-00 00 57 0142 02058 6490 438621 348013 205"
"150.881562"
"$GPGGA,210931,2519.8622,N,07937.6818,W,1,9,1.7,18,"
"##MN-00 00 58 0143 02065 6487 438667 348037 205"
"150.881609"
"$GPGGA,210935,2519.8636,N,07937.6797,W,1,9,1.7,19,"
"##MN-00 00 58 0144 02074 6485 438734 348068 205"
"150.881655"
"$GPGGA,210939,2519.8651,N,07937.6777,W,1,9,1.7,19,"
"##MN-00 00 57 0145 02084 6482 438890 348116 205"
"150.881701"
"$GPGGA,210943,2519.8665,N,07937.6757,W,1,9,1.7,19,"
"##MN-00 00 53 0145 02090 6479 439081 348158 205"
"150.881748"
"$GPGGA,210947,2519.8679,N,07937.6742,W,1,9,1.7,19,"
"##MN-00 00 53 0146 02095 6476 439446 348289 205"
"150.881794"
"$GPGGA,210952,2519.8701,N,07937.6720,W,1,9,1.7,20,"
"##MN-00 00 54 0147 02105 6472 439738 348339 205"
"150.88184"
"$GPGGA,210956,2519.8719,N,07937.6703,W,1,9,1.7,20,"
"##MN-00 00 53 0148 02111 6470 440036 348436 205"
"150.881887"
"$GPGGA,210959,2519.8734,N,07937.6690,W,1,9,1.7,20,"
"##MN-00 00 50 0148 02117 6467 440230 348472 205"
"150.881933"
"$GPGGA,211004,2519.8756,N,07937.6671,W,1,9,1.7,21,"
"##MN-00 00 49 0149 02120 6464 440659 348636 205"
"150.881979"
"$GPGGA,211007,2519.8772,N,07937.6661,W,1,9,1.7,21,"
"##MN-00 00 46 0150 02122 6461 440963 348695 205"
"150.882025"
"$GPGGA,211011,2519.8791,N,07937.6645,W,1,9,1.7,21,"
"##MN-00 00 46 0151 02128 6458 441111 348733 205"
"150.882072"
"$GPGGA,211016,2519.8815,N,07937.6629,W,1,9,1.7,21,"
"##MN-00 00 45 0151 02130 6455 441240 348783 205"
"150.882118"
"$GPGGA,211020,2519.8831,N,07937.6615,W,1,9,1.7,20,"
"##MN-00 00 45 0152 02132 6452 441446 348831 205"
"150.882164"
"$GPGGA,211024,2519.8849,N,07937.6603,W,1,9,1.7,20,"
"##MN-00 00 43 0152 02135 6449 441578 348870 205"
"150.882211"
"$GPGGA,211028,2519.8867,N,07937.6590,W,1,9,1.7,20,"
"##MN-00 00 42 0153 02136 6446 441610 348872 205"
"150.882257"
"$GPGGA,211032,2519.8882,N,07937.6577,W,1,9,1.7,20,"
"##MN-00 00 40 0154 02137 6443 441615 348873 205"
"150.882303"
"$GPGGA,211036,2519.8899,N,07937.6566,W,1,9,1.7,20,"
"##MN-00 00 39 0154 02136 6440 441596 348864 205"
"150.88235"
"$GPGGA,211040,2519.8914,N,07937.6554,W,1,9,1.7,20,"
"##MN-00 00 37 0155 02136 6437 441579 348868 205"
"150.882396"
"$GPGGA,211044,2519.8929,N,07937.6542,W,1,9,1.7,20,"
"##MN-00 00 37 0155 02133 6434 441567 348869 205"
"150.882442"
"$GPGGA,211048,2519.8946,N,07937.6530,W,1,9,1.7,19,"
"##MN-00 00 35 0156 02131 6431 441522 348861 205"
"150.882488"
"$GPGGA,211052,2519.8958,N,07937.6517,W,1,9,1.7,19,"
"##MN-00 00 35 0157 02131 6428 441478 348849 205"
"150.882535"
"$GPGGA,211056,2519.8972,N,07937.6505,W,1,9,1.7,19,"
"##MN-00 00 34 0157 02131 6425 441459 348842 205"
"150.882581"
"$GPGGA,211100,2519.8987,N,07937.6492,W,1,9,1.7,19,"
"##MN-00 00 33 0158 02123 6422 441371 348820 205"
"150.882627"
"$GPGGA,211104,2519.9000,N,07937.6479,W,1,9,1.7,19,"
"##MN-00 00 35 0159 02119 6419 441160 348765 205"
"150.882674"
"$GPGGA,211108,2519.9012,N,07937.6466,W,1,9,1.7,19,"
"##MN-00 00 34 0159 02115 6416 440819 348675 205"
"150.88272"
"$GPGGA,211112,2519.9023,N,07937.6452,W,1,9,1.7,18,"
"##MN-00 00 32 0159 02110 6413 440539 348596 205"
"150.882766"
"$GPGGA,211116,2519.9033,N,07937.6436,W,1,9,1.7,18,"
"##MN-00 00 33 0160 02105 6410 440286 348528 205"
"150.882813"
"$GPGGA,211120,2519.9041,N,07937.6419,W,1,9,1.7,18,"
"##MN-00 00 34 0161 02100 6407 440192 348476 205"
"150.882859"
"$GPGGA,211124,2519.9047,N,07937.6400,W,1,9,1.7,18,"
"##MN-00 00 34 0161 02094 6404 440107 348456 205"
"150.882905"
"$GPGGA,211128,2519.9052,N,07937.6380,W,1,9,1.7,18,"
"##MN-00 00 34 0162 02089 6401 440044 348444 205"
"150.882951"
"$GPGGA,211132,2519.9058,N,07937.6359,W,1,9,1.7,18,"
"##MN-00 00 37 0163 02085 6398 439789 348372 205"
"150.882998"
"$GPGGA,211136,2519.9063,N,07937.6337,W,1,9,1.7,18,"
"##MN-00 00 38 0164 02079 6395 439493 348296 205"
"150.883044"
"$GPGGA,211140,2519.9066,N,07937.6315,W,1,9,1.7,18,"
"##MN-00 00 41 0165 02073 6392 439246 348255 205"
"150.88309"
"$GPGGA,211144,2519.9070,N,07937.6293,W,1,9,1.7,18,"
"##MN-00 00 40 0166 02066 6388 439056 348187 205"
"150.883137"
"$GPGGA,211148,2519.9073,N,07937.6272,W,1,9,1.7,18,"
"##MN-00 00 42 0166 02056 6385 438982 348152 205"
"150.883183"
"$GPGGA,211152,2519.9076,N,07937.6250,W,1,9,1.7,18,"
"##MN-00 00 44 0167 02054 6382 438919 348156 205"
"150.883229"
"$GPGGA,211156,2519.9077,N,07937.6227,W,1,9,1.7,18,"
"##MN-00 00 44 0168 02047 6379 438866 348134 205"
"150.883275"
"$GPGGA,211200,2519.9079,N,07937.6205,W,1,9,1.7,18,"
"##MN-00 00 46 0169 02045 6376 438829 348124 205"
"150.883322"
"$GPGGA,211204,2519.9081,N,07937.6182,W,1,9,1.7,18,"
"##MN-00 00 46 0170 02042 6373 438779 348116 205"
"150.883368"
"$GPGGA,211208,2519.9083,N,07937.6159,W,1,9,1.7,18,"
"##MN-00 00 48 0172 02038 6370 438727 348087 205"
"150.883414"
"$GPGGA,211212,2519.9084,N,07937.6136,W,1,9,1.7,18,"
"##MN-00 00 48 0173 02035 6367 438692 348088 205"
"150.883461"
"$GPGGA,211216,2519.9088,N,07937.6113,W,1,9,1.7,18,"
"##MN-00 00 49 0174 02030 6364 438669 348064 205"
"150.883507"
"$GPGGA,211220,2519.9089,N,07937.6088,W,1,9,1.7,18,"
"##MN-00 00 49 0175 02029 6361 438644 348064 205"
"150.883553"
"$GPGGA,211224,2519.9092,N,07937.6065,W,1,9,1.7,18,"
"##MN-00 00 49 0176 02028 6358 438617 348048 205"
"150.883611"
"$GPGGA,211228,2519.9095,N,07937.6041,W,1,9,1.7,18,"
"##MN-00 00 51 0177 02023 6355 438593 348033 205"
"150.883657"
"$GPGGA,211232,2519.9099,N,07937.6017,W,1,9,1.7,18,"
"##MN-00 00 50 0178 02022 6352 438576 348027 205"
"150.883704"
"$GPGGA,211236,2519.9102,N,07937.5991,W,1,9,1.7,18,"
"##MN-00 00 52 0179 02020 6349 438563 348024 205"
"150.88375"
"$GPGGA,211240,2519.9104,N,07937.5965,W,1,9,1.7,18,"
"##MN-00 00 53 0180 02021 6346 438549 348013 205"
"150.883796"
"$GPGGA,211244,2519.9108,N,07937.5940,W,1,9,1.7,18,"
"##MN-00 00 52 0181 02022 6343 438539 348003 205"
"150.883843"
"$GPGGA,211248,2519.9115,N,07937.5917,W,1,9,1.7,18,"
"##MN-00 00 53 0182 02029 6340 438531 347996 205"
"150.883889"
"$GPGGA,211252,2519.9123,N,07937.5898,W,1,9,1.7,18,"
"##MN-00 00 56 0183 02033 6337 438539 347993 205"
"150.883935"
"$GPGGA,211256,2519.9131,N,07937.5880,W,1,9,1.7,18,"
"##MN-00 00 56 0184 02040 6334 438542 347994 205"
"150.883981"
"$GPGGA,211300,2519.9144,N,07937.5864,W,1,9,1.7,18,"
"##MN-00 00 55 0185 02046 6331 438568 348004 205"
"150.884028"
"$GPGGA,211304,2519.9155,N,07937.5850,W,1,9,1.7,18,"
"##MN-00 00 56 0185 02056 6328 438639 348028 205"
"150.884074"
"$GPGGA,211308,2519.9167,N,07937.5836,W,1,9,1.7,17,"
"##MN-00 00 55 0186 02063 6325 438789 348085 205"
"150.88412"
"$GPGGA,211312,2519.9181,N,07937.5823,W,1,9,1.7,17,"
"##MN-00 00 55 0187 02074 6322 438862 348106 205"
"150.884167"
"$GPGGA,211316,2519.9193,N,07937.5811,W,1,9,1.7,17,"
"##MN-00 00 55 0188 02086 6319 438937 348118 205"
"150.884213"
"$GPGGA,211320,2519.9209,N,07937.5799,W,1,9,1.7,17,"
"##MN-00 00 56 0188 02092 6316 439333 348227 205"
"150.884259"
"$GPGGA,211324,2519.9225,N,07937.5788,W,1,9,1.7,17,"
"##MN-00 00 52 0189 02100 6313 439879 348361 205"
"150.884306"
"$GPGGA,211328,2519.9240,N,07937.5778,W,1,9,1.7,17,"
"##MN-00 00 51 0189 02108 6310 440086 348431 205"
"150.884352"
"$GPGGA,211332,2519.9256,N,07937.5768,W,1,9,1.7,17,"
"##MN-00 00 49 0190 02113 6307 440361 348506 205"
"150.884398"
"$GPGGA,211336,2519.9271,N,07937.5758,W,1,9,1.7,17,"
"##MN-00 00 49 0191 02118 6304 440499 348540 205"
"150.884444"
"$GPGGA,211340,2519.9286,N,07937.5750,W,1,9,1.7,17,"
"##MN-00 00 45 0191 02123 6301 440588 348573 205"
"150.884491"
"$GPGGA,211344,2519.9300,N,07937.5741,W,1,9,1.7,17,"
"##MN-00 00 45 0192 02126 6299 440679 348594 205"
"150.884537"
"$GPGGA,211348,2519.9312,N,07937.5733,W,1,9,1.7,17,"
"##MN-00 00 42 0192 02126 6296 440795 348628 205"
"150.884583"
"$GPGGA,211352,2519.9323,N,07937.5724,W,1,9,1.7,17,"
"##MN-00 00 41 0193 02128 6293 440846 348645 205"
"150.88463"
"$GPGGA,211356,2519.9330,N,07937.5715,W,1,9,1.7,17,"
"##MN-00 00 39 0194 02127 6290 440921 348677 205"
"150.884676"
"$GPGGA,211400,2519.9337,N,07937.5706,W,1,9,1.7,17,"
"##MN-00 00 39 0194 02126 6287 440964 348694 205"
"150.884722"
"$GPGGA,211404,2519.9341,N,07937.5697,W,1,9,1.7,17,"
"##MN-00 00 40 0195 02116 6284 440955 348691 205"
"150.884768"
"$GPGGA,211408,2519.9342,N,07937.5686,W,1,9,1.7,17,"
"##MN-00 00 38 0195 02108 6281 440943 348685 205"
"150.884815"
"$GPGGA,211412,2519.9343,N,07937.5675,W,1,9,1.7,17,"
"##MN-00 00 37 0196 02106 6278 440808 348637 205"
"150.884861"
"$GPGGA,211416,2519.9346,N,07937.5664,W,1,9,1.7,17,"
"##MN-00 00 40 0197 02099 6276 440373 348532 205"
"150.884907"
"$GPGGA,211420,2519.9348,N,07937.5654,W,1,9,1.7,17,"
"##MN-00 00 41 0198 02098 6273 440184 348522 205"
"150.884954"
"$GPGGA,211424,2519.9354,N,07937.5644,W,1,9,1.7,17,"
"##MN-00 00 43 0199 02095 6270 440100 348466 205"
"150.885"
"$GPGGA,211428,2519.9359,N,07937.5635,W,1,9,1.7,17,"
"##MN-00 00 43 0200 02095 6267 440065 348465 205"
"150.885046"
"$GPGGA,211433,2519.9366,N,07937.5623,W,1,9,1.7,17,"
"##MN-00 00 42 0200 02092 6264 440004 348448 205"
"150.885093"
"$GPGGA,211436,2519.9372,N,07937.5616,W,1,9,1.7,17,"
"##MN-00 00 42 0201 02091 6261 439661 348327 205"
"150.885139"
"$GPGGA,211441,2519.9380,N,07937.5603,W,1,9,1.7,17,"
"##MN-00 00 42 0202 02090 6258 439394 348264 205"
"150.885185"
"$GPGGA,211445,2519.9387,N,07937.5593,W,1,9,1.7,17,"
"##MN-00 00 42 0203 02088 6255 439201 348208 205"
"150.885231"
"$GPGGA,211449,2519.9391,N,07937.5582,W,1,9,1.7,17,"
"##MN+00 00 40 0204 02084 6252 439140 348196 205"
"150.885278"
"$GPGGA,211452,2519.9395,N,07937.5574,W,1,9,1.7,17,"
"##MN+00 00 43 0204 02076 6249 439101 348174 205"
"150.885324"
"$GPGGA,211457,2519.9398,N,07937.5561,W,1,9,1.7,17,"
"##MN+00 00 41 0205 02069 6246 439059 348175 204"
"150.88537"
"$GPGGA,211501,2519.9398,N,07937.5550,W,1,9,1.7,17,"
"##MN-00 00 44 0206 02062 6244 438995 348176 204"
"150.885417"
"$GPGGA,211505,2519.9397,N,07937.5541,W,1,9,1.7,17,"
"##MN+00 00 44 0207 02055 6241 438862 348144 205"
"150.885463"
"$GPGGA,211509,2519.9395,N,07937.5532,W,1,9,1.7,17,"
"##MN+00 00 48 0208 02048 6238 438742 348085 204"
"150.885509"
"$GPGGA,211513,2519.9394,N,07937.5523,W,1,9,1.7,17,"
"##MN+00 00 56 0209 02046 6235 438635 348042 205"
"150.885556"
"#increment_net"
"$GPGGA,211517,2519.9392,N,07937.5514,W,1,9,1.7,17,"
"##MN-00 00 52 0210 02038 6233 438595 348035 205"
"150.885602"
"$GPGGA,211521,2519.9391,N,07937.5508,W,1,9,1.7,17,"
"##MN-00 00 48 0211 02035 6230 438558 348018 205"
"150.885648"
"$GPGGA,211525,2519.9390,N,07937.5503,W,1,9,1.7,17,"
"##MN-00 00 50 0212 02032 6227 438537 348004 205"
"150.885694"
"$GPGGA,211529,2519.9388,N,07937.5499,W,1,9,1.7,17,"
"##MN-00 00 50 0214 02027 6224 438522 347998 205"
"150.885741"
"$GPGGA,211533,2519.9386,N,07937.5492,W,1,9,1.7,17,"
"##MN-00 00 54 0215 02020 6222 438505 347989 205"
"150.885787"
"$GPGGA,211537,2519.9386,N,07937.5484,W,1,10,1.5,17"
"##MN-00 00 49 0216 02019 6219 438494 347981 205"
"150.885833"
"$GPGGA,211541,2519.9384,N,07937.5475,W,1,10,1.5,17"
"##MN-00 00 54 0217 02017 6216 438490 347977 205"
"150.88588"
"$GPGGA,211545,2519.9384,N,07937.5465,W,1,10,1.5,17"
"##MN-00 00 53 0218 02023 6214 438487 347972 205"
"150.885926"
"$GPGGA,211549,2519.9385,N,07937.5453,W,1,10,1.5,17"
"##MN-00 00 56 0218 02028 6211 438487 347973 205"
"150.885972"
"$GPGGA,211553,2519.9386,N,07937.5440,W,1,10,1.5,17"
"##MN-00 00 55 0219 02034 6208 438503 347974 205"
"150.886019"
"$GPGGA,211557,2519.9388,N,07937.5426,W,1,10,1.5,17"
"##MN-00 00 56 0220 02037 6205 438521 347979 205"
"150.886065"
"$GPGGA,211601,2519.9388,N,07937.5413,W,1,10,1.5,18"
"##MN-00 00 54 0221 02040 6202 438533 347981 205"
"150.886111"
"$GPGGA,211605,2519.9388,N,07937.5397,W,1,10,1.5,18"
"##MN-00 00 56 0222 02042 6200 438545 347984 205"
"150.886157"
"$GPGGA,211609,2519.9387,N,07937.5381,W,1,10,1.5,18"
"##MN-00 00 53 0222 02049 6197 438557 347988 205"
"150.886204"
"$GPGGA,211613,2519.9387,N,07937.5367,W,1,10,1.5,18"
"##MN+00 00 53 0223 02047 6194 438579 347994 205"
"150.88625"
"$GPGGA,211617,2519.9384,N,07937.5353,W,1,10,1.5,18"
"##MN+00 00 55 0224 02055 6192 438590 347996 205"
"150.886296"
"$GPGGA,211621,2519.9384,N,07937.5339,W,1,10,1.5,18"
"##MN+00 00 53 0225 02056 6189 438606 348000 205"
"150.886343"
"$GPGGA,211625,2519.9386,N,07937.5326,W,1,9,1.7,18,"
"##MN+00 00 54 0226 02056 6187 438621 348003 205"
"150.886389"
"$GPGGA,211629,2519.9385,N,07937.5313,W,1,9,1.7,18,"
"##MN+00 00 56 0227 02062 6184 438634 348009 205"
"150.886435"
"$GPGGA,211633,2519.9384,N,07937.5298,W,1,10,1.5,17"
"##MN+00 00 64 0228 02066 6181 438648 348013 204"
"150.886481"
"$GPGGA,211637,2519.9384,N,07937.5283,W,1,9,1.7,17,"
"##MN-00 00 59 0229 02068 6179 438670 348017 205"
"150.886528"
"#increment_net"
"$GPGGA,211641,2519.9384,N,07937.5269,W,1,9,1.7,17,"
"##MN-00 00 56 0229 02076 6177 438699 348023 205"
"150.886574"
"$GPGGA,211645,2519.9381,N,07937.5251,W,1,10,1.5,17"
"##MN-00 00 55 0230 02079 6174 438735 348033 205"
"150.88662"
"$GPGGA,211649,2519.9380,N,07937.5234,W,1,10,1.5,18"
"##MN-00 00 55 0231 02081 6171 438805 348056 205"
"150.886667"
"$GPGGA,211653,2519.9380,N,07937.5219,W,1,10,1.5,18"
"##MN-00 00 54 0232 02089 6169 438937 348099 205"
"150.886713"
"$GPGGA,211657,2519.9384,N,07937.5205,W,1,10,1.5,18"
"##MN-00 00 54 0233 02094 6166 439028 348104 205"
"150.886771"
"$GPGGA,211701,2519.9387,N,07937.5191,W,1,10,1.5,18"
"##MN-00 00 56 0234 02100 6164 439182 348138 205"
"150.886817"
"$GPGGA,211705,2519.9388,N,07937.5176,W,1,10,1.5,19"
"##MN-00 00 52 0235 02103 6161 439718 348327 205"
"150.886863"
"$GPGGA,211709,2519.9393,N,07937.5163,W,1,9,1.8,19,"
"##MN+00 00 51 0236 02106 6158 440027 348397 205"
"150.88691"
"$GPGGA,211713,2519.9397,N,07937.5152,W,1,10,1.5,19"
"##MN+00 00 52 0237 02110 6156 440070 348387 205"
"150.886956"
"$GPGGA,211717,2519.9401,N,07937.5139,W,1,10,1.5,19"
"##MN+00 00 53 0238 02110 6153 440204 348413 205"
"150.887002"
"$GPGGA,211721,2519.9406,N,07937.5128,W,1,10,1.5,19"
"##MN-00 00 51 0238 02116 6151 440283 348464 205"
"150.887049"
"$GPGGA,211725,2519.9415,N,07937.5116,W,1,10,1.5,19"
"##MN-00 00 51 0239 02114 6148 440408 348501 205"
"150.887095"
"$GPGGA,211729,2519.9420,N,07937.5104,W,1,10,1.5,20"
"##MN-00 00 50 0240 02122 6146 440483 348536 205"
"150.887141"
"$GPGGA,211733,2519.9427,N,07937.5093,W,1,10,1.5,20"
"##MN-00 00 51 0241 02122 6144 440619 348575 205"
"150.887187"
"$GPGGA,211737,2519.9433,N,07937.5081,W,1,10,1.5,20"
"##MN+00 00 50 0242 02125 6141 440742 348601 205"
"150.887234"
"$GPGGA,211741,2519.9438,N,07937.5071,W,1,10,1.5,20"
"##MN+00 00 50 0243 02125 6139 440856 348646 205"
"150.88728"
"$GPGGA,211745,2519.9442,N,07937.5060,W,1,10,1.5,20"
"##MN+00 00 61 0244 02129 6136 440976 348671 205"
"150.887326"
"#increment_net"
"$GPGGA,211749,2519.9446,N,07937.5049,W,1,10,1.5,20"
"##MN-00 00 53 0244 02129 6134 441245 348731 205"
"150.887373"
"$GPGGA,211753,2519.9449,N,07937.5038,W,1,10,1.5,20"
"##MN-00 00 49 0245 02126 6132 441249 348762 205"
"150.887419"
"$GPGGA,211757,2519.9452,N,07937.5028,W,1,10,1.5,20"
"##MN-00 00 49 0246 02126 6129 441057 348730 205"
"150.887465"
"$GPGGA,211801,2519.9453,N,07937.5019,W,1,10,1.5,20"
"##MN-00 00 46 0247 02124 6126 440956 348695 205"
"150.887512"
"$GPGGA,211805,2519.9455,N,07937.5009,W,1,10,1.5,20"
"##MN-00 00 46 0248 02121 6124 440860 348666 205"
"150.887558"
"$GPGGA,211809,2519.9456,N,07937.5000,W,1,10,1.5,20"
"##MN-00 00 46 0250 02119 6122 440809 348657 205"
"150.887604"
"$GPGGA,211813,2519.9456,N,07937.4991,W,1,10,1.5,20"
"##MN+00 00 47 0251 02117 6119 440765 348649 205"
"150.88765"
"$GPGGA,211817,2519.9458,N,07937.4981,W,1,10,1.5,20"
"##MN+00 00 48 0252 02117 6117 440702 348638 205"
"150.887697"
"$GPGGA,211821,2519.9456,N,07937.4971,W,1,10,1.5,20"
"##MN+00 00 47 0253 02113 6114 440638 348614 205"
"150.887743"
"$GPGGA,211825,2519.9456,N,07937.4961,W,1,10,1.5,20"
"##MN-00 00 46 0254 02112 6112 440587 348595 205"
"150.887789"
"$GPGGA,211829,2519.9456,N,07937.4951,W,1,10,1.5,19"
"##MN-00 00 47 0255 02111 6109 440541 348583 205"
"150.887836"
"$GPGGA,211833,2519.9456,N,07937.4942,W,1,10,1.5,19"
"##MN-00 00 47 0256 02112 6107 440474 348563 205"
"150.887882"
"$GPGGA,211837,2519.9456,N,07937.4932,W,1,10,1.5,19"
"##MN+00 00 49 0257 02110 6105 440396 348538 205"
"150.887928"
"$GPGGA,211841,2519.9456,N,07937.4922,W,1,10,1.5,19"
"##MN+00 00 49 0258 02107 6102 440287 348508 205"
"150.887975"
"$GPGGA,211845,2519.9456,N,07937.4913,W,1,10,1.5,19"
"##MN+00 00 61 0259 02111 6100 440262 348500 205"
"150.888021"
"#increment_net"
"$GPGGA,211849,2519.9458,N,07937.4903,W,1,10,1.5,19"
"##MN-00 00 53 0260 02108 6098 440307 348504 205"
"150.888067"
"$GPGGA,211853,2519.9458,N,07937.4893,W,1,10,1.5,19"
"##MN-00 00 51 0261 02107 6096 440297 348503 205"
"150.888113"
"$GPGGA,211857,2519.9458,N,07937.4882,W,1,10,1.5,19"
"##MN-00 00 50 0262 02106 6093 440199 348480 205"
"150.88816"
"$GPGGA,211901,2519.9458,N,07937.4871,W,1,10,1.5,19"
"##MN-00 00 50 0263 02106 6091 440140 348462 205"
"150.888206"
"$GPGGA,211905,2519.9456,N,07937.4862,W,1,10,1.5,18"
"##MN-00 00 51 0264 02104 6089 440043 348445 205"
"150.888252"
"$GPGGA,211909,2519.9456,N,07937.4850,W,1,10,1.5,18"
"##MN-00 00 49 0265 02102 6086 439812 348392 205"
"150.888299"
"$GPGGA,211913,2519.9456,N,07937.4839,W,1,10,1.5,18"
"##MN-00 00 48 0266 02107 6084 439616 348358 205"
"150.888345"
"$GPGGA,211918,2519.9454,N,07937.4826,W,1,10,1.5,18"
"##MN+00 00 51 0267 02101 6081 439350 348258 205"
"150.888391"
"$GPGGA,211922,2519.9456,N,07937.4815,W,1,10,1.5,18"
"##MN+00 00 48 0268 02102 6079 439288 348220 205"
"150.888438"
"$GPGGA,211926,2519.9456,N,07937.4805,W,1,10,1.5,18"
"##MN+00 00 52 0269 02102 6077 439284 348212 205"
"150.888484"
"$GPGGA,211930,2519.9458,N,07937.4796,W,1,10,1.5,18"
"##MN-00 00 50 0270 02102 6075 439288 348205 205"
"150.88853"
"$GPGGA,211934,2519.9458,N,07937.4787,W,1,10,1.5,18"
"##MN-00 00 51 0272 02103 6072 439326 348205 205"
"150.888576"
"$GPGGA,211938,2519.9460,N,07937.4779,W,1,10,1.5,18"
"##MN-00 00 51 0273 02104 6070 439451 348237 205"
"150.888623"
"$GPGGA,211942,2519.9460,N,07937.4770,W,1,10,1.5,18"
"##MN+00 00 49 0274 02102 6068 439537 348254 205"
"150.888669"
"$GPGGA,211946,2519.9461,N,07937.4762,W,1,10,1.5,18"
"##MN+00 00 51 0275 02103 6065 439711 348301 205"
"150.888715"
"$GPGGA,211950,2519.9462,N,07937.4754,W,1,10,1.5,18"
"##MN+00 00 60 0276 02107 6063 439841 348341 205"
"150.888762"
"#increment_net"
"$GPGGA,211954,2519.9462,N,07937.4743,W,1,10,1.5,18"
"##MN-00 00 59 0277 02109 6062 439983 348368 205"
"150.888808"
"$GPGGA,211958,2519.9462,N,07937.4732,W,1,10,1.5,18"
"##MN-00 00 55 0278 02113 6059 440173 348405 205"
"150.888854"
"$GPGGA,212002,2519.9462,N,07937.4723,W,1,10,1.5,19"
"##MN-00 00 54 0279 02119 6056 440549 348445 205"
"150.888924"
"$GPGGA,212006,2519.9461,N,07937.4717,W,1,10,1.5,19"
"##MN-00 00 54 0281 02121 6052 441130 348632 205"
"150.88897"
"$GPGGA,212012,2519.9460,N,07937.4699,W,1,10,1.5,19"
"##MN-00 00 54 0283 02116 6050 441460 348726 205"
"150.889016"
"$GPGGA,212016,2519.9460,N,07937.4690,W,1,10,1.5,19"
"##MN-00 00 53 0284 02111 6048 441143 348703 205"
"150.889062"
"$GPGGA,212020,2519.9460,N,07937.4682,W,1,9,1.5,19,"
"##MN-00 00 51 0286 02102 6046 440639 348601 205"
"150.889109"
"$GPGGA,212024,2519.9460,N,07937.4672,W,1,10,1.5,19"
"##MN-00 00 54 0287 02094 6043 439933 348411 205"
"150.889155"
"$GPGGA,212028,2519.9459,N,07937.4661,W,1,10,1.5,19"
"##MN-00 00 54 0289 02087 6041 439475 348280 205"
"150.889201"
"$GPGGA,212032,2519.9457,N,07937.4652,W,1,10,1.5,19"
"##MN-00 00 52 0290 02078 6039 439190 348253 205"
"150.889248"
"$GPGGA,212036,2519.9457,N,07937.4642,W,1,10,1.5,19"
"##MN-00 00 57 0292 02069 6037 438882 348132 205"
"150.889294"
"$GPGGA,212040,2519.9457,N,07937.4633,W,1,10,1.5,19"
"##MN-00 00 56 0294 02060 6035 438688 348042 205"
"150.88934"
"$GPGGA,212044,2519.9456,N,07937.4625,W,1,10,1.5,19"
"##MN-00 00 54 0295 02052 6033 438600 348024 205"
"150.889387"
"$GPGGA,212048,2519.9459,N,07937.4617,W,1,10,1.5,19"
"##MN-00 00 51 0297 02042 6030 438563 348007 205"
"150.889433"
"$GPGGA,212052,2519.9459,N,07937.4609,W,1,10,1.5,19"
"##MN-00 00 50 0298 02035 6028 438534 347998 205"
"150.889479"
"$GPGGA,212056,2519.9460,N,07937.4600,W,1,10,1.5,19"
"##MN-00 00 51 0300 02028 6026 438508 347993 205"
"150.889525"
"$GPGGA,212100,2519.9458,N,07937.4593,W,1,10,1.5,19"
"##MN-00 00 51 0301 02015 6024 438479 347981 205"
"150.889572"
"$GPGGA,212104,2519.9460,N,07937.4583,W,1,10,1.5,19"
"##MN-00 00 57 0303 02004 6022 438448 347973 205"
"150.889618"
"$GPGGA,212108,2519.9460,N,07937.4575,W,1,10,1.5,19"
"##MN-00 00 54 0304 01992 6020 438419 347944 205"
"150.889664"
"$GPGGA,212112,2519.9460,N,07937.4566,W,1,10,1.5,19"
"##MN-00 00 51 0306 01978 6018 438394 347935 205"
"150.889711"
"$GPGGA,212116,2519.9460,N,07937.4556,W,1,10,1.5,19"
"##MN-00 00 54 0307 01966 6016 438381 347928 205"
"150.889757"
"$GPGGA,212120,2519.9462,N,07937.4547,W,1,10,1.5,19"
"##MN-00 00 55 0309 01957 6014 438356 347921 205"
"150.889803"
"$GPGGA,212124,2519.9464,N,07937.4537,W,1,10,1.5,19"
"##MN-00 00 52 0310 01943 6012 438318 347917 205"
"150.88985"
"$GPGGA,212128,2519.9464,N,07937.4527,W,1,10,1.5,19"
"##MN-00 00 51 0312 01932 6010 438286 347916 205"
"150.889896"
"$GPGGA,212132,2519.9467,N,07937.4518,W,1,10,1.5,19"
"##MN-00 00 46 0313 01925 6008 438265 347910 205"
"150.889942"
"$GPGGA,212136,2519.9468,N,07937.4509,W,1,10,1.5,18"
"##MN-00 00 50 0315 01914 6006 438233 347899 205"
"150.889988"
"$GPGGA,212140,2519.9471,N,07937.4500,W,1,10,1.5,18"
"##MN-00 00 49 0316 01903 6005 438123 347864 205"
"150.890035"
"$GPGGA,212144,2519.9471,N,07937.4493,W,1,10,1.5,18"
"##MN-00 00 49 0318 01893 6002 438043 347843 205"
"150.890081"
"$GPGGA,212148,2519.9471,N,07937.4485,W,1,10,1.5,18"
"##MN-00 00 49 0319 01878 6000 437850 347781 205"
"150.890127"
"$GPGGA,212152,2519.9470,N,07937.4478,W,1,10,1.5,18"
"##MN-00 00 51 0321 01864 5998 437232 347600 205"
"150.890174"
"$GPGGA,212156,2519.9468,N,07937.4470,W,1,10,1.5,18"
"##MN-00 00 55 0322 01851 5996 436548 347407 205"
"150.89022"
"$GPGGA,212200,2519.9467,N,07937.4463,W,1,10,1.5,18"
"##MN-00 00 56 0324 01848 5994 435763 347211 205"
"150.890266"
"$GPGGA,212204,2519.9466,N,07937.4455,W,1,10,1.5,18"
"##MN-00 00 62 0325 01843 5992 435402 395981 205"
"150.890313"
"$GPGGA,212208,2519.9464,N,07937.4448,W,1,10,1.5,18"
"##MN-00 00 56 0325 01845 5990 438126 721881 205"
"150.890359"
"$GPGGA,212212,2519.9466,N,07937.4441,W,1,10,1.5,18"
"##MN-00 00 47 0325 01846 5988 443445 925263 205"
"150.890405"
"$GPGGA,212216,2519.9470,N,07937.4434,W,1,10,1.5,18"
"##MN-00 00 50 0325 01845 5987 444905 925275 205"
"150.890451"
"$GPGGA,212220,2519.9477,N,07937.4430,W,1,10,1.5,17"
"##MN-00 00 34 0325 01845 5985 445622 925276 205"
"150.890498"
"$GPGGA,212224,2519.9485,N,07937.4425,W,1,10,1.5,17"
"##MN-00 00 24 0325 01846 5983 450048 925277 204"
"150.890544"
"$GPGGA,212228,2519.9496,N,07937.4420,W,1,10,1.5,17"
"##MN-00 00 25 0325 01847 5981 451477 925279 204"
"150.89059"
"$GPGGA,212232,2519.9506,N,07937.4416,W,1,10,1.5,17"
"##MN-00 00 15 0325 01845 5979 451787 925279 204"
"150.890637"
"$GPGGA,212236,2519.9518,N,07937.4413,W,1,10,1.5,17"
"##MN-00 00 16 0325 01847 5977 451683 925279 204"
"150.890694"
"$GPGGA,212240,2519.9529,N,07937.4410,W,1,10,1.5,17"
"##MN-00 00 16 0325 01845 5975 451907 925279 204"
"150.890741"
"$GPGGA,212244,2519.9543,N,07937.4407,W,1,10,1.5,17"
"##MN-00 00 25 0325 01845 5974 452772 925276 204"
"150.890787"
"$GPGGA,212248,2519.9556,N,07937.4404,W,1,10,1.5,17"
"##MN-00 00 33 0325 01844 5972 453282 925277 204"
"150.890833"
"$GPGGA,212252,2519.9571,N,07937.4402,W,1,10,1.5,17"
"##MN-00 00 39 0325 01844 5970 453270 925278 204"
"150.89088"
"$GPGGA,212256,2519.9586,N,07937.4400,W,1,10,1.5,17"
"##MN-00 00 50 0325 01847 5968 452443 925283 204"
"150.890926"
"$GPGGA,212300,2519.9601,N,07937.4397,W,1,10,1.5,17"
"##MN-00 00 53 0325 01844 5967 451778 925289 204"
"150.890972"
"$GPGGA,212304,2519.9615,N,07937.4394,W,1,10,1.5,17"
"##MN-00 00 61 0325 01846 5965 451508 925290 204"
"150.891019"
"$GPGGA,212308,2519.9630,N,07937.4391,W,1,10,1.5,17"
"##MN-00 00 69 0325 01845 5964 451317 925291 204"
