" Tow: 2Cm-B   RVWS/WS1406"
" Date: 05/30/2014"
" Temperature Probe #  2597    Conductivity Probe #  2870"
" Pressure Probe #  109"
" Flow Meter Calibration  4.71 (m/count)  "
"150.904988"
"$GPGGA,214312,2520.1566,N,07936.3552,W,1,9,1.3,21,"
"##MN-00 00 89 0084 01850 5685 437960 925225 204"
"150.905046"
"$GPGGA,214320,2520.1553,N,07936.3520,W,1,9,1.3,21,"
"##MN-00 00 90 0084 01849 5685 433002 925373 204"
"150.905093"
"$GPGGA,214324,2520.1546,N,07936.3505,W,1,9,1.3,21,"
"##MN-00 00 90 0084 01850 5684 433349 925373 204"
"150.905139"
"$GPGGA,214328,2520.1539,N,07936.3489,W,1,9,1.3,21,"
"##MN-00 00 90 0084 01849 5684 433697 925373 204"
"150.905185"
"$GPGGA,214332,2520.1535,N,07936.3476,W,1,10,1.2,21"
"##MN-00 00 89 0084 01851 5683 433893 925373 204"
"150.905231"
"$GPGGA,214336,2520.1530,N,07936.3461,W,1,10,1.2,21"
"##MN-00 00 89 0084 01849 5683 434634 925373 204"
"150.905278"
"$GPGGA,214340,2520.1525,N,07936.3447,W,1,10,1.2,21"
"##MN-00 00 90 0084 01850 5683 434874 925372 204"
"150.905324"
"$GPGGA,214344,2520.1518,N,07936.3431,W,1,9,1.2,21,"
"##MN-00 00 90 0084 01850 5683 435057 925373 204"
"150.90537"
"$GPGGA,214348,2520.1516,N,07936.3416,W,1,9,1.2,20,"
"##MN-00 00 90 0084 01851 5683 435300 925373 204"
"150.905417"
"$GPGGA,214352,2520.1512,N,07936.3401,W,1,10,1.2,20"
"##MN-00 00 89 0084 01851 5683 435582 925372 204"
"150.905463"
"$GPGGA,214356,2520.1508,N,07936.3386,W,1,10,1.2,20"
"##MN-00 00 90 0084 01850 5683 435589 925372 204"
"150.905509"
"$GPGGA,214400,2520.1502,N,07936.3370,W,1,10,1.2,20"
"##MN-00 00 89 0084 01852 5682 435288 925372 204"
"150.905556"
"$GPGGA,214404,2520.1495,N,07936.3352,W,1,9,1.3,20,"
"##MN-00 00 89 0084 01849 5682 435197 925374 204"
"150.905625"
"$GPGGA,214408,2520.1488,N,07936.3334,W,1,9,1.3,20,"
"##MN-00 00 79 0084 01850 5681 435380 925373 204"
"150.905671"
"$GPGGA,214414,2520.1483,N,07936.3311,W,1,10,1.2,20"
"##MN-00 00 67 0084 01851 5681 436014 925372 204"
"150.905718"
"$GPGGA,214418,2520.1478,N,07936.3297,W,1,10,1.2,20"
"##MN-00 00 54 0084 01850 5681 436488 925373 204"
"150.905764"
"$GPGGA,214422,2520.1471,N,07936.3281,W,1,10,1.3,21"
"##MN-00 00 26 0084 01852 5681 436529 925374 204"
"150.90581"
"$GPGGA,214426,2520.1463,N,07936.3264,W,1,9,1.3,21,"
"##MN-00 00 33 0084 01850 5680 436439 925375 204"
"150.905856"
"$GPGGA,214430,2520.1455,N,07936.3248,W,1,9,1.3,21,"
"##MN-00 00 35 0084 01850 5680 436123 925376 204"
"150.905903"
"$GPGGA,214434,2520.1448,N,07936.3232,W,1,9,1.3,20,"
"##MN-00 00 31 0084 01852 5680 435820 925376 204"
"150.905949"
"$GPGGA,214438,2520.1442,N,07936.3217,W,1,9,1.3,20,"
"##MN-00 00 40 0084 01851 5680 435468 925376 204"
"150.905995"
"$GPGGA,214442,2520.1441,N,07936.3206,W,1,9,1.2,20,"
"##MN-00 00 43 0084 01854 5680 435060 925377 204"
"150.906042"
"$GPGGA,214446,2520.1438,N,07936.3194,W,1,9,1.2,20,"
"##MN-00 00 47 0084 01851 5679 434681 925377 204"
"150.906088"
"$GPGGA,214450,2520.1436,N,07936.3180,W,1,10,1.2,20"
"##MN-00 00 54 0085 01849 5679 434170 925377 204"
"150.906134"
"$GPGGA,214454,2520.1432,N,07936.3167,W,1,10,1.2,20"
"##MN-00 00 51 0085 01851 5679 435125 363977 204"
"150.906181"
"$GPGGA,214458,2520.1426,N,07936.3151,W,1,9,1.3,21,"
"##MN-00 00 55 0086 01852 5679 435395 347226 204"
"150.906227"
"$GPGGA,214502,2520.1422,N,07936.3137,W,1,9,1.3,21,"
"##MN-00 00 56 0087 01850 5679 435340 347047 204"
"150.906273"
"$GPGGA,214506,2520.1419,N,07936.3124,W,1,9,1.3,20,"
"##MN-00 00 60 0088 01850 5679 435318 347040 204"
"150.906319"
"$GPGGA,214510,2520.1419,N,07936.3112,W,1,9,1.3,20,"
"##MN-00 00 59 0089 01851 5679 435332 347049 204"
"150.906366"
"$GPGGA,214514,2520.1425,N,07936.3104,W,1,9,1.3,20,"
"##MN-00 00 56 0090 01850 5678 435359 347005 204"
"150.906412"
"$GPGGA,214518,2520.1429,N,07936.3095,W,1,10,1.3,20"
"##MN-00 00 55 0091 01850 5678 435357 346986 204"
"150.906458"
"$GPGGA,214522,2520.1431,N,07936.3083,W,1,9,1.3,20,"
"##MN-00 00 53 0091 01852 5678 435380 346980 204"
"150.906505"
"$GPGGA,214526,2520.1431,N,07936.3072,W,1,9,1.3,20,"
"##MN-00 00 52 0092 01859 5677 435438 346966 204"
"150.906551"
"$GPGGA,214530,2520.1432,N,07936.3061,W,1,9,1.3,20,"
"##MN-00 00 50 0093 01863 5677 435392 346951 204"
"150.906597"
"$GPGGA,214534,2520.1436,N,07936.3051,W,1,10,1.3,20"
"##MN-00 00 50 0094 01864 5677 435554 346994 204"
"150.906644"
"$GPGGA,214539,2520.1443,N,07936.3037,W,1,9,1.3,20,"
"##MN-00 00 50 0094 01874 5677 435457 346962 204"
"150.90669"
"$GPGGA,214543,2520.1447,N,07936.3027,W,1,9,1.3,20,"
"##MN-00 00 49 0095 01880 5676 435915 347135 204"
"150.906736"
"$GPGGA,214547,2520.1453,N,07936.3018,W,1,9,1.3,20,"
"##MN-00 00 52 0096 01886 5676 436157 347204 204"
"150.906782"
"$GPGGA,214551,2520.1456,N,07936.3008,W,1,10,1.2,20"
"##MN-00 00 52 0097 01891 5676 436505 347305 204"
"150.906829"
"$GPGGA,214555,2520.1461,N,07936.3000,W,1,10,1.2,20"
"##MN-00 00 50 0098 01893 5676 436813 347404 204"
"150.906875"
"$GPGGA,214559,2520.1465,N,07936.2991,W,1,10,1.2,20"
"##MN-00 00 49 0098 01900 5676 437432 347656 204"
"150.906921"
"$GPGGA,214603,2520.1469,N,07936.2980,W,1,10,1.2,21"
"##MN-00 00 50 0099 01904 5676 437571 347711 204"
"150.906968"
"$GPGGA,214607,2520.1469,N,07936.2968,W,1,10,1.2,21"
"##MN-00 00 50 0100 01910 5675 437738 347756 204"
"150.907014"
"$GPGGA,214611,2520.1472,N,07936.2957,W,1,10,1.2,21"
"##MN-00 00 52 0101 01914 5675 437859 347778 204"
"150.90706"
"$GPGGA,214615,2520.1472,N,07936.2946,W,1,10,1.2,21"
"##MN-00 00 53 0101 01919 5674 437984 347820 204"
"150.907106"
"$GPGGA,214619,2520.1472,N,07936.2935,W,1,10,1.3,21"
"##MN-00 00 50 0102 01923 5674 438215 347905 204"
"150.907153"
"$GPGGA,214623,2520.1472,N,07936.2923,W,1,9,1.3,21,"
"##MN-00 00 51 0103 01930 5674 438335 347947 204"
"150.907199"
"$GPGGA,214627,2520.1470,N,07936.2911,W,1,9,1.3,21,"
"##MN-00 00 51 0104 01933 5674 438352 347931 204"
"150.907245"
"$GPGGA,214631,2520.1469,N,07936.2898,W,1,9,1.3,21,"
"##MN-00 00 50 0105 01938 5674 438398 347967 204"
"150.907292"
"$GPGGA,214635,2520.1469,N,07936.2886,W,1,9,1.3,21,"
"##MN-00 00 49 0105 01943 5673 438423 347970 204"
"150.907338"
"$GPGGA,214639,2520.1469,N,07936.2874,W,1,9,1.3,21,"
"##MN-00 00 53 0106 01945 5673 438451 347984 204"
"150.907384"
"$GPGGA,214643,2520.1471,N,07936.2863,W,1,10,1.3,20"
"##MN-00 00 51 0107 01948 5672 438462 347987 204"
"150.907431"
"$GPGGA,214647,2520.1474,N,07936.2853,W,1,10,1.3,20"
"##MN-00 00 52 0108 01956 5672 438468 347985 204"
"150.907477"
"$GPGGA,214651,2520.1472,N,07936.2840,W,1,9,1.3,20,"
"##MN-00 00 53 0109 01958 5672 438482 347993 204"
"150.907523"
"$GPGGA,214655,2520.1472,N,07936.2829,W,1,9,1.3,20,"
"##MN-00 00 51 0109 01964 5671 438500 347994 204"
"150.907569"
"$GPGGA,214659,2520.1472,N,07936.2818,W,1,9,1.3,20,"
"##MN-00 00 52 0110 01968 5671 438502 347989 204"
"150.907616"
"$GPGGA,214703,2520.1473,N,07936.2807,W,1,9,1.3,20,"
"##MN-00 00 51 0111 01972 5670 438509 347994 204"
"150.907662"
"$GPGGA,214707,2520.1476,N,07936.2797,W,1,10,1.2,19"
"##MN-00 00 52 0112 01975 5670 438527 348006 204"
"150.907708"
"$GPGGA,214711,2520.1478,N,07936.2786,W,1,10,1.2,19"
"##MN-00 00 51 0113 01979 5670 438531 348006 204"
"150.907755"
"$GPGGA,214715,2520.1478,N,07936.2775,W,1,9,1.3,19,"
"##MN-00 00 52 0114 01984 5670 438533 348005 204"
"150.907801"
"$GPGGA,214719,2520.1476,N,07936.2764,W,1,9,1.3,19,"
"##MN-00 00 53 0114 01988 5669 438540 348008 204"
"150.907847"
"$GPGGA,214723,2520.1476,N,07936.2752,W,1,9,1.3,19,"
"##MN-00 00 53 0115 01989 5669 438555 348014 204"
"150.907893"
"$GPGGA,214727,2520.1476,N,07936.2742,W,1,9,1.3,19,"
"##MN-00 00 51 0116 01991 5669 438560 348015 204"
"150.90794"
"$GPGGA,214731,2520.1476,N,07936.2731,W,1,10,1.2,19"
"##MN-00 00 53 0117 01997 5668 438563 348012 204"
"150.907986"
"$GPGGA,214735,2520.1474,N,07936.2721,W,1,9,1.3,19,"
"##MN-00 00 52 0118 02000 5668 438571 348014 204"
"150.908032"
"$GPGGA,214739,2520.1476,N,07936.2712,W,1,9,1.3,19,"
"##MN-00 00 53 0119 02006 5667 438571 348016 204"
"150.908079"
"$GPGGA,214743,2520.1476,N,07936.2701,W,1,9,1.3,19,"
"##MN-00 00 51 0120 02009 5667 438585 348022 204"
"150.908125"
"$GPGGA,214747,2520.1478,N,07936.2693,W,1,10,1.2,19"
"##MN-00 00 51 0120 02015 5666 438597 348025 204"
"150.908183"
"$GPGGA,214751,2520.1479,N,07936.2684,W,1,10,1.2,20"
"##MN-00 00 51 0121 02021 5665 438608 348028 204"
"150.908229"
"$GPGGA,214755,2520.1478,N,07936.2672,W,1,10,1.2,20"
"##MN-00 00 54 0122 02022 5665 438616 348028 204"
"150.908275"
"$GPGGA,214759,2520.1478,N,07936.2662,W,1,9,1.3,20,"
"##MN-00 00 51 0123 02027 5665 438621 348030 204"
"150.908322"
"$GPGGA,214803,2520.1483,N,07936.2653,W,1,9,1.3,20,"
"##MN-00 00 54 0124 02030 5664 438625 348031 204"
"150.908368"
"$GPGGA,214807,2520.1485,N,07936.2644,W,1,10,1.2,20"
"##MN-00 00 50 0124 02036 5664 438631 348032 204"
"150.908414"
"$GPGGA,214811,2520.1487,N,07936.2634,W,1,10,1.2,20"
"##MN-00 00 54 0125 02039 5663 438637 348033 204"
"150.908461"
"$GPGGA,214815,2520.1485,N,07936.2623,W,1,10,1.2,20"
"##MN-00 00 51 0126 02041 5662 438640 348033 204"
"150.908507"
"$GPGGA,214819,2520.1489,N,07936.2614,W,1,10,1.2,21"
"##MN-00 00 53 0127 02045 5662 438644 348032 204"
"150.908553"
"$GPGGA,214823,2520.1490,N,07936.2604,W,1,10,1.2,21"
"##MN-00 00 52 0128 02049 5662 438646 348033 204"
"150.9086"
"$GPGGA,214827,2520.1493,N,07936.2592,W,1,10,1.2,21"
"##MN-00 00 52 0129 02055 5661 438651 348035 204"
"150.908646"
"$GPGGA,214831,2520.1492,N,07936.2579,W,1,10,1.2,21"
"##MN-00 00 54 0130 02058 5660 438659 348035 204"
"150.908692"
"$GPGGA,214835,2520.1494,N,07936.2567,W,1,10,1.2,21"
"##MN-00 00 48 0130 02059 5660 438669 348037 204"
"150.908738"
"$GPGGA,214839,2520.1496,N,07936.2555,W,1,10,1.2,21"
"##MN-00 00 54 0131 02066 5660 438683 348042 204"
"150.908785"
"$GPGGA,214843,2520.1495,N,07936.2541,W,1,10,1.2,21"
"##MN-00 00 52 0132 02068 5659 438691 348044 204"
"150.908831"
"$GPGGA,214847,2520.1497,N,07936.2528,W,1,10,1.2,21"
"##MN-00 00 53 0133 02073 5659 438691 348043 204"
"150.908877"
"$GPGGA,214851,2520.1498,N,07936.2515,W,1,10,1.2,21"
"##MN-00 00 53 0133 02077 5658 438695 348043 204"
"150.908924"
"$GPGGA,214855,2520.1499,N,07936.2503,W,1,10,1.2,21"
"##MN-00 00 53 0134 02083 5658 438708 348045 204"
"150.90897"
"$GPGGA,214859,2520.1501,N,07936.2491,W,1,10,1.2,21"
"##MN-00 00 52 0135 02086 5657 438724 348052 204"
"150.909016"
"$GPGGA,214903,2520.1503,N,07936.2478,W,1,10,1.2,21"
"##MN-00 00 51 0136 02086 5657 438732 348053 204"
"150.909062"
"$GPGGA,214907,2520.1503,N,07936.2465,W,1,10,1.2,21"
"##MN-00 00 51 0137 02086 5656 438735 348052 204"
"150.909109"
"$GPGGA,214911,2520.1505,N,07936.2451,W,1,10,1.2,21"
"##MN-00 00 49 0138 02086 5655 438736 348054 204"
"150.909155"
"$GPGGA,214915,2520.1505,N,07936.2439,W,1,10,1.2,21"
"##MN-00 00 49 0138 02087 5655 438738 348055 204"
"150.909201"
"$GPGGA,214919,2520.1508,N,07936.2426,W,1,10,1.2,21"
"##MN-00 00 49 0139 02086 5654 438737 348055 204"
"150.909248"
"$GPGGA,214923,2520.1511,N,07936.2414,W,1,10,1.2,21"
"##MN-00 00 49 0140 02088 5654 438737 348055 204"
"150.909294"
"$GPGGA,214927,2520.1514,N,07936.2402,W,1,10,1.2,20"
"##MN-00 00 50 0141 02089 5654 438735 348054 204"
"150.90934"
"$GPGGA,214931,2520.1516,N,07936.2390,W,1,10,1.2,20"
"##MN-00 00 49 0142 02094 5653 438738 348054 204"
"150.909387"
"$GPGGA,214935,2520.1519,N,07936.2378,W,1,10,1.2,20"
"##MN-00 00 51 0143 02096 5652 438740 348054 204"
"150.909433"
"$GPGGA,214939,2520.1523,N,07936.2366,W,1,10,1.2,20"
"##MN-00 00 51 0144 02098 5652 438737 348053 204"
"150.909479"
"$GPGGA,214943,2520.1524,N,07936.2355,W,1,10,1.2,20"
"##MN-00 00 51 0145 02099 5651 438740 348053 204"
"150.909525"
"$GPGGA,214947,2520.1526,N,07936.2343,W,1,10,1.2,20"
"##MN-00 00 51 0145 02101 5651 438746 348053 204"
"150.909572"
"$GPGGA,214951,2520.1530,N,07936.2330,W,1,10,1.2,20"
"##MN-00 00 51 0146 02103 5650 438750 348053 204"
"150.909618"
"$GPGGA,214955,2520.1532,N,07936.2319,W,1,10,1.2,20"
"##MN-00 00 51 0147 02102 5650 438764 348057 204"
"150.909664"
"$GPGGA,214959,2520.1534,N,07936.2305,W,1,10,1.2,20"
"##MN-00 00 50 0148 02105 5649 438782 348063 204"
"150.909711"
"$GPGGA,215003,2520.1537,N,07936.2293,W,1,10,1.2,20"
"##MN-00 00 51 0149 02106 5648 438786 348064 204"
"150.909757"
"$GPGGA,215007,2520.1540,N,07936.2280,W,1,10,1.2,20"
"##MN-00 00 49 0150 02107 5648 438786 348064 204"
"150.909803"
"$GPGGA,215011,2520.1543,N,07936.2267,W,1,10,1.2,20"
"##MN-00 00 53 0151 02108 5647 438793 348065 204"
"150.90985"
"$GPGGA,215016,2520.1543,N,07936.2253,W,1,10,1.2,20"
"##MN-00 00 51 0152 02108 5647 438796 348068 204"
"150.909896"
"$GPGGA,215019,2520.1545,N,07936.2240,W,1,10,1.2,20"
"##MN-00 00 48 0152 02111 5646 438798 348068 204"
"150.909942"
"$GPGGA,215024,2520.1548,N,07936.2227,W,1,10,1.2,20"
"##MN-00 00 49 0153 02114 5646 438799 348068 204"
"150.909988"
"$GPGGA,215028,2520.1552,N,07936.2210,W,1,10,1.2,20"
"##MN-00 00 51 0154 02115 5645 438798 348068 204"
"150.910035"
"$GPGGA,215031,2520.1553,N,07936.2202,W,1,9,1.3,20,"
"##MN-00 00 49 0155 02113 5644 438797 348068 204"
"150.910081"
"$GPGGA,215036,2520.1552,N,07936.2189,W,1,10,1.2,20"
"##MN-00 00 50 0156 02114 5644 438797 348068 204"
"150.910127"
"$GPGGA,215040,2520.1555,N,07936.2179,W,1,10,1.3,20"
"##MN-00 00 50 0157 02113 5643 438796 348068 204"
"150.910174"
"$GPGGA,215044,2520.1559,N,07936.2162,W,1,10,1.2,20"
"##MN-00 00 49 0158 02112 5643 438797 348068 204"
"150.91022"
"$GPGGA,215048,2520.1557,N,07936.2152,W,1,10,1.2,20"
"##MN+00 00 52 0159 02111 5642 438798 348068 204"
"150.910266"
"$GPGGA,215052,2520.1557,N,07936.2141,W,1,10,1.2,20"
"##MN+00 00 51 0160 02109 5641 438797 348068 204"
"150.910312"
"$GPGGA,215056,2520.1559,N,07936.2128,W,1,10,1.2,21"
"##MN+00 00 50 0160 02110 5641 438797 348068 204"
"150.910359"
"$GPGGA,215100,2520.1561,N,07936.2117,W,1,10,1.2,21"
"##MN+00 00 49 0161 02111 5640 438798 348069 204"
"150.910405"
"$GPGGA,215104,2520.1563,N,07936.2103,W,1,10,1.2,21"
"##MN+00 00 51 0162 02113 5640 438799 348069 204"
"150.910451"
"$GPGGA,215108,2520.1566,N,07936.2088,W,1,10,1.2,21"
"##MN+00 00 60 0163 02112 5639 438799 348069 204"
"150.910498"
"#increment_net"
"$GPGGA,215112,2520.1567,N,07936.2074,W,1,10,1.2,21"
"##MN-00 00 56 0164 02109 5638 438801 348069 204"
"150.910544"
"$GPGGA,215116,2520.1569,N,07936.2061,W,1,10,1.2,21"
"##MN-00 00 53 0165 02111 5638 438801 348069 204"
"150.91059"
"$GPGGA,215120,2520.1570,N,07936.2047,W,1,10,1.2,21"
"##MN-00 00 52 0166 02108 5638 438802 348070 204"
"150.910637"
"$GPGGA,215124,2520.1571,N,07936.2034,W,1,10,1.2,21"
"##MN-00 00 51 0167 02111 5637 438802 348070 204"
"150.910683"
"$GPGGA,215128,2520.1577,N,07936.2021,W,1,9,1.2,21,"
"##MN-00 00 51 0168 02107 5636 438800 348070 204"
"150.910729"
"$GPGGA,215132,2520.1583,N,07936.2010,W,1,10,1.2,21"
"##MN-00 00 51 0169 02109 5636 438797 348069 204"
"150.910776"
"$GPGGA,215136,2520.1584,N,07936.1998,W,1,9,1.2,21,"
"##MN-00 00 52 0170 02108 5635 438795 348069 204"
"150.910822"
"$GPGGA,215140,2520.1588,N,07936.1987,W,1,9,1.2,21,"
"##MN-00 00 52 0171 02108 5634 438791 348068 204"
"150.910868"
"$GPGGA,215144,2520.1594,N,07936.1977,W,1,10,1.2,21"
"##MN+00 00 51 0172 02107 5634 438789 348068 204"
"150.910914"
"$GPGGA,215148,2520.1596,N,07936.1965,W,1,10,1.2,22"
"##MN+00 00 51 0173 02108 5633 438789 348068 204"
"150.910961"
"$GPGGA,215152,2520.1598,N,07936.1952,W,1,9,1.3,22,"
"##MN+00 00 53 0173 02107 5633 438791 348067 204"
"150.911007"
"$GPGGA,215156,2520.1602,N,07936.1941,W,1,9,1.3,22,"
"##MN-00 00 54 0174 02107 5632 438792 348067 204"
"150.911053"
"$GPGGA,215200,2520.1608,N,07936.1930,W,1,10,1.2,22"
"##MN-00 00 51 0175 02110 5631 438794 348068 204"
"150.9111"
"$GPGGA,215204,2520.1613,N,07936.1918,W,1,10,1.2,22"
"##MN-00 00 52 0176 02109 5631 438793 348068 204"
"150.911146"
"$GPGGA,215208,2520.1617,N,07936.1905,W,1,10,1.2,22"
"##MN-00 00 51 0177 02110 5630 438794 348068 204"
"150.911192"
"$GPGGA,215212,2520.1619,N,07936.1893,W,1,10,1.2,22"
"##MN+00 00 51 0178 02107 5630 438797 348068 204"
"150.911238"
"$GPGGA,215216,2520.1623,N,07936.1881,W,1,10,1.2,22"
"##MN+00 00 52 0179 02109 5629 438799 348068 204"
"150.911285"
"$GPGGA,215220,2520.1626,N,07936.1870,W,1,10,1.2,22"
"##MN+00 00 61 0180 02109 5628 438800 348068 204"
"150.911331"
"#increment_net"
"$GPGGA,215224,2520.1627,N,07936.1859,W,1,10,1.2,22"
"##MN-00 00 53 0181 02111 5628 438800 348069 204"
"150.911377"
"$GPGGA,215228,2520.1628,N,07936.1847,W,1,10,1.2,23"
"##MN-00 00 53 0182 02108 5627 438800 348069 204"
"150.911435"
"$GPGGA,215232,2520.1630,N,07936.1835,W,1,9,1.3,23,"
"##MN-00 00 49 0183 02111 5627 438800 348069 204"
"150.911481"
"$GPGGA,215236,2520.1635,N,07936.1824,W,1,9,1.3,23,"
"##MN-00 00 50 0183 02112 5626 438799 348069 204"
"150.911528"
"$GPGGA,215240,2520.1637,N,07936.1812,W,1,10,1.3,23"
"##MN-00 00 49 0184 02108 5626 438799 348069 204"
"150.911574"
"$GPGGA,215244,2520.1637,N,07936.1799,W,1,9,1.3,23,"
"##MN-00 00 49 0185 02109 5625 438797 348069 204"
"150.91162"
"$GPGGA,215248,2520.1638,N,07936.1787,W,1,9,1.3,23,"
"##MN-00 00 49 0186 02107 5625 438796 348069 204"
"150.911667"
"$GPGGA,215252,2520.1640,N,07936.1777,W,1,10,1.2,23"
"##MN-00 00 50 0187 02108 5624 438796 348069 204"
"150.911713"
"$GPGGA,215256,2520.1641,N,07936.1764,W,1,9,1.2,23,"
"##MN+00 00 49 0188 02108 5623 438796 348069 204"
"150.911759"
"$GPGGA,215300,2520.1643,N,07936.1754,W,1,10,1.2,23"
"##MN+00 00 50 0189 02108 5623 438795 348069 204"
"150.911806"
"$GPGGA,215304,2520.1646,N,07936.1742,W,1,10,1.2,23"
"##MN+00 00 48 0190 02106 5622 438794 348069 204"
"150.911852"
"$GPGGA,215308,2520.1648,N,07936.1729,W,1,10,1.2,23"
"##MN-00 00 49 0191 02107 5622 438793 348068 204"
"150.911898"
"$GPGGA,215312,2520.1651,N,07936.1717,W,1,10,1.2,23"
"##MN-00 00 50 0192 02105 5621 438791 348068 204"
"150.911944"
"$GPGGA,215316,2520.1653,N,07936.1705,W,1,10,1.2,23"
"##MN-00 00 50 0193 02104 5621 438790 348068 204"
"150.911991"
"$GPGGA,215320,2520.1653,N,07936.1693,W,1,10,1.2,23"
"##MN+00 00 51 0194 02103 5620 438791 348067 204"
"150.912037"
"$GPGGA,215324,2520.1656,N,07936.1681,W,1,10,1.2,23"
"##MN+00 00 49 0195 02104 5619 438788 348066 204"
"150.912083"
"$GPGGA,215328,2520.1657,N,07936.1667,W,1,10,1.3,23"
"##MN+00 00 61 0196 02106 5619 438786 348066 204"
"150.91213"
"#increment_net"
"$GPGGA,215332,2520.1657,N,07936.1653,W,1,10,1.2,23"
"##MN-00 00 55 0197 02105 5619 438790 348066 204"
"150.912176"
"$GPGGA,215336,2520.1660,N,07936.1642,W,1,10,1.4,22"
"##MN-00 00 49 0198 02105 5618 438790 348066 204"
"150.912222"
"$GPGGA,215340,2520.1666,N,07936.1633,W,1,9,1.4,22,"
"##MN-00 00 50 0199 02105 5617 438790 348084 204"
"150.912268"
"$GPGGA,215344,2520.1667,N,07936.1619,W,1,9,1.2,22,"
"##MN-00 00 48 0200 02105 5617 438788 348066 204"
"150.912315"
"$GPGGA,215348,2520.1670,N,07936.1605,W,1,9,1.2,22,"
"##MN-00 00 47 0200 02106 5616 438786 348065 204"
"150.912361"
"$GPGGA,215352,2520.1671,N,07936.1591,W,1,9,1.3,22,"
"##MN-00 00 48 0201 02104 5615 438785 348065 204"
"150.912407"
"$GPGGA,215356,2520.1672,N,07936.1579,W,1,9,1.3,22,"
"##MN-00 00 48 0202 02105 5615 438781 348064 204"
"150.912454"
"$GPGGA,215400,2520.1675,N,07936.1569,W,1,10,1.2,22"
"##MN-00 00 48 0204 02105 5614 438778 348064 204"
"150.9125"
"$GPGGA,215404,2520.1677,N,07936.1557,W,1,10,1.3,22"
"##MN+00 00 48 0205 02105 5613 438775 348063 204"
"150.912546"
"$GPGGA,215408,2520.1679,N,07936.1546,W,1,9,1.3,22,"
"##MN+00 00 48 0206 02103 5613 438771 348062 204"
"150.912593"
"$GPGGA,215412,2520.1683,N,07936.1532,W,1,9,1.3,22,"
"##MN+00 00 48 0207 02102 5612 438770 348061 204"
"150.912639"
"$GPGGA,215416,2520.1688,N,07936.1517,W,1,10,1.2,22"
"##MN-00 00 48 0208 02104 5612 438769 348060 204"
"150.912685"
"$GPGGA,215420,2520.1691,N,07936.1504,W,1,10,1.2,22"
"##MN-00 00 48 0208 02103 5611 438769 348060 204"
"150.912731"
"$GPGGA,215424,2520.1693,N,07936.1492,W,1,9,1.2,22,"
"##MN-00 00 48 0209 02104 5611 438767 348060 204"
"150.912778"
"$GPGGA,215428,2520.1693,N,07936.1481,W,1,9,1.2,22,"
"##MN+00 00 49 0210 02101 5610 438767 348060 204"
"150.912824"
"$GPGGA,215432,2520.1698,N,07936.1471,W,1,10,1.2,22"
"##MN+00 00 49 0211 02104 5610 438766 348060 204"
"150.91287"
"$GPGGA,215436,2520.1702,N,07936.1457,W,1,10,1.3,22"
"##MN+00 00 58 0213 02107 5609 438766 348059 204"
"150.912917"
"#increment_net"
"$GPGGA,215440,2520.1706,N,07936.1443,W,1,10,1.3,22"
"##MN-00 00 54 0213 02105 5609 438767 348059 204"
"150.912963"
"$GPGGA,215444,2520.1708,N,07936.1429,W,1,9,1.2,22,"
"##MN-00 00 51 0214 02105 5608 438768 348060 204"
"150.913009"
"$GPGGA,215448,2520.1711,N,07936.1415,W,1,10,1.3,22"
"##MN-00 00 51 0215 02106 5608 438767 348060 204"
"150.913056"
"$GPGGA,215453,2520.1716,N,07936.1397,W,1,9,1.3,22,"
"##MN-00 00 48 0216 02103 5607 438767 348100 204"
"150.913102"
"$GPGGA,215457,2520.1718,N,07936.1382,W,1,10,1.2,22"
"##MN-00 00 47 0217 02104 5607 438766 348059 204"
"150.913148"
"$GPGGA,215501,2520.1721,N,07936.1366,W,1,10,1.2,22"
"##MN-00 00 48 0218 02103 5606 438765 348059 204"
"150.913194"
"$GPGGA,215505,2520.1724,N,07936.1353,W,1,10,1.2,22"
"##MN-00 00 49 0220 02104 5606 438764 348059 204"
"150.913241"
"$GPGGA,215509,2520.1727,N,07936.1340,W,1,10,1.2,22"
"##MN+00 00 48 0221 02102 5606 438763 348059 204"
"150.913287"
"$GPGGA,215513,2520.1735,N,07936.1325,W,1,10,1.2,22"
"##MN+00 00 48 0222 02104 5605 438763 348059 204"
"150.913333"
"$GPGGA,215517,2520.1738,N,07936.1309,W,1,10,1.2,23"
"##MN+00 00 49 0223 02102 5605 438762 348058 204"
"150.91338"
"$GPGGA,215520,2520.1740,N,07936.1298,W,1,10,1.2,23"
"##MN-00 00 48 0224 02102 5604 438761 348058 204"
"150.913426"
"$GPGGA,215525,2520.1746,N,07936.1279,W,1,10,1.2,23"
"##MN-00 00 48 0225 02102 5603 438760 348058 204"
"150.913472"
"$GPGGA,215529,2520.1749,N,07936.1264,W,1,9,1.3,23,"
"##MN+00 00 46 0226 02102 5603 438762 348058 204"
"150.913519"
"$GPGGA,215533,2520.1750,N,07936.1250,W,1,10,1.2,23"
"##MN+00 00 47 0227 02102 5602 438763 348059 204"
"150.913565"
"$GPGGA,215537,2520.1751,N,07936.1235,W,1,9,1.3,23,"
"##MN+00 00 60 0228 02103 5602 438762 348058 204"
"150.913611"
"#increment_net"
"$GPGGA,215541,2520.1754,N,07936.1221,W,1,10,1.2,23"
"##MN-00 00 56 0229 02103 5601 438761 348057 204"
"150.913657"
"$GPGGA,215545,2520.1757,N,07936.1205,W,1,10,1.2,23"
"##MN-00 00 53 0230 02108 5601 438767 348058 204"
"150.913704"
"$GPGGA,215549,2520.1760,N,07936.1190,W,1,10,1.2,23"
"##MN-00 00 52 0231 02114 5600 438776 348060 204"
"150.91375"
"$GPGGA,215553,2520.1761,N,07936.1175,W,1,10,1.2,24"
"##MN-00 00 51 0233 02116 5599 438784 348062 204"
"150.913796"
"$GPGGA,215557,2520.1763,N,07936.1160,W,1,9,1.3,24,"
"##MN-00 00 54 0234 02117 5598 438796 348064 204"
"150.913843"
"$GPGGA,215601,2520.1765,N,07936.1145,W,1,10,1.2,24"
"##MN-00 00 52 0236 02112 5597 438805 348068 204"
"150.913889"
"$GPGGA,215605,2520.1765,N,07936.1130,W,1,10,1.2,24"
"##MN-00 00 53 0237 02105 5597 438799 348068 204"
"150.913935"
"$GPGGA,215609,2520.1765,N,07936.1114,W,1,10,1.2,24"
"##MN-00 00 51 0239 02101 5596 438791 348067 204"
"150.913982"
"$GPGGA,215613,2520.1768,N,07936.1099,W,1,10,1.2,24"
"##MN-00 00 52 0240 02096 5596 438778 348067 204"
"150.914028"
"$GPGGA,215617,2520.1769,N,07936.1084,W,1,10,1.2,24"
"##MN-00 00 50 0241 02089 5596 438763 348065 204"
"150.914074"
"$GPGGA,215621,2520.1769,N,07936.1070,W,1,10,1.2,24"
"##MN-00 00 52 0243 02084 5595 438752 348061 204"
"150.91412"
"$GPGGA,215625,2520.1772,N,07936.1054,W,1,10,1.2,24"
"##MN-00 00 51 0244 02074 5595 438742 348058 204"
"150.914167"
"$GPGGA,215629,2520.1774,N,07936.1038,W,1,10,1.2,24"
"##MN-00 00 50 0246 02069 5594 438732 348057 204"
"150.914213"
"$GPGGA,215633,2520.1776,N,07936.1022,W,1,10,1.2,24"
"##MN-00 00 49 0247 02059 5593 438719 348057 204"
"150.914259"
"$GPGGA,215637,2520.1776,N,07936.1006,W,1,10,1.2,24"
"##MN-00 00 49 0249 02051 5593 438704 348053 204"
"150.914306"
"$GPGGA,215641,2520.1776,N,07936.0990,W,1,10,1.2,24"
"##MN-00 00 51 0250 02045 5593 438690 348053 204"
"150.914352"
"$GPGGA,215645,2520.1777,N,07936.0974,W,1,10,1.2,24"
"##MN-00 00 51 0252 02037 5592 438661 348044 204"
"150.914398"
"$GPGGA,215649,2520.1779,N,07936.0958,W,1,10,1.2,24"
"##MN-00 00 54 0253 02028 5592 438638 348040 204"
"150.914444"
"$GPGGA,215653,2520.1783,N,07936.0942,W,1,9,1.2,24,"
"##MN-00 00 51 0254 02018 5591 438613 348036 204"
"150.914491"
"$GPGGA,215657,2520.1785,N,07936.0927,W,1,10,1.4,24"
"##MN-00 00 48 0256 02008 5591 438593 348029 204"
"150.914537"
"$GPGGA,215701,2520.1787,N,07936.0910,W,1,9,1.4,24,"
"##MN-00 00 52 0257 01993 5590 438575 348027 204"
"150.914583"
"$GPGGA,215705,2520.1786,N,07936.0894,W,1,10,1.2,24"
"##MN-00 00 51 0259 01984 5589 438554 348020 204"
"150.91463"
"$GPGGA,215709,2520.1794,N,07936.0878,W,1,10,1.2,24"
"##MN-00 00 51 0260 01974 5589 438532 348012 204"
"150.914687"
"$GPGGA,215713,2520.1798,N,07936.0861,W,1,10,1.2,24"
"##MN-00 00 49 0262 01964 5589 438503 348006 204"
"150.914734"
"$GPGGA,215717,2520.1804,N,07936.0844,W,1,10,1.2,24"
"##MN-00 00 49 0263 01957 5588 438441 347991 204"
"150.91478"
"$GPGGA,215721,2520.1806,N,07936.0828,W,1,10,1.2,24"
"##MN-00 00 48 0265 01945 5588 438392 347983 204"
"150.914826"
"$GPGGA,215725,2520.1807,N,07936.0812,W,1,10,1.2,24"
"##MN-00 00 44 0266 01934 5587 438293 347961 204"
"150.914873"
"$GPGGA,215729,2520.1808,N,07936.0796,W,1,10,1.2,24"
"##MN-00 00 48 0267 01923 5587 437852 347826 204"
"150.914919"
"$GPGGA,215733,2520.1803,N,07936.0781,W,1,10,1.4,24"
"##MN-00 00 48 0269 01910 5587 437145 347658 204"
"150.914965"
"$GPGGA,215737,2520.1808,N,07936.0767,W,1,10,1.4,24"
"##MN-00 00 44 0270 01904 5586 436926 347519 204"
"150.915012"
"$GPGGA,215741,2520.1815,N,07936.0754,W,1,10,1.4,24"
"##MN-00 00 39 0271 01897 5585 436711 347441 204"
"150.915058"
"$GPGGA,215745,2520.1826,N,07936.0743,W,1,10,1.2,23"
"##MN-00 00 38 0273 01888 5585 436534 347376 204"
"150.915104"
"$GPGGA,215749,2520.1836,N,07936.0732,W,1,10,1.2,23"
"##MN-00 00 34 0274 01880 5584 436316 347296 204"
"150.91515"
"$GPGGA,215753,2520.1846,N,07936.0722,W,1,10,1.3,23"
"##MN-00 00 32 0275 01868 5584 435894 347226 204"
"150.915197"
"$GPGGA,215757,2520.1859,N,07936.0715,W,1,10,1.2,23"
"##MN-00 00 32 0276 01858 5583 435662 347344 204"
"150.915243"
"$GPGGA,215801,2520.1872,N,07936.0708,W,1,10,1.3,23"
"##MN-00 00 30 0276 01855 5583 435635 347849 204"
"150.915289"
"$GPGGA,215805,2520.1880,N,07936.0703,W,1,10,1.2,23"
"##MN-00 00 21 0277 01851 5583 435642 347309 204"
"150.915336"
"$GPGGA,215809,2520.1895,N,07936.0693,W,1,10,1.3,23"
"##MN-00 00 30 0278 01851 5582 438294 585245 204"
