" Tow: 2Cs-A   RVWS/WS1406"
" Date: 05/30/2014"
" Temperature Probe #  2597    Conductivity Probe #  2870"
" Pressure Probe #  109"
" Flow Meter Calibration  4.71 (m/count)  "
"150.70978"
"$GPGGA,170207,2510.9776,N,07945.5445,W,1,9,2.1,21,"
"##MN-00 00 50 0088 01831 6579 440238 348008 205"
"150.709826"
"$GPGGA,170213,2510.9785,N,07945.5411,W,1,9,2.0,21,"
"##MN-00 00 50 0089 01833 6577 436959 347357 205"
"150.709873"
"$GPGGA,170217,2510.9795,N,07945.5389,W,1,8,2.0,21,"
"##MN-00 00 55 0090 01835 6575 436984 347368 205"
"150.709919"
"$GPGGA,170221,2510.9803,N,07945.5367,W,1,8,2.6,22,"
"##MN-00 00 54 0091 01832 6573 437029 347378 205"
"150.709965"
"$GPGGA,170225,2510.9813,N,07945.5347,W,1,9,2.0,22,"
"##MN-00 00 51 0091 01833 6571 437105 347402 205"
"150.710012"
"$GPGGA,170229,2510.9825,N,07945.5327,W,1,9,2.6,21,"
"##MN-00 00 54 0092 01834 6569 437064 347385 205"
"150.710058"
"$GPGGA,170233,2510.9836,N,07945.5306,W,1,9,2.0,21,"
"##MN-00 00 51 0093 01836 6566 436995 347367 205"
"150.710104"
"$GPGGA,170237,2510.9845,N,07945.5285,W,1,8,2.0,21,"
"##MN-00 00 50 0094 01836 6564 436974 347360 205"
"150.71015"
"$GPGGA,170241,2510.9850,N,07945.5263,W,1,9,2.0,21,"
"##MN-00 00 55 0095 01834 6562 436997 347364 205"
"150.710197"
"$GPGGA,170245,2510.9857,N,07945.5239,W,1,9,2.0,21,"
"##MN-00 00 52 0096 01834 6560 436983 347354 205"
"150.710243"
"$GPGGA,170249,2510.9865,N,07945.5218,W,1,9,2.0,21,"
"##MN-00 00 51 0097 01836 6557 437004 347383 205"
"150.710289"
"$GPGGA,170253,2510.9872,N,07945.5196,W,1,9,2.0,21,"
"##MN-00 00 49 0097 01835 6555 436910 347346 205"
"150.710336"
"$GPGGA,170257,2510.9881,N,07945.5176,W,1,9,2.0,21,"
"##MN-00 00 49 0098 01835 6552 436937 347348 205"
"150.710382"
"$GPGGA,170301,2510.9889,N,07945.5156,W,1,9,2.0,21,"
"##MN-00 00 51 0099 01835 6550 436965 347359 205"
"150.710428"
"$GPGGA,170305,2510.9897,N,07945.5136,W,1,9,2.0,21,"
"##MN-00 00 51 0100 01838 6547 436956 347355 205"
"150.710475"
"$GPGGA,170309,2510.9906,N,07945.5115,W,1,9,2.0,21,"
"##MN-00 00 51 0101 01845 6545 436972 347371 205"
"150.710521"
"$GPGGA,170313,2510.9914,N,07945.5094,W,1,9,2.0,21,"
"##MN-00 00 52 0102 01847 6542 437022 347376 205"
"150.710567"
"$GPGGA,170317,2510.9921,N,07945.5072,W,1,9,2.0,21,"
"##MN-00 00 54 0102 01853 6539 437213 347462 205"
"150.710613"
"$GPGGA,170321,2510.9929,N,07945.5050,W,1,9,2.0,21,"
"##MN-00 00 52 0103 01854 6537 437384 347488 205"
"150.71066"
"$GPGGA,170325,2510.9937,N,07945.5028,W,1,9,2.0,21,"
"##MN-00 00 52 0104 01868 6534 437533 347534 204"
"150.710706"
"$GPGGA,170329,2510.9946,N,07945.5008,W,1,9,2.0,21,"
"##MN-00 00 53 0105 01869 6532 437647 347577 205"
"150.710752"
"$GPGGA,170333,2510.9954,N,07945.4987,W,1,9,2.0,21,"
"##MN-00 00 51 0105 01878 6529 437692 347590 205"
"150.710799"
"$GPGGA,170337,2510.9965,N,07945.4967,W,1,9,2.0,21,"
"##MN-00 00 52 0106 01882 6526 437784 347610 205"
"150.710845"
"$GPGGA,170341,2510.9973,N,07945.4946,W,1,9,2.0,21,"
"##MN-00 00 46 0107 01888 6523 437821 347618 204"
"150.710891"
"$GPGGA,170345,2510.9980,N,07945.4925,W,1,8,2.6,21,"
"##MN-00 00 50 0107 01894 6520 437935 347654 205"
"150.710938"
"$GPGGA,170349,2510.9990,N,07945.4906,W,1,9,2.0,21,"
"##MN-00 00 54 0108 01897 6517 437991 347670 205"
"150.710984"
"$GPGGA,170353,2510.9997,N,07945.4885,W,1,9,2.0,21,"
"##MN-00 00 48 0109 01903 6514 438065 347699 205"
"150.71103"
"$GPGGA,170357,2511.0004,N,07945.4864,W,1,9,2.0,21,"
"##MN-00 00 49 0109 01911 6511 438173 347723 205"
"150.711076"
"$GPGGA,170401,2511.0011,N,07945.4844,W,1,9,2.0,21,"
"##MN-00 00 52 0110 01915 6509 438203 347736 204"
"150.711123"
"$GPGGA,170405,2511.0018,N,07945.4824,W,1,9,2.0,21,"
"##MN-00 00 47 0110 01920 6506 438240 347746 205"
"150.711169"
"$GPGGA,170409,2511.0024,N,07945.4805,W,1,9,2.0,21,"
"##MN-00 00 50 0111 01927 6503 438279 347757 205"
"150.711215"
"$GPGGA,170413,2511.0033,N,07945.4786,W,1,9,2.0,21,"
"##MN-00 00 52 0112 01932 6500 438293 347763 205"
"150.711262"
"$GPGGA,170418,2511.0040,N,07945.4763,W,1,9,2.0,20,"
"##MN-00 00 50 0113 01934 6497 438302 347765 205"
"150.711308"
"$GPGGA,170422,2511.0047,N,07945.4745,W,1,9,2.0,20,"
"##MN-00 00 46 0113 01936 6494 438303 347768 204"
"150.711354"
"$GPGGA,170426,2511.0052,N,07945.4726,W,1,9,2.0,20,"
"##MN-00 00 50 0114 01941 6491 438328 347775 205"
"150.7114"
"$GPGGA,170430,2511.0056,N,07945.4708,W,1,9,2.0,19,"
"##MN-00 00 49 0115 01947 6488 438331 347774 204"
"150.711447"
"$GPGGA,170433,2511.0060,N,07945.4695,W,1,9,2.0,19,"
"##MN-00 00 51 0116 01950 6485 438349 347782 204"
"150.711493"
"$GPGGA,170437,2511.0066,N,07945.4677,W,1,9,2.0,19,"
"##MN-00 00 49 0117 01950 6483 438362 347783 205"
"150.711539"
"$GPGGA,170442,2511.0070,N,07945.4656,W,1,9,2.0,18,"
"##MN-00 00 47 0118 01949 6480 438374 347784 204"
"150.711586"
"$GPGGA,170446,2511.0076,N,07945.4639,W,1,9,2.0,18,"
"##MN-00 00 50 0119 01949 6476 438383 347791 204"
"150.711632"
"$GPGGA,170450,2511.0081,N,07945.4623,W,1,9,2.0,17,"
"##MN-00 00 47 0120 01949 6474 438382 347793 204"
"150.711678"
"$GPGGA,170454,2511.0087,N,07945.4607,W,1,9,2.0,17,"
"##MN-00 00 48 0120 01950 6471 438379 347793 204"
"150.711725"
"$GPGGA,170458,2511.0092,N,07945.4591,W,1,9,2.0,16,"
"##MN+00 00 50 0121 01949 6467 438380 347793 204"
"150.711771"
"$GPGGA,170502,2511.0099,N,07945.4574,W,1,9,2.0,16,"
"##MN+00 00 49 0122 01950 6464 438374 347792 204"
"150.711829"
"$GPGGA,170506,2511.0105,N,07945.4557,W,1,9,2.0,15,"
"##MN+00 00 45 0123 01952 6461 438379 347793 204"
"150.711875"
"$GPGGA,170510,2511.0112,N,07945.4541,W,1,9,2.0,15,"
"##MN+00 00 47 0124 01952 6458 438394 347797 204"
"150.711921"
"$GPGGA,170514,2511.0117,N,07945.4525,W,1,9,2.0,15,"
"##MN+00 00 49 0124 01954 6455 438392 347796 204"
"150.711968"
"$GPGGA,170518,2511.0124,N,07945.4508,W,1,9,2.0,14,"
"##MN+00 00 56 0125 01956 6452 438384 347796 204"
"150.712014"
"#increment_net"
"$GPGGA,170522,2511.0132,N,07945.4492,W,1,9,2.0,14,"
"##MN-00 00 54 0126 01955 6450 438398 347800 204"
"150.71206"
"$GPGGA,170526,2511.0139,N,07945.4476,W,1,9,2.0,14,"
"##MN-00 00 49 0127 01952 6446 438403 347802 204"
"150.712106"
"$GPGGA,170530,2511.0146,N,07945.4461,W,1,9,2.0,14,"
"##MN-00 00 46 0127 01958 6444 438410 347802 204"
"150.712153"
"$GPGGA,170534,2511.0154,N,07945.4443,W,1,9,2.0,14,"
"##MN-00 00 49 0128 01953 6440 438409 347801 204"
"150.712199"
"$GPGGA,170538,2511.0160,N,07945.4426,W,1,9,2.0,13,"
"##MN-00 00 47 0129 01954 6437 438398 347798 204"
"150.712245"
"$GPGGA,170542,2511.0167,N,07945.4409,W,1,9,2.0,13,"
"##MN-00 00 46 0130 01953 6434 438390 347795 204"
"150.712292"
"$GPGGA,170546,2511.0172,N,07945.4393,W,1,9,2.0,13,"
"##MN-00 00 45 0130 01954 6431 438396 347799 204"
"150.712338"
"$GPGGA,170550,2511.0179,N,07945.4376,W,1,9,2.0,13,"
"##MN-00 00 49 0131 01950 6428 438382 347793 204"
"150.712384"
"$GPGGA,170554,2511.0186,N,07945.4359,W,1,9,2.0,13,"
"##MN-00 00 48 0132 01946 6425 438374 347805 204"
"150.712431"
"$GPGGA,170558,2511.0193,N,07945.4342,W,1,9,2.0,13,"
"##MN-00 00 49 0133 01948 6422 438354 347786 204"
"150.712477"
"$GPGGA,170602,2511.0199,N,07945.4325,W,1,9,2.0,12,"
"##MN-00 00 50 0134 01943 6419 438343 347786 204"
"150.712523"
"$GPGGA,170606,2511.0206,N,07945.4307,W,1,9,2.0,12,"
"##MN+00 00 49 0134 01946 6416 438341 347784 204"
"150.712569"
"$GPGGA,170610,2511.0212,N,07945.4289,W,1,9,2.0,12,"
"##MN+00 00 49 0135 01946 6413 438331 347783 204"
"150.712616"
"$GPGGA,170614,2511.0218,N,07945.4272,W,1,9,2.0,12,"
"##MN+00 00 50 0136 01946 6410 438316 347780 204"
"150.712662"
"$GPGGA,170618,2511.0222,N,07945.4254,W,1,9,2.0,12,"
"##MN+00 00 48 0137 01943 6407 438315 347778 204"
"150.712708"
"$GPGGA,170622,2511.0226,N,07945.4237,W,1,9,2.0,12,"
"##MN+00 00 51 0138 01943 6404 438320 347778 204"
"150.712755"
"$GPGGA,170626,2511.0232,N,07945.4220,W,1,9,2.0,12,"
"##MN+00 00 61 0139 01943 6401 438312 347777 204"
"150.712801"
"#increment_net"
"$GPGGA,170630,2511.0234,N,07945.4207,W,1,9,2.0,12,"
"##MN-00 00 51 0140 01945 6398 438310 347777 204"
"150.712847"
"$GPGGA,170634,2511.0243,N,07945.4187,W,1,9,2.0,12,"
"##MN-00 00 52 0140 01941 6396 438308 347776 204"
"150.712893"
"$GPGGA,170638,2511.0247,N,07945.4176,W,1,9,2.0,11,"
"##MN-00 00 54 0141 01939 6393 438307 347774 204"
"150.71294"
"$GPGGA,170642,2511.0251,N,07945.4157,W,1,9,2.0,11,"
"##MN-00 00 48 0142 01942 6389 438310 347774 204"
"150.712986"
"$GPGGA,170646,2511.0255,N,07945.4144,W,1,9,2.0,11,"
"##MN-00 00 49 0143 01941 6387 438306 347774 204"
"150.713032"
"$GPGGA,170650,2511.0258,N,07945.4134,W,1,9,2.0,11,"
"##MN-00 00 52 0143 01939 6384 438302 347774 204"
"150.713079"
"$GPGGA,170654,2511.0265,N,07945.4116,W,1,9,2.0,11,"
"##MN-00 00 49 0144 01943 6380 438292 347773 204"
"150.713125"
"$GPGGA,170658,2511.0269,N,07945.4103,W,1,9,2.0,11,"
"##MN-00 00 51 0145 01945 6378 438293 347773 204"
"150.713171"
"$GPGGA,170702,2511.0273,N,07945.4089,W,1,9,2.0,11,"
"##MN+00 00 49 0146 01944 6375 438301 347774 204"
"150.713218"
"$GPGGA,170706,2511.0277,N,07945.4075,W,1,9,2.0,11,"
"##MN+00 00 50 0147 01944 6372 438300 347774 204"
"150.713264"
"$GPGGA,170710,2511.0283,N,07945.4061,W,1,9,2.0,11,"
"##MN+00 00 49 0148 01943 6369 438290 347773 204"
"150.71331"
"$GPGGA,170714,2511.0287,N,07945.4047,W,1,9,2.0,11,"
"##MN-00 00 50 0149 01945 6366 438293 347772 204"
"150.713356"
"$GPGGA,170718,2511.0291,N,07945.4032,W,1,9,2.0,11,"
"##MN-00 00 49 0150 01944 6363 438296 347772 204"
"150.713403"
"$GPGGA,170722,2511.0295,N,07945.4018,W,1,9,2.0,11,"
"##MN-00 00 49 0151 01944 6360 438283 347771 204"
"150.713449"
"$GPGGA,170726,2511.0301,N,07945.4004,W,1,9,2.0,11,"
"##MN+00 00 52 0152 01946 6357 438281 347766 204"
"150.713495"
"$GPGGA,170730,2511.0305,N,07945.3988,W,1,9,2.0,11,"
"##MN+00 00 49 0152 01945 6354 438282 347764 204"
"150.713542"
"$GPGGA,170734,2511.0309,N,07945.3972,W,1,9,2.0,11,"
"##MN+00 00 57 0153 01953 6351 438286 347766 204"
"150.713588"
"#increment_net"
"$GPGGA,170738,2511.0316,N,07945.3957,W,1,9,2.0,11,"
"##MN-00 00 55 0154 01952 6348 438282 347765 204"
"150.713634"
"$GPGGA,170742,2511.0320,N,07945.3942,W,1,9,2.0,11,"
"##MN-00 00 52 0155 01953 6345 438294 347766 204"
"150.713681"
"$GPGGA,170746,2511.0324,N,07945.3926,W,1,9,2.0,11,"
"##MN-00 00 49 0156 01952 6342 438309 347772 204"
"150.713727"
"$GPGGA,170750,2511.0330,N,07945.3911,W,1,9,2.0,11,"
"##MN-00 00 48 0157 01954 6339 438317 347775 204"
"150.713773"
"$GPGGA,170754,2511.0334,N,07945.3896,W,1,9,2.0,11,"
"##MN-00 00 47 0158 01954 6336 438322 347776 204"
"150.713819"
"$GPGGA,170758,2511.0338,N,07945.3880,W,1,9,2.0,11,"
"##MN-00 00 48 0159 01949 6334 438321 347777 204"
"150.713866"
"$GPGGA,170802,2511.0342,N,07945.3864,W,1,9,2.0,11,"
"##MN-00 00 46 0160 01951 6331 438302 347774 204"
"150.713912"
"$GPGGA,170806,2511.0347,N,07945.3848,W,1,9,2.0,11,"
"##MN-00 00 48 0161 01950 6328 438305 347773 204"
"150.713958"
"$GPGGA,170810,2511.0350,N,07945.3832,W,1,9,2.0,11,"
"##MN-00 00 49 0162 01949 6325 438308 347774 204"
"150.714005"
"$GPGGA,170814,2511.0356,N,07945.3816,W,1,9,2.0,11,"
"##MN+00 00 49 0163 01949 6322 438308 347774 204"
"150.714051"
"$GPGGA,170818,2511.0359,N,07945.3800,W,1,9,2.0,11,"
"##MN+00 00 48 0164 01950 6319 438307 347774 204"
"150.714097"
"$GPGGA,170822,2511.0363,N,07945.3785,W,1,9,2.0,11,"
"##MN+00 00 49 0164 01950 6317 438320 347777 204"
"150.714144"
"$GPGGA,170826,2511.0369,N,07945.3770,W,1,9,2.0,11,"
"##MN-00 00 50 0165 01947 6314 438318 347776 204"
"150.71419"
"$GPGGA,170830,2511.0373,N,07945.3755,W,1,9,2.0,11,"
"##MN+00 00 48 0166 01948 6311 438322 347778 204"
"150.714236"
"$GPGGA,170834,2511.0378,N,07945.3740,W,1,9,2.0,11,"
"##MN+00 00 48 0167 01951 6308 438319 347779 204"
"150.714282"
"$GPGGA,170838,2511.0381,N,07945.3725,W,1,9,2.0,11,"
"##MN+00 00 59 0168 01952 6305 438308 347776 204"
"150.714329"
"#increment_net"
"$GPGGA,170842,2511.0387,N,07945.3708,W,1,9,2.0,11,"
"##MN-00 00 54 0169 01952 6303 438308 347776 204"
"150.714375"
"$GPGGA,170846,2511.0392,N,07945.3691,W,1,9,2.0,11,"
"##MN-00 00 52 0170 01951 6300 438309 347778 204"
"150.714421"
"$GPGGA,170850,2511.0396,N,07945.3675,W,1,9,2.0,11,"
"##MN-00 00 51 0171 01950 6297 438303 347778 204"
"150.714468"
"$GPGGA,170854,2511.0399,N,07945.3659,W,1,9,2.0,11,"
"##MN-00 00 49 0172 01949 6294 438294 347776 204"
"150.714514"
"$GPGGA,170858,2511.0403,N,07945.3644,W,1,9,2.0,11,"
"##MN-00 00 47 0173 01947 6292 438282 347772 204"
"150.71456"
"$GPGGA,170903,2511.0410,N,07945.3622,W,1,9,2.0,11,"
"##MN-00 00 49 0174 01950 6289 438275 347770 204"
"150.714606"
"$GPGGA,170906,2511.0413,N,07945.3610,W,1,9,2.0,11,"
"##MN-00 00 51 0175 01947 6286 438271 347768 204"
"150.714653"
"$GPGGA,170910,2511.0415,N,07945.3594,W,1,9,2.0,11,"
"##MN-00 00 48 0176 01949 6283 438270 347768 204"
"150.714699"
"$GPGGA,170914,2511.0420,N,07945.3579,W,1,9,2.0,11,"
"##MN+00 00 49 0177 01951 6281 438281 347770 204"
"150.714745"
"$GPGGA,170919,2511.0425,N,07945.3560,W,1,9,2.0,11,"
"##MN+00 00 49 0178 01954 6278 438292 347772 204"
"150.714792"
"$GPGGA,170923,2511.0430,N,07945.3544,W,1,9,2.0,11,"
"##MN+00 00 48 0179 01954 6275 438291 347772 204"
"150.714838"
"$GPGGA,170927,2511.0435,N,07945.3528,W,1,9,2.0,11,"
"##MN-00 00 49 0180 01954 6272 438291 347774 204"
"150.714884"
"$GPGGA,170931,2511.0437,N,07945.3513,W,1,9,2.0,11,"
"##MN+00 00 47 0181 01955 6269 438296 347776 204"
"150.714931"
"$GPGGA,170935,2511.0443,N,07945.3498,W,1,9,2.0,11,"
"##MN+00 00 48 0182 01955 6267 438306 347777 204"
"150.714977"
"$GPGGA,170939,2511.0446,N,07945.3482,W,1,9,2.0,11,"
"##MN+00 00 59 0183 01960 6264 438308 347778 204"
"150.715023"
"#increment_net"
"$GPGGA,170943,2511.0450,N,07945.3468,W,1,9,2.0,12,"
"##MN-00 00 56 0184 01957 6262 438322 347780 204"
"150.715081"
"$GPGGA,170947,2511.0453,N,07945.3454,W,1,9,2.0,12,"
"##MN-00 00 53 0185 01961 6259 438329 347783 204"
"150.715127"
"$GPGGA,170951,2511.0457,N,07945.3438,W,1,9,2.0,12,"
"##MN-00 00 50 0186 01965 6256 438364 347792 204"
"150.715174"
"$GPGGA,170955,2511.0461,N,07945.3421,W,1,9,2.0,12,"
"##MN-00 00 51 0188 01963 6252 438381 347796 204"
"150.71522"
"$GPGGA,170959,2511.0464,N,07945.3404,W,1,9,2.0,12,"
"##MN-00 00 49 0189 01962 6250 438383 347799 204"
"150.715266"
"$GPGGA,171003,2511.0468,N,07945.3386,W,1,9,2.0,12,"
"##MN-00 00 51 0191 01959 6247 438386 347802 204"
"150.715312"
"$GPGGA,171007,2511.0469,N,07945.3369,W,1,9,2.0,12,"
"##MN-00 00 52 0192 01952 6244 438368 347799 204"
"150.715359"
"$GPGGA,171011,2511.0472,N,07945.3352,W,1,9,2.0,12,"
"##MN-00 00 49 0193 01951 6242 438361 347798 204"
"150.715405"
"$GPGGA,171015,2511.0475,N,07945.3335,W,1,9,2.0,12,"
"##MN-00 00 47 0194 01946 6239 438350 347797 204"
"150.715451"
"$GPGGA,171019,2511.0477,N,07945.3318,W,1,9,2.0,12,"
"##MN-00 00 51 0196 01941 6237 438337 347791 204"
"150.715498"
"$GPGGA,171023,2511.0481,N,07945.3300,W,1,9,2.0,12,"
"##MN-00 00 48 0197 01937 6234 438315 347786 204"
"150.715544"
"$GPGGA,171027,2511.0484,N,07945.3283,W,1,9,2.0,12,"
"##MN-00 00 47 0198 01931 6232 438294 347780 204"
"150.71559"
"$GPGGA,171031,2511.0486,N,07945.3265,W,1,9,2.0,12,"
"##MN-00 00 46 0200 01924 6229 438264 347780 204"
"150.715637"
"$GPGGA,171035,2511.0488,N,07945.3247,W,1,9,2.0,12,"
"##MN-00 00 48 0201 01920 6227 438239 347768 204"
"150.715683"
"$GPGGA,171039,2511.0492,N,07945.3228,W,1,9,2.0,12,"
"##MN-00 00 49 0203 01913 6224 438208 347761 204"
"150.715729"
"$GPGGA,171043,2511.0493,N,07945.3209,W,1,9,2.0,12,"
"##MN-00 00 48 0204 01909 6221 438187 347759 204"
"150.715775"
"$GPGGA,171047,2511.0496,N,07945.3190,W,1,9,2.0,12,"
"##MN-00 00 48 0205 01904 6219 438167 347753 204"
"150.715822"
"$GPGGA,171051,2511.0497,N,07945.3171,W,1,9,2.0,12,"
"##MN-00 00 48 0207 01896 6216 438105 347736 204"
"150.715868"
"$GPGGA,171055,2511.0499,N,07945.3152,W,1,9,2.0,12,"
"##MN-00 00 47 0208 01891 6214 438001 347716 204"
"150.715914"
"$GPGGA,171059,2511.0503,N,07945.3133,W,1,9,2.0,12,"
"##MN-00 00 48 0210 01886 6212 437860 347678 204"
"150.715961"
"$GPGGA,171103,2511.0504,N,07945.3115,W,1,9,2.0,12,"
"##MN-00 00 48 0211 01876 6209 437741 347642 204"
"150.716007"
"$GPGGA,171107,2511.0508,N,07945.3095,W,1,9,2.0,12,"
"##MN-00 00 46 0212 01872 6206 437621 347600 204"
"150.716053"
"$GPGGA,171111,2511.0509,N,07945.3077,W,1,9,2.0,12,"
"##MN-00 00 47 0214 01864 6204 437552 347590 204"
"150.7161"
"$GPGGA,171115,2511.0513,N,07945.3058,W,1,9,2.0,12,"
"##MN-00 00 48 0215 01857 6201 437417 347536 204"
"150.716146"
"$GPGGA,171119,2511.0515,N,07945.3040,W,1,9,2.0,12,"
"##MN-00 00 48 0216 01852 6199 437299 347516 204"
"150.716192"
"$GPGGA,171123,2511.0518,N,07945.3022,W,1,9,2.0,12,"
"##MN-00 00 45 0218 01846 6197 437306 347502 204"
"150.716238"
"$GPGGA,171127,2511.0520,N,07945.3004,W,1,9,2.0,12,"
"##MN-00 00 46 0219 01841 6194 436988 347427 204"
"150.716285"
"$GPGGA,171131,2511.0524,N,07945.2986,W,1,9,2.0,12,"
"##MN-00 00 52 0221 01840 6191 436879 347402 204"
