" Tow: 2Cs-B   RVWS/WS1406"
" Date: 05/30/2014"
" Temperature Probe #  2597    Conductivity Probe #  2870"
" Pressure Probe #  109"
" Flow Meter Calibration  4.71 (m/count)  "
"150.756088"
"$GPGGA,180846,2512.1227,N,07940.9590,W,1,11,1.3,22"
"##MN-00 00 51 0096 01852 5688 424801 737510 204"
"150.756134"
"$GPGGA,180855,2512.1252,N,07940.9535,W,1,11,1.3,22"
"##MN-00 00 51 0096 01850 5689 436412 347227 204"
"150.756181"
"$GPGGA,180859,2512.1263,N,07940.9512,W,1,11,1.3,22"
"##MN-00 00 50 0097 01851 5689 436522 347306 204"
"150.756227"
"$GPGGA,180903,2512.1276,N,07940.9490,W,1,11,1.3,22"
"##MN-00 00 48 0098 01852 5690 436544 347295 204"
"150.756273"
"$GPGGA,180907,2512.1288,N,07940.9471,W,1,10,1.8,22"
"##MN-00 00 47 0099 01854 5691 436497 347274 204"
"150.756319"
"$GPGGA,180911,2512.1299,N,07940.9454,W,1,10,1.4,22"
"##MN-00 00 48 0100 01858 5691 436588 347321 204"
"150.756366"
"$GPGGA,180915,2512.1312,N,07940.9435,W,1,11,1.3,22"
"##MN-00 00 49 0100 01863 5691 436864 347429 204"
"150.756412"
"$GPGGA,180919,2512.1321,N,07940.9414,W,1,10,1.6,22"
"##MN-00 00 46 0101 01871 5692 437347 347597 204"
"150.756458"
"$GPGGA,180923,2512.1328,N,07940.9392,W,1,11,1.3,23"
"##MN-00 00 48 0102 01878 5692 437677 347667 204"
"150.756505"
"$GPGGA,180927,2512.1335,N,07940.9369,W,1,11,1.3,23"
"##MN-00 00 48 0103 01885 5693 437905 347773 204"
"150.756551"
"$GPGGA,180931,2512.1346,N,07940.9350,W,1,10,1.6,23"
"##MN-00 00 49 0103 01892 5693 438049 347829 204"
"150.756597"
"$GPGGA,180935,2512.1357,N,07940.9331,W,1,10,1.6,23"
"##MN-00 00 48 0104 01897 5693 438267 347889 204"
"150.756644"
"$GPGGA,180939,2512.1364,N,07940.9310,W,1,11,1.3,24"
"##MN-00 00 48 0105 01905 5693 438395 347948 204"
"150.75669"
"$GPGGA,180943,2512.1373,N,07940.9290,W,1,10,1.4,24"
"##MN-00 00 49 0105 01909 5694 438588 348000 204"
"150.756736"
"$GPGGA,180947,2512.1382,N,07940.9268,W,1,11,1.3,24"
"##MN-00 00 49 0106 01919 5694 438767 348047 204"
"150.756782"
"$GPGGA,180951,2512.1391,N,07940.9247,W,1,10,1.4,24"
"##MN-00 00 49 0107 01925 5694 438901 348090 204"
"150.756829"
"$GPGGA,180955,2512.1400,N,07940.9225,W,1,11,1.3,24"
"##MN-00 00 48 0107 01932 5694 438939 348108 204"
"150.756875"
"$GPGGA,180959,2512.1411,N,07940.9204,W,1,11,1.3,24"
"##MN-00 00 48 0108 01940 5694 439010 348130 204"
"150.756921"
"$GPGGA,181003,2512.1422,N,07940.9183,W,1,11,1.3,24"
"##MN-00 00 47 0109 01944 5695 439030 348136 204"
"150.756968"
"$GPGGA,181007,2512.1433,N,07940.9161,W,1,11,1.3,24"
"##MN-00 00 46 0109 01951 5695 439066 348146 204"
"150.757014"
"$GPGGA,181011,2512.1443,N,07940.9139,W,1,11,1.3,24"
"##MN-00 00 49 0110 01958 5695 439079 348149 204"
"150.75706"
"$GPGGA,181015,2512.1454,N,07940.9117,W,1,11,1.3,24"
"##MN-00 00 46 0110 01963 5695 439097 348154 204"
"150.757106"
"$GPGGA,181019,2512.1467,N,07940.9095,W,1,11,1.3,24"
"##MN-00 00 48 0111 01970 5694 439105 348158 204"
"150.757153"
"$GPGGA,181023,2512.1478,N,07940.9073,W,1,11,1.3,23"
"##MN-00 00 46 0112 01969 5695 439114 348160 204"
"150.757199"
"$GPGGA,181027,2512.1487,N,07940.9051,W,1,11,1.3,23"
"##MN-00 00 44 0113 01971 5695 439122 348163 204"
"150.757245"
"$GPGGA,181031,2512.1497,N,07940.9029,W,1,11,1.3,23"
"##MN-00 00 42 0113 01969 5695 439125 348164 204"
"150.757292"
"$GPGGA,181035,2512.1508,N,07940.9006,W,1,11,1.3,23"
"##MN-00 00 43 0114 01971 5695 439123 348162 204"
"150.757338"
"$GPGGA,181039,2512.1518,N,07940.8984,W,1,11,1.3,23"
"##MN-00 00 45 0115 01968 5695 439120 348162 204"
"150.757384"
"$GPGGA,181043,2512.1526,N,07940.8962,W,1,11,1.3,23"
"##MN-00 00 44 0115 01969 5694 439119 348164 204"
"150.757431"
"$GPGGA,181047,2512.1537,N,07940.8941,W,1,11,1.3,23"
"##MN+00 00 42 0116 01970 5694 439119 348163 204"
"150.757477"
"$GPGGA,181051,2512.1547,N,07940.8920,W,1,11,1.3,23"
"##MN+00 00 44 0117 01973 5694 439119 348164 204"
"150.757523"
"$GPGGA,181055,2512.1558,N,07940.8899,W,1,11,1.3,22"
"##MN+00 00 45 0117 01972 5694 439130 348167 204"
"150.757569"
"$GPGGA,181059,2512.1568,N,07940.8876,W,1,11,1.3,22"
"##MN-00 00 45 0118 01970 5694 439131 348167 204"
"150.757616"
"$GPGGA,181103,2512.1577,N,07940.8855,W,1,11,1.3,22"
"##MN-00 00 43 0119 01972 5694 439130 348167 204"
"150.757662"
"$GPGGA,181107,2512.1587,N,07940.8834,W,1,10,1.6,22"
"##MN+00 00 45 0119 01974 5694 439135 348169 204"
"150.757708"
"$GPGGA,181111,2512.1595,N,07940.8812,W,1,11,1.3,22"
"##MN+00 00 44 0120 01973 5693 439135 348169 204"
"150.757755"
"$GPGGA,181115,2512.1606,N,07940.8790,W,1,11,1.3,21"
"##MN+00 00 51 0121 01975 5693 439134 348169 204"
"150.757801"
"#increment_net"
"$GPGGA,181119,2512.1617,N,07940.8769,W,1,11,1.3,21"
"##MN-00 00 47 0121 01977 5693 439131 348168 204"
"150.757847"
"$GPGGA,181123,2512.1628,N,07940.8748,W,1,11,1.3,21"
"##MN-00 00 44 0122 01976 5693 439137 348170 204"
"150.757893"
"$GPGGA,181127,2512.1639,N,07940.8727,W,1,11,1.3,21"
"##MN-00 00 43 0123 01973 5692 439142 348171 204"
"150.75794"
"$GPGGA,181131,2512.1649,N,07940.8706,W,1,11,1.3,21"
"##MN-00 00 42 0124 01973 5692 439139 348170 204"
"150.757986"
"$GPGGA,181135,2512.1657,N,07940.8685,W,1,11,1.3,21"
"##MN-00 00 43 0124 01973 5692 439134 348169 204"
"150.758032"
"$GPGGA,181139,2512.1667,N,07940.8664,W,1,11,1.3,21"
"##MN-00 00 44 0125 01972 5691 439132 348170 204"
"150.758079"
"$GPGGA,181143,2512.1678,N,07940.8642,W,1,11,1.3,21"
"##MN-00 00 43 0126 01972 5691 439142 348172 204"
"150.758125"
"$GPGGA,181147,2512.1688,N,07940.8621,W,1,11,1.3,21"
"##MN+00 00 45 0126 01972 5691 439141 348172 204"
"150.758171"
"$GPGGA,181151,2512.1698,N,07940.8599,W,1,11,1.3,21"
"##MN+00 00 41 0127 01972 5690 439142 348172 204"
"150.758229"
"$GPGGA,181155,2512.1707,N,07940.8579,W,1,11,1.6,21"
"##MN+00 00 43 0128 01974 5690 439130 348167 204"
"150.758275"
"$GPGGA,181159,2512.1714,N,07940.8555,W,1,11,1.3,21"
"##MN-00 00 45 0128 01972 5690 439122 348165 204"
"150.758322"
"$GPGGA,181203,2512.1721,N,07940.8533,W,1,11,1.3,21"
"##MN-00 00 44 0129 01971 5690 439121 348164 204"
"150.758368"
"$GPGGA,181207,2512.1731,N,07940.8512,W,1,10,1.4,21"
"##MN-00 00 42 0129 01971 5689 439125 348165 204"
"150.758414"
"$GPGGA,181211,2512.1740,N,07940.8490,W,1,11,1.4,21"
"##MN-00 00 42 0130 01971 5689 439121 348164 204"
"150.758461"
"$GPGGA,181215,2512.1750,N,07940.8470,W,1,11,1.3,21"
"##MN-00 00 42 0131 01971 5688 439115 348163 204"
"150.758507"
"$GPGGA,181219,2512.1765,N,07940.8449,W,1,11,1.3,21"
"##MN+00 00 44 0132 01972 5688 439114 348162 204"
"150.758553"
"$GPGGA,181223,2512.1776,N,07940.8429,W,1,11,1.3,21"
"##MN+00 00 46 0132 01971 5687 439120 348163 204"
"150.7586"
"$GPGGA,181227,2512.1787,N,07940.8409,W,1,10,1.3,22"
"##MN+00 00 51 0133 01972 5687 439119 348165 204"
"150.758646"
"#increment_net"
"$GPGGA,181231,2512.1799,N,07940.8389,W,1,11,1.3,22"
"##MN-00 00 49 0133 01973 5686 439128 348167 204"
"150.758692"
"$GPGGA,181235,2512.1808,N,07940.8369,W,1,11,1.3,22"
"##MN-00 00 44 0134 01972 5686 439122 348164 204"
"150.758738"
"$GPGGA,181239,2512.1815,N,07940.8349,W,1,11,1.3,22"
"##MN-00 00 43 0135 01972 5685 439116 348162 204"
"150.758785"
"$GPGGA,181243,2512.1823,N,07940.8329,W,1,10,1.4,22"
"##MN-00 00 44 0135 01972 5685 439111 348161 204"
"150.758831"
"$GPGGA,181247,2512.1834,N,07940.8312,W,1,10,1.4,22"
"##MN-00 00 43 0136 01973 5685 439106 348157 204"
"150.758877"
"$GPGGA,181251,2512.1844,N,07940.8291,W,1,11,1.3,22"
"##MN-00 00 43 0137 01975 5684 439098 348155 204"
"150.758924"
"$GPGGA,181256,2512.1854,N,07940.8267,W,1,11,1.3,22"
"##MN-00 00 43 0137 01974 5684 439094 348154 204"
"150.75897"
"$GPGGA,181259,2512.1862,N,07940.8252,W,1,11,1.3,22"
"##MN-00 00 43 0138 01971 5683 439100 348156 204"
"150.759016"
"$GPGGA,181304,2512.1877,N,07940.8226,W,1,9,1.6,22,"
"##MN-00 00 42 0139 01971 5683 439102 348157 204"
"150.759063"
"$GPGGA,181307,2512.1886,N,07940.8211,W,1,10,1.6,22"
"##MN+00 00 42 0140 01971 5683 439098 348155 204"
"150.759109"
"$GPGGA,181311,2512.1894,N,07940.8190,W,1,11,1.3,22"
"##MN+00 00 43 0140 01971 5682 439100 348155 204"
"150.759155"
"$GPGGA,181316,2512.1906,N,07940.8165,W,1,10,1.6,22"
"##MN+00 00 42 0141 01971 5681 439103 348157 204"
"150.759201"
"$GPGGA,181320,2512.1919,N,07940.8147,W,1,11,1.6,22"
"##MN-00 00 43 0142 01970 5681 439098 348157 204"
"150.759248"
"$GPGGA,181324,2512.1927,N,07940.8125,W,1,11,1.3,22"
"##MN-00 00 44 0143 01970 5680 439102 348157 204"
"150.759294"
"$GPGGA,181328,2512.1937,N,07940.8103,W,1,11,1.3,22"
"##MN-00 00 42 0143 01970 5680 439106 348158 204"
"150.75934"
"$GPGGA,181332,2512.1946,N,07940.8082,W,1,11,1.3,22"
"##MN-00 00 43 0144 01968 5679 439107 348159 204"
"150.759387"
"$GPGGA,181336,2512.1956,N,07940.8060,W,1,11,1.6,22"
"##MN+00 00 44 0145 01969 5678 439112 348160 204"
"150.759433"
"$GPGGA,181340,2512.1964,N,07940.8039,W,1,11,1.6,22"
"##MN+00 00 42 0146 01969 5678 439116 348163 204"
"150.759479"
"$GPGGA,181344,2512.1974,N,07940.8019,W,1,10,2.0,22"
"##MN+00 00 51 0146 01971 5678 439112 348162 204"
"150.759525"
"$GPGGA,181348,2512.1981,N,07940.8002,W,1,11,1.3,22"
"##MN-00 00 48 0147 01970 5677 439111 348162 204"
"150.759572"
"#increment_net"
"$GPGGA,181352,2512.1989,N,07940.7987,W,1,10,1.6,23"
"##MN-00 00 44 0148 01969 5676 439112 348161 204"
"150.759618"
"$GPGGA,181356,2512.1999,N,07940.7971,W,1,10,1.3,23"
"##MN-00 00 43 0149 01971 5676 439110 348161 204"
"150.759664"
"$GPGGA,181400,2512.2010,N,07940.7953,W,1,10,1.3,23"
"##MN-00 00 41 0150 01969 5675 439109 348160 204"
"150.759711"
"$GPGGA,181404,2512.2020,N,07940.7932,W,1,11,1.3,24"
"##MN-00 00 41 0150 01968 5675 439114 348162 204"
"150.759757"
"$GPGGA,181408,2512.2031,N,07940.7913,W,1,11,1.3,24"
"##MN-00 00 40 0151 01968 5674 439121 348164 204"
"150.759803"
"$GPGGA,181412,2512.2038,N,07940.7891,W,1,10,1.3,24"
"##MN-00 00 41 0152 01969 5673 439119 348165 204"
"150.75985"
"$GPGGA,181416,2512.2052,N,07940.7870,W,1,10,1.6,24"
"##MN-00 00 42 0152 01967 5673 439118 348166 204"
"150.759896"
"$GPGGA,181420,2512.2061,N,07940.7851,W,1,11,1.6,24"
"##MN-00 00 41 0153 01970 5672 439117 348165 204"
"150.759942"
"$GPGGA,181424,2512.2070,N,07940.7831,W,1,11,1.6,24"
"##MN-00 00 41 0154 01970 5672 439116 348165 204"
"150.759988"
"$GPGGA,181428,2512.2079,N,07940.7809,W,1,10,1.3,24"
"##MN-00 00 42 0155 01971 5671 439115 348166 204"
"150.760035"
"$GPGGA,181432,2512.2087,N,07940.7788,W,1,10,1.6,24"
"##MN-00 00 39 0155 01971 5670 439118 348166 204"
"150.760081"
"$GPGGA,181436,2512.2099,N,07940.7769,W,1,11,1.4,24"
"##MN+00 00 40 0156 01971 5670 439122 348167 204"
"150.760127"
"$GPGGA,181440,2512.2105,N,07940.7747,W,1,11,1.3,24"
"##MN+00 00 40 0157 01969 5669 439125 348170 204"
"150.760174"
"$GPGGA,181444,2512.2115,N,07940.7727,W,1,11,1.4,23"
"##MN+00 00 41 0158 01970 5669 439120 348167 204"
"150.76022"
"$GPGGA,181448,2512.2122,N,07940.7704,W,1,10,1.3,23"
"##MN-00 00 41 0159 01970 5668 439117 348167 204"
"150.760266"
"$GPGGA,181452,2512.2133,N,07940.7685,W,1,11,1.6,23"
"##MN+00 00 41 0159 01971 5668 439114 348165 204"
"150.760312"
"$GPGGA,181456,2512.2144,N,07940.7664,W,1,11,1.7,23"
"##MN+00 00 42 0160 01971 5667 439113 348166 204"
"150.760359"
"$GPGGA,181500,2512.2154,N,07940.7644,W,1,9,1.6,23,"
"##MN+00 00 49 0161 01971 5666 439114 348165 204"
"150.760405"
"#increment_net"
"$GPGGA,181504,2512.2161,N,07940.7622,W,1,9,1.7,23,"
"##MN-00 00 47 0162 01973 5666 439108 348164 204"
"150.760451"
"$GPGGA,181508,2512.2173,N,07940.7604,W,1,10,1.3,23"
"##MN-00 00 44 0163 01972 5665 439113 348163 204"
"150.760498"
"$GPGGA,181512,2512.2186,N,07940.7582,W,1,9,2.1,23,"
"##MN-00 00 43 0163 01971 5665 439116 348165 204"
"150.760544"
"$GPGGA,181516,2512.2195,N,07940.7566,W,1,10,1.4,23"
"##MN-00 00 42 0164 01971 5664 439120 348167 204"
"150.76059"
"$GPGGA,181520,2512.2206,N,07940.7539,W,1,9,2.1,23,"
"##MN-00 00 39 0165 01971 5663 439113 348166 204"
"150.760637"
"$GPGGA,181524,2512.2215,N,07940.7512,W,1,9,1.8,22,"
"##MN-00 00 40 0165 01973 5663 439114 348163 204"
"150.760683"
"$GPGGA,181528,2512.2224,N,07940.7492,W,1,9,1.8,22,"
"##MN-00 00 41 0166 01972 5662 439112 348160 204"
"150.760729"
"$GPGGA,181532,2512.2234,N,07940.7471,W,1,9,1.8,22,"
"##MN-00 00 41 0167 01971 5661 439110 348157 204"
"150.760775"
"$GPGGA,181536,2512.2242,N,07940.7448,W,1,9,1.8,21,"
"##MN-00 00 41 0168 01973 5661 439110 348158 204"
"150.760822"
"$GPGGA,181540,2512.2253,N,07940.7425,W,1,9,1.8,21,"
"##MN+00 00 41 0169 01972 5660 439110 348159 204"
"150.760868"
"$GPGGA,181544,2512.2264,N,07940.7407,W,1,10,2.1,21"
"##MN+00 00 40 0170 01972 5659 439112 348161 204"
"150.760914"
"$GPGGA,181548,2512.2274,N,07940.7391,W,1,9,1.4,21,"
"##MN+00 00 39 0170 01971 5659 439104 348158 204"
"150.760961"
"$GPGGA,181552,2512.2282,N,07940.7370,W,1,10,2.1,21"
"##MN-00 00 40 0171 01972 5658 439097 348152 204"
"150.761007"
"$GPGGA,181556,2512.2289,N,07940.7358,W,1,9,1.7,21,"
"##MN-00 00 41 0172 01971 5658 439092 348151 204"
"150.761053"
"$GPGGA,181600,2512.2299,N,07940.7338,W,1,10,1.4,21"
"##MN-00 00 40 0172 01970 5657 439093 348153 204"
"150.761099"
"$GPGGA,181604,2512.2307,N,07940.7320,W,1,8,1.7,21,"
"##MN-00 00 40 0173 01971 5656 439094 348155 204"
"150.761146"
"$GPGGA,181608,2512.2321,N,07940.7300,W,1,9,1.7,21,"
"##MN+00 00 41 0174 01971 5656 439098 348153 204"
"150.761192"
"$GPGGA,181612,2512.2328,N,07940.7275,W,1,8,2.1,21,"
"##MN+00 00 40 0175 01971 5655 439094 348153 204"
"150.761238"
"$GPGGA,181616,2512.2339,N,07940.7246,W,1,10,1.7,21"
"##MN+00 00 49 0176 01973 5654 439093 348155 204"
"150.761285"
"#increment_net"
"$GPGGA,181620,2512.2347,N,07940.7227,W,1,9,1.7,21,"
"##MN-00 00 46 0176 01973 5654 439096 348155 204"
"150.761331"
"$GPGGA,181624,2512.2356,N,07940.7205,W,1,10,1.4,21"
"##MN-00 00 43 0177 01976 5653 439090 348154 204"
"150.761377"
"$GPGGA,181628,2512.2364,N,07940.7187,W,1,10,1.4,21"
"##MN-00 00 41 0178 01977 5652 439088 348152 204"
"150.761435"
"$GPGGA,181632,2512.2374,N,07940.7166,W,1,10,1.4,21"
"##MN-00 00 40 0180 01977 5652 439089 348150 204"
"150.761481"
"$GPGGA,181636,2512.2383,N,07940.7144,W,1,10,1.7,21"
"##MN-00 00 40 0181 01967 5651 439096 348153 204"
"150.761528"
"$GPGGA,181640,2512.2393,N,07940.7124,W,1,10,1.7,22"
"##MN-00 00 40 0182 01954 5650 439104 348162 204"
"150.761574"
"$GPGGA,181644,2512.2404,N,07940.7102,W,1,10,1.4,22"
"##MN-00 00 38 0183 01937 5649 439089 348165 204"
"150.76162"
"$GPGGA,181648,2512.2412,N,07940.7083,W,1,8,1.7,22,"
"##MN-00 00 38 0185 01922 5649 439049 348161 204"
"150.761667"
"$GPGGA,181652,2512.2424,N,07940.7066,W,1,10,1.4,22"
"##MN-00 00 39 0186 01910 5648 438917 348129 204"
"150.761713"
"$GPGGA,181656,2512.2433,N,07940.7042,W,1,10,1.8,22"
"##MN-00 00 38 0187 01893 5647 438538 348036 204"
"150.761759"
"$GPGGA,181700,2512.2443,N,07940.7018,W,1,9,1.4,21,"
"##MN-00 00 39 0188 01877 5647 438285 347990 204"
"150.761806"
"$GPGGA,181704,2512.2453,N,07940.6995,W,1,10,1.4,21"
"##MN-00 00 39 0190 01858 5646 437978 347898 204"
"150.761852"
"$GPGGA,181708,2512.2461,N,07940.6977,W,1,9,1.4,21,"
"##MN-00 00 32 0191 01852 5645 437263 347576 204"
"150.761898"
"$GPGGA,181712,2512.2471,N,07940.6957,W,1,9,1.4,21,"
"##MN-00 00 40 0192 01850 5645 436287 347233 204"
"150.761944"
"$GPGGA,181716,2512.2479,N,07940.6936,W,1,10,1.4,21"
"##MN-00 00 39 0193 01851 5644 436102 347174 204"
"150.761991"
"$GPGGA,181720,2512.2488,N,07940.6916,W,1,9,1.7,20,"
"##MN-00 00 33 0194 01850 5643 436124 347192 204"
