" Tow: 2Ed-B   RVWS/WS1406"
" Date: 05/31/2014"
" Temperature Probe #  2597    Conductivity Probe #  2870"
" Pressure Probe #  109"
" Flow Meter Calibration  4.71 (m/count)  "
"151.699491"
"$GPGGA,164708,2507.0882,N,07915.1076,W,1,9,1.9,23,"
"##MN-00 00 49 0429 01852 5623 000109 896307 204"
"151.699537"
"$GPGGA,164716,2507.0880,N,07915.1016,W,1,9,2.5,23,"
"##MN-00 00 52 0429 01852 5624 438276 346603 204"
"151.699583"
"$GPGGA,164720,2507.0880,N,07915.0985,W,1,9,1.9,23,"
"##MN-00 00 53 0430 01853 5625 438499 346835 204"
"151.69963"
"$GPGGA,164725,2507.0878,N,07915.0949,W,1,9,1.9,22,"
"##MN-00 00 54 0431 01852 5626 438935 346946 204"
"151.699676"
"$GPGGA,164729,2507.0877,N,07915.0922,W,1,9,1.9,22,"
"##MN-00 00 53 0432 01853 5627 438925 347172 204"
"151.699722"
"$GPGGA,164732,2507.0878,N,07915.0902,W,1,9,1.9,22,"
"##MN-00 00 54 0434 01850 5628 438757 347122 204"
"151.69978"
"$GPGGA,164737,2507.0876,N,07915.0870,W,1,9,1.9,21,"
"##MN-00 00 54 0435 01852 5629 438660 347074 204"
"151.699826"
"$GPGGA,164741,2507.0873,N,07915.0845,W,1,9,1.9,21,"
"##MN-00 00 54 0436 01852 5630 438781 347151 204"
"151.699873"
"$GPGGA,164745,2507.0873,N,07915.0821,W,1,9,1.9,20,"
"##MN-00 00 54 0437 01851 5631 438868 347227 204"
"151.699919"
"$GPGGA,164749,2507.0871,N,07915.0797,W,1,9,1.9,20,"
"##MN-00 00 54 0438 01851 5632 438948 347239 204"
"151.699965"
"$GPGGA,164753,2507.0870,N,07915.0774,W,1,9,1.9,20,"
"##MN-00 00 54 0439 01855 5633 439004 347280 204"
"151.700012"
"$GPGGA,164757,2507.0870,N,07915.0750,W,1,9,1.9,20,"
"##MN-00 00 53 0440 01862 5634 439343 347330 204"
"151.700058"
"$GPGGA,164801,2507.0869,N,07915.0725,W,1,9,1.9,20,"
"##MN-00 00 54 0441 01862 5635 439800 347482 204"
"151.700104"
"$GPGGA,164805,2507.0863,N,07915.0705,W,1,9,1.9,20,"
"##MN-00 00 52 0441 01866 5635 440116 347656 204"
"151.70015"
"$GPGGA,164809,2507.0862,N,07915.0678,W,1,9,1.9,20,"
"##MN-00 00 54 0442 01872 5636 440406 347768 204"
"151.700197"
"$GPGGA,164813,2507.0862,N,07915.0651,W,1,9,1.9,21,"
"##MN-00 00 53 0443 01876 5637 440488 347761 204"
"151.700243"
"$GPGGA,164817,2507.0862,N,07915.0625,W,1,9,1.9,21,"
"##MN-00 00 52 0444 01880 5638 440619 347777 204"
"151.700289"
"$GPGGA,164821,2507.0862,N,07915.0599,W,1,9,1.9,21,"
"##MN-00 00 52 0445 01886 5638 440784 347756 204"
"151.700336"
"$GPGGA,164825,2507.0859,N,07915.0573,W,1,9,1.9,21,"
"##MN-00 00 52 0446 01889 5639 440963 347880 204"
"151.700382"
"$GPGGA,164829,2507.0860,N,07915.0549,W,1,9,1.9,22,"
"##MN-00 00 53 0447 01891 5640 441095 347913 204"
"151.700428"
"$GPGGA,164833,2507.0860,N,07915.0526,W,1,8,2.6,22,"
"##MN-00 00 52 0448 01895 5640 441142 347951 204"
"151.700475"
"$GPGGA,164837,2507.0858,N,07915.0502,W,1,9,1.9,22,"
"##MN-00 00 53 0449 01900 5641 441229 348023 204"
"151.700521"
"$GPGGA,164841,2507.0856,N,07915.0483,W,1,9,1.9,23,"
"##MN-00 00 53 0449 01902 5641 441302 348062 204"
"151.700567"
"$GPGGA,164845,2507.0854,N,07915.0465,W,1,9,1.9,23,"
"##MN-00 00 52 0450 01905 5642 441364 348069 204"
"151.700613"
"$GPGGA,164849,2507.0852,N,07915.0446,W,1,9,1.9,24,"
"##MN-00 00 51 0451 01910 5642 441417 348104 204"
"151.70066"
"$GPGGA,164853,2507.0852,N,07915.0420,W,1,7,4.2,25,"
"##MN-00 00 53 0452 01913 5643 441473 348136 204"
"151.700706"
"$GPGGA,164857,2507.0852,N,07915.0399,W,1,8,2.6,25,"
"##MN-00 00 52 0453 01916 5643 441487 348137 204"
"151.700752"
"$GPGGA,164901,2507.0855,N,07915.0377,W,1,9,1.9,26,"
"##MN-00 00 53 0454 01922 5643 441505 348151 204"
"151.700799"
"$GPGGA,164905,2507.0860,N,07915.0349,W,1,9,1.9,25,"
"##MN-00 00 52 0455 01925 5644 441537 348163 204"
"151.700845"
"$GPGGA,164909,2507.0865,N,07915.0320,W,1,7,1.9,25,"
"##MN-00 00 54 0456 01928 5644 441583 348194 204"
"151.700891"
"$GPGGA,164913,2507.0862,N,07915.0296,W,1,9,1.9,24,"
"##MN-00 00 52 0457 01931 5644 441595 348199 204"
"151.700938"
"$GPGGA,164917,2507.0865,N,07915.0273,W,1,9,1.9,24,"
"##MN-00 00 52 0458 01938 5644 441580 348191 204"
"151.700984"
"$GPGGA,164921,2507.0867,N,07915.0246,W,1,8,4.2,24,"
"##MN-00 00 53 0458 01940 5644 441567 348187 204"
"151.70103"
"$GPGGA,164925,2507.0868,N,07915.0222,W,1,9,1.9,23,"
"##MN-00 00 54 0459 01943 5645 441557 348184 204"
"151.701076"
"$GPGGA,164929,2507.0865,N,07915.0201,W,1,9,1.9,23,"
"##MN-00 00 52 0460 01946 5645 441551 348181 204"
"151.701123"
"$GPGGA,164933,2507.0865,N,07915.0176,W,1,8,2.4,23,"
"##MN-00 00 54 0461 01951 5645 441534 348178 204"
"151.701169"
"$GPGGA,164937,2507.0868,N,07915.0148,W,1,9,2.4,23,"
"##MN-00 00 51 0462 01955 5645 441531 348175 204"
"151.701215"
"$GPGGA,164941,2507.0869,N,07915.0125,W,1,8,1.9,23,"
"##MN-00 00 53 0463 01959 5645 441525 348172 204"
"151.701262"
"$GPGGA,164945,2507.0870,N,07915.0103,W,1,9,1.9,23,"
"##MN-00 00 53 0464 01960 5645 441520 348169 204"
"151.701308"
"$GPGGA,164949,2507.0873,N,07915.0082,W,1,9,1.9,22,"
"##MN-00 00 53 0465 01967 5645 441519 348168 204"
"151.701354"
"$GPGGA,164953,2507.0875,N,07915.0060,W,1,9,1.9,22,"
"##MN-00 00 53 0466 01969 5645 441526 348169 204"
"151.7014"
"$GPGGA,164957,2507.0878,N,07915.0034,W,1,8,1.9,22,"
"##MN-00 00 53 0467 01972 5645 441546 348170 204"
"151.701447"
"$GPGGA,165001,2507.0880,N,07915.0007,W,1,9,2.4,21,"
"##MN-00 00 54 0468 01975 5645 441559 348178 204"
"151.701493"
"$GPGGA,165005,2507.0883,N,07914.9983,W,1,9,1.9,21,"
"##MN-00 00 52 0468 01979 5644 441596 348188 204"
"151.701539"
"$GPGGA,165009,2507.0887,N,07914.9958,W,1,9,1.9,20,"
"##MN-00 00 53 0469 01985 5645 441598 348189 204"
"151.701586"
"$GPGGA,165013,2507.0889,N,07914.9930,W,1,9,1.9,20,"
"##MN-00 00 52 0470 01990 5644 441595 348188 204"
"151.701632"
"$GPGGA,165017,2507.0888,N,07914.9918,W,1,9,1.9,20,"
"##MN-00 00 54 0471 01991 5644 441614 348188 204"
"151.701678"
"$GPGGA,165021,2507.0889,N,07914.9892,W,1,8,1.9,20,"
"##MN-00 00 52 0472 01994 5644 441633 348197 204"
"151.701725"
"$GPGGA,165025,2507.0892,N,07914.9865,W,1,9,1.9,19,"
"##MN-00 00 52 0473 02001 5644 441635 348198 204"
"151.701771"
"$GPGGA,165029,2507.0895,N,07914.9841,W,1,9,1.9,19,"
"##MN-00 00 52 0474 02007 5644 441629 348195 204"
"151.701817"
"$GPGGA,165033,2507.0898,N,07914.9824,W,1,9,1.9,19,"
"##MN-00 00 53 0475 02010 5643 441634 348195 204"
"151.701863"
"$GPGGA,165037,2507.0902,N,07914.9801,W,1,9,1.9,19,"
"##MN-00 00 51 0475 02014 5643 441639 348196 204"
"151.70191"
"$GPGGA,165041,2507.0908,N,07914.9767,W,1,9,1.9,18,"
"##MN-00 00 53 0476 02019 5643 441665 348203 204"
"151.701956"
"$GPGGA,165045,2507.0905,N,07914.9750,W,1,9,1.9,18,"
"##MN-00 00 52 0477 02023 5643 441793 348254 204"
"151.702002"
"$GPGGA,165049,2507.0909,N,07914.9719,W,1,8,2.6,18,"
"##MN-00 00 52 0478 02028 5643 441917 348285 204"
"151.702049"
"$GPGGA,165053,2507.0911,N,07914.9694,W,1,7,4.4,18,"
"##MN-00 00 52 0479 02028 5642 442011 348303 204"
"151.702095"
"$GPGGA,165057,2507.0913,N,07914.9669,W,1,7,4.4,18,"
"##MN-00 00 52 0480 02033 5642 442060 348323 204"
"151.702141"
"$GPGGA,165101,2507.0914,N,07914.9647,W,1,8,2.6,18,"
"##MN-00 00 52 0481 02038 5641 442113 348335 204"
"151.702188"
"$GPGGA,165105,2507.0916,N,07914.9622,W,1,9,1.9,18,"
"##MN-00 00 52 0482 02040 5641 442158 348325 204"
"151.702234"
"$GPGGA,165109,2507.0914,N,07914.9600,W,1,9,1.9,18,"
"##MN-00 00 51 0482 02042 5641 442217 348324 204"
"151.70228"
"$GPGGA,165113,2507.0914,N,07914.9583,W,1,9,1.9,19,"
"##MN-00 00 51 0483 02045 5641 442281 348327 204"
"151.702326"
"$GPGGA,165117,2507.0916,N,07914.9559,W,1,9,1.9,19,"
"##MN-00 00 52 0484 02050 5640 442408 348341 204"
"151.702373"
"$GPGGA,165121,2507.0916,N,07914.9537,W,1,9,1.9,19,"
"##MN-00 00 51 0485 02052 5640 442542 348384 204"
"151.702419"
"$GPGGA,165125,2507.0918,N,07914.9515,W,1,9,1.9,20,"
"##MN-00 00 52 0486 02056 5640 442658 348412 204"
"151.702465"
"$GPGGA,165129,2507.0923,N,07914.9492,W,1,8,2.6,20,"
"##MN-00 00 52 0487 02060 5639 442813 348453 204"
"151.702512"
"$GPGGA,165133,2507.0927,N,07914.9471,W,1,9,1.9,20,"
"##MN-00 00 52 0488 02063 5639 442907 348465 204"
"151.702558"
"$GPGGA,165137,2507.0925,N,07914.9447,W,1,7,4.5,20,"
"##MN-00 00 52 0489 02067 5638 443003 348500 204"
"151.702604"
"$GPGGA,165142,2507.0923,N,07914.9422,W,1,8,2.6,20,"
"##MN-00 00 52 0489 02071 5638 443223 348541 204"
"151.70265"
"$GPGGA,165145,2507.0924,N,07914.9403,W,1,9,1.9,21,"
"##MN-00 00 52 0490 02073 5637 443609 348622 204"
"151.702697"
"$GPGGA,165149,2507.0925,N,07914.9374,W,1,9,1.9,21,"
"##MN-00 00 51 0491 02076 5637 443866 348704 204"
"151.702743"
"$GPGGA,165154,2507.0927,N,07914.9344,W,1,8,1.9,22,"
"##MN-00 00 51 0492 02083 5637 444120 348780 204"
"151.702789"
"$GPGGA,165157,2507.0929,N,07914.9321,W,1,9,1.9,22,"
"##MN-00 00 53 0493 02085 5636 444269 348875 204"
"151.702836"
"$GPGGA,165202,2507.0936,N,07914.9291,W,1,8,1.9,22,"
"##MN-00 00 52 0494 02088 5636 444340 348875 204"
"151.702882"
"$GPGGA,165206,2507.0935,N,07914.9275,W,1,8,2.5,22,"
"##MN-00 00 52 0495 02092 5635 444381 348890 204"
"151.70294"
"$GPGGA,165210,2507.0937,N,07914.9252,W,1,8,2.6,22,"
"##MN-00 00 52 0496 02095 5635 444470 348908 204"
"151.702986"
"$GPGGA,165214,2507.0940,N,07914.9227,W,1,9,1.9,21,"
"##MN-00 00 52 0496 02100 5634 444524 348956 204"
"151.703032"
"$GPGGA,165218,2507.0944,N,07914.9202,W,1,9,1.9,21,"
"##MN-00 00 52 0497 02102 5634 444571 348980 204"
"151.703079"
"$GPGGA,165222,2507.0943,N,07914.9177,W,1,9,2.6,21,"
"##MN-00 00 51 0498 02107 5633 444611 348991 204"
"151.703125"
"$GPGGA,165226,2507.0943,N,07914.9153,W,1,9,1.9,21,"
"##MN-00 00 52 0499 02109 5633 444630 348989 204"
"151.703171"
"$GPGGA,165230,2507.0943,N,07914.9128,W,1,9,1.9,21,"
"##MN-00 00 52 0500 02116 5632 444675 349000 204"
"151.703218"
"$GPGGA,165234,2507.0943,N,07914.9104,W,1,9,1.9,21,"
"##MN-00 00 51 0501 02119 5632 444763 349017 204"
"151.703264"
"$GPGGA,165238,2507.0943,N,07914.9081,W,1,9,1.9,21,"
"##MN-00 00 52 0502 02122 5631 444872 349042 204"
"151.70331"
"$GPGGA,165242,2507.0944,N,07914.9058,W,1,9,1.9,21,"
"##MN-00 00 51 0502 02130 5630 445046 349119 204"
"151.703357"
"$GPGGA,165246,2507.0943,N,07914.9034,W,1,9,1.9,21,"
"##MN-00 00 51 0503 02131 5630 445161 349131 204"
"151.703403"
"$GPGGA,165250,2507.0945,N,07914.9010,W,1,9,1.9,21,"
"##MN-00 00 52 0504 02133 5629 445259 349165 204"
"151.703449"
"$GPGGA,165254,2507.0945,N,07914.8986,W,1,9,1.9,20,"
"##MN-00 00 51 0505 02139 5629 445348 349177 204"
"151.703495"
"$GPGGA,165258,2507.0945,N,07914.8964,W,1,9,1.9,20,"
"##MN-00 00 51 0506 02143 5628 445436 349196 204"
"151.703542"
"$GPGGA,165302,2507.0942,N,07914.8940,W,1,9,1.9,20,"
"##MN-00 00 50 0507 02146 5627 445509 349200 204"
"151.703588"
"$GPGGA,165306,2507.0943,N,07914.8916,W,1,9,1.9,20,"
"##MN-00 00 51 0507 02151 5627 445582 349249 204"
"151.703634"
"$GPGGA,165310,2507.0943,N,07914.8893,W,1,8,1.9,20,"
"##MN-00 00 51 0508 02153 5626 445627 349271 204"
"151.703681"
"$GPGGA,165314,2507.0943,N,07914.8872,W,1,8,1.9,20,"
"##MN-00 00 51 0509 02157 5625 445650 349274 204"
"151.703727"
"$GPGGA,165318,2507.0941,N,07914.8853,W,1,9,1.9,21,"
"##MN-00 00 51 0510 02158 5625 445694 349300 204"
"151.703773"
"$GPGGA,165322,2507.0941,N,07914.8830,W,1,9,1.9,21,"
"##MN-00 00 52 0511 02164 5624 445746 349314 204"
"151.703819"
"$GPGGA,165326,2507.0941,N,07914.8806,W,1,9,1.9,21,"
"##MN-00 00 50 0511 02165 5623 445795 349333 204"
"151.703866"
"$GPGGA,165330,2507.0941,N,07914.8783,W,1,9,1.9,22,"
"##MN-00 00 51 0512 02170 5623 445814 349332 204"
"151.703912"
"$GPGGA,165334,2507.0941,N,07914.8757,W,1,9,1.9,22,"
"##MN-00 00 50 0513 02174 5622 445844 349347 204"
"151.703958"
"$GPGGA,165338,2507.0941,N,07914.8733,W,1,9,1.9,22,"
"##MN-00 00 51 0514 02177 5621 445899 349350 204"
"151.704005"
"$GPGGA,165342,2507.0941,N,07914.8710,W,1,9,1.9,22,"
"##MN-00 00 51 0515 02183 5621 445989 349373 204"
"151.704051"
"$GPGGA,165346,2507.0941,N,07914.8685,W,1,9,1.9,22,"
"##MN-00 00 51 0516 02187 5620 446044 349379 204"
"151.704097"
"$GPGGA,165350,2507.0941,N,07914.8663,W,1,9,1.9,22,"
"##MN-00 00 51 0516 02191 5619 446080 349384 204"
"151.704144"
"$GPGGA,165354,2507.0941,N,07914.8638,W,1,9,1.9,22,"
"##MN-00 00 51 0517 02195 5618 446118 349390 204"
"151.70419"
"$GPGGA,165358,2507.0941,N,07914.8614,W,1,9,1.9,22,"
"##MN-00 00 51 0518 02197 5618 446192 349423 204"
"151.704236"
"$GPGGA,165402,2507.0943,N,07914.8590,W,1,9,1.9,22,"
"##MN-00 00 52 0519 02203 5617 446261 349445 204"
"151.704282"
"$GPGGA,165406,2507.0942,N,07914.8566,W,1,9,1.9,22,"
"##MN-00 00 49 0520 02204 5616 446328 349464 204"
"151.704329"
"$GPGGA,165410,2507.0941,N,07914.8542,W,1,9,1.9,22,"
"##MN-00 00 51 0520 02208 5616 446408 349499 203"
"151.704375"
"$GPGGA,165414,2507.0941,N,07914.8522,W,1,8,1.9,22,"
"##MN-00 00 49 0521 02212 5615 446432 349497 204"
"151.704421"
"$GPGGA,165418,2507.0940,N,07914.8503,W,1,8,1.9,22,"
"##MN-00 00 51 0522 02213 5614 446443 349502 204"
"151.704468"
"$GPGGA,165422,2507.0938,N,07914.8484,W,1,9,1.9,22,"
"##MN-00 00 50 0523 02219 5613 446492 349525 204"
"151.704514"
"$GPGGA,165426,2507.0938,N,07914.8463,W,1,9,1.9,22,"
"##MN-00 00 52 0524 02221 5612 446537 349530 204"
"151.70456"
"$GPGGA,165430,2507.0937,N,07914.8446,W,1,9,1.9,22,"
"##MN-00 00 49 0524 02224 5612 446574 349554 204"
"151.704606"
"$GPGGA,165434,2507.0938,N,07914.8422,W,1,9,1.9,23,"
"##MN-00 00 50 0525 02226 5611 446602 349558 204"
"151.704653"
"$GPGGA,165438,2507.0938,N,07914.8397,W,1,9,1.9,23,"
"##MN-00 00 50 0526 02229 5610 446610 349550 204"
"151.704699"
"$GPGGA,165442,2507.0940,N,07914.8373,W,1,9,1.9,23,"
"##MN-00 00 50 0527 02233 5609 446629 349561 204"
"151.704745"
"$GPGGA,165446,2507.0940,N,07914.8348,W,1,9,1.9,23,"
"##MN-00 00 52 0528 02237 5608 446645 349569 204"
"151.704792"
"$GPGGA,165450,2507.0939,N,07914.8322,W,1,9,1.9,23,"
"##MN-00 00 49 0528 02241 5608 446659 349575 204"
"151.704838"
"$GPGGA,165454,2507.0941,N,07914.8297,W,1,9,1.9,23,"
"##MN-00 00 51 0529 02244 5607 446661 349572 204"
"151.704884"
"$GPGGA,165458,2507.0941,N,07914.8272,W,1,9,1.9,23,"
"##MN-00 00 51 0530 02247 5606 446658 349571 204"
"151.704931"
"$GPGGA,165502,2507.0943,N,07914.8246,W,1,9,1.9,22,"
"##MN-00 00 52 0531 02250 5605 446663 349574 204"
"151.704977"
"$GPGGA,165506,2507.0942,N,07914.8220,W,1,9,1.9,22,"
"##MN-00 00 50 0532 02254 5605 446671 349577 204"
"151.705023"
"$GPGGA,165510,2507.0943,N,07914.8195,W,1,9,1.9,22,"
"##MN-00 00 52 0533 02260 5603 446684 349580 204"
"151.705069"
"$GPGGA,165514,2507.0943,N,07914.8170,W,1,9,1.9,21,"
"##MN-00 00 50 0533 02263 5603 446688 349581 204"
"151.705116"
"$GPGGA,165518,2507.0945,N,07914.8145,W,1,9,1.9,21,"
"##MN-00 00 50 0534 02264 5602 446695 349582 204"
"151.705162"
"$GPGGA,165522,2507.0945,N,07914.8120,W,1,9,1.9,21,"
"##MN-00 00 51 0535 02268 5601 446710 349584 204"
"151.705208"
"$GPGGA,165526,2507.0945,N,07914.8098,W,1,9,2.6,21,"
"##MN-00 00 50 0536 02271 5600 446751 349597 204"
"151.705255"
"$GPGGA,165530,2507.0945,N,07914.8074,W,1,9,1.9,20,"
"##MN-00 00 50 0537 02278 5600 446781 349604 204"
"151.705301"
"$GPGGA,165534,2507.0946,N,07914.8049,W,1,9,1.9,20,"
"##MN-00 00 51 0537 02279 5599 446790 349605 204"
"151.705347"
"$GPGGA,165538,2507.0948,N,07914.8023,W,1,9,1.9,20,"
"##MN-00 00 50 0538 02282 5598 446797 349609 204"
"151.705394"
"$GPGGA,165542,2507.0949,N,07914.7999,W,1,9,1.9,20,"
"##MN-00 00 50 0539 02283 5597 446803 349608 204"
"151.70544"
"$GPGGA,165546,2507.0950,N,07914.7972,W,1,9,1.9,20,"
"##MN-00 00 51 0540 02287 5596 446808 349610 204"
"151.705486"
"$GPGGA,165550,2507.0952,N,07914.7948,W,1,9,1.9,19,"
"##MN-00 00 51 0541 02289 5595 446819 349612 204"
"151.705532"
"$GPGGA,165554,2507.0953,N,07914.7923,W,1,9,1.9,19,"
"##MN-00 00 51 0542 02291 5594 446829 349615 204"
"151.705579"
"$GPGGA,165558,2507.0954,N,07914.7898,W,1,9,1.9,18,"
"##MN-00 00 50 0542 02296 5593 446845 349619 204"
"151.705625"
"$GPGGA,165602,2507.0954,N,07914.7873,W,1,9,2.0,18,"
"##MN-00 00 51 0543 02298 5593 446863 349627 204"
"151.705671"
"$GPGGA,165606,2507.0956,N,07914.7847,W,1,9,1.9,18,"
"##MN-00 00 49 0544 02300 5592 446889 349639 204"
"151.705718"
"$GPGGA,165610,2507.0956,N,07914.7823,W,1,9,1.9,18,"
"##MN-00 00 51 0545 02302 5591 446927 349644 204"
"151.705764"
"$GPGGA,165614,2507.0956,N,07914.7799,W,1,9,2.6,18,"
"##MN-00 00 50 0546 02306 5590 446931 349648 204"
"151.70581"
"$GPGGA,165618,2507.0952,N,07914.7775,W,1,9,2.6,18,"
"##MN-00 00 50 0547 02304 5589 446957 349656 203"
"151.705856"
"$GPGGA,165622,2507.0954,N,07914.7757,W,1,9,2.0,19,"
"##MN-00 00 47 0547 02305 5588 446939 349652 204"
"151.705903"
"$GPGGA,165627,2507.0961,N,07914.7729,W,1,9,2.0,19,"
"##MN-00 00 49 0548 02304 5587 446913 349647 204"
"151.705949"
"$GPGGA,165631,2507.0961,N,07914.7708,W,1,9,2.0,19,"
"##MN-00 00 50 0549 02304 5586 446893 349641 204"
"151.705995"
"$GPGGA,165635,2507.0963,N,07914.7684,W,1,9,2.0,19,"
"##MN-00 00 48 0550 02306 5585 446898 349641 204"
"151.706053"
"$GPGGA,165638,2507.0963,N,07914.7669,W,1,9,2.0,19,"
"##MN-00 00 49 0551 02306 5585 446917 349644 204"
"151.7061"
"$GPGGA,165643,2507.0963,N,07914.7636,W,1,9,2.0,19,"
"##MN-00 00 49 0552 02307 5583 446939 349651 203"
"151.706146"
"$GPGGA,165647,2507.0963,N,07914.7612,W,1,9,2.0,19,"
"##MN+00 00 48 0553 02306 5583 446950 349652 203"
"151.706192"
"$GPGGA,165651,2507.0960,N,07914.7594,W,1,8,2.0,20,"
"##MN+00 00 50 0554 02301 5582 446964 349656 204"
"151.706238"
"$GPGGA,165655,2507.0961,N,07914.7573,W,1,9,2.0,20,"
"##MN+00 00 48 0555 02301 5580 446966 349658 204"
"151.706285"
"$GPGGA,165659,2507.0963,N,07914.7549,W,1,9,2.0,21,"
"##MN-00 00 60 0556 02306 5580 446961 349658 204"
"151.706331"
"$GPGGA,165703,2507.0966,N,07914.7523,W,1,8,2.6,21,"
"##MN-00 00 56 0557 02307 5579 446954 349657 204"
"151.706377"
"$GPGGA,165707,2507.0969,N,07914.7497,W,1,9,2.0,21,"
"##MN-00 00 51 0557 02305 5578 446949 349656 204"
"151.706424"
"$GPGGA,165711,2507.0970,N,07914.7470,W,1,9,2.0,21,"
"##MN-00 00 51 0558 02306 5577 446937 349654 204"
"151.70647"
"$GPGGA,165715,2507.0970,N,07914.7448,W,1,9,2.0,21,"
"##MN-00 00 49 0559 02305 5576 446919 349652 204"
"151.706516"
"$GPGGA,165719,2507.0970,N,07914.7426,W,1,9,2.0,22,"
"##MN-00 00 51 0560 02305 5575 446907 349649 204"
"151.706563"
"$GPGGA,165723,2507.0973,N,07914.7402,W,1,9,2.0,22,"
"##MN+00 00 49 0561 02306 5574 446903 349647 204"
"151.706609"
"$GPGGA,165727,2507.0976,N,07914.7378,W,1,9,2.0,22,"
"##MN+00 00 49 0562 02307 5573 446903 349647 203"
"151.706655"
"$GPGGA,165731,2507.0980,N,07914.7353,W,1,9,2.0,22,"
"##MN+00 00 49 0563 02307 5573 446907 349647 203"
"151.706701"
"$GPGGA,165735,2507.0984,N,07914.7326,W,1,9,2.0,21,"
"##MN-00 00 50 0564 02306 5572 446908 349647 203"
"151.706748"
"$GPGGA,165739,2507.0984,N,07914.7303,W,1,9,2.0,21,"
"##MN-00 00 50 0565 02306 5571 446907 349647 204"
"151.706794"
"$GPGGA,165743,2507.0986,N,07914.7279,W,1,9,2.0,21,"
"##MN-00 00 49 0566 02303 5570 446906 349647 203"
"151.70684"
"$GPGGA,165747,2507.0988,N,07914.7256,W,1,9,2.0,21,"
"##MN-00 00 49 0567 02305 5569 446917 349647 203"
"151.706887"
"$GPGGA,165751,2507.0988,N,07914.7231,W,1,9,2.0,20,"
"##MN-00 00 49 0568 02304 5568 446924 349648 203"
"151.706933"
"$GPGGA,165755,2507.0992,N,07914.7206,W,1,9,2.0,20,"
"##MN-00 00 50 0568 02301 5567 446926 349649 203"
"151.706979"
"$GPGGA,165759,2507.0994,N,07914.7181,W,1,9,2.0,20,"
"##MN-00 00 49 0569 02304 5566 446916 349647 203"
"151.707025"
"$GPGGA,165803,2507.0995,N,07914.7156,W,1,9,2.0,20,"
"##MN-00 00 50 0570 02306 5565 446905 349646 203"
"151.707072"
"$GPGGA,165807,2507.0999,N,07914.7131,W,1,9,2.0,20,"
"##MN-00 00 49 0571 02302 5564 446897 349643 203"
"151.707118"
"$GPGGA,165811,2507.1002,N,07914.7107,W,1,9,2.0,19,"
"##MN-00 00 50 0572 02303 5563 446881 349639 203"
"151.707164"
"$GPGGA,165815,2507.1005,N,07914.7083,W,1,9,2.0,19,"
"##MN-00 00 50 0573 02304 5563 446867 349638 203"
"151.707211"
"$GPGGA,165819,2507.1005,N,07914.7060,W,1,9,2.0,19,"
"##MN-00 00 49 0574 02301 5562 446860 349638 203"
"151.707257"
"$GPGGA,165823,2507.1007,N,07914.7036,W,1,9,2.0,19,"
"##MN+00 00 51 0575 02303 5561 446851 349634 203"
"151.707303"
"$GPGGA,165827,2507.1010,N,07914.7012,W,1,9,2.0,19,"
"##MN+00 00 48 0576 02306 5560 446839 349629 203"
"151.70735"
"$GPGGA,165831,2507.1010,N,07914.6992,W,1,8,2.7,19,"
"##MN+00 00 50 0577 02300 5559 446830 349626 203"
"151.707396"
"$GPGGA,165835,2507.1013,N,07914.6968,W,1,8,2.7,19,"
"##MN-00 00 58 0578 02303 5558 446825 349624 203"
"151.707442"
"$GPGGA,165839,2507.1014,N,07914.6944,W,1,9,2.0,19,"
"##MN-00 00 53 0578 02304 5558 446826 349624 204"
"151.707488"
"#increment_net"
"$GPGGA,165843,2507.1017,N,07914.6919,W,1,9,2.0,19,"
"##MN-00 00 50 0579 02302 5557 446823 349623 204"
"151.707535"
"$GPGGA,165847,2507.1019,N,07914.6896,W,1,9,2.0,19,"
"##MN-00 00 49 0580 02301 5555 446815 349621 203"
"151.707581"
"$GPGGA,165851,2507.1019,N,07914.6874,W,1,9,2.0,19,"
"##MN-00 00 49 0581 02304 5555 446809 349619 203"
"151.707627"
"$GPGGA,165855,2507.1023,N,07914.6850,W,1,9,2.0,19,"
"##MN-00 00 49 0582 02303 5553 446805 349618 203"
"151.707674"
"$GPGGA,165859,2507.1027,N,07914.6823,W,1,9,2.0,18,"
"##MN-00 00 49 0583 02304 5553 446808 349618 203"
"151.70772"
"$GPGGA,165903,2507.1030,N,07914.6800,W,1,9,2.0,18,"
"##MN-00 00 48 0584 02303 5552 446814 349619 203"
"151.707766"
"$GPGGA,165907,2507.1034,N,07914.6775,W,1,9,2.0,18,"
"##MN-00 00 48 0585 02305 5551 446812 349619 203"
"151.707812"
"$GPGGA,165911,2507.1037,N,07914.6751,W,1,8,2.7,18,"
"##MN-00 00 49 0586 02304 5550 446813 349619 203"
"151.707859"
"$GPGGA,165915,2507.1039,N,07914.6726,W,1,8,2.7,18,"
"##MN-00 00 48 0587 02304 5549 446824 349620 203"
"151.707905"
"$GPGGA,165919,2507.1041,N,07914.6706,W,1,9,2.0,18,"
"##MN-00 00 48 0587 02305 5548 446869 349629 203"
"151.707951"
"$GPGGA,165923,2507.1042,N,07914.6684,W,1,9,2.0,18,"
"##MN-00 00 48 0588 02303 5547 446873 349632 203"
"151.707998"
"$GPGGA,165927,2507.1046,N,07914.6659,W,1,9,2.0,18,"
"##MN-00 00 48 0589 02304 5547 446909 349637 203"
"151.708044"
"$GPGGA,165931,2507.1045,N,07914.6643,W,1,9,2.0,18,"
"##MN-00 00 48 0590 02304 5546 446961 349638 203"
"151.70809"
"$GPGGA,165935,2507.1048,N,07914.6615,W,1,8,2.7,18,"
"##MN-00 00 47 0591 02307 5545 446988 349645 203"
"151.708137"
"$GPGGA,165939,2507.1049,N,07914.6592,W,1,9,2.0,18,"
"##MN-00 00 48 0592 02303 5544 447003 349666 203"
"151.708183"
"$GPGGA,165943,2507.1053,N,07914.6565,W,1,9,2.0,18,"
"##MN-00 00 49 0593 02306 5543 447005 349665 203"
"151.708229"
"$GPGGA,165947,2507.1057,N,07914.6540,W,1,9,2.0,18,"
"##MN-00 00 48 0594 02306 5542 447006 349670 203"
"151.708275"
"$GPGGA,165951,2507.1059,N,07914.6518,W,1,9,2.0,17,"
"##MN-00 00 48 0595 02307 5541 447002 349669 203"
"151.708322"
"$GPGGA,165955,2507.1060,N,07914.6496,W,1,9,2.0,17,"
"##MN-00 00 48 0596 02305 5540 446992 349669 203"
"151.708368"
"$GPGGA,165959,2507.1061,N,07914.6474,W,1,9,2.0,17,"
"##MN-00 00 48 0596 02307 5539 446976 349665 203"
"151.708414"
"$GPGGA,170003,2507.1063,N,07914.6451,W,1,9,2.0,17,"
"##MN-00 00 48 0597 02307 5538 446974 349663 203"
"151.708461"
"$GPGGA,170007,2507.1064,N,07914.6428,W,1,9,2.0,17,"
"##MN-00 00 49 0598 02308 5538 446966 349662 203"
"151.708507"
"$GPGGA,170011,2507.1065,N,07914.6408,W,1,8,2.7,17,"
"##MN-00 00 48 0599 02307 5537 446961 349662 203"
"151.708553"
"$GPGGA,170015,2507.1068,N,07914.6383,W,1,9,2.0,17,"
"##MN-00 00 48 0600 02308 5536 446963 349661 203"
"151.7086"
"$GPGGA,170019,2507.1065,N,07914.6366,W,1,9,2.0,17,"
"##MN-00 00 48 0601 02308 5535 446967 349661 203"
"151.708646"
"$GPGGA,170023,2507.1065,N,07914.6347,W,1,9,2.0,17,"
"##MN-00 00 49 0602 02306 5534 446969 349661 203"
"151.708692"
"$GPGGA,170027,2507.1068,N,07914.6323,W,1,9,2.0,18,"
"##MN-00 00 47 0603 02308 5533 446940 349656 203"
"151.708738"
"$GPGGA,170031,2507.1071,N,07914.6299,W,1,9,2.0,18,"
"##MN-00 00 47 0604 02307 5532 446870 349639 203"
"151.708785"
"$GPGGA,170035,2507.1071,N,07914.6275,W,1,9,2.0,18,"
"##MN-00 00 48 0605 02304 5531 446809 349629 203"
"151.708831"
"$GPGGA,170039,2507.1073,N,07914.6251,W,1,9,2.0,18,"
"##MN+00 00 49 0606 02307 5531 446772 349617 203"
"151.708877"
"$GPGGA,170043,2507.1076,N,07914.6226,W,1,9,2.0,18,"
"##MN+00 00 48 0606 02306 5530 446754 349612 203"
"151.708924"
"$GPGGA,170047,2507.1078,N,07914.6201,W,1,9,2.0,18,"
"##MN+00 00 48 0607 02305 5529 446733 349602 203"
"151.70897"
"$GPGGA,170051,2507.1082,N,07914.6176,W,1,9,2.0,18,"
"##MN-00 00 48 0608 02306 5528 446719 349597 203"
"151.709016"
"$GPGGA,170055,2507.1084,N,07914.6153,W,1,9,2.0,18,"
"##MN+00 00 49 0609 02308 5527 446704 349597 203"
"151.709062"
"$GPGGA,170059,2507.1088,N,07914.6128,W,1,9,2.0,18,"
"##MN+00 00 47 0610 02307 5526 446696 349593 203"
"151.709109"
"$GPGGA,170103,2507.1093,N,07914.6096,W,1,8,2.8,18,"
"##MN+00 00 48 0611 02303 5525 446692 349589 203"
"151.709155"
"$GPGGA,170108,2507.1097,N,07914.6062,W,1,8,2.0,17,"
"##MN-00 00 57 0612 02308 5525 446686 349586 203"
"151.709201"
"$GPGGA,170112,2507.1097,N,07914.6043,W,1,9,2.0,17,"
"##MN-00 00 54 0613 02307 5524 446683 349585 203"
"151.709248"
"$GPGGA,170115,2507.1099,N,07914.6028,W,1,9,2.0,17,"
"##MN-00 00 49 0614 02309 5523 446682 349586 203"
"151.709306"
"$GPGGA,170119,2507.1100,N,07914.6006,W,1,9,2.0,17,"
"##MN-00 00 47 0615 02305 5522 446681 349600 203"
"151.709352"
"$GPGGA,170124,2507.1101,N,07914.5976,W,1,9,2.8,17,"
"##MN-00 00 46 0616 02307 5521 446682 349584 203"
"151.709398"
"#increment_net"
"$GPGGA,170128,2507.1104,N,07914.5953,W,1,9,2.0,17,"
"##MN-00 00 45 0617 02303 5520 446685 349583 203"
"151.709444"
"$GPGGA,170132,2507.1104,N,07914.5935,W,1,9,2.0,17,"
"##MN-00 00 45 0618 02308 5519 446686 349584 203"
"151.709491"
"$GPGGA,170136,2507.1104,N,07914.5913,W,1,9,2.0,17,"
"##MN-00 00 46 0619 02304 5518 446688 349584 203"
"151.709537"
"$GPGGA,170140,2507.1107,N,07914.5890,W,1,9,2.0,17,"
"##MN-00 00 46 0619 02307 5518 446692 349585 203"
"151.709583"
"$GPGGA,170144,2507.1111,N,07914.5866,W,1,9,2.0,17,"
"##MN-00 00 46 0620 02305 5516 446691 349585 203"
"151.70963"
"$GPGGA,170148,2507.1113,N,07914.5842,W,1,9,2.0,17,"
"##MN-00 00 46 0621 02306 5516 446694 349586 203"
"151.709676"
"$GPGGA,170152,2507.1115,N,07914.5819,W,1,9,2.0,17,"
"##MN-00 00 46 0622 02309 5515 446704 349587 203"
"151.709722"
"$GPGGA,170156,2507.1118,N,07914.5795,W,1,9,2.0,17,"
"##MN-00 00 45 0623 02309 5514 446712 349587 203"
"151.709769"
"$GPGGA,170200,2507.1122,N,07914.5771,W,1,9,2.0,17,"
"##MN-00 00 45 0624 02309 5514 446717 349589 203"
"151.709815"
"$GPGGA,170204,2507.1124,N,07914.5746,W,1,9,2.0,17,"
"##MN-00 00 46 0625 02307 5513 446721 349591 203"
"151.709861"
"$GPGGA,170208,2507.1127,N,07914.5722,W,1,9,2.0,17,"
"##MN-00 00 46 0626 02308 5512 446723 349592 203"
"151.709907"
"$GPGGA,170212,2507.1129,N,07914.5704,W,1,8,2.0,18,"
"##MN-00 00 45 0627 02310 5511 446726 349592 203"
"151.709954"
"$GPGGA,170216,2507.1133,N,07914.5678,W,1,9,2.8,18,"
"##MN-00 00 44 0628 02307 5510 446739 349597 203"
"151.71"
"$GPGGA,170220,2507.1138,N,07914.5646,W,1,9,2.8,18,"
"##MN-00 00 45 0629 02308 5509 446754 349600 203"
"151.710046"
"$GPGGA,170224,2507.1140,N,07914.5625,W,1,9,2.8,18,"
"##MN-00 00 45 0630 02309 5509 446758 349602 203"
"151.710093"
"$GPGGA,170228,2507.1140,N,07914.5609,W,1,9,2.0,18,"
"##MN-00 00 46 0631 02308 5508 446759 349602 203"
"151.710139"
"$GPGGA,170232,2507.1140,N,07914.5589,W,1,9,2.0,18,"
"##MN-00 00 46 0632 02310 5507 446764 349603 203"
"151.710185"
"$GPGGA,170236,2507.1144,N,07914.5564,W,1,8,2.0,18,"
"##MN-00 00 46 0633 02308 5506 446781 349608 203"
"151.710231"
"$GPGGA,170240,2507.1147,N,07914.5543,W,1,9,2.0,18,"
"##MN-00 00 46 0634 02308 5505 446781 349608 203"
"151.710278"
"$GPGGA,170244,2507.1151,N,07914.5516,W,1,8,2.0,18,"
"##MN-00 00 45 0634 02311 5505 446784 349608 203"
"151.710324"
"$GPGGA,170248,2507.1154,N,07914.5491,W,1,9,2.0,18,"
"##MN-00 00 45 0635 02310 5504 446804 349612 203"
"151.71037"
"$GPGGA,170252,2507.1157,N,07914.5468,W,1,9,2.0,18,"
"##MN-00 00 45 0636 02311 5503 446800 349612 203"
"151.710417"
"$GPGGA,170256,2507.1161,N,07914.5443,W,1,9,2.0,18,"
"##MN-00 00 45 0637 02309 5502 446791 349611 203"
"151.710463"
"$GPGGA,170300,2507.1165,N,07914.5419,W,1,9,2.0,18,"
"##MN-00 00 46 0638 02308 5501 446773 349607 203"
"151.710509"
"$GPGGA,170304,2507.1169,N,07914.5394,W,1,9,2.0,18,"
"##MN-00 00 45 0639 02309 5501 446755 349603 203"
"151.710556"
"$GPGGA,170308,2507.1172,N,07914.5370,W,1,9,2.0,18,"
"##MN+00 00 45 0640 02309 5500 446744 349599 203"
"151.710602"
"$GPGGA,170312,2507.1176,N,07914.5343,W,1,9,2.0,18,"
"##MN+00 00 46 0641 02307 5499 446733 349597 203"
"151.710648"
"$GPGGA,170316,2507.1179,N,07914.5321,W,1,9,2.0,18,"
"##MN+00 00 45 0642 02311 5498 446720 349596 203"
"151.710694"
"$GPGGA,170320,2507.1180,N,07914.5296,W,1,9,2.0,17,"
"##MN-00 00 45 0643 02308 5498 446709 349591 203"
"151.710741"
"$GPGGA,170324,2507.1185,N,07914.5271,W,1,9,2.0,17,"
"##MN+00 00 45 0644 02308 5497 446705 349590 203"
"151.710787"
"$GPGGA,170328,2507.1187,N,07914.5247,W,1,9,2.9,17,"
"##MN+00 00 45 0645 02307 5496 446687 349586 203"
"151.710833"
"$GPGGA,170332,2507.1190,N,07914.5225,W,1,9,2.0,17,"
"##MN+00 00 45 0646 02306 5496 446662 349578 203"
"151.71088"
"$GPGGA,170336,2507.1191,N,07914.5200,W,1,8,2.0,17,"
"##MN-00 00 56 0647 02310 5494 446638 349572 203"
"151.710926"
"#increment_net"
"$GPGGA,170340,2507.1193,N,07914.5177,W,1,9,2.0,17,"
"##MN-00 00 52 0647 02308 5494 446606 349567 203"
"151.710972"
"$GPGGA,170344,2507.1196,N,07914.5150,W,1,8,2.9,17,"
"##MN-00 00 49 0648 02304 5493 446569 349561 203"
"151.711018"
"$GPGGA,170348,2507.1195,N,07914.5132,W,1,9,2.0,17,"
"##MN-00 00 48 0649 02306 5492 446553 349560 203"
"151.711065"
"$GPGGA,170352,2507.1195,N,07914.5113,W,1,9,2.0,17,"
"##MN-00 00 47 0650 02305 5492 446548 349559 203"
"151.711111"
"$GPGGA,170356,2507.1198,N,07914.5089,W,1,9,2.0,18,"
"##MN-00 00 46 0651 02306 5491 446549 349558 203"
"151.711157"
"$GPGGA,170400,2507.1201,N,07914.5065,W,1,9,2.0,18,"
"##MN-00 00 46 0652 02305 5490 446553 349558 203"
"151.711204"
"$GPGGA,170404,2507.1205,N,07914.5038,W,1,9,2.0,18,"
"##MN-00 00 47 0653 02303 5490 446556 349559 203"
"151.71125"
"$GPGGA,170408,2507.1208,N,07914.5012,W,1,9,2.0,18,"
"##MN-00 00 46 0654 02305 5489 446568 349560 203"
"151.711296"
"$GPGGA,170412,2507.1214,N,07914.4983,W,1,9,2.0,18,"
"##MN-00 00 46 0655 02304 5488 446574 349561 203"
"151.711343"
"$GPGGA,170416,2507.1216,N,07914.4961,W,1,9,2.0,18,"
"##MN-00 00 46 0656 02304 5487 446581 349562 203"
"151.711389"
"$GPGGA,170420,2507.1219,N,07914.4939,W,1,9,2.0,18,"
"##MN-00 00 47 0657 02303 5486 446588 349565 203"
"151.711435"
"$GPGGA,170424,2507.1222,N,07914.4914,W,1,9,2.0,18,"
"##MN-00 00 45 0658 02303 5485 446583 349566 203"
"151.711481"
"$GPGGA,170428,2507.1227,N,07914.4889,W,1,9,2.0,18,"
"##MN-00 00 46 0659 02302 5485 446581 349567 203"
"151.711528"
"$GPGGA,170432,2507.1230,N,07914.4864,W,1,8,2.0,18,"
"##MN-00 00 45 0660 02302 5484 446583 349568 203"
"151.711574"
"$GPGGA,170436,2507.1234,N,07914.4839,W,1,8,2.0,18,"
"##MN-00 00 46 0661 02302 5484 446582 349568 203"
"151.71162"
"$GPGGA,170440,2507.1238,N,07914.4809,W,1,8,2.0,18,"
"##MN-00 00 46 0661 02300 5483 446587 349568 203"
"151.711667"
"$GPGGA,170444,2507.1241,N,07914.4786,W,1,9,2.0,17,"
"##MN-00 00 46 0662 02303 5482 446580 349568 203"
"151.711713"
"$GPGGA,170448,2507.1243,N,07914.4762,W,1,9,2.0,17,"
"##MN-00 00 47 0663 02302 5481 446576 349568 203"
"151.711759"
"$GPGGA,170452,2507.1247,N,07914.4738,W,1,8,2.0,17,"
"##MN-00 00 46 0664 02300 5480 446568 349567 203"
"151.711806"
"$GPGGA,170456,2507.1250,N,07914.4709,W,1,8,2.0,17,"
"##MN-00 00 45 0665 02299 5480 446558 349567 203"
"151.711852"
"$GPGGA,170500,2507.1252,N,07914.4686,W,1,9,2.0,16,"
"##MN-00 00 45 0666 02299 5479 446549 349566 203"
"151.711898"
"$GPGGA,170504,2507.1255,N,07914.4663,W,1,9,2.9,16,"
"##MN-00 00 47 0667 02302 5478 446542 349565 203"
"151.711944"
"$GPGGA,170508,2507.1258,N,07914.4641,W,1,9,2.0,16,"
"##MN-00 00 46 0668 02300 5478 446537 349563 203"
"151.711991"
"$GPGGA,170512,2507.1261,N,07914.4616,W,1,9,2.0,16,"
"##MN-00 00 46 0669 02300 5477 446529 349561 203"
"151.712037"
"$GPGGA,170516,2507.1266,N,07914.4589,W,1,9,2.9,16,"
"##MN-00 00 46 0670 02299 5477 446524 349559 203"
"151.712083"
"$GPGGA,170520,2507.1269,N,07914.4563,W,1,9,2.9,16,"
"##MN-00 00 46 0671 02301 5475 446528 349557 203"
"151.71213"
"$GPGGA,170524,2507.1271,N,07914.4538,W,1,9,2.0,16,"
"##MN+00 00 45 0672 02300 5475 446537 349558 203"
"151.712176"
"$GPGGA,170528,2507.1274,N,07914.4514,W,1,9,2.0,16,"
"##MN+00 00 46 0673 02302 5474 446552 349560 203"
"151.712222"
"$GPGGA,170532,2507.1277,N,07914.4493,W,1,9,2.0,16,"
"##MN+00 00 46 0674 02302 5474 446554 349560 203"
"151.712269"
"$GPGGA,170536,2507.1279,N,07914.4471,W,1,9,2.0,16,"
"##MN+00 00 46 0675 02301 5473 446552 349560 203"
"151.712315"
"$GPGGA,170540,2507.1281,N,07914.4448,W,1,9,2.0,16,"
"##MN+00 00 47 0676 02302 5472 446548 349559 203"
"151.712361"
"$GPGGA,170545,2507.1287,N,07914.4416,W,1,9,2.0,16,"
"##MN+00 00 45 0676 02301 5471 446547 349559 203"
"151.712407"
"$GPGGA,170548,2507.1290,N,07914.4395,W,1,8,2.0,15,"
"##MN-00 00 56 0677 02305 5471 446548 349559 203"
"151.712454"
"#increment_net"
"$GPGGA,170553,2507.1288,N,07914.4377,W,1,9,2.0,16,"
"##MN-00 00 54 0678 02304 5470 446546 349558 203"
"151.7125"
"$GPGGA,170556,2507.1290,N,07914.4356,W,1,9,3.0,16,"
"##MN-00 00 49 0680 02310 5470 446543 349558 203"
"151.712558"
"$GPGGA,170601,2507.1288,N,07914.4336,W,1,9,2.0,17,"
"##MN-00 00 49 0681 02314 5469 446542 349557 203"
"151.712604"
"$GPGGA,170605,2507.1294,N,07914.4306,W,1,9,2.0,17,"
"##MN-00 00 48 0682 02319 5467 446550 349556 203"
"151.71265"
"$GPGGA,170609,2507.1297,N,07914.4282,W,1,9,2.0,17,"
"##MN-00 00 47 0683 02325 5466 446558 349555 203"
"151.712697"
"$GPGGA,170613,2507.1299,N,07914.4254,W,1,9,2.0,17,"
"##MN-00 00 46 0684 02328 5466 446559 349554 203"
"151.712743"
"$GPGGA,170617,2507.1305,N,07914.4223,W,1,9,2.0,17,"
"##MN-00 00 45 0686 02334 5465 446580 349554 203"
"151.712789"
"$GPGGA,170621,2507.1310,N,07914.4191,W,1,8,3.0,17,"
"##MN-00 00 45 0687 02336 5465 446653 349559 203"
"151.712836"
"$GPGGA,170625,2507.1312,N,07914.4168,W,1,9,2.0,17,"
"##MN-00 00 45 0688 02344 5464 446693 349569 203"
"151.712882"
"$GPGGA,170629,2507.1313,N,07914.4145,W,1,9,2.0,17,"
"##MN-00 00 45 0689 02344 5463 446720 349573 203"
"151.712928"
"$GPGGA,170633,2507.1315,N,07914.4119,W,1,8,3.0,17,"
"##MN-00 00 45 0691 02350 5463 446731 349575 203"
"151.712975"
"$GPGGA,170637,2507.1320,N,07914.4090,W,1,9,2.0,16,"
"##MN-00 00 46 0692 02350 5462 446740 349579 203"
"151.713021"
"$GPGGA,170641,2507.1326,N,07914.4056,W,1,9,2.0,16,"
"##MN-00 00 44 0693 02355 5461 446792 349584 203"
"151.713067"
"$GPGGA,170645,2507.1328,N,07914.4032,W,1,8,3.0,15,"
"##MN-00 00 43 0694 02357 5461 446897 349599 203"
"151.713113"
"$GPGGA,170649,2507.1328,N,07914.4010,W,1,9,2.0,15,"
"##MN-00 00 44 0696 02360 5460 446960 349621 203"
"151.71316"
"$GPGGA,170653,2507.1330,N,07914.3987,W,1,9,2.0,15,"
"##MN-00 00 44 0697 02361 5459 446986 349623 203"
"151.713206"
"$GPGGA,170657,2507.1331,N,07914.3963,W,1,8,3.0,15,"
"##MN-00 00 43 0698 02365 5459 447011 349631 203"
"151.713252"
"$GPGGA,170701,2507.1335,N,07914.3934,W,1,8,3.0,15,"
"##MN-00 00 43 0699 02366 5459 447025 349640 203"
"151.713299"
"$GPGGA,170705,2507.1338,N,07914.3906,W,1,8,3.0,15,"
"##MN-00 00 43 0701 02367 5458 447046 349646 203"
"151.713345"
"$GPGGA,170709,2507.1339,N,07914.3879,W,1,9,2.0,15,"
"##MN-00 00 43 0702 02369 5457 447063 349648 203"
"151.713391"
"$GPGGA,170713,2507.1341,N,07914.3855,W,1,8,3.0,15,"
"##MN-00 00 43 0703 02372 5457 447070 349655 203"
"151.713437"
"$GPGGA,170717,2507.1342,N,07914.3828,W,1,8,3.0,15,"
"##MN-00 00 43 0704 02373 5456 447074 349654 203"
"151.713484"
"$GPGGA,170721,2507.1344,N,07914.3803,W,1,9,2.0,15,"
"##MN-00 00 43 0705 02375 5455 447074 349656 203"
"151.71353"
"$GPGGA,170725,2507.1346,N,07914.3780,W,1,9,2.0,15,"
"##MN-00 00 43 0707 02378 5454 447076 349657 203"
"151.713576"
"$GPGGA,170729,2507.1347,N,07914.3753,W,1,8,3.0,15,"
"##MN-00 00 43 0708 02379 5454 447083 349660 203"
"151.713623"
"$GPGGA,170733,2507.1346,N,07914.3734,W,1,9,2.0,15,"
"##MN+00 00 43 0709 02380 5453 447088 349662 203"
"151.713669"
"$GPGGA,170737,2507.1349,N,07914.3705,W,1,9,2.0,16,"
"##MN+00 00 43 0710 02385 5453 447117 349667 203"
"151.713715"
"$GPGGA,170741,2507.1351,N,07914.3679,W,1,9,2.0,16,"
"##MN+00 00 43 0711 02382 5452 447166 349677 203"
"151.713762"
"$GPGGA,170745,2507.1357,N,07914.3648,W,1,9,2.0,16,"
"##MN+00 00 42 0712 02384 5452 447183 349683 203"
"151.713808"
"$GPGGA,170749,2507.1359,N,07914.3623,W,1,9,2.0,16,"
"##MN+00 00 41 0713 02386 5451 447187 349683 203"
"151.713854"
"$GPGGA,170753,2507.1360,N,07914.3598,W,1,9,2.0,16,"
"##MN+00 00 42 0715 02385 5451 447204 349689 203"
"151.7139"
"$GPGGA,170757,2507.1363,N,07914.3572,W,1,9,2.0,16,"
"##MN-00 00 42 0716 02388 5450 447242 349692 203"
"151.713947"
"$GPGGA,170801,2507.1364,N,07914.3545,W,1,9,2.0,16,"
"##MN-00 00 41 0717 02387 5449 447265 349699 203"
"151.713993"
"$GPGGA,170805,2507.1368,N,07914.3513,W,1,9,2.0,15,"
"##MN-00 00 42 0718 02388 5448 447259 349701 203"
"151.714039"
"$GPGGA,170809,2507.1371,N,07914.3484,W,1,8,3.0,15,"
"##MN+00 00 40 0719 02387 5448 447264 349702 203"
"151.714086"
"$GPGGA,170813,2507.1369,N,07914.3464,W,1,9,2.0,15,"
"##MN+00 00 41 0721 02389 5447 447270 349703 203"
"151.714132"
"$GPGGA,170817,2507.1371,N,07914.3439,W,1,9,2.0,15,"
"##MN+00 00 41 0722 02390 5446 447271 349702 203"
"151.714178"
"$GPGGA,170821,2507.1375,N,07914.3408,W,1,8,3.1,15,"
"##MN-00 00 41 0723 02388 5446 447277 349705 203"
"151.714224"
"$GPGGA,170825,2507.1378,N,07914.3379,W,1,9,2.0,15,"
"##MN-00 00 41 0724 02391 5445 447277 349705 203"
"151.714271"
"$GPGGA,170829,2507.1381,N,07914.3353,W,1,9,2.0,15,"
"##MN-00 00 41 0725 02389 5445 447291 349708 203"
"151.714317"
"$GPGGA,170833,2507.1382,N,07914.3330,W,1,9,2.0,15,"
"##MN-00 00 41 0727 02389 5444 447303 349711 203"
"151.714363"
"$GPGGA,170837,2507.1382,N,07914.3309,W,1,9,2.0,15,"
"##MN+00 00 40 0728 02391 5444 447314 349711 203"
"151.71441"
"$GPGGA,170841,2507.1381,N,07914.3291,W,1,9,2.0,16,"
"##MN+00 00 41 0729 02389 5443 447332 349715 203"
"151.714456"
"$GPGGA,170845,2507.1382,N,07914.3265,W,1,9,2.0,16,"
"##MN+00 00 40 0730 02393 5443 447342 349719 203"
"151.714502"
"$GPGGA,170849,2507.1386,N,07914.3234,W,1,8,3.1,17,"
"##MN-00 00 41 0731 02392 5442 447343 349722 203"
"151.714549"
"$GPGGA,170853,2507.1393,N,07914.3199,W,1,9,2.0,17,"
"##MN-00 00 41 0733 02392 5441 447350 349723 203"
"151.714595"
"$GPGGA,170857,2507.1396,N,07914.3169,W,1,9,2.0,16,"
"##MN-00 00 42 0734 02392 5441 447354 349725 203"
"151.714641"
"$GPGGA,170901,2507.1400,N,07914.3140,W,1,9,2.0,16,"
"##MN-00 00 42 0735 02392 5440 447359 349726 203"
"151.714688"
"$GPGGA,170905,2507.1404,N,07914.3111,W,1,8,2.0,16,"
"##MN-00 00 43 0736 02384 5439 447367 349727 203"
"151.714734"
"$GPGGA,170909,2507.1404,N,07914.3090,W,1,9,2.0,15,"
"##MN-00 00 45 0737 02374 5439 447325 349719 203"
"151.71478"
"$GPGGA,170913,2507.1406,N,07914.3066,W,1,9,2.0,15,"
"##MN-00 00 42 0739 02368 5438 447152 349692 203"
"151.714826"
"$GPGGA,170917,2507.1407,N,07914.3041,W,1,9,2.0,15,"
"##MN-00 00 43 0740 02363 5437 447012 349679 203"
"151.714873"
"$GPGGA,170921,2507.1411,N,07914.3013,W,1,9,2.0,15,"
"##MN-00 00 43 0741 02355 5437 446865 349642 203"
"151.714919"
"$GPGGA,170925,2507.1414,N,07914.2986,W,1,9,2.0,15,"
"##MN-00 00 43 0743 02348 5436 446668 349599 203"
"151.714965"
"$GPGGA,170929,2507.1415,N,07914.2960,W,1,9,2.0,15,"
"##MN-00 00 43 0744 02341 5436 446589 349583 203"
"151.715012"
"$GPGGA,170933,2507.1418,N,07914.2934,W,1,9,2.0,15,"
"##MN-00 00 42 0745 02333 5435 446519 349572 203"
"151.715058"
"$GPGGA,170937,2507.1422,N,07914.2907,W,1,9,2.0,15,"
"##MN-00 00 44 0747 02325 5434 446459 349563 203"
"151.715104"
"$GPGGA,170941,2507.1425,N,07914.2881,W,1,9,2.0,15,"
"##MN-00 00 41 0748 02321 5434 446381 349557 203"
"151.71515"
"$GPGGA,170945,2507.1429,N,07914.2854,W,1,9,2.0,15,"
"##MN-00 00 42 0749 02313 5433 446321 349550 203"
"151.715197"
"$GPGGA,170949,2507.1432,N,07914.2829,W,1,9,2.0,15,"
"##MN-00 00 44 0750 02308 5432 446288 349541 203"
"151.715243"
"$GPGGA,170953,2507.1436,N,07914.2800,W,1,9,2.0,15,"
"##MN-00 00 44 0752 02297 5432 446271 349544 203"
"151.715289"
"$GPGGA,170957,2507.1440,N,07914.2772,W,1,9,2.0,15,"
"##MN-00 00 44 0753 02291 5431 446269 349542 203"
"151.715336"
"$GPGGA,171001,2507.1443,N,07914.2745,W,1,9,2.0,15,"
"##MN-00 00 43 0754 02286 5431 446268 349540 203"
"151.715382"
"$GPGGA,171005,2507.1445,N,07914.2722,W,1,9,2.0,15,"
"##MN-00 00 44 0756 02277 5430 446251 349538 203"
"151.715428"
"$GPGGA,171009,2507.1449,N,07914.2696,W,1,9,2.0,15,"
"##MN-00 00 45 0757 02272 5430 446230 349531 203"
"151.715475"
"$GPGGA,171013,2507.1451,N,07914.2669,W,1,9,2.0,16,"
"##MN-00 00 43 0758 02267 5429 446178 349527 203"
"151.715521"
"$GPGGA,171018,2507.1455,N,07914.2638,W,1,9,2.0,16,"
"##MN-00 00 45 0759 02257 5428 446094 349604 203"
"151.715567"
"$GPGGA,171022,2507.1460,N,07914.2612,W,1,9,2.0,16,"
"##MN-00 00 45 0761 02250 5428 445911 349734 203"
"151.715613"
"$GPGGA,171025,2507.1461,N,07914.2593,W,1,9,2.0,16,"
"##MN-00 00 44 0762 02244 5427 445749 349446 203"
"151.71566"
"$GPGGA,171030,2507.1465,N,07914.2562,W,1,9,2.0,16,"
"##MN-00 00 44 0763 02236 5427 445666 349436 203"
"151.715706"
"$GPGGA,171033,2507.1468,N,07914.2543,W,1,9,2.0,16,"
"##MN-00 00 45 0765 02229 5426 445599 349423 203"
"151.715752"
"$GPGGA,171038,2507.1472,N,07914.2510,W,1,9,2.0,17,"
"##MN-00 00 45 0766 02224 5425 445497 349394 203"
"151.71581"
"$GPGGA,171042,2507.1476,N,07914.2484,W,1,9,2.0,17,"
"##MN-00 00 44 0767 02215 5425 445398 349382 203"
"151.715856"
"$GPGGA,171046,2507.1479,N,07914.2458,W,1,9,2.0,17,"
"##MN-00 00 46 0769 02210 5424 445308 349363 203"
"151.715903"
"$GPGGA,171050,2507.1480,N,07914.2434,W,1,9,2.0,17,"
"##MN-00 00 45 0770 02203 5424 445217 349353 203"
"151.715949"
"$GPGGA,171054,2507.1482,N,07914.2408,W,1,9,2.0,16,"
"##MN-00 00 45 0771 02195 5423 445046 349323 203"
"151.715995"
"$GPGGA,171058,2507.1485,N,07914.2382,W,1,9,2.0,16,"
"##MN-00 00 45 0773 02189 5423 444927 349300 203"
"151.716042"
"$GPGGA,171102,2507.1487,N,07914.2356,W,1,9,2.0,16,"
"##MN-00 00 44 0774 02183 5422 444770 349210 203"
"151.716088"
"$GPGGA,171106,2507.1490,N,07914.2330,W,1,9,2.0,16,"
"##MN-00 00 44 0775 02176 5422 444699 349180 203"
"151.716134"
"$GPGGA,171110,2507.1493,N,07914.2304,W,1,9,2.0,15,"
"##MN-00 00 44 0777 02170 5421 444674 349177 203"
"151.716181"
"$GPGGA,171114,2507.1494,N,07914.2278,W,1,9,2.0,15,"
"##MN-00 00 45 0778 02162 5421 444651 349183 203"
"151.716227"
"$GPGGA,171118,2507.1496,N,07914.2251,W,1,9,2.0,15,"
"##MN-00 00 44 0779 02154 5420 444601 349209 203"
"151.716273"
"$GPGGA,171122,2507.1500,N,07914.2225,W,1,9,2.0,14,"
"##MN-00 00 44 0781 02150 5420 444473 349156 203"
"151.716319"
"$GPGGA,171126,2507.1501,N,07914.2198,W,1,9,2.0,14,"
"##MN-00 00 44 0782 02141 5419 444332 349124 203"
"151.716366"
"$GPGGA,171130,2507.1505,N,07914.2172,W,1,9,2.0,14,"
"##MN-00 00 44 0784 02135 5419 444269 349112 203"
"151.716412"
"$GPGGA,171134,2507.1508,N,07914.2146,W,1,9,2.0,14,"
"##MN-00 00 45 0785 02126 5418 444184 349086 203"
"151.716458"
"$GPGGA,171138,2507.1509,N,07914.2120,W,1,9,2.0,13,"
"##MN-00 00 44 0786 02121 5417 443788 348972 203"
"151.716505"
"$GPGGA,171142,2507.1512,N,07914.2093,W,1,9,2.0,13,"
"##MN-00 00 44 0788 02115 5417 443369 348892 203"
"151.716551"
"$GPGGA,171146,2507.1516,N,07914.2068,W,1,9,2.0,13,"
"##MN-00 00 46 0789 02108 5417 443189 348834 203"
"151.716597"
"$GPGGA,171150,2507.1514,N,07914.2051,W,1,9,2.0,13,"
"##MN-00 00 47 0790 02101 5416 443047 348785 203"
"151.716643"
"$GPGGA,171154,2507.1518,N,07914.2028,W,1,9,2.0,13,"
"##MN-00 00 46 0792 02097 5416 442881 348731 203"
"151.71669"
"$GPGGA,171158,2507.1519,N,07914.2004,W,1,9,2.0,14,"
"##MN-00 00 46 0793 02088 5415 442719 348692 203"
"151.716736"
"$GPGGA,171202,2507.1523,N,07914.1979,W,1,9,2.0,14,"
"##MN-00 00 48 0795 02081 5415 442593 348648 203"
"151.716782"
"$GPGGA,171206,2507.1523,N,07914.1954,W,1,9,2.0,14,"
"##MN-00 00 46 0796 02074 5414 442477 348578 203"
"151.716829"
"$GPGGA,171210,2507.1526,N,07914.1929,W,1,9,2.0,15,"
"##MN-00 00 46 0797 02067 5414 442438 348570 203"
"151.716875"
"$GPGGA,171214,2507.1528,N,07914.1905,W,1,9,2.0,15,"
"##MN-00 00 47 0799 02060 5413 442416 348573 203"
"151.716921"
"$GPGGA,171218,2507.1530,N,07914.1881,W,1,9,2.0,15,"
"##MN-00 00 47 0800 02053 5413 442380 348565 203"
"151.716968"
"$GPGGA,171222,2507.1532,N,07914.1857,W,1,9,2.0,16,"
"##MN-00 00 47 0801 02047 5413 442360 348569 203"
"151.717014"
"$GPGGA,171226,2507.1537,N,07914.1831,W,1,9,2.0,16,"
"##MN-00 00 49 0803 02040 5412 442367 348555 203"
"151.71706"
"$GPGGA,171230,2507.1538,N,07914.1805,W,1,9,2.0,16,"
"##MN-00 00 49 0804 02033 5412 442365 348548 203"
"151.717107"
"$GPGGA,171234,2507.1543,N,07914.1780,W,1,9,2.0,15,"
"##MN-00 00 46 0805 02028 5411 442290 348535 203"
"151.717153"
"$GPGGA,171238,2507.1544,N,07914.1756,W,1,9,2.0,15,"
"##MN-00 00 46 0807 02018 5411 442228 348530 203"
"151.717199"
"$GPGGA,171242,2507.1548,N,07914.1730,W,1,9,2.0,15,"
"##MN-00 00 46 0808 02011 5410 442183 348512 203"
"151.717245"
"$GPGGA,171246,2507.1552,N,07914.1706,W,1,9,2.0,15,"
"##MN-00 00 45 0809 02006 5410 442117 348501 203"
"151.717292"
"$GPGGA,171250,2507.1555,N,07914.1681,W,1,9,2.0,15,"
"##MN-00 00 47 0811 01996 5410 441996 348457 203"
"151.717338"
"$GPGGA,171254,2507.1559,N,07914.1656,W,1,9,2.0,15,"
"##MN-00 00 48 0812 01990 5409 441916 348437 203"
"151.717384"
"$GPGGA,171258,2507.1563,N,07914.1631,W,1,9,2.0,15,"
"##MN-00 00 50 0813 01981 5409 441792 348391 203"
"151.717431"
"$GPGGA,171302,2507.1566,N,07914.1613,W,1,9,2.0,15,"
"##MN-00 00 48 0815 01973 5408 441732 348366 203"
"151.717477"
"$GPGGA,171306,2507.1571,N,07914.1589,W,1,9,2.0,15,"
"##MN-00 00 48 0816 01969 5408 441705 348358 203"
"151.717523"
"$GPGGA,171310,2507.1577,N,07914.1558,W,1,9,2.0,14,"
"##MN-00 00 48 0817 01964 5408 441707 348355 203"
"151.717569"
"$GPGGA,171314,2507.1581,N,07914.1540,W,1,9,2.0,14,"
"##MN-00 00 49 0819 01957 5407 441707 348357 203"
"151.717616"
"$GPGGA,171318,2507.1585,N,07914.1509,W,1,9,2.0,14,"
"##MN-00 00 47 0820 01949 5407 441681 348347 203"
"151.717662"
"$GPGGA,171322,2507.1591,N,07914.1486,W,1,9,2.0,14,"
"##MN-00 00 46 0821 01940 5407 441658 348339 203"
"151.717708"
"$GPGGA,171326,2507.1594,N,07914.1461,W,1,9,2.0,14,"
"##MN-00 00 47 0823 01935 5406 441650 348336 203"
"151.717755"
"$GPGGA,171330,2507.1596,N,07914.1436,W,1,9,2.0,14,"
"##MN-00 00 45 0824 01927 5406 441626 348333 203"
"151.717801"
"$GPGGA,171334,2507.1599,N,07914.1413,W,1,9,2.0,14,"
"##MN-00 00 45 0825 01918 5406 441607 348329 203"
"151.717847"
"$GPGGA,171338,2507.1602,N,07914.1388,W,1,9,2.0,14,"
"##MN-00 00 47 0827 01910 5405 441586 348322 203"
"151.717894"
"$GPGGA,171342,2507.1606,N,07914.1363,W,1,9,2.0,14,"
"##MN-00 00 46 0828 01902 5405 441547 348315 203"
"151.71794"
"$GPGGA,171346,2507.1609,N,07914.1338,W,1,9,2.0,14,"
"##MN-00 00 48 0829 01893 5405 441477 348292 203"
"151.717986"
"$GPGGA,171350,2507.1613,N,07914.1313,W,1,9,2.0,14,"
"##MN-00 00 47 0831 01885 5405 441383 348277 203"
"151.718032"
"$GPGGA,171354,2507.1617,N,07914.1288,W,1,9,2.0,14,"
"##MN-00 00 47 0832 01877 5404 441138 348216 203"
"151.718079"
"$GPGGA,171358,2507.1620,N,07914.1263,W,1,9,2.0,14,"
"##MN-00 00 46 0833 01872 5404 440753 348120 203"
"151.718125"
"$GPGGA,171402,2507.1623,N,07914.1237,W,1,9,2.0,14,"
"##MN-00 00 45 0835 01863 5404 440096 347987 203"
"151.718171"
"$GPGGA,171406,2507.1626,N,07914.1211,W,1,9,2.0,14,"
"##MN-00 00 43 0836 01856 5403 439481 347883 203"
"151.718218"
"$GPGGA,171410,2507.1628,N,07914.1186,W,1,9,2.0,14,"
"##MN-00 00 46 0837 01853 5403 438100 347393 203"
"151.718275"
"$GPGGA,171414,2507.1631,N,07914.1161,W,1,9,2.0,14,"
"##MN-00 00 46 0839 01852 5403 437287 347197 203"
"151.718322"
"$GPGGA,171419,2507.1635,N,07914.1129,W,1,9,2.0,14,"
"##MN-00 00 46 0840 01852 5403 437335 347147 203"
"151.718368"
"$GPGGA,171423,2507.1638,N,07914.1103,W,1,9,2.0,14,"
"##MN-00 00 45 0842 01854 5402 437563 347150 203"
"151.718414"
"$GPGGA,171427,2507.1641,N,07914.1077,W,1,9,2.0,14,"
"##MN-00 00 44 0843 01853 5402 437793 347204 203"
"151.718461"
"$GPGGA,171431,2507.1645,N,07914.1051,W,1,9,2.0,14,"
"##MN-00 00 46 0844 01853 5402 437814 347210 203"
"151.718507"
"$GPGGA,171435,2507.1648,N,07914.1025,W,1,9,2.0,14,"
"##MN-00 00 44 0846 01853 5402 437618 347146 203"
