" Tow: 2Ed-A   RVWS/WS1406"
" Date: 05/31/2014"
" Temperature Probe #  2597    Conductivity Probe #  2870"
" Pressure Probe #  109"
" Flow Meter Calibration  4.71 (m/count)  "
"151.663657"
"$GPGGA,155531,2507.0334,N,07918.2716,W,1,9,1.8,9,M"
""
"151.664329"
"$GPGGA,155626,2507.0358,N,07918.2250,W,1,9,1.8,9,M"
""
"151.665023"
""
"##MN-00 00 50 0089 01851 5957 450679 349027 205"
"151.665069"
"$GPGGA,155738,2507.0396,N,07918.1699,W,1,9,1.8,9,M"
"##MN-00 00 52 0090 01852 5959 440729 348289 205"
"151.665197"
"$GPGGA,155744,2507.0397,N,07918.1652,W,1,9,1.8,9,M"
"##MN-00 00 51 0093 01851 5960 440579 348262 205"
"151.665243"
"$GPGGA,155753,2507.0398,N,07918.1578,W,1,9,1.8,9,M"
"##MN-00 00 51 0094 01852 5960 440299 348184 205"
"151.665289"
"$GPGGA,155757,2507.0397,N,07918.1547,W,1,9,1.8,9,M"
"##MN-00 00 52 0095 01851 5961 440502 348204 205"
"151.665336"
"$GPGGA,155801,2507.0397,N,07918.1515,W,1,8,2.1,10,"
"##MN-00 00 53 0096 01851 5961 440574 348229 205"
"151.665382"
"$GPGGA,155805,2507.0397,N,07918.1481,W,1,9,1.8,10,"
"##MN-00 00 52 0097 01852 5961 440623 348246 205"
"151.665428"
"$GPGGA,155809,2507.0398,N,07918.1448,W,1,9,1.8,10,"
"##MN-00 00 53 0098 01852 5961 440491 348241 205"
"151.665475"
"$GPGGA,155813,2507.0398,N,07918.1412,W,1,9,1.8,11,"
"##MN-00 00 53 0099 01851 5961 440602 348241 205"
"151.665521"
"$GPGGA,155817,2507.0397,N,07918.1379,W,1,9,1.8,11,"
"##MN-00 00 53 0100 01851 5961 440443 348246 205"
"151.665567"
"$GPGGA,155821,2507.0396,N,07918.1346,W,1,9,1.8,12,"
"##MN-00 00 54 0101 01851 5961 440325 348215 205"
"151.665613"
"$GPGGA,155825,2507.0396,N,07918.1313,W,1,9,1.8,12,"
"##MN-00 00 52 0102 01852 5960 440454 348216 205"
"151.66566"
"$GPGGA,155829,2507.0393,N,07918.1280,W,1,9,1.8,12,"
"##MN-00 00 54 0103 01853 5960 440405 348218 205"
"151.665706"
"$GPGGA,155833,2507.0392,N,07918.1248,W,1,9,1.8,12,"
"##MN-00 00 54 0104 01855 5960 440310 348191 205"
"151.665752"
"$GPGGA,155837,2507.0388,N,07918.1217,W,1,9,1.8,12,"
"##MN-00 00 55 0105 01858 5959 440559 348204 205"
"151.665799"
"$GPGGA,155841,2507.0387,N,07918.1184,W,1,9,1.8,12,"
"##MN-00 00 54 0106 01860 5959 440689 348239 205"
"151.665845"
"$GPGGA,155845,2507.0389,N,07918.1147,W,1,9,1.8,12,"
"##MN-00 00 53 0107 01864 5958 440780 348291 205"
"151.665891"
"$GPGGA,155849,2507.0389,N,07918.1115,W,1,9,1.8,12,"
"##MN-00 00 56 0108 01868 5957 440851 348315 205"
"151.665938"
"$GPGGA,155853,2507.0387,N,07918.1084,W,1,9,1.8,12,"
"##MN-00 00 56 0109 01875 5957 440876 348315 205"
"151.665984"
"$GPGGA,155857,2507.0385,N,07918.1055,W,1,9,1.8,12,"
"##MN-00 00 54 0110 01877 5956 440913 348319 205"
"151.66603"
"$GPGGA,155901,2507.0384,N,07918.1023,W,1,9,1.8,11,"
"##MN-00 00 55 0111 01882 5955 440932 348326 205"
"151.666076"
"$GPGGA,155905,2507.0383,N,07918.0989,W,1,9,1.8,11,"
"##MN-00 00 55 0112 01883 5954 440958 348327 205"
"151.666123"
"$GPGGA,155909,2507.0383,N,07918.0953,W,1,9,1.8,11,"
"##MN-00 00 55 0113 01888 5954 440976 348333 205"
"151.666169"
"$GPGGA,155913,2507.0385,N,07918.0918,W,1,9,1.8,11,"
"##MN-00 00 55 0114 01892 5953 440995 348341 205"
"151.666215"
"$GPGGA,155917,2507.0387,N,07918.0882,W,1,9,1.8,11,"
"##MN-00 00 55 0115 01896 5952 441009 348341 205"
"151.666262"
"$GPGGA,155921,2507.0387,N,07918.0845,W,1,9,1.8,11,"
"##MN-00 00 55 0116 01899 5951 441001 348343 205"
"151.666308"
"$GPGGA,155925,2507.0385,N,07918.0810,W,1,9,1.8,11,"
"##MN-00 00 56 0117 01900 5950 440993 348338 205"
"151.666354"
"$GPGGA,155929,2507.0385,N,07918.0774,W,1,9,1.8,11,"
"##MN-00 00 55 0118 01904 5949 440988 348334 205"
"151.6664"
"$GPGGA,155933,2507.0385,N,07918.0740,W,1,9,1.8,11,"
"##MN-00 00 56 0119 01908 5948 440989 348336 205"
"151.666447"
"$GPGGA,155937,2507.0385,N,07918.0704,W,1,9,1.8,11,"
"##MN-00 00 55 0120 01911 5947 441009 348333 205"
"151.666493"
"$GPGGA,155941,2507.0385,N,07918.0669,W,1,9,1.8,11,"
"##MN-00 00 55 0121 01913 5946 441086 348342 205"
"151.666539"
"$GPGGA,155945,2507.0385,N,07918.0634,W,1,9,1.8,11,"
"##MN-00 00 57 0122 01918 5945 441103 348351 205"
"151.666586"
"$GPGGA,155949,2507.0385,N,07918.0599,W,1,9,1.8,11,"
"##MN-00 00 55 0123 01920 5944 441178 348372 205"
"151.666632"
"$GPGGA,155953,2507.0385,N,07918.0565,W,1,9,1.8,11,"
"##MN-00 00 57 0124 01924 5943 441265 348382 205"
"151.666678"
"$GPGGA,155957,2507.0383,N,07918.0531,W,1,9,1.8,11,"
"##MN-00 00 55 0125 01927 5941 441295 348393 205"
"151.666725"
"$GPGGA,160001,2507.0382,N,07918.0498,W,1,9,1.8,11,"
"##MN-00 00 55 0126 01930 5940 441344 348399 205"
"151.666771"
"$GPGGA,160005,2507.0380,N,07918.0464,W,1,9,1.8,11,"
"##MN-00 00 57 0127 01933 5939 441402 348410 205"
"151.666817"
"$GPGGA,160009,2507.0381,N,07918.0431,W,1,9,1.8,11,"
"##MN-00 00 55 0128 01936 5938 441426 348431 205"
"151.666863"
"$GPGGA,160013,2507.0380,N,07918.0398,W,1,9,1.8,11,"
"##MN-00 00 57 0129 01942 5937 441454 348444 205"
"151.66691"
"$GPGGA,160017,2507.0381,N,07918.0365,W,1,9,1.8,11,"
"##MN-00 00 56 0130 01947 5936 441492 348451 205"
"151.666956"
"$GPGGA,160021,2507.0381,N,07918.0332,W,1,8,1.8,11,"
"##MN-00 00 56 0132 01950 5934 441506 348457 205"
"151.667002"
"$GPGGA,160025,2507.0380,N,07918.0301,W,1,8,1.8,10,"
"##MN-00 00 56 0133 01956 5933 441521 348462 205"
"151.667049"
"$GPGGA,160029,2507.0381,N,07918.0268,W,1,8,1.8,10,"
"##MN-00 00 54 0134 01961 5932 441572 348465 205"
"151.667095"
"$GPGGA,160033,2507.0381,N,07918.0236,W,1,9,1.8,10,"
"##MN-00 00 57 0134 01963 5931 441631 348484 205"
"151.667141"
"$GPGGA,160037,2507.0381,N,07918.0204,W,1,9,1.8,10,"
"##MN-00 00 54 0135 01968 5929 441720 348518 205"
"151.667188"
"$GPGGA,160041,2507.0382,N,07918.0171,W,1,9,2.0,10,"
"##MN-00 00 57 0136 01971 5928 441763 348520 205"
"151.667234"
"$GPGGA,160045,2507.0385,N,07918.0138,W,1,9,2.0,10,"
"##MN-00 00 56 0137 01978 5927 441782 348526 205"
"151.66728"
"$GPGGA,160049,2507.0385,N,07918.0111,W,1,9,1.8,10,"
"##MN-00 00 54 0138 01982 5925 441793 348528 205"
"151.667326"
"$GPGGA,160053,2507.0387,N,07918.0084,W,1,9,1.8,10,"
"##MN-00 00 57 0139 01992 5924 441844 348541 205"
"151.667373"
"$GPGGA,160057,2507.0388,N,07918.0057,W,1,9,1.8,10,"
"##MN-00 00 55 0140 01999 5922 441874 348551 205"
"151.667419"
"$GPGGA,160101,2507.0388,N,07918.0038,W,1,9,1.8,10,"
"##MN-00 00 56 0141 02004 5922 441871 348546 205"
"151.667465"
"$GPGGA,160105,2507.0389,N,07918.0006,W,1,9,1.8,10,"
"##MN-00 00 55 0142 02013 5920 441887 348546 205"
"151.667512"
"$GPGGA,160109,2507.0392,N,07917.9981,W,1,9,1.8,9,M"
"##MN-00 00 55 0142 02020 5919 441923 348552 205"
"151.667558"
"$GPGGA,160113,2507.0392,N,07917.9956,W,1,9,1.8,9,M"
"##MN-00 00 54 0143 02028 5917 441948 348549 205"
"151.667604"
"$GPGGA,160117,2507.0394,N,07917.9930,W,1,9,1.8,9,M"
"##MN-00 00 54 0144 02036 5916 441958 348551 205"
"151.66765"
"$GPGGA,160122,2507.0394,N,07917.9898,W,1,9,1.8,9,M"
"##MN-00 00 52 0145 02041 5914 441968 348548 205"
"151.667697"
"$GPGGA,160126,2507.0396,N,07917.9871,W,1,9,1.8,9,M"
"##MN-00 00 53 0146 02041 5913 442071 348566 205"
"151.667743"
"$GPGGA,160130,2507.0396,N,07917.9849,W,1,9,1.8,9,M"
"##MN-00 00 51 0147 02050 5912 442160 348599 205"
"151.667789"
"$GPGGA,160133,2507.0396,N,07917.9832,W,1,9,1.8,8,M"
"##MN-00 00 54 0147 02055 5910 442406 348652 205"
"151.667836"
"$GPGGA,160138,2507.0396,N,07917.9804,W,1,9,1.8,8,M"
"##MN-00 00 52 0148 02059 5909 442651 348718 205"
"151.667882"
"$GPGGA,160142,2507.0402,N,07917.9776,W,1,9,2.0,8,M"
"##MN-00 00 53 0149 02067 5908 442854 348764 205"
"151.66794"
"$GPGGA,160146,2507.0403,N,07917.9753,W,1,9,1.8,8,M"
"##MN-00 00 52 0150 02074 5906 442894 348754 205"
"151.667986"
"$GPGGA,160150,2507.0406,N,07917.9727,W,1,9,2.0,8,M"
"##MN-00 00 53 0151 02076 5905 442928 348765 205"
"151.668032"
"$GPGGA,160154,2507.0410,N,07917.9701,W,1,9,1.8,9,M"
"##MN-00 00 51 0151 02084 5903 442953 348792 205"
"151.668079"
"$GPGGA,160158,2507.0411,N,07917.9680,W,1,9,2.0,9,M"
"##MN-00 00 51 0152 02090 5902 442986 348810 205"
"151.668125"
"$GPGGA,160202,2507.0414,N,07917.9655,W,1,9,2.0,9,M"
"##MN-00 00 51 0153 02095 5900 443086 348845 205"
"151.668171"
"$GPGGA,160206,2507.0416,N,07917.9633,W,1,9,1.8,9,M"
"##MN-00 00 52 0154 02100 5899 443151 348848 205"
"151.668218"
"$GPGGA,160210,2507.0419,N,07917.9609,W,1,8,1.8,9,M"
"##MN-00 00 50 0154 02104 5897 443207 348878 205"
"151.668264"
"$GPGGA,160214,2507.0419,N,07917.9588,W,1,9,1.8,9,M"
"##MN-00 00 51 0155 02109 5896 443246 348892 205"
"151.66831"
"$GPGGA,160218,2507.0421,N,07917.9565,W,1,9,1.8,9,M"
"##MN-00 00 52 0156 02111 5894 443170 348879 205"
"151.668356"
"$GPGGA,160222,2507.0424,N,07917.9542,W,1,9,1.8,9,M"
"##MN-00 00 48 0157 02118 5893 443187 348896 205"
"151.668403"
"$GPGGA,160226,2507.0425,N,07917.9517,W,1,9,1.8,9,M"
"##MN-00 00 51 0157 02121 5891 443400 348997 205"
"151.668449"
"$GPGGA,160230,2507.0426,N,07917.9493,W,1,9,1.8,9,M"
"##MN-00 00 51 0158 02127 5890 443515 349036 205"
"151.668495"
"$GPGGA,160234,2507.0426,N,07917.9471,W,1,9,1.8,9,M"
"##MN-00 00 50 0159 02132 5889 443555 349027 205"
"151.668542"
"$GPGGA,160238,2507.0428,N,07917.9449,W,1,9,1.8,9,M"
"##MN-00 00 51 0160 02137 5887 443559 349023 205"
"151.668588"
"$GPGGA,160242,2507.0428,N,07917.9425,W,1,8,1.8,9,M"
"##MN-00 00 50 0160 02141 5885 443566 349037 205"
"151.668634"
"$GPGGA,160246,2507.0428,N,07917.9404,W,1,9,2.3,9,M"
"##MN-00 00 50 0161 02146 5884 443608 349053 205"
"151.668681"
"$GPGGA,160250,2507.0428,N,07917.9380,W,1,9,1.8,10,"
"##MN-00 00 50 0162 02152 5883 443632 349056 205"
"151.668727"
"$GPGGA,160254,2507.0426,N,07917.9357,W,1,9,1.8,10,"
"##MN-00 00 49 0163 02158 5881 443658 349057 205"
"151.668773"
"$GPGGA,160258,2507.0424,N,07917.9334,W,1,9,1.8,11,"
"##MN-00 00 49 0163 02159 5879 443692 349065 205"
"151.668819"
"$GPGGA,160302,2507.0424,N,07917.9310,W,1,9,1.8,11,"
"##MN-00 00 50 0164 02164 5878 443691 349060 205"
"151.668866"
"$GPGGA,160306,2507.0424,N,07917.9286,W,1,9,1.8,12,"
"##MN-00 00 50 0165 02167 5876 443707 349063 205"
"151.668912"
"$GPGGA,160310,2507.0424,N,07917.9262,W,1,9,1.8,12,"
"##MN-00 00 48 0165 02172 5875 443725 349070 205"
"151.668958"
"$GPGGA,160314,2507.0422,N,07917.9240,W,1,9,1.8,13,"
"##MN-00 00 50 0166 02177 5873 443746 349076 205"
"151.669005"
"$GPGGA,160318,2507.0422,N,07917.9215,W,1,9,1.8,13,"
"##MN-00 00 50 0167 02181 5872 443781 349086 205"
"151.669051"
"$GPGGA,160322,2507.0422,N,07917.9192,W,1,9,1.8,13,"
"##MN-00 00 50 0168 02186 5870 443820 349097 205"
"151.669097"
"$GPGGA,160326,2507.0421,N,07917.9168,W,1,9,1.8,14,"
"##MN-00 00 50 0168 02190 5869 443840 349098 205"
"151.669144"
"$GPGGA,160330,2507.0418,N,07917.9146,W,1,9,1.8,14,"
"##MN-00 00 49 0169 02195 5867 443866 349106 205"
"151.66919"
"$GPGGA,160334,2507.0419,N,07917.9122,W,1,9,1.8,14,"
"##MN-00 00 48 0170 02202 5866 444011 349193 205"
"151.669236"
"$GPGGA,160338,2507.0421,N,07917.9097,W,1,9,1.8,14,"
"##MN-00 00 49 0171 02204 5864 444122 349199 205"
"151.669282"
"$GPGGA,160342,2507.0421,N,07917.9073,W,1,9,1.8,14,"
"##MN-00 00 48 0171 02209 5862 444178 349217 205"
"151.669329"
"$GPGGA,160346,2507.0421,N,07917.9049,W,1,9,1.8,14,"
"##MN-00 00 48 0172 02210 5861 444228 349231 205"
"151.669375"
"$GPGGA,160350,2507.0421,N,07917.9025,W,1,9,1.8,14,"
"##MN-00 00 48 0173 02218 5860 444258 349232 205"
"151.669421"
"$GPGGA,160354,2507.0421,N,07917.9000,W,1,9,1.8,14,"
"##MN-00 00 49 0174 02220 5858 444316 349257 205"
"151.669468"
"$GPGGA,160358,2507.0423,N,07917.8977,W,1,9,1.8,14,"
"##MN-00 00 49 0174 02227 5856 444326 349242 205"
"151.669514"
"$GPGGA,160402,2507.0424,N,07917.8953,W,1,9,2.1,14,"
"##MN-00 00 48 0175 02227 5855 444326 349235 205"
"151.66956"
"$GPGGA,160406,2507.0424,N,07917.8933,W,1,9,1.8,14,"
"##MN-00 00 48 0176 02232 5853 444323 349227 205"
"151.669606"
"$GPGGA,160410,2507.0424,N,07917.8910,W,1,9,1.8,14,"
"##MN-00 00 48 0177 02236 5851 444341 349231 205"
"151.669653"
"$GPGGA,160414,2507.0427,N,07917.8885,W,1,9,2.1,14,"
"##MN-00 00 49 0177 02240 5850 444397 349255 205"
"151.669699"
"$GPGGA,160418,2507.0427,N,07917.8862,W,1,9,2.1,14,"
"##MN-00 00 49 0178 02240 5849 444446 349264 205"
"151.669745"
"$GPGGA,160422,2507.0425,N,07917.8844,W,1,9,1.8,14,"
"##MN-00 00 48 0179 02246 5847 444474 349269 205"
"151.669792"
"$GPGGA,160426,2507.0422,N,07917.8825,W,1,9,1.9,14,"
"##MN-00 00 49 0179 02250 5845 444483 349267 205"
"151.669838"
"$GPGGA,160430,2507.0421,N,07917.8806,W,1,9,1.9,14,"
"##MN-00 00 46 0180 02253 5844 444489 349259 205"
"151.669884"
"$GPGGA,160434,2507.0420,N,07917.8785,W,1,9,1.9,13,"
"##MN-00 00 49 0181 02257 5842 444472 349233 205"
"151.669931"
"$GPGGA,160438,2507.0417,N,07917.8763,W,1,9,1.9,13,"
"##MN-00 00 47 0182 02264 5841 444592 349296 205"
"151.669977"
"$GPGGA,160442,2507.0417,N,07917.8741,W,1,9,1.9,13,"
"##MN-00 00 49 0182 02265 5840 444789 349361 205"
"151.670023"
"$GPGGA,160446,2507.0417,N,07917.8717,W,1,9,1.9,12,"
"##MN-00 00 48 0183 02271 5838 444880 349378 205"
"151.670069"
"$GPGGA,160450,2507.0419,N,07917.8693,W,1,8,1.9,12,"
"##MN-00 00 48 0184 02273 5836 444938 349386 205"
"151.670116"
"$GPGGA,160454,2507.0419,N,07917.8671,W,1,9,1.9,12,"
"##MN-00 00 49 0185 02274 5835 445015 349392 205"
"151.670162"
"$GPGGA,160458,2507.0416,N,07917.8651,W,1,9,1.9,12,"
"##MN-00 00 48 0185 02277 5833 445032 349385 205"
"151.670208"
"$GPGGA,160502,2507.0414,N,07917.8629,W,1,9,2.1,12,"
"##MN-00 00 47 0186 02283 5832 445009 349344 205"
"151.670255"
"$GPGGA,160506,2507.0414,N,07917.8606,W,1,9,1.9,12,"
"##MN-00 00 49 0187 02286 5830 444860 349225 205"
"151.670301"
"$GPGGA,160510,2507.0414,N,07917.8583,W,1,9,2.1,12,"
"##MN-00 00 48 0188 02288 5828 444749 349201 205"
"151.670347"
"$GPGGA,160514,2507.0413,N,07917.8560,W,1,9,1.9,12,"
"##MN-00 00 49 0188 02290 5827 444745 349184 205"
"151.670394"
"$GPGGA,160518,2507.0413,N,07917.8537,W,1,9,1.9,12,"
"##MN-00 00 49 0189 02294 5825 444839 349201 205"
"151.67044"
"$GPGGA,160522,2507.0410,N,07917.8515,W,1,9,1.9,12,"
"##MN-00 00 48 0190 02297 5824 445082 349303 205"
"151.670486"
"$GPGGA,160526,2507.0408,N,07917.8493,W,1,9,1.9,12,"
"##MN-00 00 48 0191 02299 5822 445236 349355 205"
"151.670532"
"$GPGGA,160530,2507.0407,N,07917.8471,W,1,9,1.9,11,"
"##MN-00 00 48 0192 02301 5821 445251 349353 205"
"151.670579"
"$GPGGA,160534,2507.0407,N,07917.8447,W,1,9,1.9,11,"
"##MN-00 00 45 0192 02300 5819 445278 349361 205"
"151.670625"
"$GPGGA,160538,2507.0407,N,07917.8425,W,1,9,1.9,11,"
"##MN-00 00 46 0193 02298 5818 445333 349387 205"
"151.670671"
"$GPGGA,160542,2507.0407,N,07917.8400,W,1,9,1.9,11,"
"##MN-00 00 47 0194 02297 5816 445350 349391 205"
"151.670718"
"$GPGGA,160546,2507.0410,N,07917.8374,W,1,9,2.1,11,"
"##MN-00 00 46 0195 02295 5815 445348 349401 205"
"151.670764"
"$GPGGA,160551,2507.0409,N,07917.8347,W,1,9,1.9,11,"
"##MN-00 00 46 0196 02296 5813 445332 349406 205"
"151.67081"
"$GPGGA,160555,2507.0406,N,07917.8327,W,1,9,1.9,11,"
"##MN-00 00 48 0197 02295 5811 445316 349404 205"
"151.670856"
"$GPGGA,160559,2507.0406,N,07917.8302,W,1,9,1.9,11,"
"##MN-00 00 45 0198 02297 5810 445294 349402 205"
"151.670903"
"$GPGGA,160603,2507.0406,N,07917.8279,W,1,9,1.9,11,"
"##MN-00 00 48 0199 02297 5808 445289 349404 205"
"151.670949"
"$GPGGA,160607,2507.0405,N,07917.8258,W,1,9,1.9,11,"
"##MN-00 00 49 0199 02301 5807 445295 349407 205"
"151.670995"
"$GPGGA,160611,2507.0405,N,07917.8234,W,1,9,1.9,11,"
"##MN-00 00 50 0200 02299 5805 445310 349406 205"
"151.671042"
"$GPGGA,160615,2507.0403,N,07917.8212,W,1,9,1.9,11,"
"##MN-00 00 48 0201 02300 5804 445355 349416 205"
"151.671088"
"$GPGGA,160619,2507.0403,N,07917.8189,W,1,8,2.1,11,"
"##MN-00 00 47 0202 02301 5802 445374 349426 205"
"151.671134"
"$GPGGA,160623,2507.0405,N,07917.8162,W,1,9,1.9,11,"
"##MN-00 00 48 0203 02301 5800 445372 349432 205"
"151.671192"
"$GPGGA,160627,2507.0407,N,07917.8139,W,1,9,1.9,11,"
"##MN-00 00 45 0204 02302 5799 445366 349431 205"
"151.671238"
"$GPGGA,160631,2507.0408,N,07917.8117,W,1,9,1.9,11,"
"##MN+00 00 48 0205 02301 5797 445359 349431 205"
"151.671285"
"$GPGGA,160635,2507.0408,N,07917.8096,W,1,9,1.9,12,"
"##MN+00 00 47 0206 02300 5796 445354 349431 204"
"151.671331"
"$GPGGA,160639,2507.0410,N,07917.8071,W,1,8,2.1,12,"
"##MN+00 00 46 0207 02302 5795 445356 349431 204"
"151.671377"
"$GPGGA,160643,2507.0410,N,07917.8049,W,1,9,1.9,12,"
"##MN-00 00 49 0207 02299 5793 445373 349434 204"
"151.671424"
"$GPGGA,160647,2507.0407,N,07917.8031,W,1,9,1.9,12,"
"##MN-00 00 44 0208 02302 5792 445390 349438 205"
"151.67147"
"$GPGGA,160651,2507.0409,N,07917.8012,W,1,9,1.9,12,"
"##MN+00 00 48 0209 02301 5790 445388 349435 204"
"151.671516"
"$GPGGA,160655,2507.0409,N,07917.7990,W,1,9,1.9,11,"
"##MN+00 00 46 0210 02303 5788 445391 349435 204"
"151.671563"
"$GPGGA,160659,2507.0409,N,07917.7967,W,1,9,1.9,11,"
"##MN+00 00 58 0210 02302 5787 445387 349434 204"
"151.671609"
"$GPGGA,160703,2507.0409,N,07917.7944,W,1,9,1.9,11,"
"##MN-00 00 53 0211 02305 5785 445391 349435 204"
"151.671655"
"#increment_net"
"$GPGGA,160707,2507.0409,N,07917.7921,W,1,9,1.9,11,"
"##MN-00 00 49 0212 02307 5784 445390 349435 204"
"151.671701"
"$GPGGA,160711,2507.0407,N,07917.7901,W,1,9,1.9,11,"
"##MN-00 00 46 0213 02305 5782 445389 349437 204"
"151.671748"
"$GPGGA,160715,2507.0406,N,07917.7882,W,1,9,1.9,11,"
"##MN-00 00 47 0214 02303 5781 445391 349438 205"
"151.671794"
"$GPGGA,160719,2507.0409,N,07917.7860,W,1,9,1.9,11,"
"##MN-00 00 46 0215 02302 5779 445390 349437 204"
"151.67184"
"$GPGGA,160723,2507.0410,N,07917.7836,W,1,9,1.9,11,"
"##MN-00 00 48 0215 02301 5777 445379 349436 204"
"151.671887"
"$GPGGA,160727,2507.0410,N,07917.7815,W,1,9,1.9,11,"
"##MN-00 00 48 0216 02302 5776 445361 349433 204"
"151.671933"
"$GPGGA,160731,2507.0411,N,07917.7792,W,1,9,1.9,11,"
"##MN-00 00 48 0217 02305 5774 445351 349432 204"
"151.671979"
"$GPGGA,160735,2507.0411,N,07917.7773,W,1,9,1.9,11,"
"##MN-00 00 47 0218 02302 5773 445342 349431 204"
"151.672025"
"$GPGGA,160739,2507.0411,N,07917.7755,W,1,9,1.9,11,"
"##MN-00 00 47 0219 02303 5771 445339 349430 204"
"151.672072"
"$GPGGA,160743,2507.0411,N,07917.7736,W,1,9,1.9,11,"
"##MN-00 00 48 0220 02301 5770 445340 349430 204"
"151.672118"
"$GPGGA,160747,2507.0413,N,07917.7714,W,1,9,2.1,11,"
"##MN-00 00 47 0220 02304 5768 445334 349429 204"
"151.672164"
"$GPGGA,160751,2507.0412,N,07917.7695,W,1,9,1.9,11,"
"##MN-00 00 48 0221 02305 5767 445331 349429 204"
"151.672211"
"$GPGGA,160755,2507.0414,N,07917.7674,W,1,9,2.1,10,"
"##MN-00 00 47 0222 02306 5765 445326 349429 204"
"151.672257"
"$GPGGA,160759,2507.0414,N,07917.7651,W,1,9,2.1,10,"
"##MN-00 00 48 0223 02304 5764 445295 349424 204"
"151.672303"
"$GPGGA,160803,2507.0412,N,07917.7633,W,1,9,1.9,10,"
"##MN-00 00 47 0224 02304 5763 445267 349418 204"
"151.67235"
"$GPGGA,160807,2507.0412,N,07917.7611,W,1,8,1.9,10,"
"##MN-00 00 49 0224 02305 5761 445255 349417 204"
"151.672396"
"$GPGGA,160811,2507.0412,N,07917.7590,W,1,9,1.9,10,"
"##MN-00 00 47 0225 02304 5759 445249 349415 204"
"151.672442"
"$GPGGA,160815,2507.0410,N,07917.7570,W,1,9,1.9,10,"
"##MN-00 00 48 0226 02302 5758 445244 349414 204"
"151.672488"
"$GPGGA,160819,2507.0410,N,07917.7549,W,1,9,1.9,10,"
"##MN-00 00 47 0227 02305 5756 445248 349415 204"
"151.672535"
"$GPGGA,160823,2507.0412,N,07917.7524,W,1,8,2.1,10,"
"##MN-00 00 49 0227 02302 5755 445248 349415 204"
"151.672581"
"$GPGGA,160827,2507.0410,N,07917.7499,W,1,8,1.9,10,"
"##MN-00 00 47 0228 02301 5754 445245 349413 204"
"151.672627"
"$GPGGA,160831,2507.0412,N,07917.7474,W,1,9,1.9,10,"
"##MN-00 00 47 0229 02300 5752 445231 349410 204"
"151.672674"
"$GPGGA,160835,2507.0412,N,07917.7453,W,1,9,1.9,10,"
"##MN-00 00 49 0230 02301 5751 445227 349410 204"
"151.67272"
"$GPGGA,160839,2507.0413,N,07917.7433,W,1,9,1.9,10,"
"##MN+00 00 48 0231 02301 5749 445226 349408 204"
"151.672766"
"$GPGGA,160843,2507.0414,N,07917.7420,W,1,8,2.1,10,"
"##MN+00 00 49 0231 02302 5747 445221 349406 204"
"151.672812"
"$GPGGA,160847,2507.0411,N,07917.7404,W,1,9,1.9,10,"
"##MN+00 00 48 0232 02304 5746 445214 349403 204"
"151.672859"
"$GPGGA,160851,2507.0411,N,07917.7382,W,1,9,1.9,10,"
"##MN-00 00 48 0233 02305 5745 445209 349399 204"
"151.672905"
"$GPGGA,160855,2507.0411,N,07917.7362,W,1,9,1.9,10,"
"##MN-00 00 48 0234 02303 5743 445205 349397 204"
"151.672951"
"$GPGGA,160859,2507.0410,N,07917.7344,W,1,9,1.9,10,"
"##MN-00 00 47 0235 02304 5741 445198 349395 204"
"151.672998"
"$GPGGA,160903,2507.0410,N,07917.7323,W,1,9,1.9,9,M"
"##MN-00 00 48 0236 02300 5740 445200 349394 204"
"151.673044"
"$GPGGA,160907,2507.0408,N,07917.7302,W,1,9,1.9,9,M"
"##MN-00 00 48 0237 02305 5739 445213 349395 204"
"151.67309"
"$GPGGA,160911,2507.0408,N,07917.7280,W,1,9,1.9,9,M"
"##MN-00 00 48 0238 02303 5738 445231 349397 204"
"151.673137"
"$GPGGA,160915,2507.0409,N,07917.7254,W,1,8,2.1,9,M"
"##MN+00 00 49 0238 02306 5736 445234 349397 204"
"151.673183"
"$GPGGA,160919,2507.0410,N,07917.7229,W,1,9,1.9,9,M"
"##MN+00 00 47 0239 02304 5735 445237 349398 204"
"151.673229"
"$GPGGA,160923,2507.0412,N,07917.7205,W,1,8,2.1,9,M"
"##MN+00 00 57 0240 02307 5733 445256 349400 204"
"151.673275"
"$GPGGA,160927,2507.0410,N,07917.7184,W,1,8,2.1,9,M"
"##MN-00 00 54 0241 02305 5732 445266 349400 204"
"151.673322"
"#increment_net"
"$GPGGA,160931,2507.0410,N,07917.7162,W,1,9,1.9,9,M"
"##MN-00 00 49 0242 02305 5730 445286 349407 204"
"151.673368"
"$GPGGA,160935,2507.0408,N,07917.7143,W,1,9,1.9,9,M"
"##MN-00 00 48 0242 02305 5729 445292 349408 204"
"151.673414"
"$GPGGA,160939,2507.0406,N,07917.7124,W,1,9,1.9,9,M"
"##MN-00 00 47 0243 02307 5727 445269 349402 204"
"151.673461"
"$GPGGA,160943,2507.0405,N,07917.7102,W,1,9,1.9,9,M"
"##MN-00 00 45 0244 02307 5726 445240 349401 204"
"151.673507"
"$GPGGA,160947,2507.0406,N,07917.7081,W,1,9,1.9,9,M"
"##MN-00 00 46 0245 02306 5724 445244 349401 204"
"151.673553"
"$GPGGA,160951,2507.0406,N,07917.7060,W,1,9,1.9,8,M"
"##MN-00 00 47 0246 02307 5723 445221 349397 204"
"151.6736"
"$GPGGA,160955,2507.0406,N,07917.7038,W,1,9,1.9,8,M"
"##MN-00 00 46 0247 02307 5721 445215 349395 204"
"151.673646"
"$GPGGA,160959,2507.0406,N,07917.7014,W,1,8,2.1,8,M"
"##MN-00 00 46 0247 02309 5720 445222 349394 204"
"151.673692"
"$GPGGA,161003,2507.0406,N,07917.6993,W,1,8,2.1,8,M"
"##MN-00 00 46 0248 02309 5719 445250 349397 204"
"151.673738"
"$GPGGA,161007,2507.0405,N,07917.6974,W,1,9,1.9,8,M"
"##MN-00 00 46 0249 02307 5718 445245 349396 204"
"151.673785"
"$GPGGA,161011,2507.0403,N,07917.6954,W,1,9,1.9,8,M"
"##MN-00 00 46 0250 02308 5716 445255 349396 204"
"151.673831"
"$GPGGA,161015,2507.0403,N,07917.6928,W,1,9,1.9,8,M"
"##MN-00 00 45 0251 02308 5715 445293 349403 204"
"151.673877"
"$GPGGA,161019,2507.0403,N,07917.6903,W,1,9,1.9,8,M"
"##MN-00 00 46 0252 02310 5713 445307 349405 204"
"151.673924"
"$GPGGA,161023,2507.0405,N,07917.6878,W,1,8,2.1,8,M"
"##MN-00 00 46 0253 02310 5712 445315 349409 204"
"151.67397"
"$GPGGA,161028,2507.0404,N,07917.6849,W,1,8,2.1,9,M"
"##MN-00 00 45 0253 02308 5711 445331 349411 204"
"151.674016"
"$GPGGA,161031,2507.0404,N,07917.6834,W,1,8,2.1,9,M"
"##MN-00 00 45 0254 02308 5709 445352 349415 204"
"151.674062"
"$GPGGA,161036,2507.0405,N,07917.6805,W,1,8,2.1,9,M"
"##MN-00 00 46 0255 02310 5708 445340 349415 204"
"151.674109"
"$GPGGA,161040,2507.0401,N,07917.6795,W,1,8,2.1,9,M"
"##MN-00 00 45 0256 02309 5706 445318 349413 204"
"151.674155"
"$GPGGA,161044,2507.0402,N,07917.6774,W,1,9,1.9,9,M"
"##MN-00 00 45 0257 02310 5705 445305 349411 204"
"151.674201"
"$GPGGA,161048,2507.0405,N,07917.6752,W,1,9,1.9,9,M"
"##MN-00 00 46 0258 02312 5704 445292 349406 204"
"151.674248"
"$GPGGA,161052,2507.0406,N,07917.6730,W,1,8,1.9,9,M"
"##MN-00 00 46 0259 02312 5702 445289 349406 204"
"151.674294"
"$GPGGA,161056,2507.0406,N,07917.6709,W,1,8,2.1,9,M"
"##MN-00 00 45 0259 02310 5701 445292 349406 204"
"151.67434"
"$GPGGA,161059,2507.0402,N,07917.6696,W,1,9,1.9,10,"
"##MN-00 00 46 0260 02311 5700 445298 349407 204"
"151.674398"
"$GPGGA,161104,2507.0403,N,07917.6662,W,1,9,2.1,10,"
"##MN-00 00 45 0261 02312 5698 445307 349408 204"
"151.674444"
"$GPGGA,161108,2507.0403,N,07917.6644,W,1,8,2.1,10,"
"##MN-00 00 45 0262 02312 5697 445316 349408 204"
"151.674491"
"$GPGGA,161112,2507.0402,N,07917.6623,W,1,9,2.2,10,"
"##MN+00 00 46 0263 02313 5696 445322 349409 204"
"151.674537"
"$GPGGA,161116,2507.0398,N,07917.6606,W,1,9,1.9,10,"
"##MN+00 00 44 0264 02313 5694 445335 349414 204"
"151.674583"
"$GPGGA,161120,2507.0397,N,07917.6584,W,1,9,1.9,10,"
"##MN+00 00 45 0264 02314 5693 445342 349416 204"
"151.67463"
"$GPGGA,161124,2507.0399,N,07917.6559,W,1,8,2.2,10,"
"##MN-00 00 46 0265 02313 5692 445350 349418 204"
"151.674676"
"$GPGGA,161128,2507.0397,N,07917.6541,W,1,9,1.9,10,"
"##MN-00 00 44 0266 02315 5690 445360 349419 204"
"151.674722"
"$GPGGA,161132,2507.0399,N,07917.6515,W,1,8,2.2,10,"
"##MN-00 00 45 0267 02315 5689 445358 349420 204"
"151.674769"
"$GPGGA,161136,2507.0400,N,07917.6489,W,1,8,2.2,10,"
"##MN+00 00 44 0268 02314 5688 445351 349419 204"
"151.674815"
"$GPGGA,161140,2507.0399,N,07917.6471,W,1,9,1.9,10,"
"##MN+00 00 45 0269 02315 5687 445364 349420 204"
"151.674861"
"$GPGGA,161144,2507.0397,N,07917.6449,W,1,9,2.2,10,"
"##MN+00 00 54 0270 02321 5685 445387 349423 203"
"151.674907"
"#increment_net"
"$GPGGA,161148,2507.0396,N,07917.6430,W,1,9,2.2,10,"
"##MN-00 00 49 0270 02316 5684 445415 349425 204"
"151.674954"
"$GPGGA,161152,2507.0396,N,07917.6404,W,1,8,2.2,11,"
"##MN-00 00 45 0271 02317 5683 445436 349432 204"
"151.675"
"$GPGGA,161156,2507.0394,N,07917.6390,W,1,9,2.2,11,"
"##MN-00 00 44 0272 02317 5681 445452 349436 204"
"151.675046"
"$GPGGA,161200,2507.0391,N,07917.6365,W,1,9,2.2,11,"
"##MN-00 00 44 0273 02317 5680 445452 349439 204"
"151.675093"
"$GPGGA,161204,2507.0388,N,07917.6344,W,1,8,1.9,11,"
"##MN-00 00 42 0273 02317 5679 445461 349441 204"
"151.675139"
"$GPGGA,161208,2507.0386,N,07917.6321,W,1,9,2.0,11,"
"##MN-00 00 43 0274 02316 5677 445483 349446 204"
"151.675185"
"$GPGGA,161212,2507.0387,N,07917.6297,W,1,8,1.9,11,"
"##MN-00 00 43 0275 02316 5676 445493 349447 204"
"151.675231"
"$GPGGA,161216,2507.0387,N,07917.6273,W,1,8,1.9,11,"
"##MN-00 00 44 0276 02319 5675 445504 349453 204"
"151.675278"
"$GPGGA,161220,2507.0385,N,07917.6254,W,1,9,1.9,11,"
"##MN-00 00 44 0276 02317 5673 445503 349452 204"
"151.675324"
"$GPGGA,161224,2507.0381,N,07917.6238,W,1,9,2.2,11,"
"##MN-00 00 42 0277 02318 5672 445499 349452 204"
"151.67537"
"$GPGGA,161228,2507.0380,N,07917.6217,W,1,9,1.9,11,"
"##MN-00 00 43 0278 02317 5671 445513 349455 204"
"151.675417"
"$GPGGA,161232,2507.0376,N,07917.6199,W,1,8,1.9,11,"
"##MN-00 00 43 0279 02320 5670 445525 349455 204"
"151.675463"
"$GPGGA,161236,2507.0374,N,07917.6182,W,1,8,2.2,11,"
"##MN-00 00 42 0280 02317 5668 445538 349460 204"
"151.675509"
"$GPGGA,161240,2507.0371,N,07917.6172,W,1,9,1.9,10,"
"##MN-00 00 43 0280 02323 5667 445550 349462 204"
"151.675556"
"$GPGGA,161244,2507.0369,N,07917.6145,W,1,9,1.9,10,"
"##MN-00 00 43 0281 02319 5666 445544 349460 204"
"151.675602"
"$GPGGA,161248,2507.0368,N,07917.6123,W,1,9,1.9,10,"
"##MN-00 00 43 0282 02319 5665 445539 349460 204"
"151.675648"
"$GPGGA,161252,2507.0365,N,07917.6100,W,1,9,2.2,9,M"
"##MN-00 00 43 0283 02320 5663 445550 349462 204"
"151.675694"
"$GPGGA,161256,2507.0363,N,07917.6081,W,1,9,1.9,9,M"
"##MN-00 00 42 0284 02320 5662 445562 349464 204"
"151.675741"
"$GPGGA,161300,2507.0359,N,07917.6064,W,1,9,1.9,9,M"
"##MN-00 00 42 0284 02320 5661 445562 349465 204"
"151.675787"
"$GPGGA,161304,2507.0358,N,07917.6043,W,1,9,1.9,9,M"
"##MN-00 00 43 0285 02321 5659 445547 349463 204"
"151.675833"
"$GPGGA,161308,2507.0356,N,07917.6022,W,1,9,1.9,8,M"
"##MN-00 00 43 0286 02320 5659 445553 349463 204"
"151.67588"
"$GPGGA,161312,2507.0356,N,07917.6000,W,1,9,1.9,8,M"
"##MN-00 00 42 0287 02323 5658 445563 349465 204"
"151.675926"
"$GPGGA,161316,2507.0359,N,07917.5973,W,1,9,1.9,8,M"
"##MN-00 00 43 0288 02321 5656 445576 349469 204"
"151.675972"
"$GPGGA,161320,2507.0360,N,07917.5948,W,1,8,1.9,8,M"
"##MN-00 00 40 0288 02320 5654 445582 349470 204"
"151.676019"
"$GPGGA,161324,2507.0362,N,07917.5925,W,1,9,2.0,9,M"
"##MN-00 00 43 0289 02323 5654 445582 349470 204"
"151.676065"
"$GPGGA,161328,2507.0359,N,07917.5907,W,1,8,1.9,9,M"
"##MN+00 00 42 0290 02324 5653 445581 349470 204"
"151.676111"
"$GPGGA,161332,2507.0360,N,07917.5886,W,1,8,2.2,9,M"
"##MN+00 00 43 0291 02322 5651 445583 349470 204"
"151.676157"
"$GPGGA,161336,2507.0361,N,07917.5862,W,1,8,2.2,10,"
"##MN+00 00 42 0292 02322 5650 445581 349470 204"
"151.676204"
"$GPGGA,161340,2507.0360,N,07917.5841,W,1,8,1.9,10,"
"##MN-00 00 43 0293 02320 5649 445583 349470 204"
"151.67625"
"$GPGGA,161344,2507.0359,N,07917.5819,W,1,8,2.2,10,"
"##MN-00 00 43 0293 02322 5647 445583 349471 204"
"151.676296"
"$GPGGA,161348,2507.0356,N,07917.5800,W,1,9,1.9,10,"
"##MN-00 00 43 0294 02322 5646 445591 349472 204"
"151.676343"
"$GPGGA,161352,2507.0350,N,07917.5784,W,1,9,1.9,10,"
"##MN+00 00 43 0295 02321 5645 445593 349472 204"
"151.676389"
"$GPGGA,161356,2507.0347,N,07917.5765,W,1,9,1.9,9,M"
"##MN+00 00 42 0296 02322 5644 445596 349472 204"
"151.676435"
"$GPGGA,161400,2507.0345,N,07917.5744,W,1,9,1.9,9,M"
"##MN+00 00 52 0297 02322 5643 445597 349472 204"
"151.676481"
"#increment_net"
"$GPGGA,161404,2507.0347,N,07917.5720,W,1,9,1.9,9,M"
"##MN-00 00 48 0297 02323 5642 445603 349473 204"
"151.676528"
"$GPGGA,161408,2507.0349,N,07917.5691,W,1,9,1.9,8,M"
"##MN-00 00 45 0298 02318 5641 445611 349476 204"
"151.676574"
"$GPGGA,161412,2507.0347,N,07917.5668,W,1,9,1.9,8,M"
"##MN-00 00 44 0299 02323 5640 445621 349479 204"
"151.67662"
"$GPGGA,161416,2507.0348,N,07917.5644,W,1,9,2.2,8,M"
"##MN-00 00 43 0299 02319 5639 445619 349479 204"
"151.676667"
"$GPGGA,161420,2507.0346,N,07917.5622,W,1,9,1.9,9,M"
"##MN-00 00 41 0300 02320 5637 445619 349478 204"
"151.676713"
"$GPGGA,161424,2507.0345,N,07917.5599,W,1,9,2.2,9,M"
"##MN-00 00 43 0300 02322 5636 445621 349479 204"
"151.676759"
"$GPGGA,161428,2507.0342,N,07917.5574,W,1,8,1.9,9,M"
"##MN-00 00 42 0301 02320 5635 445622 349478 204"
"151.676806"
"$GPGGA,161432,2507.0341,N,07917.5551,W,1,8,2.2,9,M"
"##MN-00 00 43 0302 02318 5634 445628 349479 204"
"151.676852"
"$GPGGA,161436,2507.0338,N,07917.5534,W,1,9,1.9,9,M"
"##MN-00 00 42 0303 02320 5632 445623 349480 204"
"151.676898"
"$GPGGA,161440,2507.0333,N,07917.5513,W,1,9,1.9,9,M"
"##MN-00 00 42 0304 02320 5631 445617 349479 204"
"151.676944"
"$GPGGA,161444,2507.0331,N,07917.5490,W,1,8,1.9,9,M"
"##MN-00 00 42 0304 02319 5630 445626 349480 204"
"151.676991"
"$GPGGA,161448,2507.0327,N,07917.5469,W,1,9,2.2,8,M"
"##MN-00 00 40 0305 02317 5629 445639 349483 204"
"151.677037"
"$GPGGA,161452,2507.0323,N,07917.5447,W,1,8,1.9,8,M"
"##MN-00 00 43 0306 02317 5628 445641 349484 204"
"151.677083"
"$GPGGA,161456,2507.0322,N,07917.5425,W,1,9,1.9,8,M"
"##MN-00 00 41 0307 02317 5627 445644 349485 204"
"151.67713"
"$GPGGA,161500,2507.0320,N,07917.5403,W,1,9,1.9,8,M"
"##MN-00 00 43 0307 02318 5625 445649 349486 204"
"151.677176"
"$GPGGA,161504,2507.0318,N,07917.5378,W,1,9,1.9,8,M"
"##MN-00 00 43 0308 02316 5624 445645 349485 204"
"151.677222"
"$GPGGA,161508,2507.0318,N,07917.5352,W,1,9,1.9,8,M"
"##MN-00 00 43 0309 02317 5623 445645 349484 204"
"151.677269"
"$GPGGA,161513,2507.0322,N,07917.5319,W,1,9,1.7,8,M"
"##MN-00 00 43 0310 02318 5622 445649 349484 204"
"151.677315"
"$GPGGA,161517,2507.0323,N,07917.5293,W,1,9,1.7,9,M"
"##MN-00 00 44 0311 02317 5621 445656 349485 204"
"151.677361"
"$GPGGA,161520,2507.0323,N,07917.5274,W,1,9,1.7,9,M"
"##MN-00 00 42 0311 02317 5620 445663 349487 204"
"151.677407"
"$GPGGA,161524,2507.0323,N,07917.5250,W,1,9,1.7,11,"
"##MN-00 00 43 0312 02315 5619 445665 349487 204"
"151.677454"
"$GPGGA,161529,2507.0320,N,07917.5223,W,1,9,1.7,12,"
"##MN-00 00 42 0313 02317 5618 445667 349488 204"
"151.677512"
"$GPGGA,161533,2507.0320,N,07917.5203,W,1,9,1.7,12,"
"##MN-00 00 42 0314 02321 5617 445673 349489 204"
"151.677558"
"$GPGGA,161537,2507.0319,N,07917.5177,W,1,9,1.7,13,"
"##MN-00 00 43 0314 02318 5615 445674 349489 204"
"151.677604"
"$GPGGA,161541,2507.0318,N,07917.5154,W,1,9,1.7,14,"
"##MN-00 00 42 0315 02317 5614 445677 349490 204"
"151.67765"
"$GPGGA,161545,2507.0314,N,07917.5133,W,1,9,1.7,14,"
"##MN-00 00 43 0316 02318 5613 445683 349491 204"
"151.677697"
"$GPGGA,161549,2507.0312,N,07917.5112,W,1,10,1.7,14"
"##MN+00 00 42 0317 02320 5612 445693 349493 204"
"151.677743"
"$GPGGA,161553,2507.0309,N,07917.5090,W,1,10,1.7,14"
"##MN+00 00 43 0318 02317 5611 445699 349494 204"
"151.677789"
"$GPGGA,161557,2507.0305,N,07917.5068,W,1,10,1.7,14"
"##MN+00 00 43 0319 02317 5610 445702 349495 204"
"151.677836"
"$GPGGA,161601,2507.0303,N,07917.5046,W,1,10,1.7,15"
"##MN-00 00 43 0320 02319 5609 445714 349498 204"
"151.677882"
"$GPGGA,161605,2507.0304,N,07917.5024,W,1,10,1.7,15"
"##MN-00 00 44 0320 02319 5607 445719 349499 204"
"151.677928"
"$GPGGA,161609,2507.0304,N,07917.5001,W,1,10,1.7,15"
"##MN-00 00 42 0321 02316 5606 445726 349500 204"
"151.677975"
"$GPGGA,161613,2507.0302,N,07917.4979,W,1,10,1.7,15"
"##MN+00 00 43 0322 02320 5605 445737 349501 204"
"151.678021"
"$GPGGA,161617,2507.0300,N,07917.4956,W,1,10,1.7,15"
"##MN+00 00 44 0323 02320 5605 445737 349501 204"
"151.678067"
"$GPGGA,161621,2507.0298,N,07917.4935,W,1,10,1.7,15"
"##MN+00 00 52 0324 02317 5604 445739 349503 204"
"151.678113"
"#increment_net"
"$GPGGA,161625,2507.0296,N,07917.4913,W,1,10,1.7,15"
"##MN-00 00 51 0325 02321 5603 445751 349503 204"
"151.67816"
"$GPGGA,161629,2507.0295,N,07917.4894,W,1,10,1.7,15"
"##MN-00 00 45 0326 02324 5602 445765 349505 204"
"151.678206"
"$GPGGA,161633,2507.0293,N,07917.4875,W,1,10,1.7,15"
"##MN-00 00 45 0327 02327 5600 445770 349507 204"
"151.678252"
"$GPGGA,161637,2507.0291,N,07917.4856,W,1,10,1.7,15"
"##MN-00 00 44 0328 02335 5599 445778 349507 204"
"151.678299"
"$GPGGA,161641,2507.0288,N,07917.4833,W,1,10,1.7,15"
"##MN-00 00 43 0329 02338 5598 445783 349506 204"
"151.678345"
"$GPGGA,161645,2507.0286,N,07917.4812,W,1,10,1.7,15"
"##MN-00 00 42 0331 02337 5596 445795 349507 204"
"151.678391"
"$GPGGA,161649,2507.0284,N,07917.4790,W,1,10,1.7,15"
"##MN-00 00 44 0332 02334 5595 445801 349509 204"
"151.678437"
"$GPGGA,161653,2507.0280,N,07917.4767,W,1,10,1.7,14"
"##MN-00 00 44 0333 02329 5594 445802 349510 204"
"151.678484"
"$GPGGA,161657,2507.0277,N,07917.4739,W,1,10,1.7,14"
"##MN-00 00 44 0334 02324 5593 445804 349513 204"
"151.67853"
"$GPGGA,161701,2507.0276,N,07917.4715,W,1,10,1.7,14"
"##MN-00 00 44 0336 02320 5592 445805 349515 204"
"151.678576"
"$GPGGA,161705,2507.0273,N,07917.4692,W,1,10,1.7,14"
"##MN-00 00 44 0337 02315 5591 445807 349517 204"
"151.678623"
"$GPGGA,161709,2507.0272,N,07917.4670,W,1,10,1.7,14"
"##MN-00 00 43 0338 02310 5590 445812 349517 204"
"151.678669"
"$GPGGA,161713,2507.0269,N,07917.4647,W,1,10,1.7,14"
"##MN-00 00 42 0339 02306 5589 445816 349520 204"
"151.678715"
"$GPGGA,161717,2507.0267,N,07917.4623,W,1,10,1.7,14"
"##MN-00 00 42 0341 02301 5588 445821 349523 204"
"151.678762"
"$GPGGA,161721,2507.0268,N,07917.4598,W,1,10,1.7,14"
"##MN-00 00 41 0342 02295 5587 445825 349525 204"
"151.678808"
"$GPGGA,161725,2507.0266,N,07917.4575,W,1,10,1.7,14"
"##MN-00 00 42 0343 02291 5586 445832 349529 204"
"151.678854"
"$GPGGA,161729,2507.0264,N,07917.4551,W,1,10,1.7,14"
"##MN-00 00 42 0344 02285 5585 445841 349533 204"
"151.6789"
"$GPGGA,161733,2507.0263,N,07917.4525,W,1,10,1.7,13"
"##MN-00 00 41 0346 02282 5584 445846 349536 204"
"151.678947"
"$GPGGA,161737,2507.0264,N,07917.4501,W,1,10,1.7,13"
"##MN-00 00 40 0347 02275 5583 445830 349535 204"
"151.678993"
"$GPGGA,161741,2507.0264,N,07917.4475,W,1,10,1.7,13"
"##MN-00 00 41 0348 02268 5582 445821 349534 204"
"151.679039"
"$GPGGA,161745,2507.0262,N,07917.4451,W,1,10,1.7,13"
"##MN-00 00 41 0349 02261 5581 445799 349530 204"
"151.679086"
"$GPGGA,161749,2507.0262,N,07917.4428,W,1,10,1.7,13"
"##MN-00 00 42 0351 02256 5580 445790 349528 204"
"151.679132"
"$GPGGA,161753,2507.0257,N,07917.4405,W,1,9,2.0,13,"
"##MN-00 00 43 0352 02248 5579 445800 349530 204"
"151.679178"
"$GPGGA,161757,2507.0253,N,07917.4382,W,1,9,2.0,14,"
"##MN-00 00 41 0353 02241 5578 445761 349526 204"
"151.679225"
"$GPGGA,161801,2507.0247,N,07917.4360,W,1,9,2.0,14,"
"##MN-00 00 41 0354 02237 5577 445659 349512 204"
"151.679271"
"$GPGGA,161805,2507.0244,N,07917.4338,W,1,9,2.0,15,"
"##MN-00 00 42 0356 02230 5577 445581 349496 204"
"151.679317"
"$GPGGA,161809,2507.0241,N,07917.4315,W,1,9,2.0,15,"
"##MN-00 00 41 0357 02226 5575 445363 349441 204"
"151.679363"
"$GPGGA,161813,2507.0240,N,07917.4291,W,1,9,2.0,16,"
"##MN-00 00 43 0358 02216 5574 444937 349314 204"
"151.67941"
"$GPGGA,161817,2507.0240,N,07917.4267,W,1,9,2.0,16,"
"##MN-00 00 42 0359 02211 5573 444852 349282 204"
"151.679456"
"$GPGGA,161821,2507.0240,N,07917.4245,W,1,9,2.0,16,"
"##MN-00 00 42 0361 02203 5572 444815 349284 204"
"151.679502"
"$GPGGA,161825,2507.0243,N,07917.4220,W,1,9,2.0,17,"
"##MN-00 00 40 0362 02199 5571 444772 349253 204"
"151.679549"
"$GPGGA,161829,2507.0240,N,07917.4200,W,1,9,2.0,17,"
"##MN-00 00 41 0363 02190 5570 444720 349244 204"
"151.679595"
"$GPGGA,161833,2507.0242,N,07917.4177,W,1,8,2.1,17,"
"##MN-00 00 38 0364 02184 5570 444661 349224 204"
"151.679641"
"$GPGGA,161837,2507.0243,N,07917.4150,W,1,8,2.1,17,"
"##MN-00 00 41 0366 02179 5568 444570 349203 204"
"151.679688"
"$GPGGA,161841,2507.0244,N,07917.4126,W,1,8,2.1,17,"
"##MN-00 00 41 0367 02173 5567 444487 349186 204"
"151.679734"
"$GPGGA,161845,2507.0244,N,07917.4103,W,1,9,2.0,17,"
"##MN-00 00 42 0368 02165 5566 444379 349178 204"
"151.67978"
"$GPGGA,161849,2507.0244,N,07917.4078,W,1,9,2.0,17,"
"##MN-00 00 43 0370 02155 5566 444330 349169 204"
"151.679826"
"$GPGGA,161853,2507.0244,N,07917.4054,W,1,9,2.0,17,"
"##MN-00 00 41 0371 02151 5564 444300 349161 204"
"151.679873"
"$GPGGA,161857,2507.0246,N,07917.4030,W,1,8,2.1,17,"
"##MN-00 00 40 0372 02148 5563 444247 349151 204"
"151.679919"
"$GPGGA,161901,2507.0244,N,07917.4007,W,1,9,2.0,17,"
"##MN-00 00 42 0373 02139 5563 444204 349140 204"
"151.679965"
"$GPGGA,161905,2507.0239,N,07917.3987,W,1,9,2.0,17,"
"##MN-00 00 41 0375 02132 5562 444186 349138 204"
"151.680012"
"$GPGGA,161909,2507.0239,N,07917.3963,W,1,8,2.1,17,"
"##MN-00 00 40 0376 02125 5561 444097 349119 204"
"151.680058"
"$GPGGA,161913,2507.0237,N,07917.3939,W,1,9,2.0,17,"
"##MN-00 00 40 0377 02121 5560 443932 349073 204"
"151.680104"
"$GPGGA,161917,2507.0235,N,07917.3917,W,1,9,2.0,17,"
"##MN-00 00 40 0378 02113 5559 443841 349039 204"
"151.68015"
"$GPGGA,161921,2507.0233,N,07917.3894,W,1,9,2.0,17,"
"##MN-00 00 40 0380 02106 5558 443660 348987 204"
"151.680197"
"$GPGGA,161925,2507.0233,N,07917.3870,W,1,9,2.0,17,"
"##MN-00 00 41 0381 02100 5557 443477 348949 204"
"151.680243"
"$GPGGA,161929,2507.0231,N,07917.3846,W,1,9,2.0,17,"
"##MN-00 00 41 0382 02094 5557 443284 348897 204"
"151.680289"
"$GPGGA,161933,2507.0233,N,07917.3822,W,1,9,2.0,17,"
"##MN-00 00 40 0383 02089 5555 443055 348842 204"
"151.680336"
"$GPGGA,161937,2507.0231,N,07917.3798,W,1,9,2.0,17,"
"##MN-00 00 43 0384 02081 5554 442765 348758 204"
"151.680382"
"$GPGGA,161941,2507.0233,N,07917.3773,W,1,9,2.1,17,"
"##MN-00 00 41 0386 02076 5554 442650 348720 204"
"151.680428"
"$GPGGA,161945,2507.0230,N,07917.3754,W,1,9,2.0,17,"
"##MN-00 00 39 0387 02070 5553 442580 348717 204"
"151.680475"
"$GPGGA,161949,2507.0228,N,07917.3733,W,1,9,2.0,17,"
"##MN-00 00 40 0388 02061 5552 442492 348700 204"
"151.680521"
"$GPGGA,161953,2507.0228,N,07917.3709,W,1,9,2.0,17,"
"##MN-00 00 39 0389 02056 5551 442422 348674 204"
"151.680567"
"$GPGGA,161957,2507.0228,N,07917.3684,W,1,8,2.0,17,"
"##MN-00 00 39 0391 02051 5550 442242 348637 204"
"151.680613"
"$GPGGA,162001,2507.0224,N,07917.3661,W,1,9,2.0,17,"
"##MN-00 00 40 0392 02046 5549 442123 348596 204"
"151.68066"
"$GPGGA,162006,2507.0222,N,07917.3632,W,1,9,2.0,16,"
"##MN-00 00 39 0393 02038 5548 442038 348553 204"
"151.680718"
"$GPGGA,162010,2507.0222,N,07917.3608,W,1,9,2.0,16,"
"##MN-00 00 39 0394 02030 5547 441957 348525 204"
"151.680764"
"$GPGGA,162014,2507.0220,N,07917.3583,W,1,9,2.0,16,"
"##MN-00 00 39 0395 02025 5547 441875 348490 204"
"151.68081"
"$GPGGA,162018,2507.0221,N,07917.3557,W,1,9,2.0,16,"
"##MN-00 00 38 0396 02019 5546 441775 348459 204"
"151.680856"
"$GPGGA,162022,2507.0222,N,07917.3530,W,1,9,2.0,16,"
"##MN-00 00 39 0398 02012 5545 441694 348435 204"
"151.680903"
"$GPGGA,162026,2507.0217,N,07917.3509,W,1,9,2.0,16,"
"##MN-00 00 38 0399 02004 5544 441646 348429 204"
"151.680949"
"$GPGGA,162030,2507.0215,N,07917.3487,W,1,9,2.0,16,"
"##MN-00 00 37 0400 01995 5543 441623 348404 204"
"151.680995"
"$GPGGA,162034,2507.0214,N,07917.3464,W,1,9,2.0,16,"
"##MN-00 00 38 0401 01987 5542 441588 348394 204"
"151.681042"
"$GPGGA,162038,2507.0212,N,07917.3440,W,1,9,2.1,16,"
"##MN-00 00 37 0402 01979 5542 441559 348383 204"
"151.681088"
"$GPGGA,162042,2507.0210,N,07917.3418,W,1,9,2.0,16,"
"##MN-00 00 36 0403 01974 5541 441541 348374 204"
"151.681134"
"$GPGGA,162046,2507.0210,N,07917.3393,W,1,9,2.0,16,"
"##MN-00 00 34 0404 01964 5540 441514 348362 204"
"151.681181"
"$GPGGA,162050,2507.0210,N,07917.3368,W,1,9,2.0,16,"
"##MN-00 00 36 0406 01959 5539 441493 348353 204"
"151.681227"
"$GPGGA,162054,2507.0209,N,07917.3344,W,1,9,2.0,16,"
"##MN-00 00 35 0407 01950 5539 441489 348351 204"
"151.681273"
"$GPGGA,162058,2507.0208,N,07917.3320,W,1,9,2.0,15,"
"##MN-00 00 34 0408 01942 5538 441452 348352 204"
"151.681319"
"$GPGGA,162102,2507.0208,N,07917.3295,W,1,9,2.0,15,"
"##MN-00 00 35 0409 01932 5537 441398 348349 204"
"151.681366"
"$GPGGA,162106,2507.0208,N,07917.3270,W,1,9,2.0,15,"
"##MN-00 00 35 0410 01926 5536 441364 348330 204"
"151.681412"
"$GPGGA,162110,2507.0207,N,07917.3245,W,1,9,2.0,15,"
"##MN-00 00 34 0411 01916 5536 441301 348311 204"
"151.681458"
"$GPGGA,162114,2507.0205,N,07917.3219,W,1,9,2.0,15,"
"##MN-00 00 36 0413 01906 5535 441277 348298 204"
"151.681505"
"$GPGGA,162118,2507.0204,N,07917.3194,W,1,9,2.0,15,"
"##MN-00 00 36 0414 01897 5534 441267 348344 204"
"151.681551"
"$GPGGA,162122,2507.0204,N,07917.3170,W,1,9,2.0,15,"
"##MN-00 00 36 0415 01892 5533 441250 348291 204"
"151.681597"
"$GPGGA,162126,2507.0201,N,07917.3145,W,1,9,2.0,15,"
"##MN-00 00 36 0416 01878 5533 441231 348289 204"
"151.681643"
"$GPGGA,162130,2507.0201,N,07917.3120,W,1,9,2.0,15,"
"##MN-00 00 38 0417 01867 5532 440987 348668 204"
"151.68169"
"$GPGGA,162134,2507.0201,N,07917.3095,W,1,9,2.0,15,"
"##MN-00 00 37 0418 01859 5531 440626 348315 204"
"151.681736"
"$GPGGA,162138,2507.0199,N,07917.3069,W,1,9,2.0,15,"
"##MN-00 00 37 0420 01854 5530 439863 347963 204"
"151.681782"
"$GPGGA,162142,2507.0199,N,07917.3044,W,1,9,2.0,15,"
"##MN-00 00 34 0421 01851 5530 439524 347789 204"
"151.681829"
"$GPGGA,162146,2507.0197,N,07917.3018,W,1,9,2.0,15,"
"##MN-00 00 38 0421 01851 5529 439481 347715 204"
