" Tow: 2Em-B   RVWS/WS1406"
" Date: 05/31/2014"
" Temperature Probe #  2597    Conductivity Probe #  2870"
" Pressure Probe #  109"
" Flow Meter Calibration  4.71 (m/count)  "
"151.887824"
"$GPGGA,211821,2509.1604,N,07913.6154,W,1,10,1.5,13"
"##MN-00 00 40 0088 01852 5682 000306 920313 204"
"151.88787"
"$GPGGA,211828,2509.1613,N,07913.6105,W,1,10,1.5,13"
"##MN-00 00 45 0088 01852 5683 434846 349279 204"
"151.887917"
"$GPGGA,211832,2509.1619,N,07913.6078,W,1,10,1.5,13"
"##MN-00 00 44 0089 01853 5683 434846 347811 204"
"151.887963"
"$GPGGA,211836,2509.1624,N,07913.6051,W,1,9,1.5,13,"
"##MN-00 00 46 0090 01851 5683 434859 346286 204"
"151.888009"
"$GPGGA,211840,2509.1631,N,07913.6026,W,1,10,1.5,13"
"##MN-00 00 48 0091 01852 5685 434869 359251 204"
"151.888056"
"$GPGGA,211844,2509.1637,N,07913.6002,W,1,10,1.5,13"
"##MN-00 00 46 0092 01853 5685 434889 347857 204"
"151.888102"
"$GPGGA,211848,2509.1642,N,07913.5979,W,1,10,1.5,13"
"##MN-00 00 48 0092 01851 5686 434882 349260 204"
"151.888148"
"$GPGGA,211852,2509.1648,N,07913.5956,W,1,10,1.5,13"
"##MN-00 00 49 0093 01853 5686 434888 346323 204"
"151.888194"
"$GPGGA,211856,2509.1653,N,07913.5932,W,1,10,1.5,12"
"##MN-00 00 51 0094 01861 5687 434875 346314 204"
"151.888241"
"$GPGGA,211900,2509.1660,N,07913.5908,W,1,10,1.5,12"
"##MN-00 00 52 0094 01869 5687 435076 346388 204"
"151.888287"
"$GPGGA,211904,2509.1667,N,07913.5886,W,1,10,1.5,12"
"##MN-00 00 52 0095 01881 5688 435207 346413 204"
"151.888345"
"$GPGGA,211908,2509.1674,N,07913.5862,W,1,10,1.5,12"
"##MN-00 00 51 0096 01890 5689 435583 346734 204"
"151.888391"
"$GPGGA,211912,2509.1681,N,07913.5839,W,1,10,1.5,13"
"##MN-00 00 51 0096 01898 5689 436614 347260 204"
"151.888438"
"$GPGGA,211916,2509.1688,N,07913.5816,W,1,10,1.5,13"
"##MN-00 00 51 0097 01906 5690 438153 347482 204"
"151.888484"
"$GPGGA,211920,2509.1695,N,07913.5793,W,1,10,1.5,13"
"##MN-00 00 51 0098 01917 5690 439005 347618 204"
"151.88853"
"$GPGGA,211924,2509.1700,N,07913.5770,W,1,10,1.5,13"
"##MN-00 00 50 0098 01925 5691 439183 347728 204"
"151.888576"
"$GPGGA,211928,2509.1709,N,07913.5747,W,1,10,1.5,13"
"##MN-00 00 50 0099 01932 5692 439894 347826 204"
"151.888623"
"$GPGGA,211932,2509.1716,N,07913.5723,W,1,10,1.5,13"
"##MN-00 00 49 0099 01940 5692 440060 347833 204"
"151.888669"
"$GPGGA,211936,2509.1722,N,07913.5699,W,1,10,1.5,13"
"##MN-00 00 49 0100 01947 5692 440313 347940 204"
"151.888715"
"$GPGGA,211940,2509.1729,N,07913.5675,W,1,10,1.5,13"
"##MN-00 00 48 0101 01952 5693 440622 348075 204"
"151.888762"
"$GPGGA,211944,2509.1734,N,07913.5650,W,1,10,1.5,13"
"##MN-00 00 49 0101 01959 5693 440715 348064 204"
"151.888808"
"$GPGGA,211948,2509.1740,N,07913.5625,W,1,9,1.5,13,"
"##MN-00 00 49 0102 01966 5693 440765 348054 204"
"151.888854"
"$GPGGA,211952,2509.1746,N,07913.5599,W,1,9,1.5,13,"
"##MN-00 00 49 0103 01972 5694 440809 347999 204"
"151.8889"
"$GPGGA,211956,2509.1753,N,07913.5574,W,1,9,1.5,13,"
"##MN-00 00 49 0104 01977 5694 440855 348032 204"
"151.888947"
"$GPGGA,212000,2509.1763,N,07913.5553,W,1,10,1.4,13"
"##MN-00 00 49 0104 01984 5694 440967 348101 204"
"151.888993"
"$GPGGA,212004,2509.1769,N,07913.5530,W,1,9,1.4,13,"
"##MN-00 00 51 0105 01988 5694 441115 348131 204"
"151.889039"
"$GPGGA,212008,2509.1776,N,07913.5506,W,1,10,1.4,14"
"##MN-00 00 50 0106 01995 5694 441245 348217 204"
"151.889086"
"$GPGGA,212012,2509.1783,N,07913.5480,W,1,10,1.4,14"
"##MN-00 00 50 0107 02000 5694 441334 348244 204"
"151.889132"
"$GPGGA,212016,2509.1787,N,07913.5454,W,1,10,1.4,15"
"##MN-00 00 51 0107 02007 5695 441381 348254 204"
"151.889178"
"$GPGGA,212021,2509.1794,N,07913.5421,W,1,10,1.4,15"
"##MN-00 00 51 0108 02011 5695 441421 348280 204"
"151.889225"
"$GPGGA,212025,2509.1801,N,07913.5394,W,1,10,1.4,16"
"##MN-00 00 51 0109 02017 5694 441511 348292 204"
"151.889271"
"$GPGGA,212029,2509.1805,N,07913.5368,W,1,10,1.4,16"
"##MN-00 00 52 0110 02023 5694 441600 348347 204"
"151.889317"
"$GPGGA,212033,2509.1808,N,07913.5340,W,1,10,1.4,16"
"##MN-00 00 52 0110 02032 5695 441654 348342 204"
"151.889363"
"$GPGGA,212037,2509.1812,N,07913.5316,W,1,9,1.4,17,"
"##MN-00 00 51 0111 02034 5694 441761 348394 204"
"151.88941"
"$GPGGA,212041,2509.1821,N,07913.5290,W,1,10,1.4,17"
"##MN-00 00 52 0112 02040 5694 441880 348447 204"
"151.889456"
"$GPGGA,212045,2509.1823,N,07913.5268,W,1,10,1.4,18"
"##MN-00 00 52 0113 02048 5694 441965 348450 204"
"151.889502"
"$GPGGA,212049,2509.1823,N,07913.5247,W,1,9,1.5,18,"
"##MN-00 00 52 0114 02055 5694 442026 348485 204"
"151.889549"
"$GPGGA,212053,2509.1823,N,07913.5225,W,1,9,1.5,19,"
"##MN-00 00 53 0114 02061 5694 442086 348486 204"
"151.889595"
"$GPGGA,212057,2509.1826,N,07913.5198,W,1,10,1.5,20"
"##MN-00 00 53 0115 02065 5694 442119 348510 204"
"151.889641"
"$GPGGA,212101,2509.1826,N,07913.5175,W,1,9,1.5,21,"
"##MN-00 00 51 0116 02072 5693 442131 348517 204"
"151.889688"
"$GPGGA,212105,2509.1828,N,07913.5149,W,1,9,1.5,21,"
"##MN-00 00 52 0117 02078 5694 442135 348531 204"
"151.889734"
"$GPGGA,212109,2509.1827,N,07913.5124,W,1,9,1.4,22,"
"##MN-00 00 53 0118 02085 5693 442134 348529 204"
"151.88978"
"$GPGGA,212113,2509.1826,N,07913.5102,W,1,10,1.4,22"
"##MN-00 00 53 0118 02091 5693 442135 348525 204"
"151.889826"
"$GPGGA,212117,2509.1829,N,07913.5075,W,1,10,1.4,22"
"##MN-00 00 53 0119 02094 5692 442139 348526 204"
"151.889873"
"$GPGGA,212121,2509.1831,N,07913.5049,W,1,9,1.4,23,"
"##MN-00 00 53 0120 02101 5692 442141 348530 204"
"151.889919"
"$GPGGA,212125,2509.1839,N,07913.5021,W,1,11,1.2,22"
"##MN-00 00 54 0121 02108 5692 442142 348531 204"
"151.889965"
"$GPGGA,212129,2509.1843,N,07913.4991,W,1,11,1.2,22"
"##MN-00 00 53 0121 02114 5692 442151 348534 204"
"151.890012"
"$GPGGA,212133,2509.1848,N,07913.4963,W,1,11,1.2,22"
"##MN-00 00 49 0122 02110 5691 442166 348539 204"
"151.890058"
"$GPGGA,212137,2509.1850,N,07913.4935,W,1,9,1.2,22,"
"##MN-00 00 49 0123 02111 5691 442177 348541 204"
"151.890104"
"$GPGGA,212141,2509.1855,N,07913.4908,W,1,10,1.2,22"
"##MN-00 00 49 0124 02110 5691 442177 348541 204"
"151.89015"
"$GPGGA,212145,2509.1858,N,07913.4882,W,1,10,1.4,22"
"##MN-00 00 50 0125 02109 5690 442176 348542 204"
"151.890197"
"$GPGGA,212149,2509.1862,N,07913.4858,W,1,10,1.4,21"
"##MN-00 00 49 0126 02107 5690 442184 348545 204"
"151.890243"
"$GPGGA,212153,2509.1866,N,07913.4833,W,1,10,1.4,21"
"##MN-00 00 49 0127 02108 5689 442209 348546 204"
"151.890289"
"$GPGGA,212157,2509.1870,N,07913.4807,W,1,11,1.2,21"
"##MN-00 00 51 0128 02107 5689 442227 348552 204"
"151.890336"
"$GPGGA,212201,2509.1872,N,07913.4783,W,1,11,1.2,20"
"##MN-00 00 51 0129 02106 5688 442257 348557 204"
"151.890382"
"$GPGGA,212205,2509.1875,N,07913.4756,W,1,11,1.4,20"
"##MN-00 00 50 0130 02109 5688 442284 348562 204"
"151.890428"
"$GPGGA,212209,2509.1877,N,07913.4737,W,1,11,1.2,20"
"##MN-00 00 50 0131 02109 5687 442293 348568 204"
"151.890475"
"$GPGGA,212213,2509.1878,N,07913.4706,W,1,11,1.2,20"
"##MN-00 00 50 0132 02110 5687 442306 348573 204"
"151.890521"
"$GPGGA,212217,2509.1880,N,07913.4685,W,1,11,1.2,19"
"##MN-00 00 51 0133 02111 5686 442317 348572 204"
"151.890567"
"$GPGGA,212221,2509.1882,N,07913.4665,W,1,10,1.4,19"
"##MN-00 00 50 0134 02113 5686 442328 348578 204"
"151.890613"
"$GPGGA,212225,2509.1882,N,07913.4647,W,1,10,1.3,19"
"##MN-00 00 50 0134 02113 5685 442335 348578 204"
"151.89066"
"$GPGGA,212229,2509.1886,N,07913.4623,W,1,11,1.2,19"
"##MN-00 00 49 0135 02112 5685 442334 348579 204"
"151.890706"
"$GPGGA,212233,2509.1891,N,07913.4599,W,1,10,1.3,20"
"##MN-00 00 49 0136 02113 5684 442334 348579 204"
"151.890752"
"$GPGGA,212237,2509.1890,N,07913.4581,W,1,10,1.3,20"
"##MN-00 00 51 0137 02115 5684 442340 348584 204"
"151.890799"
"$GPGGA,212241,2509.1893,N,07913.4560,W,1,9,1.4,20,"
"##MN+00 00 49 0138 02116 5683 442333 348584 204"
"151.890845"
"$GPGGA,212245,2509.1891,N,07913.4537,W,1,11,1.2,21"
"##MN+00 00 49 0139 02117 5683 442318 348582 204"
"151.890891"
"$GPGGA,212249,2509.1894,N,07913.4512,W,1,11,1.2,21"
"##MN+00 00 50 0140 02117 5682 442310 348580 204"
"151.890937"
"$GPGGA,212253,2509.1895,N,07913.4487,W,1,11,1.2,21"
"##MN-00 00 50 0141 02117 5681 442305 348578 204"
"151.890984"
"$GPGGA,212257,2509.1898,N,07913.4462,W,1,11,1.2,21"
"##MN-00 00 49 0142 02115 5680 442307 348577 204"
"151.89103"
"$GPGGA,212301,2509.1902,N,07913.4438,W,1,10,1.3,21"
"##MN-00 00 51 0143 02117 5680 442317 348579 204"
"151.891076"
"$GPGGA,212305,2509.1909,N,07913.4412,W,1,11,1.2,21"
"##MN+00 00 49 0144 02116 5679 442344 348583 204"
"151.891123"
"$GPGGA,212309,2509.1913,N,07913.4388,W,1,9,1.4,21,"
"##MN+00 00 49 0145 02118 5678 442373 348590 203"
"151.891169"
"$GPGGA,212313,2509.1917,N,07913.4366,W,1,10,1.3,21"
"##MN+00 00 60 0145 02122 5678 442426 348598 204"
"151.891215"
"#increment_net"
"$GPGGA,212317,2509.1917,N,07913.4345,W,1,10,1.3,21"
"##MN-00 00 57 0146 02123 5677 442543 348607 204"
"151.891262"
"$GPGGA,212321,2509.1920,N,07913.4324,W,1,9,1.6,21,"
"##MN-00 00 52 0147 02120 5676 442671 348659 204"
"151.891308"
"$GPGGA,212325,2509.1917,N,07913.4305,W,1,10,1.3,21"
"##MN-00 00 49 0148 02123 5676 442719 348671 204"
"151.891354"
"$GPGGA,212329,2509.1926,N,07913.4276,W,1,10,1.3,21"
"##MN-00 00 49 0149 02121 5675 442723 348672 204"
"151.8914"
"$GPGGA,212333,2509.1927,N,07913.4254,W,1,9,1.6,21,"
"##MN-00 00 49 0150 02120 5674 442704 348681 204"
"151.891458"
"$GPGGA,212337,2509.1927,N,07913.4234,W,1,10,1.3,21"
"##MN-00 00 50 0151 02121 5674 442616 348672 204"
"151.891505"
"$GPGGA,212341,2509.1931,N,07913.4210,W,1,11,1.2,21"
"##MN-00 00 50 0152 02121 5673 442512 348663 204"
"151.891551"
"$GPGGA,212345,2509.1934,N,07913.4188,W,1,10,1.3,21"
"##MN-00 00 49 0153 02121 5672 442429 348645 204"
"151.891597"
"$GPGGA,212349,2509.1937,N,07913.4164,W,1,11,1.2,21"
"##MN-00 00 49 0154 02122 5671 442414 348630 204"
"151.891644"
"$GPGGA,212353,2509.1938,N,07913.4143,W,1,10,1.3,21"
"##MN-00 00 49 0155 02119 5670 442423 348622 203"
"151.89169"
"$GPGGA,212357,2509.1941,N,07913.4123,W,1,10,1.3,21"
"##MN-00 00 49 0155 02121 5670 442479 348629 204"
"151.891736"
"$GPGGA,212401,2509.1942,N,07913.4101,W,1,11,1.2,21"
"##MN-00 00 49 0156 02120 5669 442545 348639 204"
"151.891782"
"$GPGGA,212405,2509.1946,N,07913.4076,W,1,11,1.2,21"
"##MN-00 00 49 0157 02118 5669 442626 348663 204"
"151.891829"
"$GPGGA,212409,2509.1949,N,07913.4052,W,1,10,1.3,20"
"##MN-00 00 50 0158 02120 5668 442686 348667 204"
"151.891875"
"$GPGGA,212413,2509.1951,N,07913.4029,W,1,10,1.3,20"
"##MN-00 00 50 0159 02121 5667 442740 348680 203"
"151.891921"
"$GPGGA,212417,2509.1953,N,07913.4006,W,1,10,1.3,20"
"##MN-00 00 49 0160 02121 5666 442794 348684 203"
"151.891968"
"$GPGGA,212421,2509.1956,N,07913.3983,W,1,10,1.3,20"
"##MN-00 00 49 0161 02114 5665 442842 348695 204"
"151.892014"
"$GPGGA,212425,2509.1956,N,07913.3958,W,1,9,1.5,20,"
"##MN-00 00 49 0162 02115 5665 442868 348707 203"
"151.89206"
"$GPGGA,212429,2509.1959,N,07913.3936,W,1,11,1.2,21"
"##MN-00 00 51 0163 02118 5664 442882 348724 203"
"151.892106"
"$GPGGA,212433,2509.1964,N,07913.3912,W,1,10,1.3,20"
"##MN-00 00 49 0164 02116 5663 442895 348729 203"
"151.892153"
"$GPGGA,212437,2509.1966,N,07913.3888,W,1,9,1.4,21,"
"##MN-00 00 50 0165 02117 5662 442933 348749 204"
"151.892199"
"$GPGGA,212442,2509.1969,N,07913.3857,W,1,11,1.3,21"
"##MN-00 00 49 0166 02116 5661 442943 348756 203"
"151.892245"
"$GPGGA,212445,2509.1971,N,07913.3838,W,1,11,1.2,21"
"##MN-00 00 49 0167 02115 5661 442951 348757 203"
"151.892292"
"$GPGGA,212449,2509.1977,N,07913.3814,W,1,9,1.4,21,"
"##MN+00 00 49 0167 02114 5660 442966 348765 203"
"151.892338"
"$GPGGA,212453,2509.1980,N,07913.3790,W,1,9,1.4,21,"
"##MN+00 00 50 0168 02115 5659 443005 348772 203"
"151.892384"
"$GPGGA,212457,2509.1984,N,07913.3767,W,1,9,1.3,21,"
"##MN+00 00 50 0169 02114 5658 443030 348782 203"
"151.892431"
"$GPGGA,212502,2509.1991,N,07913.3738,W,1,9,1.4,21,"
"##MN-00 00 50 0170 02114 5657 443020 348782 203"
"151.892477"
"$GPGGA,212505,2509.1989,N,07913.3717,W,1,10,1.2,21"
"##MN-00 00 50 0171 02115 5656 443029 348784 204"
"151.892523"
"$GPGGA,212510,2509.1993,N,07913.3690,W,1,9,1.4,21,"
"##MN-00 00 49 0172 02117 5656 443019 348786 204"
"151.892569"
"$GPGGA,212514,2509.2002,N,07913.3666,W,1,9,1.4,21,"
"##MN-00 00 49 0173 02115 5655 443021 348787 204"
"151.892616"
"$GPGGA,212518,2509.2002,N,07913.3639,W,1,10,1.4,22"
"##MN+00 00 51 0174 02114 5654 443032 348788 203"
"151.892662"
"$GPGGA,212522,2509.2007,N,07913.3616,W,1,9,1.2,22,"
"##MN+00 00 50 0175 02113 5653 443036 348794 203"
"151.892708"
"$GPGGA,212526,2509.2010,N,07913.3593,W,1,9,1.2,22,"
"##MN+00 00 60 0176 02116 5652 443058 348799 203"
"151.892755"
"#increment_net"
"$GPGGA,212530,2509.2010,N,07913.3569,W,1,10,1.2,22"
"##MN-00 00 56 0177 02116 5651 443123 348807 203"
"151.892801"
"$GPGGA,212534,2509.2013,N,07913.3545,W,1,9,1.2,23,"
"##MN-00 00 51 0178 02115 5651 443197 348833 203"
"151.892847"
"$GPGGA,212538,2509.2014,N,07913.3520,W,1,10,1.3,23"
"##MN-00 00 50 0178 02116 5649 443135 348835 203"
"151.892894"
"$GPGGA,212542,2509.2017,N,07913.3502,W,1,9,1.2,23,"
"##MN-00 00 49 0179 02115 5649 443070 348818 203"
"151.89294"
"$GPGGA,212546,2509.2021,N,07913.3481,W,1,9,1.2,23,"
"##MN-00 00 48 0180 02118 5648 443040 348813 203"
"151.892986"
"$GPGGA,212550,2509.2028,N,07913.3459,W,1,10,1.2,23"
"##MN-00 00 48 0181 02118 5647 443023 348803 203"
"151.893032"
"$GPGGA,212554,2509.2032,N,07913.3436,W,1,10,1.4,23"
"##MN-00 00 48 0182 02119 5646 443016 348802 203"
"151.893079"
"$GPGGA,212558,2509.2036,N,07913.3412,W,1,10,1.2,23"
"##MN-00 00 48 0183 02119 5645 443015 348796 203"
"151.893125"
"$GPGGA,212602,2509.2039,N,07913.3388,W,1,10,1.3,23"
"##MN-00 00 47 0184 02119 5644 443015 348793 203"
"151.893171"
"$GPGGA,212606,2509.2043,N,07913.3365,W,1,10,1.2,22"
"##MN-00 00 48 0185 02119 5643 443014 348793 203"
"151.893218"
"$GPGGA,212610,2509.2047,N,07913.3342,W,1,10,1.3,22"
"##MN-00 00 47 0186 02118 5643 443006 348792 203"
"151.893264"
"$GPGGA,212614,2509.2049,N,07913.3322,W,1,10,1.2,22"
"##MN-00 00 48 0187 02119 5642 443001 348790 203"
"151.89331"
"$GPGGA,212618,2509.2050,N,07913.3298,W,1,10,1.3,22"
"##MN-00 00 48 0188 02117 5641 443007 348790 203"
"151.893356"
"$GPGGA,212622,2509.2056,N,07913.3272,W,1,9,1.2,22,"
"##MN-00 00 47 0188 02117 5640 443014 348791 203"
"151.893403"
"$GPGGA,212626,2509.2058,N,07913.3248,W,1,9,1.2,22,"
"##MN-00 00 48 0189 02117 5639 443006 348789 203"
"151.893449"
"$GPGGA,212630,2509.2061,N,07913.3224,W,1,10,1.2,21"
"##MN-00 00 48 0190 02117 5638 442985 348786 203"
"151.893495"
"$GPGGA,212634,2509.2065,N,07913.3200,W,1,10,1.3,21"
"##MN-00 00 48 0191 02119 5637 442967 348785 203"
"151.893542"
"$GPGGA,212638,2509.2070,N,07913.3177,W,1,10,1.2,21"
"##MN-00 00 48 0192 02115 5637 442957 348779 203"
"151.893588"
"$GPGGA,212642,2509.2069,N,07913.3153,W,1,9,1.2,20,"
"##MN-00 00 47 0193 02117 5636 442948 348776 203"
"151.893634"
"$GPGGA,212646,2509.2072,N,07913.3129,W,1,10,1.2,20"
"##MN-00 00 48 0194 02116 5635 442931 348777 203"
"151.893681"
"$GPGGA,212650,2509.2074,N,07913.3105,W,1,9,1.2,20,"
"##MN-00 00 48 0195 02115 5634 442925 348776 203"
"151.893727"
"$GPGGA,212654,2509.2076,N,07913.3081,W,1,10,1.2,20"
"##MN-00 00 48 0196 02114 5633 442917 348769 203"
"151.893773"
"$GPGGA,212658,2509.2081,N,07913.3057,W,1,10,1.2,20"
"##MN-00 00 48 0197 02115 5632 442911 348765 203"
"151.893819"
"$GPGGA,212702,2509.2085,N,07913.3032,W,1,10,1.2,20"
"##MN+00 00 48 0198 02113 5631 442912 348762 203"
"151.893866"
"$GPGGA,212706,2509.2089,N,07913.3008,W,1,10,1.2,20"
"##MN+00 00 48 0199 02113 5631 442912 348760 203"
"151.893912"
"$GPGGA,212710,2509.2094,N,07913.2986,W,1,10,1.4,20"
"##MN+00 00 47 0200 02114 5629 442921 348761 203"
"151.893958"
"$GPGGA,212714,2509.2094,N,07913.2959,W,1,10,1.2,19"
"##MN-00 00 48 0201 02114 5629 442931 348762 203"
"151.894005"
"$GPGGA,212718,2509.2097,N,07913.2935,W,1,10,1.2,19"
"##MN-00 00 48 0201 02113 5628 442929 348762 203"
"151.894051"
"$GPGGA,212722,2509.2100,N,07913.2912,W,1,9,1.2,19,"
"##MN-00 00 49 0202 02113 5627 442901 348755 203"
"151.894097"
"$GPGGA,212726,2509.2101,N,07913.2892,W,1,8,1.2,19,"
"##MN-00 00 48 0203 02112 5626 442863 348750 203"
"151.894144"
"$GPGGA,212730,2509.2102,N,07913.2871,W,1,9,1.3,19,"
"##MN-00 00 49 0204 02112 5625 442837 348746 203"
"151.89419"
"$GPGGA,212734,2509.2104,N,07913.2850,W,1,10,1.3,19"
"##MN-00 00 48 0205 02112 5624 442801 348742 203"
"151.894236"
"$GPGGA,212738,2509.2105,N,07913.2827,W,1,9,1.3,19,"
"##MN+00 00 49 0206 02111 5624 442783 348732 203"
"151.894282"
"$GPGGA,212742,2509.2108,N,07913.2802,W,1,9,1.3,19,"
"##MN+00 00 49 0207 02111 5623 442771 348731 203"
"151.894329"
"$GPGGA,212746,2509.2111,N,07913.2779,W,1,10,1.3,19"
"##MN+00 00 59 0208 02113 5622 442742 348716 203"
"151.894375"
"#increment_net"
"$GPGGA,212750,2509.2114,N,07913.2754,W,1,10,1.2,19"
"##MN-00 00 54 0209 02110 5621 442746 348708 203"
"151.894421"
"$GPGGA,212754,2509.2116,N,07913.2729,W,1,9,1.3,19,"
"##MN-00 00 50 0210 02109 5620 442735 348706 203"
"151.894468"
"$GPGGA,212758,2509.2117,N,07913.2707,W,1,10,1.2,18"
"##MN-00 00 47 0211 02110 5619 442718 348703 203"
"151.894514"
"$GPGGA,212802,2509.2119,N,07913.2683,W,1,9,1.3,18,"
"##MN-00 00 47 0212 02108 5618 442691 348698 203"
"151.89456"
"$GPGGA,212806,2509.2122,N,07913.2659,W,1,9,1.3,18,"
"##MN-00 00 47 0213 02108 5617 442645 348693 203"
"151.894618"
"$GPGGA,212810,2509.2126,N,07913.2635,W,1,10,1.2,18"
"##MN-00 00 47 0214 02106 5616 442613 348675 203"
"151.894664"
"$GPGGA,212814,2509.2129,N,07913.2610,W,1,10,1.3,18"
"##MN-00 00 46 0215 02107 5616 442585 348671 203"
"151.894711"
"$GPGGA,212818,2509.2130,N,07913.2585,W,1,10,1.3,18"
"##MN-00 00 46 0216 02105 5615 442567 348665 203"
"151.894757"
"$GPGGA,212822,2509.2132,N,07913.2560,W,1,9,1.6,18,"
"##MN-00 00 46 0217 02106 5613 442541 348652 203"
"151.894803"
"$GPGGA,212826,2509.2130,N,07913.2539,W,1,10,1.6,18"
"##MN-00 00 46 0218 02105 5613 442514 348643 203"
"151.89485"
"$GPGGA,212830,2509.2130,N,07913.2518,W,1,10,1.2,18"
"##MN-00 00 46 0219 02104 5612 442483 348636 203"
"151.894896"
"$GPGGA,212834,2509.2132,N,07913.2495,W,1,10,1.2,18"
"##MN-00 00 48 0220 02109 5611 442467 348633 203"
"151.894942"
"$GPGGA,212838,2509.2136,N,07913.2469,W,1,10,1.2,19"
"##MN-00 00 46 0221 02110 5611 442470 348629 203"
"151.894988"
"$GPGGA,212842,2509.2139,N,07913.2443,W,1,10,1.2,19"
"##MN-00 00 46 0222 02107 5610 442475 348627 203"
"151.895035"
"$GPGGA,212846,2509.2144,N,07913.2418,W,1,10,1.2,19"
"##MN-00 00 46 0223 02106 5609 442478 348625 203"
"151.895081"
"$GPGGA,212850,2509.2148,N,07913.2392,W,1,10,1.2,19"
"##MN-00 00 47 0224 02105 5608 442481 348625 203"
"151.895127"
"$GPGGA,212854,2509.2154,N,07913.2364,W,1,9,1.2,19,"
"##MN-00 00 47 0225 02106 5607 442483 348625 203"
"151.895174"
"$GPGGA,212858,2509.2159,N,07913.2339,W,1,10,1.2,19"
"##MN-00 00 48 0226 02108 5606 442503 348627 203"
"151.89522"
"$GPGGA,212902,2509.2166,N,07913.2311,W,1,10,1.2,18"
"##MN-00 00 49 0227 02111 5605 442538 348634 203"
"151.895266"
"$GPGGA,212906,2509.2172,N,07913.2285,W,1,10,1.2,18"
"##MN-00 00 48 0227 02110 5605 442584 348651 203"
"151.895312"
"$GPGGA,212910,2509.2177,N,07913.2260,W,1,9,1.2,18,"
"##MN-00 00 48 0228 02113 5604 442662 348664 203"
"151.895359"
"$GPGGA,212914,2509.2180,N,07913.2237,W,1,10,1.2,18"
"##MN-00 00 46 0229 02114 5603 442714 348675 203"
"151.895405"
"$GPGGA,212918,2509.2187,N,07913.2212,W,1,10,1.2,18"
"##MN+00 00 48 0230 02114 5602 442735 348688 203"
"151.895451"
"$GPGGA,212922,2509.2193,N,07913.2187,W,1,9,1.2,18,"
"##MN+00 00 47 0231 02115 5601 442713 348687 203"
"151.895498"
"$GPGGA,212926,2509.2198,N,07913.2167,W,1,9,1.2,18,"
"##MN+00 00 47 0232 02116 5600 442687 348683 203"
"151.895544"
"$GPGGA,212930,2509.2206,N,07913.2135,W,1,9,1.2,18,"
"##MN-00 00 46 0233 02116 5600 442667 348679 203"
"151.89559"
"$GPGGA,212934,2509.2215,N,07913.2109,W,1,9,1.2,18,"
"##MN-00 00 47 0234 02118 5599 442665 348678 203"
"151.895637"
"$GPGGA,212938,2509.2220,N,07913.2082,W,1,9,1.2,17,"
"##MN+00 00 47 0235 02120 5598 442672 348680 203"
"151.895683"
"$GPGGA,212943,2509.2227,N,07913.2050,W,1,9,1.2,17,"
"##MN+00 00 47 0236 02118 5597 442691 348681 203"
"151.895729"
"$GPGGA,212947,2509.2233,N,07913.2024,W,1,10,1.2,18"
"##MN+00 00 58 0237 02123 5596 442738 348687 203"
"151.895775"
"#increment_net"
"$GPGGA,212951,2509.2238,N,07913.1998,W,1,9,1.2,18,"
"##MN-00 00 53 0238 02124 5595 442803 348706 203"
"151.895822"
"$GPGGA,212955,2509.2245,N,07913.1974,W,1,9,1.2,18,"
"##MN-00 00 49 0239 02121 5595 442874 348728 203"
"151.895868"
"$GPGGA,212959,2509.2252,N,07913.1951,W,1,10,1.2,18"
"##MN-00 00 48 0240 02124 5595 442913 348736 203"
"151.895914"
"$GPGGA,213003,2509.2259,N,07913.1927,W,1,10,1.2,18"
"##MN-00 00 47 0241 02123 5594 442897 348742 203"
"151.895961"
"$GPGGA,213007,2509.2267,N,07913.1901,W,1,10,1.2,18"
"##MN-00 00 46 0242 02122 5593 442873 348739 203"
"151.896007"
"$GPGGA,213011,2509.2274,N,07913.1876,W,1,9,1.2,18,"
"##MN-00 00 47 0243 02125 5592 442847 348736 203"
"151.896053"
"$GPGGA,213015,2509.2278,N,07913.1855,W,1,10,1.2,18"
"##MN-00 00 48 0244 02122 5591 442857 348739 203"
"151.8961"
"$GPGGA,213019,2509.2285,N,07913.1829,W,1,10,1.2,18"
"##MN-00 00 46 0245 02126 5591 442878 348744 203"
"151.896146"
"$GPGGA,213023,2509.2294,N,07913.1804,W,1,10,1.2,18"
"##MN-00 00 45 0245 02121 5589 442837 348740 203"
"151.896192"
"$GPGGA,213027,2509.2299,N,07913.1783,W,1,10,1.2,18"
"##MN-00 00 46 0246 02120 5589 442773 348725 203"
"151.896238"
"$GPGGA,213031,2509.2305,N,07913.1760,W,1,10,1.2,18"
"##MN-00 00 46 0247 02118 5588 442730 348708 203"
"151.896285"
"$GPGGA,213035,2509.2311,N,07913.1737,W,1,10,1.2,18"
"##MN-00 00 46 0248 02122 5587 442689 348697 203"
"151.896331"
"$GPGGA,213039,2509.2318,N,07913.1713,W,1,10,1.2,18"
"##MN-00 00 46 0249 02119 5586 442681 348695 203"
"151.896377"
"$GPGGA,213043,2509.2325,N,07913.1689,W,1,9,1.2,18,"
"##MN-00 00 46 0250 02121 5585 442686 348692 203"
"151.896424"
"$GPGGA,213047,2509.2335,N,07913.1665,W,1,9,1.2,18,"
"##MN-00 00 46 0251 02122 5585 442695 348690 203"
"151.89647"
"$GPGGA,213051,2509.2342,N,07913.1640,W,1,10,1.2,17"
"##MN-00 00 46 0252 02121 5584 442708 348692 203"
"151.896516"
"$GPGGA,213055,2509.2350,N,07913.1616,W,1,10,1.2,17"
"##MN-00 00 46 0253 02122 5583 442719 348694 203"
"151.896562"
"$GPGGA,213059,2509.2356,N,07913.1593,W,1,9,1.2,17,"
"##MN-00 00 46 0254 02122 5582 442720 348695 203"
"151.896609"
"$GPGGA,213103,2509.2363,N,07913.1569,W,1,10,1.2,17"
"##MN-00 00 46 0255 02125 5582 442705 348692 203"
"151.896655"
"$GPGGA,213107,2509.2367,N,07913.1543,W,1,10,1.2,17"
"##MN-00 00 46 0256 02124 5581 442652 348679 203"
"151.896701"
"$GPGGA,213111,2509.2372,N,07913.1519,W,1,10,1.2,17"
"##MN-00 00 46 0257 02121 5580 442599 348670 203"
"151.896748"
"$GPGGA,213115,2509.2378,N,07913.1494,W,1,10,1.2,17"
"##MN-00 00 46 0258 02123 5579 442535 348658 203"
"151.896794"
"$GPGGA,213119,2509.2386,N,07913.1468,W,1,10,1.2,17"
"##MN+00 00 46 0258 02123 5579 442469 348646 203"
"151.89684"
"$GPGGA,213123,2509.2392,N,07913.1445,W,1,10,1.2,17"
"##MN+00 00 46 0259 02125 5578 442428 348624 203"
"151.896887"
"$GPGGA,213127,2509.2399,N,07913.1422,W,1,9,1.2,17,"
"##MN+00 00 46 0260 02125 5577 442391 348616 203"
"151.896933"
"$GPGGA,213131,2509.2404,N,07913.1399,W,1,9,1.2,17,"
"##MN-00 00 46 0261 02124 5576 442339 348611 203"
"151.896979"
"$GPGGA,213135,2509.2411,N,07913.1375,W,1,9,1.2,17,"
"##MN-00 00 46 0262 02125 5576 442272 348595 203"
"151.897025"
"$GPGGA,213139,2509.2419,N,07913.1352,W,1,9,1.2,17,"
"##MN-00 00 45 0263 02121 5575 442219 348592 203"
"151.897072"
"$GPGGA,213143,2509.2429,N,07913.1329,W,1,8,1.4,17,"
"##MN+00 00 45 0264 02122 5574 442166 348583 203"
"151.897118"
"$GPGGA,213147,2509.2436,N,07913.1307,W,1,9,1.2,17,"
"##MN+00 00 45 0265 02120 5573 442101 348567 203"
"151.897164"
"$GPGGA,213151,2509.2440,N,07913.1285,W,1,10,1.2,17"
"##MN+00 00 57 0266 02124 5573 442040 348551 203"
"151.897211"
"#increment_net"
"$GPGGA,213155,2509.2448,N,07913.1261,W,1,9,1.2,17,"
"##MN-00 00 54 0267 02124 5572 442016 348544 203"
"151.897257"
"$GPGGA,213159,2509.2455,N,07913.1237,W,1,10,1.2,17"
"##MN-00 00 50 0268 02129 5571 442007 348534 203"
"151.897303"
"$GPGGA,213203,2509.2462,N,07913.1214,W,1,10,1.2,16"
"##MN-00 00 49 0269 02130 5570 442032 348535 203"
"151.89735"
"$GPGGA,213207,2509.2468,N,07913.1190,W,1,10,1.2,16"
"##MN-00 00 47 0271 02139 5568 442104 348538 203"
"151.897396"
"$GPGGA,213211,2509.2473,N,07913.1166,W,1,10,1.2,16"
"##MN-00 00 45 0272 02141 5568 442323 348561 203"
"151.897442"
"$GPGGA,213215,2509.2478,N,07913.1142,W,1,10,1.2,16"
"##MN-00 00 45 0273 02139 5567 442687 348656 203"
"151.897488"
"$GPGGA,213219,2509.2484,N,07913.1118,W,1,10,1.2,16"
"##MN-00 00 45 0275 02139 5567 442817 348713 203"
"151.897535"
"$GPGGA,213223,2509.2491,N,07913.1093,W,1,10,1.2,16"
"##MN-00 00 45 0276 02136 5566 442790 348715 203"
"151.897581"
"$GPGGA,213227,2509.2498,N,07913.1069,W,1,10,1.2,16"
"##MN-00 00 44 0277 02133 5565 442690 348692 203"
"151.897627"
"$GPGGA,213231,2509.2504,N,07913.1045,W,1,10,1.2,16"
"##MN-00 00 45 0278 02129 5564 442544 348659 203"
"151.897674"
"$GPGGA,213235,2509.2511,N,07913.1020,W,1,10,1.2,16"
"##MN-00 00 45 0280 02127 5564 442307 348630 203"
"151.89772"
"$GPGGA,213239,2509.2518,N,07913.0995,W,1,10,1.2,16"
"##MN-00 00 44 0281 02126 5563 442127 348575 203"
"151.897766"
"$GPGGA,213243,2509.2523,N,07913.0969,W,1,9,1.3,16,"
"##MN-00 00 44 0282 02122 5562 442024 348545 203"
"151.897813"
"$GPGGA,213247,2509.2528,N,07913.0943,W,1,8,1.3,17,"
"##MN-00 00 44 0283 02119 5561 441966 348532 203"
"151.897801"
"$GPGGA,213251,2509.2540,N,07913.0916,W,1,10,1.2,17"
"##MN-00 00 44 0286 02115 5560 441927 348526 203"
"151.897847"
"$GPGGA,213259,2509.2552,N,07913.0864,W,1,10,1.2,16"
"##MN-00 00 44 0287 02108 5559 441896 348524 203"
"151.897894"
"$GPGGA,213303,2509.2559,N,07913.0839,W,1,10,1.2,16"
"##MN-00 00 43 0288 02108 5559 441856 348511 203"
"151.89794"
"$GPGGA,213307,2509.2566,N,07913.0813,W,1,10,1.2,16"
"##MN-00 00 44 0290 02103 5558 441812 348503 203"
"151.897986"
"$GPGGA,213311,2509.2573,N,07913.0787,W,1,10,1.2,16"
"##MN-00 00 43 0291 02099 5558 441786 348490 203"
"151.898032"
"$GPGGA,213315,2509.2580,N,07913.0761,W,1,10,1.2,16"
"##MN-00 00 43 0292 02096 5557 441742 348477 203"
"151.898079"
"$GPGGA,213319,2509.2585,N,07913.0735,W,1,10,1.2,16"
"##MN-00 00 43 0293 02091 5556 441681 348458 203"
"151.898125"
"$GPGGA,213323,2509.2591,N,07913.0710,W,1,9,1.2,16,"
"##MN-00 00 42 0295 02089 5556 441641 348458 203"
"151.898171"
"$GPGGA,213327,2509.2596,N,07913.0683,W,1,10,1.2,16"
"##MN-00 00 43 0296 02085 5555 441615 348453 203"
"151.898218"
"$GPGGA,213331,2509.2603,N,07913.0657,W,1,10,1.2,16"
"##MN-00 00 42 0297 02079 5554 441590 348432 203"
"151.898264"
"$GPGGA,213335,2509.2610,N,07913.0632,W,1,10,1.2,15"
"##MN-00 00 42 0298 02075 5554 441570 348421 203"
"151.89831"
"$GPGGA,213339,2509.2616,N,07913.0607,W,1,10,1.2,16"
"##MN-00 00 42 0300 02070 5553 441560 348420 203"
"151.898357"
"$GPGGA,213343,2509.2623,N,07913.0581,W,1,10,1.2,16"
"##MN-00 00 42 0301 02066 5552 441549 348418 203"
"151.898403"
"$GPGGA,213347,2509.2627,N,07913.0554,W,1,10,1.2,16"
"##MN-00 00 42 0302 02062 5552 441539 348420 203"
"151.898449"
"$GPGGA,213351,2509.2632,N,07913.0527,W,1,10,1.2,16"
"##MN-00 00 42 0303 02057 5551 441516 348411 203"
"151.898495"
"$GPGGA,213355,2509.2639,N,07913.0499,W,1,10,1.2,16"
"##MN-00 00 42 0305 02052 5550 441475 348400 203"
"151.898542"
"$GPGGA,213359,2509.2646,N,07913.0472,W,1,10,1.2,16"
"##MN-00 00 43 0306 02048 5550 441456 348397 203"
"151.898588"
"$GPGGA,213403,2509.2653,N,07913.0446,W,1,10,1.2,16"
"##MN-00 00 44 0307 02042 5549 441453 348393 203"
"151.898634"
"$GPGGA,213407,2509.2660,N,07913.0420,W,1,10,1.2,16"
"##MN-00 00 43 0309 02036 5548 441443 348387 203"
"151.898681"
"$GPGGA,213411,2509.2664,N,07913.0394,W,1,10,1.2,15"
"##MN-00 00 44 0310 02034 5548 441410 348384 203"
"151.898727"
"$GPGGA,213415,2509.2672,N,07913.0367,W,1,10,1.2,15"
"##MN-00 00 43 0311 02028 5547 441377 348378 203"
"151.898773"
"$GPGGA,213419,2509.2679,N,07913.0341,W,1,10,1.2,15"
"##MN-00 00 42 0313 02022 5547 441354 348364 203"
"151.898819"
"$GPGGA,213423,2509.2686,N,07913.0316,W,1,9,1.3,15,"
"##MN-00 00 43 0314 02014 5546 441338 348364 203"
"151.898866"
"$GPGGA,213427,2509.2700,N,07913.0288,W,1,9,1.3,16,"
"##MN-00 00 44 0315 02014 5546 441319 348359 203"
"151.898912"
"$GPGGA,213431,2509.2707,N,07913.0261,W,1,9,1.3,16,"
"##MN-00 00 44 0317 02004 5545 441299 348357 203"
"151.898958"
"$GPGGA,213435,2509.2715,N,07913.0233,W,1,10,1.2,16"
"##MN-00 00 44 0318 02000 5544 441268 348349 203"
"151.899005"
"$GPGGA,213439,2509.2719,N,07913.0208,W,1,10,1.2,16"
"##MN-00 00 44 0319 01995 5543 441247 348348 203"
"151.899051"
"$GPGGA,213443,2509.2726,N,07913.0182,W,1,9,1.3,16,"
"##MN-00 00 44 0321 01988 5543 441253 348344 203"
"151.899097"
"$GPGGA,213447,2509.2733,N,07913.0155,W,1,9,1.3,16,"
"##MN-00 00 45 0322 01984 5542 441255 348344 203"
"151.899144"
"$GPGGA,213451,2509.2737,N,07913.0129,W,1,9,1.3,16,"
"##MN-00 00 44 0323 01977 5542 441212 348335 203"
"151.89919"
"$GPGGA,213455,2509.2744,N,07913.0102,W,1,10,1.2,16"
"##MN-00 00 45 0324 01973 5541 441058 348305 203"
"151.899236"
"$GPGGA,213459,2509.2751,N,07913.0074,W,1,10,1.2,16"
"##MN-00 00 44 0326 01967 5541 440776 348255 203"
"151.899282"
"$GPGGA,213503,2509.2760,N,07913.0047,W,1,10,1.2,16"
"##MN-00 00 44 0327 01965 5540 440101 348080 203"
"151.899329"
"$GPGGA,213507,2509.2766,N,07913.0019,W,1,10,1.2,16"
"##MN-00 00 45 0328 01958 5539 439532 347942 203"
"151.899375"
"$GPGGA,213511,2509.2773,N,07912.9990,W,1,10,1.2,16"
"##MN-00 00 45 0330 01952 5539 439274 347882 203"
"151.899421"
"$GPGGA,213515,2509.2782,N,07912.9959,W,1,10,1.2,16"
"##MN-00 00 45 0331 01950 5538 438861 347778 203"
"151.899468"
"$GPGGA,213519,2509.2784,N,07912.9932,W,1,9,1.3,16,"
"##MN-00 00 44 0332 01943 5537 438680 347681 203"
"151.899514"
"$GPGGA,213523,2509.2791,N,07912.9904,W,1,10,1.2,16"
"##MN-00 00 44 0333 01940 5537 438558 347617 203"
"151.89956"
"$GPGGA,213527,2509.2798,N,07912.9876,W,1,10,1.2,16"
"##MN-00 00 44 0335 01936 5537 438452 347601 203"
"151.899606"
"$GPGGA,213531,2509.2809,N,07912.9849,W,1,10,1.2,16"
"##MN-00 00 43 0336 01934 5536 438391 347581 203"
"151.899653"
"$GPGGA,213535,2509.2819,N,07912.9822,W,1,10,1.2,17"
"##MN-00 00 41 0337 01927 5535 438371 347535 203"
"151.899699"
"$GPGGA,213539,2509.2829,N,07912.9799,W,1,10,1.2,17"
"##MN-00 00 40 0338 01926 5535 438366 347506 203"
"151.899745"
"$GPGGA,213543,2509.2837,N,07912.9775,W,1,10,1.2,17"
"##MN-00 00 39 0340 01925 5534 438376 347484 203"
"151.899792"
"$GPGGA,213547,2509.2845,N,07912.9751,W,1,10,1.2,17"
"##MN-00 00 39 0341 01919 5533 438376 347491 203"
"151.899838"
"$GPGGA,213551,2509.2856,N,07912.9728,W,1,10,1.2,17"
"##MN-00 00 38 0342 01914 5533 438363 347492 203"
"151.899884"
"$GPGGA,213555,2509.2867,N,07912.9704,W,1,10,1.2,17"
"##MN-00 00 37 0343 01912 5533 438356 347484 203"
"151.899931"
"$GPGGA,213559,2509.2876,N,07912.9681,W,1,10,1.2,17"
"##MN-00 00 35 0344 01908 5532 438351 347477 203"
"151.899977"
"$GPGGA,213603,2509.2885,N,07912.9658,W,1,10,1.2,17"
"##MN-00 00 34 0345 01904 5532 438347 347476 203"
"151.900023"
"$GPGGA,213607,2509.2896,N,07912.9636,W,1,10,1.2,17"
"##MN-00 00 33 0346 01901 5531 438323 347474 203"
"151.900069"
"$GPGGA,213611,2509.2905,N,07912.9614,W,1,10,1.2,17"
"##MN-00 00 33 0347 01894 5531 438229 347458 203"
"151.900116"
"$GPGGA,213615,2509.2912,N,07912.9593,W,1,10,1.2,17"
"##MN-00 00 32 0349 01888 5530 438123 347420 203"
"151.900162"
"$GPGGA,213619,2509.2923,N,07912.9571,W,1,10,1.2,17"
"##MN-00 00 30 0349 01883 5529 437992 347406 203"
"151.900208"
"$GPGGA,213623,2509.2935,N,07912.9549,W,1,10,1.3,17"
"##MN-00 00 32 0350 01878 5529 437924 347361 203"
"151.900255"
"$GPGGA,213627,2509.2945,N,07912.9529,W,1,9,1.2,17,"
"##MN-00 00 31 0351 01871 5529 437843 347349 203"
"151.900301"
"$GPGGA,213631,2509.2956,N,07912.9506,W,1,9,1.3,17,"
"##MN-00 00 29 0352 01862 5528 437658 347340 203"
"151.900347"
"$GPGGA,213635,2509.2966,N,07912.9483,W,1,10,1.2,17"
"##MN-00 00 29 0353 01859 5528 436993 347177 203"
"151.900393"
"$GPGGA,213639,2509.2975,N,07912.9459,W,1,10,1.2,17"
"##MN-00 00 28 0354 01854 5527 436226 347097 203"
"151.90044"
"$GPGGA,213643,2509.2985,N,07912.9436,W,1,10,1.3,17"
"##MN-00 00 28 0355 01854 5527 435937 346934 203"
"151.900486"
"$GPGGA,213647,2509.2993,N,07912.9412,W,1,10,1.2,17"
"##MN-00 00 27 0356 01854 5526 435852 346919 203"
"151.900532"
"$GPGGA,213651,2509.3000,N,07912.9388,W,1,9,1.3,17,"
"##MN-00 00 26 0357 01855 5526 435857 346923 203"
"151.900579"
"$GPGGA,213655,2509.3010,N,07912.9365,W,1,10,1.2,17"
"##MN-00 00 37 0358 01853 5525 435850 346943 203"
"151.900625"
"$GPGGA,213659,2509.3015,N,07912.9344,W,1,9,1.3,17,"
"##MN-00 00 34 0359 01853 5525 440750 578686 203"
"151.900671"
"$GPGGA,213703,2509.3026,N,07912.9322,W,1,9,1.2,17,"
"##MN-00 00 30 0361 01853 5525 450632 925273 203"
