" Tow: 2Em-A   RVWS/WS1406"
" Date: 05/31/2014"
" Temperature Probe #  2597    Conductivity Probe #  2870"
" Pressure Probe #  109"
" Flow Meter Calibration  4.71 (m/count)  "
"151.853646"
"$GPGGA,202907,2508.7267,N,07917.8446,W,1,10,1.5,19"
"##MN-00 00 35 0087 01848 6112 443656 346711 204"
"151.853704"
"$GPGGA,202915,2508.7267,N,07917.8396,W,1,10,1.5,19"
"##MN-00 00 37 0088 01856 6113 436809 347426 204"
"151.85375"
"$GPGGA,202919,2508.7270,N,07917.8370,W,1,10,1.5,20"
"##MN-00 00 38 0088 01860 6113 437416 347610 204"
"151.853796"
"$GPGGA,202923,2508.7273,N,07917.8342,W,1,10,1.5,20"
"##MN-00 00 39 0089 01869 6113 437597 347687 204"
"151.853843"
"$GPGGA,202927,2508.7274,N,07917.8316,W,1,10,1.5,20"
"##MN-00 00 39 0089 01876 6113 437705 347720 204"
"151.853889"
"$GPGGA,202931,2508.7275,N,07917.8291,W,1,10,1.5,20"
"##MN-00 00 39 0090 01881 6114 437782 347751 204"
"151.853935"
"$GPGGA,202935,2508.7278,N,07917.8265,W,1,10,1.5,20"
"##MN-00 00 39 0090 01885 6114 437880 347785 204"
"151.853981"
"$GPGGA,202939,2508.7278,N,07917.8238,W,1,10,1.5,20"
"##MN-00 00 39 0091 01893 6113 437943 347804 204"
"151.854028"
"$GPGGA,202943,2508.7281,N,07917.8212,W,1,10,1.5,20"
"##MN-00 00 41 0091 01899 6113 438134 347875 204"
"151.854074"
"$GPGGA,202947,2508.7282,N,07917.8186,W,1,10,1.5,20"
"##MN-00 00 40 0092 01903 6113 438378 347926 204"
"151.85412"
"$GPGGA,202951,2508.7285,N,07917.8159,W,1,10,1.5,20"
"##MN-00 00 40 0092 01910 6112 438645 347996 204"
"151.854167"
"$GPGGA,202955,2508.7288,N,07917.8132,W,1,10,1.5,19"
"##MN-00 00 40 0093 01916 6112 439092 348105 204"
"151.854213"
"$GPGGA,202959,2508.7289,N,07917.8105,W,1,10,1.5,19"
"##MN-00 00 41 0093 01919 6111 439204 348142 204"
"151.854259"
"$GPGGA,203003,2508.7292,N,07917.8078,W,1,10,1.5,19"
"##MN-00 00 41 0094 01925 6110 439400 348223 204"
"151.854306"
"$GPGGA,203008,2508.7294,N,07917.8045,W,1,10,1.6,19"
"##MN-00 00 42 0094 01932 6110 439572 348272 204"
"151.854352"
"$GPGGA,203012,2508.7296,N,07917.8019,W,1,10,1.5,19"
"##MN-00 00 43 0095 01938 6109 439790 348331 204"
"151.854398"
"$GPGGA,203015,2508.7298,N,07917.7999,W,1,10,1.5,19"
"##MN-00 00 42 0095 01946 6108 440081 348421 204"
"151.854444"
"$GPGGA,203020,2508.7300,N,07917.7967,W,1,9,1.5,18,"
"##MN-00 00 43 0096 01950 6107 440277 348468 204"
"151.854491"
"$GPGGA,203024,2508.7302,N,07917.7941,W,1,10,1.5,18"
"##MN-00 00 42 0096 01953 6107 440317 348479 204"
"151.854537"
"$GPGGA,203028,2508.7303,N,07917.7917,W,1,10,1.5,18"
"##MN-00 00 42 0097 01960 6106 440386 348506 204"
"151.854583"
"$GPGGA,203032,2508.7303,N,07917.7891,W,1,10,1.5,18"
"##MN-00 00 44 0098 01965 6105 440464 348525 204"
"151.85463"
"$GPGGA,203036,2508.7306,N,07917.7865,W,1,10,1.5,18"
"##MN-00 00 42 0098 01971 6104 440541 348547 204"
"151.854676"
"$GPGGA,203040,2508.7307,N,07917.7839,W,1,10,1.5,18"
"##MN-00 00 43 0099 01975 6103 440585 348568 204"
"151.854722"
"$GPGGA,203044,2508.7308,N,07917.7812,W,1,10,1.5,18"
"##MN-00 00 44 0099 01979 6102 440643 348585 204"
"151.854769"
"$GPGGA,203048,2508.7310,N,07917.7787,W,1,10,1.5,18"
"##MN-00 00 43 0100 01986 6101 440780 348624 204"
"151.854815"
"$GPGGA,203052,2508.7313,N,07917.7762,W,1,10,1.5,18"
"##MN-00 00 43 0100 01991 6099 440784 348627 204"
"151.854861"
"$GPGGA,203056,2508.7314,N,07917.7737,W,1,10,1.5,18"
"##MN-00 00 42 0101 01996 6098 440807 348631 204"
"151.854907"
"$GPGGA,203100,2508.7314,N,07917.7711,W,1,10,1.5,17"
"##MN-00 00 42 0102 02001 6097 440790 348597 204"
"151.854954"
"$GPGGA,203104,2508.7318,N,07917.7685,W,1,10,1.5,17"
"##MN-00 00 42 0102 02006 6095 440783 348592 204"
"151.855"
"$GPGGA,203108,2508.7320,N,07917.7661,W,1,10,1.5,17"
"##MN-00 00 43 0103 02010 6094 440783 348587 204"
"151.855046"
"$GPGGA,203112,2508.7323,N,07917.7635,W,1,10,1.5,17"
"##MN-00 00 44 0103 02017 6092 440785 348588 204"
"151.855093"
"$GPGGA,203116,2508.7325,N,07917.7608,W,1,10,1.6,17"
"##MN-00 00 44 0104 02021 6091 440788 348589 204"
"151.855139"
"$GPGGA,203120,2508.7326,N,07917.7583,W,1,10,1.5,17"
"##MN-00 00 43 0105 02026 6089 440812 348592 204"
"151.855185"
"$GPGGA,203124,2508.7328,N,07917.7556,W,1,10,1.5,17"
"##MN-00 00 44 0105 02033 6088 440872 348599 204"
"151.855231"
"$GPGGA,203128,2508.7332,N,07917.7531,W,1,10,1.5,17"
"##MN-00 00 43 0106 02036 6087 440921 348578 204"
"151.855278"
"$GPGGA,203132,2508.7336,N,07917.7505,W,1,10,1.5,16"
"##MN-00 00 44 0106 02041 6085 440915 348540 204"
"151.855324"
"$GPGGA,203136,2508.7337,N,07917.7480,W,1,10,1.5,16"
"##MN-00 00 44 0107 02047 6084 440813 348396 204"
"151.85537"
"$GPGGA,203140,2508.7340,N,07917.7454,W,1,10,1.5,16"
"##MN-00 00 44 0108 02052 6082 440699 348311 204"
"151.855417"
"$GPGGA,203144,2508.7343,N,07917.7429,W,1,10,1.5,16"
"##MN-00 00 44 0108 02060 6081 440832 348331 204"
"151.855463"
"$GPGGA,203148,2508.7346,N,07917.7404,W,1,10,1.5,16"
"##MN-00 00 44 0109 02063 6079 440918 348332 204"
"151.855509"
"$GPGGA,203152,2508.7349,N,07917.7380,W,1,10,1.5,15"
"##MN-00 00 44 0110 02066 6077 440988 348335 204"
"151.855556"
"$GPGGA,203156,2508.7350,N,07917.7356,W,1,10,1.5,15"
"##MN-00 00 44 0110 02070 6076 441041 348344 204"
"151.855602"
"$GPGGA,203200,2508.7353,N,07917.7331,W,1,10,1.5,15"
"##MN-00 00 44 0111 02075 6074 441099 348353 204"
"151.855648"
"$GPGGA,203204,2508.7354,N,07917.7306,W,1,10,1.5,15"
"##MN-00 00 43 0111 02079 6072 441168 348369 204"
"151.855694"
"$GPGGA,203208,2508.7355,N,07917.7280,W,1,10,1.5,15"
"##MN-00 00 44 0112 02083 6071 441258 348397 204"
"151.855741"
"$GPGGA,203212,2508.7357,N,07917.7256,W,1,10,1.5,15"
"##MN-00 00 44 0113 02087 6069 441397 348431 204"
"151.855787"
"$GPGGA,203216,2508.7361,N,07917.7231,W,1,10,1.5,15"
"##MN-00 00 44 0113 02090 6067 441872 348542 204"
"151.855833"
"$GPGGA,203220,2508.7362,N,07917.7204,W,1,10,1.5,15"
"##MN-00 00 45 0114 02095 6066 442222 348682 204"
"151.85588"
"$GPGGA,203224,2508.7365,N,07917.7178,W,1,9,1.5,14,"
"##MN-00 00 45 0115 02099 6064 442436 348742 204"
"151.855926"
"$GPGGA,203228,2508.7368,N,07917.7154,W,1,10,1.5,14"
"##MN-00 00 46 0115 02104 6062 442582 348814 204"
"151.855972"
"$GPGGA,203232,2508.7372,N,07917.7130,W,1,10,1.5,14"
"##MN-00 00 44 0116 02113 6060 442780 348883 204"
"151.856019"
"$GPGGA,203236,2508.7374,N,07917.7105,W,1,9,1.5,14,"
"##MN-00 00 43 0116 02108 6058 442882 348934 204"
"151.856065"
"$GPGGA,203240,2508.7375,N,07917.7079,W,1,9,1.5,14,"
"##MN-00 00 40 0117 02107 6057 442927 348945 204"
"151.856111"
"$GPGGA,203244,2508.7376,N,07917.7057,W,1,9,1.5,14,"
"##MN-00 00 41 0118 02106 6055 442940 348952 204"
"151.856157"
"$GPGGA,203248,2508.7377,N,07917.7033,W,1,9,1.5,14,"
"##MN-00 00 42 0118 02107 6053 442926 348946 204"
"151.856204"
"$GPGGA,203252,2508.7379,N,07917.7009,W,1,9,1.5,14,"
"##MN-00 00 41 0119 02109 6051 442897 348940 204"
"151.85625"
"$GPGGA,203256,2508.7383,N,07917.6985,W,1,10,1.5,14"
"##MN+00 00 42 0120 02108 6049 442885 348947 204"
"151.856296"
"$GPGGA,203300,2508.7383,N,07917.6963,W,1,9,1.5,14,"
"##MN+00 00 42 0121 02108 6047 442896 348945 204"
"151.856343"
"$GPGGA,203304,2508.7383,N,07917.6943,W,1,10,1.5,14"
"##MN+00 00 42 0121 02111 6045 442887 348939 204"
"151.856389"
"$GPGGA,203308,2508.7386,N,07917.6919,W,1,10,1.5,14"
"##MN-00 00 41 0122 02108 6043 442890 348948 204"
"151.856435"
"$GPGGA,203312,2508.7388,N,07917.6896,W,1,10,1.5,14"
"##MN+00 00 42 0123 02110 6041 442933 348970 204"
"151.856481"
"$GPGGA,203316,2508.7390,N,07917.6874,W,1,10,1.5,14"
"##MN+00 00 41 0124 02111 6039 442948 348984 204"
"151.856528"
"$GPGGA,203320,2508.7390,N,07917.6852,W,1,10,1.5,14"
"##MN+00 00 50 0124 02111 6038 442984 349003 204"
"151.856574"
"#increment_net"
"$GPGGA,203324,2508.7393,N,07917.6828,W,1,10,1.5,14"
"##MN-00 00 46 0125 02111 6036 443055 349008 204"
"151.85662"
"$GPGGA,203328,2508.7393,N,07917.6805,W,1,10,1.5,14"
"##MN-00 00 44 0126 02112 6034 443058 349021 204"
"151.856667"
"$GPGGA,203332,2508.7396,N,07917.6781,W,1,10,1.5,14"
"##MN-00 00 42 0126 02111 6032 443056 349023 204"
"151.856713"
"$GPGGA,203336,2508.7397,N,07917.6757,W,1,10,1.5,14"
"##MN-00 00 41 0127 02109 6030 443020 349007 204"
"151.856759"
"$GPGGA,203340,2508.7398,N,07917.6733,W,1,10,1.5,14"
"##MN-00 00 40 0128 02109 6028 442944 348991 204"
"151.856817"
"$GPGGA,203344,2508.7399,N,07917.6708,W,1,10,1.5,14"
"##MN-00 00 40 0128 02110 6026 442810 348900 204"
"151.856863"
"$GPGGA,203348,2508.7401,N,07917.6683,W,1,10,1.5,14"
"##MN-00 00 41 0129 02111 6024 442780 348912 204"
"151.85691"
"$GPGGA,203352,2508.7404,N,07917.6658,W,1,10,1.5,14"
"##MN-00 00 42 0130 02111 6022 442806 348930 204"
"151.856956"
"$GPGGA,203356,2508.7404,N,07917.6635,W,1,10,1.5,14"
"##MN-00 00 41 0130 02112 6020 442891 348988 204"
"151.857002"
"$GPGGA,203400,2508.7403,N,07917.6614,W,1,10,1.5,14"
"##MN-00 00 41 0131 02111 6018 443019 349019 204"
"151.857049"
"$GPGGA,203404,2508.7401,N,07917.6592,W,1,10,1.5,14"
"##MN-00 00 41 0132 02112 6016 443140 349047 204"
"151.857095"
"$GPGGA,203408,2508.7401,N,07917.6569,W,1,10,1.5,14"
"##MN-00 00 42 0132 02111 6014 443270 349105 204"
"151.857141"
"$GPGGA,203412,2508.7401,N,07917.6547,W,1,10,1.5,15"
"##MN-00 00 41 0133 02112 6012 443311 349119 204"
"151.857188"
"$GPGGA,203416,2508.7401,N,07917.6521,W,1,9,1.5,15,"
"##MN-00 00 41 0134 02111 6010 443321 349117 204"
"151.857234"
"$GPGGA,203420,2508.7403,N,07917.6497,W,1,10,1.5,15"
"##MN-00 00 41 0135 02111 6008 443318 349118 204"
"151.85728"
"$GPGGA,203424,2508.7401,N,07917.6474,W,1,10,1.5,15"
"##MN-00 00 42 0135 02109 6006 443310 349122 204"
"151.857326"
"$GPGGA,203428,2508.7402,N,07917.6450,W,1,10,1.5,15"
"##MN-00 00 40 0136 02111 6004 443286 349118 204"
"151.857373"
"$GPGGA,203432,2508.7401,N,07917.6428,W,1,10,1.5,15"
"##MN-00 00 42 0137 02110 6002 443266 349113 204"
"151.857419"
"$GPGGA,203436,2508.7404,N,07917.6403,W,1,9,1.5,15,"
"##MN-00 00 40 0137 02111 6000 443254 349110 204"
"151.857465"
"$GPGGA,203440,2508.7402,N,07917.6380,W,1,9,1.5,15,"
"##MN-00 00 41 0138 02110 5998 443251 349110 204"
"151.857512"
"$GPGGA,203445,2508.7401,N,07917.6353,W,1,10,1.5,15"
"##MN-00 00 42 0139 02112 5996 443245 349107 204"
"151.857558"
"$GPGGA,203449,2508.7404,N,07917.6328,W,1,9,1.5,15,"
"##MN-00 00 42 0139 02112 5994 443241 349105 204"
"151.857604"
"$GPGGA,203452,2508.7403,N,07917.6311,W,1,10,1.5,15"
"##MN-00 00 39 0140 02112 5992 443232 349101 204"
"151.85765"
"$GPGGA,203456,2508.7401,N,07917.6290,W,1,10,1.5,15"
"##MN-00 00 40 0141 02109 5990 443221 349100 204"
"151.857697"
"$GPGGA,203500,2508.7402,N,07917.6266,W,1,10,1.5,15"
"##MN-00 00 40 0141 02110 5988 443222 349100 204"
"151.857743"
"$GPGGA,203505,2508.7401,N,07917.6240,W,1,10,1.5,15"
"##MN-00 00 41 0142 02108 5985 443226 349102 204"
"151.857789"
"$GPGGA,203509,2508.7401,N,07917.6216,W,1,10,1.5,15"
"##MN-00 00 40 0143 02110 5983 443227 349102 204"
"151.857836"
"$GPGGA,203513,2508.7402,N,07917.6197,W,1,10,1.5,15"
"##MN-00 00 41 0143 02111 5982 443226 349098 204"
"151.857882"
"$GPGGA,203517,2508.7402,N,07917.6175,W,1,8,2.4,16,"
"##MN+00 00 42 0144 02112 5979 443222 349098 204"
"151.857928"
"$GPGGA,203521,2508.7399,N,07917.6161,W,1,10,1.5,16"
"##MN+00 00 40 0145 02112 5977 443235 349111 204"
"151.857975"
"$GPGGA,203525,2508.7397,N,07917.6139,W,1,10,1.5,17"
"##MN+00 00 42 0146 02113 5975 443290 349125 204"
"151.858021"
"$GPGGA,203529,2508.7397,N,07917.6119,W,1,10,1.5,18"
"##MN-00 00 41 0146 02113 5973 443326 349139 204"
"151.858067"
"$GPGGA,203533,2508.7396,N,07917.6097,W,1,10,1.5,19"
"##MN-00 00 40 0147 02114 5971 443343 349144 204"
"151.858113"
"$GPGGA,203537,2508.7393,N,07917.6069,W,1,9,1.5,19,"
"##MN-00 00 40 0147 02111 5969 443348 349151 204"
"151.85816"
"$GPGGA,203541,2508.7393,N,07917.6045,W,1,10,1.5,19"
"##MN-00 00 41 0148 02111 5967 443366 349153 204"
"151.858206"
"$GPGGA,203545,2508.7393,N,07917.6021,W,1,10,1.5,20"
"##MN+00 00 39 0149 02110 5965 443384 349154 204"
"151.858252"
"$GPGGA,203549,2508.7394,N,07917.5996,W,1,10,1.5,20"
"##MN+00 00 41 0149 02109 5963 443333 349140 204"
"151.858299"
"$GPGGA,203553,2508.7393,N,07917.5972,W,1,10,1.5,20"
"##MN+00 00 49 0150 02109 5961 443263 349121 204"
"151.858345"
"$GPGGA,203557,2508.7393,N,07917.5945,W,1,10,1.5,20"
"##MN-00 00 46 0151 02103 5959 443224 349112 204"
"151.858391"
"#increment_net"
"$GPGGA,203601,2508.7393,N,07917.5914,W,1,10,1.5,20"
"##MN-00 00 42 0152 02098 5957 443140 349096 204"
"151.858438"
"$GPGGA,203605,2508.7393,N,07917.5880,W,1,10,1.5,20"
"##MN-00 00 41 0153 02092 5955 442940 349034 204"
"151.858484"
"$GPGGA,203609,2508.7392,N,07917.5847,W,1,9,1.5,19,"
"##MN-00 00 41 0154 02086 5953 442667 348942 204"
"151.85853"
"$GPGGA,203613,2508.7393,N,07917.5811,W,1,9,1.5,19,"
"##MN-00 00 42 0155 02078 5951 442461 348866 204"
"151.858576"
"$GPGGA,203617,2508.7393,N,07917.5779,W,1,10,1.5,19"
"##MN-00 00 44 0156 02076 5949 442335 348815 204"
"151.858623"
"$GPGGA,203621,2508.7392,N,07917.5749,W,1,10,1.5,19"
"##MN-00 00 45 0157 02074 5947 442275 348782 204"
"151.858669"
"$GPGGA,203625,2508.7392,N,07917.5719,W,1,10,1.5,18"
"##MN-00 00 46 0157 02077 5945 442215 348736 204"
"151.858715"
"$GPGGA,203629,2508.7393,N,07917.5693,W,1,10,1.5,18"
"##MN-00 00 46 0158 02077 5943 442169 348724 204"
"151.858762"
"$GPGGA,203633,2508.7393,N,07917.5669,W,1,10,1.5,18"
"##MN-00 00 48 0159 02082 5941 442183 348725 204"
"151.858808"
"$GPGGA,203637,2508.7391,N,07917.5646,W,1,10,1.5,18"
"##MN-00 00 45 0160 02082 5939 442226 348739 204"
"151.858854"
"$GPGGA,203641,2508.7390,N,07917.5623,W,1,9,1.5,17,"
"##MN-00 00 48 0160 02086 5937 442294 348749 204"
"151.8589"
"$GPGGA,203645,2508.7388,N,07917.5604,W,1,10,1.5,17"
"##MN-00 00 44 0161 02091 5935 442363 348767 204"
"151.858947"
"$GPGGA,203649,2508.7385,N,07917.5586,W,1,10,1.5,17"
"##MN-00 00 47 0162 02092 5933 442501 348842 204"
"151.858993"
"$GPGGA,203653,2508.7385,N,07917.5566,W,1,9,1.5,17,"
"##MN-00 00 45 0162 02100 5931 442642 348869 204"
"151.859039"
"$GPGGA,203657,2508.7383,N,07917.5548,W,1,10,1.5,17"
"##MN-00 00 45 0163 02103 5929 442733 348899 204"
"151.859086"
"$GPGGA,203701,2508.7379,N,07917.5536,W,1,9,1.9,17,"
"##MN-00 00 45 0164 02108 5927 442864 348958 204"
"151.859132"
"$GPGGA,203705,2508.7374,N,07917.5522,W,1,9,1.9,17,"
"##MN-00 00 43 0164 02111 5926 442991 349010 204"
"151.859178"
"$GPGGA,203709,2508.7369,N,07917.5508,W,1,10,1.5,18"
"##MN-00 00 43 0165 02113 5923 443096 349074 204"
"151.859225"
"$GPGGA,203713,2508.7368,N,07917.5490,W,1,10,1.5,19"
"##MN-00 00 42 0165 02117 5921 443372 349175 204"
"151.859271"
"$GPGGA,203717,2508.7367,N,07917.5471,W,1,10,1.5,19"
"##MN-00 00 41 0166 02122 5919 443461 349188 204"
"151.859317"
"$GPGGA,203721,2508.7368,N,07917.5452,W,1,10,1.5,19"
"##MN-00 00 41 0167 02126 5917 443503 349198 204"
"151.859363"
"$GPGGA,203725,2508.7365,N,07917.5437,W,1,10,1.5,20"
"##MN-00 00 40 0167 02130 5915 443519 349198 204"
"151.85941"
"$GPGGA,203729,2508.7359,N,07917.5427,W,1,9,1.9,20,"
"##MN-00 00 39 0168 02135 5913 443545 349210 204"
"151.859456"
"$GPGGA,203733,2508.7357,N,07917.5413,W,1,10,1.5,21"
"##MN-00 00 39 0168 02138 5911 443576 349221 204"
"151.859502"
"$GPGGA,203737,2508.7352,N,07917.5399,W,1,10,1.5,22"
"##MN-00 00 38 0169 02141 5910 443594 349227 204"
"151.859549"
"$GPGGA,203741,2508.7350,N,07917.5384,W,1,10,1.5,22"
"##MN-00 00 37 0169 02144 5908 443638 349242 204"
"151.859595"
"$GPGGA,203745,2508.7345,N,07917.5369,W,1,10,1.5,22"
"##MN-00 00 34 0170 02147 5906 443664 349251 204"
"151.859641"
"$GPGGA,203749,2508.7343,N,07917.5353,W,1,10,1.5,22"
"##MN-00 00 34 0170 02150 5904 443680 349257 204"
"151.859687"
"$GPGGA,203753,2508.7338,N,07917.5337,W,1,10,1.5,22"
"##MN-00 00 33 0171 02151 5902 443716 349274 204"
"151.859734"
"$GPGGA,203757,2508.7334,N,07917.5320,W,1,9,1.9,21,"
"##MN-00 00 33 0172 02151 5900 443754 349282 204"
"151.85978"
"$GPGGA,203801,2508.7330,N,07917.5298,W,1,10,1.5,21"
"##MN+00 00 30 0172 02149 5898 443739 349276 204"
"151.859826"
"$GPGGA,203805,2508.7323,N,07917.5278,W,1,10,1.5,21"
"##MN+00 00 32 0173 02140 5896 443696 349269 204"
"151.859873"
"$GPGGA,203809,2508.7318,N,07917.5257,W,1,10,1.5,21"
"##MN+00 00 32 0174 02136 5894 443669 349264 204"
"151.859919"
"$GPGGA,203813,2508.7314,N,07917.5230,W,1,10,1.5,21"
"##MN-00 00 34 0174 02129 5892 443614 349257 204"
"151.859977"
"$GPGGA,203817,2508.7311,N,07917.5202,W,1,9,1.5,20,"
"##MN-00 00 34 0175 02125 5890 443566 349241 204"
"151.860023"
"$GPGGA,203821,2508.7310,N,07917.5176,W,1,9,1.5,20,"
"##MN+00 00 38 0176 02125 5889 443523 349218 204"
"151.860069"
"$GPGGA,203825,2508.7309,N,07917.5152,W,1,9,1.5,20,"
"##MN+00 00 38 0176 02125 5887 443489 349195 204"
"151.860116"
"$GPGGA,203829,2508.7307,N,07917.5132,W,1,10,1.5,19"
"##MN+00 00 45 0177 02127 5885 443470 349190 204"
"151.860162"
"$GPGGA,203833,2508.7307,N,07917.5110,W,1,9,1.5,19,"
"##MN+00 00 44 0178 02128 5883 443469 349192 204"
"151.860208"
"$GPGGA,203837,2508.7307,N,07917.5089,W,1,10,1.5,18"
"##MN+00 00 40 0178 02131 5881 443475 349192 204"
"151.860255"
"$GPGGA,203841,2508.7309,N,07917.5068,W,1,10,1.5,18"
"##MN+00 00 39 0179 02130 5879 443495 349195 204"
"151.860301"
"$GPGGA,203845,2508.7309,N,07917.5047,W,1,10,1.5,18"
"##MN-00 00 37 0180 02132 5877 443514 349202 204"
"151.860347"
"$GPGGA,203849,2508.7307,N,07917.5028,W,1,10,1.5,17"
"##MN-00 00 37 0180 02134 5875 443513 349199 204"
"151.860394"
"$GPGGA,203853,2508.7310,N,07917.5007,W,1,10,1.5,17"
"##MN-00 00 36 0181 02135 5873 443515 349202 204"
"151.86044"
"$GPGGA,203857,2508.7309,N,07917.4986,W,1,10,1.5,17"
"##MN-00 00 36 0182 02137 5872 443513 349197 204"
"151.860486"
"$GPGGA,203901,2508.7309,N,07917.4970,W,1,10,1.8,17"
"##MN-00 00 36 0182 02140 5869 443535 349208 204"
"151.860532"
"$GPGGA,203905,2508.7307,N,07917.4956,W,1,10,1.5,17"
"##MN-00 00 35 0183 02139 5868 443557 349217 204"
"151.860579"
"$GPGGA,203909,2508.7305,N,07917.4940,W,1,9,1.8,17,"
"##MN-00 00 34 0183 02141 5866 443580 349226 204"
"151.860625"
"$GPGGA,203913,2508.7302,N,07917.4925,W,1,9,1.8,18,"
"##MN-00 00 34 0184 02142 5864 443599 349235 204"
"151.860671"
"$GPGGA,203917,2508.7299,N,07917.4908,W,1,10,1.8,18"
"##MN-00 00 32 0185 02141 5862 443623 349242 204"
"151.860718"
"$GPGGA,203921,2508.7296,N,07917.4890,W,1,9,1.5,18,"
"##MN-00 00 33 0185 02139 5861 443628 349243 204"
"151.860764"
"$GPGGA,203925,2508.7289,N,07917.4869,W,1,9,1.5,18,"
"##MN-00 00 33 0186 02135 5859 443577 349223 204"
"151.86081"
"#increment_net"
"$GPGGA,203929,2508.7282,N,07917.4846,W,1,10,1.4,19"
"##MN-00 00 32 0186 02127 5857 443501 349196 204"
"151.860856"
"$GPGGA,203933,2508.7275,N,07917.4818,W,1,10,1.4,19"
"##MN-00 00 33 0187 02120 5855 443438 349179 204"
"151.860903"
"$GPGGA,203937,2508.7269,N,07917.4787,W,1,10,1.4,19"
"##MN-00 00 36 0188 02115 5853 443299 349154 204"
"151.860949"
"$GPGGA,203941,2508.7262,N,07917.4758,W,1,9,1.5,19,"
"##MN-00 00 37 0189 02110 5851 443037 349098 204"
"151.860995"
"$GPGGA,203945,2508.7254,N,07917.4734,W,1,9,1.5,19,"
"##MN-00 00 38 0190 02109 5849 442883 349017 204"
"151.861042"
"$GPGGA,203950,2508.7244,N,07917.4707,W,1,9,1.8,19,"
"##MN-00 00 38 0190 02107 5848 442771 348955 204"
"151.861088"
"$GPGGA,203954,2508.7238,N,07917.4685,W,1,10,1.4,19"
"##MN-00 00 41 0191 02108 5846 442694 348905 204"
"151.861134"
"$GPGGA,203958,2508.7231,N,07917.4664,W,1,10,1.4,19"
"##MN-00 00 40 0192 02109 5844 442676 348897 204"
"151.861181"
"$GPGGA,204002,2508.7224,N,07917.4641,W,1,10,1.4,19"
"##MN-00 00 39 0192 02104 5842 442670 348897 204"
"151.861227"
"$GPGGA,204006,2508.7215,N,07917.4619,W,1,10,1.4,19"
"##MN-00 00 41 0193 02109 5840 442666 348892 204"
"151.861273"
"$GPGGA,204010,2508.7207,N,07917.4597,W,1,10,1.4,19"
"##MN-00 00 39 0194 02108 5839 442661 348889 204"
"151.861319"
"$GPGGA,204014,2508.7198,N,07917.4574,W,1,10,1.4,18"
"##MN-00 00 39 0194 02106 5837 442658 348888 204"
"151.861366"
"$GPGGA,204018,2508.7189,N,07917.4553,W,1,10,1.8,18"
"##MN-00 00 39 0195 02106 5835 442656 348886 204"
"151.861412"
"$GPGGA,204022,2508.7182,N,07917.4531,W,1,10,1.4,18"
"##MN-00 00 39 0196 02104 5833 442651 348885 204"
"151.861458"
"$GPGGA,204026,2508.7175,N,07917.4509,W,1,10,1.4,18"
"##MN-00 00 39 0196 02105 5832 442647 348882 204"
"151.861505"
"$GPGGA,204030,2508.7168,N,07917.4487,W,1,10,1.4,18"
"##MN-00 00 39 0197 02104 5830 442641 348885 204"
"151.861551"
"$GPGGA,204034,2508.7155,N,07917.4475,W,1,10,1.4,18"
"##MN+00 00 39 0198 02102 5828 442624 348877 204"
"151.861597"
"$GPGGA,204038,2508.7148,N,07917.4454,W,1,9,1.4,19,"
"##MN+00 00 39 0199 02101 5826 442594 348865 204"
"151.861644"
"$GPGGA,204042,2508.7142,N,07917.4431,W,1,9,1.4,19,"
"##MN+00 00 49 0200 02100 5825 442556 348849 204"
"151.86169"
"$GPGGA,204046,2508.7141,N,07917.4406,W,1,10,1.4,19"
"##MN-00 00 45 0200 02102 5823 442534 348849 204"
"151.861736"
"$GPGGA,204050,2508.7140,N,07917.4382,W,1,11,1.4,20"
"##MN+00 00 43 0201 02102 5821 442495 348830 204"
"151.861782"
"$GPGGA,204054,2508.7137,N,07917.4359,W,1,11,1.4,20"
"##MN+00 00 43 0202 02104 5819 442530 348841 204"
"151.861829"
"$GPGGA,204058,2508.7137,N,07917.4337,W,1,11,1.4,20"
"##MN+00 00 43 0202 02111 5818 442576 348860 204"
"151.861875"
"$GPGGA,204102,2508.7135,N,07917.4315,W,1,11,1.4,20"
"##MN-00 00 40 0203 02110 5816 442606 348865 204"
"151.861921"
"$GPGGA,204106,2508.7135,N,07917.4293,W,1,11,1.4,20"
"##MN-00 00 39 0204 02110 5814 442618 348867 204"
"151.861968"
"$GPGGA,204110,2508.7133,N,07917.4270,W,1,11,1.4,20"
"##MN-00 00 38 0204 02107 5813 442629 348871 204"
"151.862014"
"$GPGGA,204114,2508.7136,N,07917.4245,W,1,11,1.4,20"
"##MN-00 00 41 0205 02111 5811 442634 348874 204"
"151.86206"
"$GPGGA,204118,2508.7133,N,07917.4227,W,1,11,1.4,20"
"##MN-00 00 39 0206 02114 5809 442636 348876 204"
"151.862106"
"$GPGGA,204122,2508.7133,N,07917.4203,W,1,11,1.8,20"
"##MN-00 00 40 0207 02112 5807 442637 348875 204"
"151.862153"
"$GPGGA,204126,2508.7132,N,07917.4180,W,1,11,1.4,20"
"##MN-00 00 39 0207 02112 5806 442640 348877 204"
"151.862199"
"$GPGGA,204130,2508.7130,N,07917.4156,W,1,11,1.4,20"
"##MN-00 00 38 0208 02114 5804 442653 348878 204"
"151.862245"
"#increment_net"
"$GPGGA,204134,2508.7129,N,07917.4131,W,1,11,1.4,20"
"##MN-00 00 37 0209 02113 5803 442686 348884 204"
"151.862292"
"$GPGGA,204138,2508.7126,N,07917.4107,W,1,11,1.4,19"
"##MN-00 00 37 0209 02113 5801 442685 348889 204"
"151.862338"
"$GPGGA,204142,2508.7123,N,07917.4085,W,1,11,1.4,19"
"##MN-00 00 37 0210 02112 5799 442675 348889 204"
"151.862384"
"$GPGGA,204146,2508.7121,N,07917.4064,W,1,10,1.4,19"
"##MN-00 00 38 0211 02108 5797 442658 348883 204"
"151.862431"
"$GPGGA,204150,2508.7122,N,07917.4037,W,1,10,1.4,19"
"##MN-00 00 37 0212 02110 5796 442640 348879 204"
"151.862477"
"$GPGGA,204154,2508.7122,N,07917.4013,W,1,11,1.4,19"
"##MN-00 00 39 0212 02109 5794 442630 348878 204"
"151.862523"
"$GPGGA,204158,2508.7122,N,07917.3988,W,1,10,1.4,19"
"##MN-00 00 39 0213 02106 5793 442607 348870 204"
"151.862569"
"$GPGGA,204202,2508.7123,N,07917.3963,W,1,11,1.5,19"
"##MN-00 00 38 0214 02105 5791 442586 348864 204"
"151.862616"
"$GPGGA,204206,2508.7123,N,07917.3940,W,1,11,1.4,19"
"##MN-00 00 40 0214 02104 5789 442536 348840 204"
"151.862662"
"$GPGGA,204210,2508.7123,N,07917.3917,W,1,11,1.4,19"
"##MN-00 00 40 0215 02106 5787 442508 348830 204"
"151.862708"
"$GPGGA,204214,2508.7125,N,07917.3894,W,1,11,1.4,18"
"##MN-00 00 40 0216 02108 5786 442519 348838 204"
"151.862755"
"$GPGGA,204218,2508.7128,N,07917.3868,W,1,11,1.5,18"
"##MN-00 00 41 0217 02110 5784 442558 348854 204"
"151.862801"
"$GPGGA,204222,2508.7132,N,07917.3841,W,1,11,1.4,18"
"##MN-00 00 40 0217 02115 5782 442625 348878 204"
"151.862847"
"$GPGGA,204226,2508.7132,N,07917.3820,W,1,11,1.4,18"
"##MN-00 00 39 0218 02117 5781 442693 348897 204"
"151.862894"
"$GPGGA,204230,2508.7135,N,07917.3799,W,1,11,1.4,17"
"##MN-00 00 39 0219 02122 5780 442767 348937 204"
"151.86294"
"$GPGGA,204234,2508.7135,N,07917.3780,W,1,11,1.4,17"
"##MN-00 00 38 0219 02121 5778 442850 348972 204"
"151.862986"
"$GPGGA,204238,2508.7135,N,07917.3761,W,1,11,1.4,17"
"##MN-00 00 35 0220 02123 5777 442931 348992 204"
"151.863032"
"$GPGGA,204242,2508.7135,N,07917.3741,W,1,11,1.4,17"
"##MN-00 00 36 0221 02120 5775 442991 349004 204"
"151.863079"
"$GPGGA,204246,2508.7133,N,07917.3718,W,1,11,1.4,17"
"##MN-00 00 36 0222 02119 5773 442975 348997 204"
"151.863125"
"$GPGGA,204250,2508.7131,N,07917.3692,W,1,11,1.5,17"
"##MN-00 00 36 0222 02115 5772 442942 348989 204"
"151.863171"
"$GPGGA,204254,2508.7129,N,07917.3665,W,1,11,1.4,17"
"##MN-00 00 37 0223 02112 5770 442836 348957 204"
"151.863229"
"$GPGGA,204258,2508.7126,N,07917.3637,W,1,11,1.4,17"
"##MN-00 00 38 0224 02111 5768 442749 348937 204"
"151.863275"
"$GPGGA,204302,2508.7123,N,07917.3616,W,1,11,1.4,17"
"##MN-00 00 38 0225 02109 5767 442685 348912 204"
"151.863322"
"$GPGGA,204306,2508.7121,N,07917.3587,W,1,11,1.4,17"
"##MN-00 00 38 0225 02103 5765 442625 348887 204"
"151.863368"
"$GPGGA,204310,2508.7119,N,07917.3560,W,1,11,1.4,17"
"##MN-00 00 39 0226 02103 5764 442536 348844 204"
"151.863414"
"$GPGGA,204314,2508.7118,N,07917.3527,W,1,10,1.4,17"
"##MN-00 00 39 0227 02104 5762 442490 348830 204"
"151.863461"
"$GPGGA,204318,2508.7117,N,07917.3503,W,1,11,1.4,17"
"##MN-00 00 41 0228 02104 5761 442509 348837 204"
"151.863507"
"$GPGGA,204322,2508.7115,N,07917.3481,W,1,11,1.4,17"
"##MN+00 00 40 0228 02107 5759 442517 348822 204"
"151.863553"
"$GPGGA,204326,2508.7114,N,07917.3460,W,1,11,1.4,17"
"##MN+00 00 41 0229 02109 5757 442632 348879 204"
"151.8636"
"$GPGGA,204330,2508.7110,N,07917.3437,W,1,10,1.5,17"
"##MN+00 00 47 0230 02113 5755 442755 348915 204"
"151.863646"
"$GPGGA,204334,2508.7108,N,07917.3417,W,1,11,1.4,17"
"##MN-00 00 44 0230 02115 5755 442781 348913 204"
"151.863692"
"$GPGGA,204338,2508.7106,N,07917.3397,W,1,11,1.4,17"
"##MN-00 00 42 0231 02120 5753 442766 348905 204"
"151.863738"
"$GPGGA,204342,2508.7104,N,07917.3376,W,1,11,1.4,17"
"##MN-00 00 38 0232 02126 5751 442747 348896 204"
"151.863785"
"#increment_net"
"$GPGGA,204346,2508.7101,N,07917.3355,W,1,11,1.4,17"
"##MN-00 00 37 0233 02129 5750 442775 348933 204"
"151.863831"
"$GPGGA,204350,2508.7097,N,07917.3333,W,1,11,1.4,17"
"##MN-00 00 36 0234 02133 5748 443077 349086 204"
"151.863877"
"$GPGGA,204354,2508.7094,N,07917.3311,W,1,11,1.4,17"
"##MN-00 00 35 0235 02137 5746 443422 349219 204"
"151.863924"
"$GPGGA,204358,2508.7091,N,07917.3288,W,1,11,1.4,17"
"##MN-00 00 33 0236 02141 5745 443696 349257 204"
"151.86397"
"$GPGGA,204402,2508.7090,N,07917.3265,W,1,11,1.4,17"
"##MN-00 00 33 0237 02145 5743 443754 349259 204"
"151.864016"
"$GPGGA,204406,2508.7085,N,07917.3245,W,1,11,1.4,17"
"##MN-00 00 32 0238 02149 5742 443770 349265 204"
"151.864062"
"$GPGGA,204410,2508.7081,N,07917.3229,W,1,11,1.4,17"
"##MN-00 00 31 0239 02152 5741 443768 349259 204"
"151.864109"
"$GPGGA,204414,2508.7074,N,07917.3215,W,1,11,1.4,18"
"##MN-00 00 30 0240 02154 5739 443777 349262 204"
"151.864155"
"$GPGGA,204419,2508.7067,N,07917.3195,W,1,11,1.4,18"
"##MN-00 00 28 0241 02160 5738 443766 349241 204"
"151.864201"
"$GPGGA,204423,2508.7062,N,07917.3180,W,1,8,3.1,19,"
"##MN-00 00 30 0241 02164 5736 443750 349225 204"
"151.864248"
"$GPGGA,204427,2508.7057,N,07917.3162,W,1,11,1.4,19"
"##MN-00 00 28 0242 02162 5735 443767 349230 204"
"151.864294"
"$GPGGA,204431,2508.7050,N,07917.3146,W,1,10,1.7,20"
"##MN-00 00 27 0243 02163 5734 443810 349245 204"
"151.86434"
"$GPGGA,204435,2508.7043,N,07917.3129,W,1,10,1.7,20"
"##MN-00 00 26 0244 02157 5732 443816 349240 204"
"151.864387"
"$GPGGA,204439,2508.7041,N,07917.3103,W,1,11,1.4,21"
"##MN-00 00 27 0245 02149 5730 443736 349229 204"
"151.864433"
"$GPGGA,204443,2508.7037,N,07917.3077,W,1,11,1.4,21"
"##MN-00 00 28 0246 02142 5729 443669 349209 204"
"151.864479"
"$GPGGA,204447,2508.7033,N,07917.3049,W,1,11,1.4,21"
"##MN-00 00 29 0247 02136 5727 443694 349231 204"
"151.864525"
"$GPGGA,204451,2508.7028,N,07917.3025,W,1,11,1.4,21"
"##MN+00 00 30 0248 02129 5726 443726 349251 204"
"151.864572"
"$GPGGA,204455,2508.7021,N,07917.3000,W,1,11,1.4,21"
"##MN+00 00 29 0248 02122 5724 443669 349248 204"
"151.864618"
"$GPGGA,204459,2508.7016,N,07917.2975,W,1,11,1.4,21"
"##MN+00 00 30 0249 02120 5723 443368 349163 204"
"151.864664"
"$GPGGA,204503,2508.7009,N,07917.2953,W,1,11,1.4,21"
"##MN-00 00 31 0250 02121 5721 443416 349153 204"
"151.864711"
"$GPGGA,204507,2508.7002,N,07917.2932,W,1,11,1.4,21"
"##MN-00 00 31 0251 02122 5720 443482 349188 204"
"151.864757"
"$GPGGA,204511,2508.6993,N,07917.2913,W,1,11,1.4,21"
"##MN-00 00 30 0252 02122 5719 443523 349203 204"
"151.864803"
"$GPGGA,204515,2508.6986,N,07917.2891,W,1,11,1.4,21"
"##MN+00 00 28 0253 02120 5717 443599 349240 204"
"151.86485"
"$GPGGA,204519,2508.6980,N,07917.2867,W,1,10,1.7,21"
"##MN+00 00 31 0254 02119 5716 443547 349228 204"
"151.864896"
"$GPGGA,204523,2508.6974,N,07917.2841,W,1,10,1.4,22"
"##MN+00 00 30 0255 02120 5715 443415 349135 204"
"151.864942"
"$GPGGA,204527,2508.6967,N,07917.2818,W,1,11,1.4,22"
"##MN-00 00 32 0256 02116 5713 443272 349075 204"
"151.864988"
"$GPGGA,204531,2508.6960,N,07917.2794,W,1,10,1.7,22"
"##MN-00 00 31 0257 02117 5711 443235 349081 204"
"151.865035"
"$GPGGA,204535,2508.6955,N,07917.2766,W,1,10,1.7,22"
"##MN-00 00 31 0258 02116 5710 443173 349072 204"
"151.865081"
"$GPGGA,204539,2508.6952,N,07917.2736,W,1,11,1.4,22"
"##MN-00 00 32 0259 02111 5708 443054 349047 204"
"151.865127"
"$GPGGA,204543,2508.6946,N,07917.2707,W,1,11,1.4,22"
"##MN-00 00 32 0260 02113 5707 442973 348955 204"
"151.865174"
"$GPGGA,204547,2508.6942,N,07917.2681,W,1,11,1.4,21"
"##MN-00 00 32 0261 02113 5705 442987 348969 204"
"151.86522"
"$GPGGA,204551,2508.6936,N,07917.2654,W,1,11,1.4,21"
"##MN-00 00 32 0262 02116 5704 443031 349011 204"
"151.865266"
"$GPGGA,204555,2508.6932,N,07917.2629,W,1,11,1.4,21"
"##MN-00 00 32 0263 02118 5703 443144 349060 204"
"151.865312"
"$GPGGA,204559,2508.6928,N,07917.2605,W,1,11,1.4,20"
"##MN-00 00 31 0264 02114 5701 443286 349111 204"
"151.865359"
"$GPGGA,204603,2508.6924,N,07917.2581,W,1,11,1.4,20"
"##MN-00 00 32 0264 02116 5700 443367 349146 204"
"151.865405"
"$GPGGA,204607,2508.6919,N,07917.2558,W,1,11,1.4,20"
"##MN-00 00 29 0265 02118 5699 443458 349172 204"
"151.865451"
"$GPGGA,204611,2508.6913,N,07917.2535,W,1,11,1.4,20"
"##MN-00 00 30 0266 02109 5697 443459 349168 204"
"151.865498"
"$GPGGA,204615,2508.6908,N,07917.2511,W,1,11,1.4,20"
"##MN-00 00 30 0267 02103 5695 443240 349114 204"
"151.865544"
"$GPGGA,204619,2508.6902,N,07917.2491,W,1,11,1.4,20"
"##MN-00 00 29 0268 02095 5695 442641 348873 204"
"151.86559"
"$GPGGA,204623,2508.6897,N,07917.2470,W,1,11,1.4,19"
"##MN-00 00 30 0269 02088 5693 442065 348684 204"
"151.865637"
"$GPGGA,204627,2508.6890,N,07917.2450,W,1,11,1.4,19"
"##MN-00 00 30 0270 02079 5692 441926 348658 204"
"151.865683"
"$GPGGA,204631,2508.6884,N,07917.2430,W,1,11,1.4,19"
"##MN-00 00 30 0271 02069 5690 441884 348627 204"
"151.865729"
"$GPGGA,204635,2508.6879,N,07917.2409,W,1,11,1.4,19"
"##MN-00 00 29 0272 02060 5689 441838 348609 204"
"151.865775"
"$GPGGA,204639,2508.6873,N,07917.2390,W,1,11,1.4,19"
"##MN-00 00 28 0273 02049 5688 441756 348611 204"
"151.865822"
"$GPGGA,204643,2508.6867,N,07917.2371,W,1,11,1.4,18"
"##MN-00 00 27 0273 02040 5686 441696 348575 204"
"151.865868"
"$GPGGA,204647,2508.6861,N,07917.2354,W,1,11,1.4,18"
"##MN-00 00 26 0274 02029 5685 441629 348570 204"
"151.865914"
"$GPGGA,204651,2508.6855,N,07917.2336,W,1,11,1.4,18"
"##MN-00 00 26 0275 02015 5684 441265 348466 204"
"151.865961"
"$GPGGA,204655,2508.6848,N,07917.2318,W,1,11,1.4,18"
"##MN-00 00 26 0276 02009 5683 440815 348298 204"
"151.866007"
"$GPGGA,204659,2508.6843,N,07917.2299,W,1,10,1.4,18"
"##MN-00 00 25 0277 01995 5681 440585 348302 204"
"151.866053"
"$GPGGA,204703,2508.6838,N,07917.2281,W,1,11,1.4,18"
"##MN-00 00 25 0277 01986 5680 440540 348381 204"
"151.8661"
"$GPGGA,204707,2508.6833,N,07917.2265,W,1,10,1.7,18"
"##MN-00 00 21 0278 01972 5679 440192 348442 204"
"151.866146"
"$GPGGA,204711,2508.6828,N,07917.2248,W,1,10,1.7,17"
"##MN-00 00 23 0278 01964 5677 439971 348422 204"
"151.866192"
"$GPGGA,204715,2508.6821,N,07917.2232,W,1,11,1.4,17"
"##MN-00 00 19 0279 01952 5676 439792 348367 204"
"151.866238"
"$GPGGA,204719,2508.6814,N,07917.2216,W,1,11,1.4,17"
"##MN-00 00 21 0279 01940 5675 439573 348280 204"
"151.866285"
"$GPGGA,204723,2508.6807,N,07917.2200,W,1,11,1.4,17"
"##MN-00 00 19 0280 01928 5673 439295 348223 204"
"151.866331"
"$GPGGA,204727,2508.6802,N,07917.2183,W,1,11,1.4,17"
"##MN-00 00 16 0280 01915 5672 438949 348143 204"
"151.866377"
"$GPGGA,204731,2508.6797,N,07917.2167,W,1,11,1.4,17"
"##MN-00 00 17 0281 01904 5671 438366 348010 204"
"151.866424"
"$GPGGA,204735,2508.6791,N,07917.2151,W,1,11,1.4,17"
"##MN-00 00 15 0281 01889 5670 438009 347964 204"
"151.866481"
"$GPGGA,204739,2508.6784,N,07917.2134,W,1,11,1.4,17"
"##MN-00 00 12 0282 01874 5668 437187 347790 204"
"151.866528"
"$GPGGA,204743,2508.6777,N,07917.2117,W,1,11,1.4,17"
"##MN-00 00 15 0282 01861 5667 434700 346900 204"
"151.866574"
"$GPGGA,204747,2508.6769,N,07917.2099,W,1,11,1.4,16"
"##MN-00 00 20 0283 01850 5666 434518 348083 204"
"151.86662"
"$GPGGA,204751,2508.6760,N,07917.2080,W,1,11,1.4,16"
"##MN-00 00 28 0283 01849 5665 434761 394738 204"
"151.866667"
"$GPGGA,204755,2508.6748,N,07917.2061,W,1,11,1.4,16"
"##MN-00 00 32 0283 01851 5663 442512 901689 204"
"151.866713"
"$GPGGA,204759,2508.6736,N,07917.2041,W,1,11,1.4,16"
"##MN-00 00 34 0283 01851 5663 447793 925281 204"
"151.866759"
"$GPGGA,204803,2508.6720,N,07917.2020,W,1,11,1.4,15"
"##MN-00 00 34 0283 01850 5661 449462 925321 204"
"151.866806"
"$GPGGA,204807,2508.6704,N,07917.1999,W,1,11,1.4,15"
"##MN-00 00 33 0283 01849 5660 449982 880365 204"
"151.866852"
"$GPGGA,204811,2508.6687,N,07917.1978,W,1,11,1.4,15"
"##MN-00 00 40 0283 01851 5659 449676 910155 204"
"151.866898"
"$GPGGA,204815,2508.6667,N,07917.1958,W,1,11,1.4,15"
"##MN-00 00 36 0283 01851 5658 449025 925321 204"
"151.866944"
"$GPGGA,204819,2508.6648,N,07917.1937,W,1,11,1.4,14"
"##MN-00 00 36 0283 01849 5657 448520 925322 204"
"151.866991"
"$GPGGA,204823,2508.6628,N,07917.1917,W,1,11,1.4,14"
"##MN-00 00 38 0283 01849 5656 447841 925320 204"
"151.867037"
"$GPGGA,204827,2508.6606,N,07917.1897,W,1,11,1.4,14"
"##MN-00 00 36 0283 01851 5655 447054 925319 204"
"151.867083"
"$GPGGA,204831,2508.6584,N,07917.1877,W,1,11,1.4,14"
"##MN-00 00 39 0283 01850 5654 446208 925320 204"
"151.86713"
"$GPGGA,204835,2508.6563,N,07917.1858,W,1,11,1.4,14"
"##MN-00 00 55 0283 01849 5652 444996 925320 204"
"151.867176"
"$GPGGA,204839,2508.6541,N,07917.1839,W,1,11,1.4,14"
"##MN-00 00 62 0283 01852 5652 443641 925324 204"
"151.867222"
"$GPGGA,204843,2508.6518,N,07917.1822,W,1,11,1.4,14"
"##MN-00 00 61 0283 01849 5651 442294 925328 204"
"151.867268"
"$GPGGA,204847,2508.6494,N,07917.1806,W,1,10,1.7,14"
"##MN-00 00 56 0283 01851 5650 440948 925328 204"
