" Tow: 2Es-A   RVWS/WS1406"
" Date: 05/31/2014"
" Temperature Probe #  2597    Conductivity Probe #  2870"
" Pressure Probe #  109"
" Flow Meter Calibration  4.71 (m/count)  "
"151.97559"
"$GPGGA,232443,2511.7878,N,07917.5405,W,1,10,2.2,16"
"##MN-00 00 00 0084 01857 5097 442400 925246 203"
"151.975637"
"$GPGGA,232452,2511.7889,N,07917.5390,W,1,9,2.2,17,"
"##MN-00 00 00 0084 01857 5098 439012 366903 203"
"151.975683"
"$GPGGA,232456,2511.7894,N,07917.5383,W,1,10,2.2,17"
"##MN-00 00 00 0084 01861 5099 436490 347781 203"
"151.975729"
"$GPGGA,232500,2511.7899,N,07917.5372,W,1,9,2.2,18,"
"##MN-00 00 06 0084 01860 5100 436548 347684 203"
"151.975775"
"$GPGGA,232504,2511.7905,N,07917.5355,W,1,9,2.2,18,"
"##MN-00 00 08 0084 01860 5101 436491 347444 203"
"151.975822"
"$GPGGA,232508,2511.7914,N,07917.5337,W,1,9,2.4,18,"
"##MN-00 00 10 0084 01862 5102 436688 347454 203"
"151.975868"
"$GPGGA,232512,2511.7921,N,07917.5321,W,1,9,2.2,17,"
"##MN-00 00 13 0085 01859 5102 436860 347453 203"
"151.975914"
"$GPGGA,232516,2511.7927,N,07917.5306,W,1,10,2.4,17"
"##MN-00 00 18 0085 01860 5102 436562 347344 203"
"151.975961"
"$GPGGA,232520,2511.7934,N,07917.5290,W,1,9,2.4,17,"
"##MN-00 00 20 0085 01860 5103 436390 347292 203"
"151.976007"
"$GPGGA,232524,2511.7935,N,07917.5270,W,1,10,2.3,17"
"##MN-00 00 25 0086 01859 5103 436322 347280 203"
"151.976053"
"$GPGGA,232528,2511.7941,N,07917.5247,W,1,9,2.2,17,"
"##MN-00 00 25 0086 01860 5104 436257 347246 203"
"151.9761"
"$GPGGA,232532,2511.7946,N,07917.5223,W,1,10,2.2,17"
"##MN-00 00 33 0086 01866 5105 436249 347221 203"
"151.976146"
"$GPGGA,232536,2511.7952,N,07917.5197,W,1,10,2.2,18"
"##MN-00 00 38 0087 01870 5106 436197 347200 203"
"151.976192"
"$GPGGA,232540,2511.7954,N,07917.5173,W,1,10,2.2,18"
"##MN-00 00 38 0088 01869 5107 436157 347184 203"
"151.976238"
"$GPGGA,232544,2511.7957,N,07917.5146,W,1,10,2.2,17"
"##MN-00 00 38 0088 01864 5107 436163 347189 203"
"151.976285"
"$GPGGA,232548,2511.7960,N,07917.5118,W,1,10,2.2,17"
"##MN-00 00 39 0089 01864 5108 436188 347198 203"
"151.976331"
"$GPGGA,232552,2511.7963,N,07917.5088,W,1,10,2.2,16"
"##MN-00 00 42 0090 01863 5109 436217 347202 203"
"151.976377"
"$GPGGA,232556,2511.7968,N,07917.5055,W,1,10,2.2,16"
"##MN-00 00 46 0091 01865 5110 436228 347202 203"
"151.976424"
"$GPGGA,232600,2511.7971,N,07917.5023,W,1,10,2.2,16"
"##MN-00 00 47 0092 01868 5110 436216 347202 203"
"151.97647"
"$GPGGA,232604,2511.7975,N,07917.4990,W,1,10,2.2,15"
"##MN-00 00 49 0092 01868 5111 436413 347274 203"
"151.976516"
"$GPGGA,232608,2511.7979,N,07917.4958,W,1,10,2.2,15"
"##MN-00 00 48 0093 01874 5112 436257 347194 203"
"151.976563"
"$GPGGA,232612,2511.7983,N,07917.4925,W,1,10,2.2,15"
"##MN-00 00 49 0094 01877 5112 436324 347254 203"
"151.976609"
"$GPGGA,232616,2511.7988,N,07917.4894,W,1,10,2.2,15"
"##MN-00 00 51 0095 01890 5113 436891 347486 203"
"151.976655"
"$GPGGA,232620,2511.7992,N,07917.4867,W,1,10,2.2,15"
"##MN-00 00 53 0095 01900 5114 437230 347520 203"
"151.976701"
"$GPGGA,232624,2511.7996,N,07917.4842,W,1,10,2.2,15"
"##MN-00 00 53 0096 01911 5114 437994 347810 203"
"151.976748"
"$GPGGA,232628,2511.8000,N,07917.4821,W,1,10,2.3,15"
"##MN-00 00 51 0096 01923 5115 438262 347812 203"
"151.976794"
"$GPGGA,232632,2511.8001,N,07917.4800,W,1,9,2.3,15,"
"##MN-00 00 50 0097 01934 5116 438271 347781 203"
"151.97684"
"$GPGGA,232636,2511.8004,N,07917.4780,W,1,9,2.2,16,"
"##MN-00 00 46 0097 01941 5117 438380 347746 203"
"151.976887"
"$GPGGA,232640,2511.8006,N,07917.4759,W,1,9,2.2,16,"
"##MN-00 00 44 0098 01950 5118 438667 347714 203"
"151.976933"
"$GPGGA,232644,2511.8011,N,07917.4739,W,1,10,2.2,17"
"##MN-00 00 43 0098 01957 5119 439160 347743 203"
"151.976979"
"$GPGGA,232648,2511.8012,N,07917.4720,W,1,10,2.2,17"
"##MN-00 00 41 0099 01960 5120 439505 347812 203"
"151.977025"
"$GPGGA,232652,2511.8017,N,07917.4697,W,1,10,2.2,17"
"##MN-00 00 38 0099 01967 5121 439687 347873 203"
"151.977072"
"$GPGGA,232657,2511.8021,N,07917.4669,W,1,10,2.2,17"
"##MN-00 00 40 0100 01972 5122 439733 347893 203"
"151.97713"
"$GPGGA,232701,2511.8026,N,07917.4647,W,1,10,2.2,17"
"##MN-00 00 39 0100 01974 5122 439798 347918 203"
"151.977176"
"$GPGGA,232705,2511.8028,N,07917.4624,W,1,10,2.2,17"
"##MN-00 00 39 0101 01976 5123 439839 347935 203"
"151.977222"
"$GPGGA,232709,2511.8033,N,07917.4600,W,1,10,2.2,17"
"##MN-00 00 37 0101 01972 5124 439839 347936 203"
"151.977269"
"$GPGGA,232713,2511.8034,N,07917.4582,W,1,10,2.2,17"
"##MN-00 00 38 0102 01973 5125 439818 347931 203"
"151.977315"
"$GPGGA,232717,2511.8036,N,07917.4558,W,1,9,2.3,16,"
"##MN-00 00 39 0103 01970 5126 439783 347920 203"
"151.977361"
"$GPGGA,232721,2511.8042,N,07917.4526,W,1,10,2.2,16"
"##MN-00 00 41 0103 01972 5126 439769 347918 203"
"151.977407"
"$GPGGA,232725,2511.8046,N,07917.4500,W,1,10,2.2,16"
"##MN-00 00 41 0104 01972 5127 439793 347925 203"
"151.977454"
"$GPGGA,232729,2511.8049,N,07917.4473,W,1,10,2.2,16"
"##MN-00 00 43 0105 01974 5128 439809 347932 203"
"151.9775"
"$GPGGA,232733,2511.8051,N,07917.4447,W,1,10,2.2,16"
"##MN-00 00 42 0105 01975 5129 439813 347935 203"
"151.977546"
"$GPGGA,232737,2511.8054,N,07917.4421,W,1,9,2.2,16,"
"##MN-00 00 43 0106 01974 5130 439827 347941 203"
"151.977593"
"$GPGGA,232741,2511.8057,N,07917.4396,W,1,10,2.2,16"
"##MN-00 00 42 0107 01973 5130 439839 347940 203"
"151.977639"
"$GPGGA,232745,2511.8060,N,07917.4372,W,1,10,2.2,15"
"##MN-00 00 43 0107 01973 5131 439845 347947 203"
"151.977685"
"$GPGGA,232749,2511.8062,N,07917.4346,W,1,10,2.2,15"
"##MN-00 00 43 0108 01972 5132 439841 347946 203"
"151.977731"
"$GPGGA,232753,2511.8065,N,07917.4321,W,1,10,2.2,15"
"##MN-00 00 43 0109 01973 5133 439838 347944 203"
"151.977778"
"$GPGGA,232757,2511.8066,N,07917.4297,W,1,10,2.2,15"
"##MN-00 00 45 0110 01972 5133 439826 347939 203"
"151.977824"
"$GPGGA,232801,2511.8069,N,07917.4273,W,1,10,2.2,15"
"##MN-00 00 44 0110 01970 5135 439811 347932 203"
"151.97787"
"$GPGGA,232805,2511.8072,N,07917.4248,W,1,10,2.2,15"
"##MN-00 00 44 0111 01974 5135 439802 347931 203"
"151.977917"
"$GPGGA,232809,2511.8073,N,07917.4224,W,1,10,2.2,14"
"##MN-00 00 45 0112 01976 5136 439814 347937 203"
"151.977963"
"$GPGGA,232813,2511.8073,N,07917.4198,W,1,10,2.2,14"
"##MN-00 00 44 0113 01977 5137 439831 347943 203"
"151.978009"
"$GPGGA,232817,2511.8076,N,07917.4173,W,1,10,2.2,14"
"##MN-00 00 44 0113 01975 5138 439834 347942 203"
"151.978056"
"$GPGGA,232821,2511.8076,N,07917.4148,W,1,10,2.2,13"
"##MN-00 00 44 0114 01973 5139 439835 347942 203"
"151.978102"
"$GPGGA,232825,2511.8080,N,07917.4122,W,1,10,2.2,13"
"##MN-00 00 43 0115 01976 5139 439832 347942 203"
"151.978148"
"$GPGGA,232829,2511.8080,N,07917.4097,W,1,10,2.2,13"
"##MN-00 00 44 0116 01976 5140 439836 347945 203"
"151.978194"
"$GPGGA,232833,2511.8082,N,07917.4073,W,1,10,2.2,13"
"##MN-00 00 43 0116 01975 5141 439842 347947 203"
"151.978241"
"$GPGGA,232837,2511.8083,N,07917.4048,W,1,10,2.1,12"
"##MN+00 00 43 0117 01971 5142 439854 347951 203"
"151.978287"
"$GPGGA,232841,2511.8083,N,07917.4023,W,1,10,2.2,12"
"##MN+00 00 45 0118 01974 5142 439852 347952 203"
"151.978333"
"$GPGGA,232845,2511.8086,N,07917.3998,W,1,10,2.2,12"
"##MN+00 00 44 0118 01972 5143 439843 347948 203"
"151.97838"
"$GPGGA,232849,2511.8087,N,07917.3973,W,1,10,2.1,12"
"##MN-00 00 53 0119 01976 5144 439847 347949 203"
"151.978426"
"$GPGGA,232853,2511.8088,N,07917.3947,W,1,10,2.2,12"
"##MN+00 00 51 0120 01973 5145 439849 347948 203"
"151.978472"
"$GPGGA,232857,2511.8091,N,07917.3921,W,1,10,2.2,13"
"##MN+00 00 45 0120 01974 5145 439852 347949 203"
"151.978518"
"$GPGGA,232901,2511.8094,N,07917.3896,W,1,10,2.1,13"
"##MN+00 00 44 0121 01976 5146 439847 347948 203"
"151.978565"
"$GPGGA,232905,2511.8096,N,07917.3871,W,1,10,2.1,13"
"##MN-00 00 44 0122 01977 5147 439828 347940 203"
"151.978611"
"$GPGGA,232909,2511.8098,N,07917.3847,W,1,10,2.1,13"
"##MN-00 00 44 0122 01972 5148 439813 347935 203"
"151.978657"
"$GPGGA,232913,2511.8101,N,07917.3822,W,1,10,2.1,14"
"##MN-00 00 44 0123 01972 5149 439809 347932 203"
"151.978704"
"#increment_net"
"$GPGGA,232917,2511.8102,N,07917.3797,W,1,10,2.1,14"
"##MN-00 00 45 0124 01973 5150 439809 347932 203"
"151.97875"
"$GPGGA,232921,2511.8105,N,07917.3771,W,1,10,2.1,14"
"##MN-00 00 43 0124 01974 5150 439807 347931 203"
"151.978796"
"$GPGGA,232925,2511.8107,N,07917.3745,W,1,10,2.1,15"
"##MN-00 00 44 0125 01974 5151 439820 347938 203"
"151.978843"
"$GPGGA,232929,2511.8109,N,07917.3719,W,1,10,2.1,15"
"##MN-00 00 45 0126 01973 5152 439823 347937 203"
"151.978889"
"$GPGGA,232933,2511.8112,N,07917.3694,W,1,10,2.1,15"
"##MN-00 00 42 0126 01973 5153 439818 347935 203"
"151.978935"
"$GPGGA,232937,2511.8116,N,07917.3669,W,1,10,2.1,15"
"##MN-00 00 45 0127 01973 5154 439814 347934 203"
"151.978981"
"$GPGGA,232941,2511.8120,N,07917.3643,W,1,10,2.1,15"
"##MN-00 00 44 0128 01971 5154 439800 347928 203"
"151.979028"
"$GPGGA,232945,2511.8123,N,07917.3618,W,1,10,2.1,15"
"##MN-00 00 46 0128 01974 5155 439789 347921 203"
"151.979074"
"$GPGGA,232949,2511.8127,N,07917.3593,W,1,10,2.1,16"
"##MN-00 00 46 0129 01975 5156 439789 347926 203"
"151.97912"
"$GPGGA,232953,2511.8130,N,07917.3567,W,1,10,2.1,16"
"##MN-00 00 44 0130 01976 5157 439798 347928 203"
"151.979167"
"$GPGGA,232957,2511.8134,N,07917.3541,W,1,10,2.1,16"
"##MN-00 00 46 0130 01976 5157 439800 347928 203"
"151.979213"
"$GPGGA,233001,2511.8138,N,07917.3515,W,1,10,2.1,16"
"##MN-00 00 43 0131 01975 5158 439801 347929 203"
"151.979259"
"$GPGGA,233005,2511.8141,N,07917.3490,W,1,10,2.1,16"
"##MN-00 00 45 0132 01977 5159 439806 347931 203"
"151.979306"
"$GPGGA,233009,2511.8143,N,07917.3465,W,1,10,2.1,15"
"##MN-00 00 44 0133 01975 5160 439807 347931 203"
"151.979352"
"$GPGGA,233013,2511.8147,N,07917.3439,W,1,10,2.1,15"
"##MN-00 00 45 0133 01976 5161 439813 347932 203"
"151.979398"
"$GPGGA,233017,2511.8151,N,07917.3415,W,1,10,2.1,15"
"##MN-00 00 46 0134 01976 5161 439810 347933 203"
"151.979444"
"$GPGGA,233021,2511.8154,N,07917.3389,W,1,10,2.1,15"
"##MN-00 00 44 0135 01976 5162 439801 347930 203"
"151.979491"
"$GPGGA,233025,2511.8156,N,07917.3363,W,1,10,2.1,15"
"##MN-00 00 46 0136 01974 5163 439789 347925 203"
"151.979537"
"$GPGGA,233029,2511.8159,N,07917.3338,W,1,10,2.1,15"
"##MN-00 00 45 0136 01974 5163 439779 347920 203"
"151.979583"
"$GPGGA,233033,2511.8162,N,07917.3312,W,1,10,2.1,15"
"##MN-00 00 45 0137 01975 5164 439777 347920 203"
"151.97963"
"$GPGGA,233037,2511.8165,N,07917.3287,W,1,10,2.1,15"
"##MN-00 00 45 0137 01974 5165 439784 347924 203"
"151.979676"
"$GPGGA,233041,2511.8167,N,07917.3262,W,1,10,2.1,15"
"##MN-00 00 45 0138 01975 5166 439772 347919 203"
"151.979722"
"$GPGGA,233045,2511.8170,N,07917.3237,W,1,10,2.1,15"
"##MN-00 00 44 0139 01975 5167 439748 347908 203"
"151.979769"
"$GPGGA,233049,2511.8173,N,07917.3212,W,1,10,2.1,15"
"##MN-00 00 46 0139 01976 5167 439753 347912 203"
"151.979815"
"$GPGGA,233053,2511.8174,N,07917.3188,W,1,10,2.1,15"
"##MN-00 00 45 0140 01975 5168 439764 347914 203"
"151.979861"
"$GPGGA,233057,2511.8174,N,07917.3164,W,1,10,2.1,15"
"##MN-00 00 44 0140 01975 5169 439781 347922 203"
"151.979907"
"$GPGGA,233101,2511.8175,N,07917.3138,W,1,10,2.1,16"
"##MN-00 00 44 0141 01974 5169 439780 347920 203"
"151.979954"
"$GPGGA,233105,2511.8176,N,07917.3115,W,1,10,2.1,16"
"##MN-00 00 47 0142 01974 5170 439769 347919 203"
"151.98"
"$GPGGA,233109,2511.8181,N,07917.3089,W,1,10,2.1,16"
"##MN-00 00 44 0142 01975 5171 439749 347909 203"
"151.980046"
"$GPGGA,233113,2511.8185,N,07917.3063,W,1,10,2.1,16"
"##MN-00 00 48 0143 01972 5172 439747 347909 203"
"151.980093"
"$GPGGA,233117,2511.8187,N,07917.3036,W,1,10,2.1,16"
"##MN-00 00 45 0143 01975 5173 439746 347908 203"
"151.980139"
"$GPGGA,233121,2511.8189,N,07917.3010,W,1,10,2.1,16"
"##MN-00 00 45 0144 01972 5173 439740 347906 203"
"151.980185"
"$GPGGA,233125,2511.8194,N,07917.2983,W,1,10,2.1,17"
"##MN-00 00 46 0145 01973 5174 439724 347899 203"
"151.980231"
"$GPGGA,233129,2511.8195,N,07917.2958,W,1,10,2.1,17"
"##MN-00 00 45 0145 01973 5175 439709 347893 203"
"151.980278"
"$GPGGA,233133,2511.8199,N,07917.2932,W,1,10,2.1,17"
"##MN-00 00 45 0146 01975 5175 439699 347888 203"
"151.980324"
"$GPGGA,233137,2511.8202,N,07917.2907,W,1,10,2.1,17"
"##MN-00 00 47 0147 01973 5176 439683 347881 203"
"151.980382"
"$GPGGA,233142,2511.8205,N,07917.2874,W,1,10,2.1,17"
"##MN-00 00 44 0147 01973 5177 439679 347882 203"
"151.980428"
"$GPGGA,233146,2511.8206,N,07917.2850,W,1,10,2.1,17"
"##MN-00 00 46 0148 01974 5178 439673 347879 203"
"151.980475"
"$GPGGA,233150,2511.8213,N,07917.2824,W,1,10,2.1,17"
"##MN-00 00 46 0149 01975 5178 439663 347874 203"
"151.980521"
"$GPGGA,233154,2511.8216,N,07917.2799,W,1,10,2.1,16"
"##MN+00 00 46 0150 01975 5179 439655 347871 203"
"151.980567"
"$GPGGA,233158,2511.8217,N,07917.2775,W,1,10,2.1,16"
"##MN+00 00 46 0150 01974 5180 439637 347864 203"
"151.980613"
"$GPGGA,233202,2511.8220,N,07917.2748,W,1,10,2.1,15"
"##MN+00 00 44 0151 01973 5180 439619 347855 203"
"151.98066"
"$GPGGA,233206,2511.8221,N,07917.2724,W,1,10,2.1,15"
"##MN+00 00 54 0152 01974 5181 439592 347845 203"
"151.980706"
"$GPGGA,233210,2511.8222,N,07917.2698,W,1,10,2.1,15"
"##MN+00 00 50 0152 01975 5182 439594 347844 203"
"151.980752"
"#increment_net"
"$GPGGA,233214,2511.8224,N,07917.2673,W,1,10,2.1,14"
"##MN+00 00 46 0153 01975 5182 439581 347841 203"
"151.980799"
"$GPGGA,233218,2511.8225,N,07917.2647,W,1,10,2.1,14"
"##MN-00 00 45 0153 01974 5183 439593 347848 203"
"151.980845"
"$GPGGA,233222,2511.8228,N,07917.2622,W,1,10,2.1,14"
"##MN-00 00 44 0154 01972 5184 439620 347854 203"
"151.980891"
"$GPGGA,233226,2511.8228,N,07917.2596,W,1,10,2.1,14"
"##MN-00 00 45 0155 01974 5185 439611 347854 203"
"151.980937"
"$GPGGA,233230,2511.8232,N,07917.2571,W,1,10,2.1,14"
"##MN-00 00 45 0156 01974 5185 439595 347856 203"
"151.980984"
"$GPGGA,233234,2511.8232,N,07917.2546,W,1,10,2.1,14"
"##MN-00 00 45 0156 01975 5186 439636 347870 203"
"151.98103"
"$GPGGA,233238,2511.8234,N,07917.2521,W,1,10,2.1,14"
"##MN-00 00 44 0157 01974 5187 439666 347875 203"
"151.981076"
"$GPGGA,233242,2511.8237,N,07917.2497,W,1,10,2.1,14"
"##MN-00 00 44 0158 01975 5188 439642 347873 203"
"151.981123"
"$GPGGA,233246,2511.8238,N,07917.2473,W,1,10,2.1,14"
"##MN-00 00 44 0159 01976 5188 439557 347858 203"
"151.981169"
"$GPGGA,233250,2511.8239,N,07917.2448,W,1,10,2.1,14"
"##MN-00 00 43 0160 01973 5189 439541 347849 203"
"151.981215"
"$GPGGA,233254,2511.8239,N,07917.2421,W,1,10,2.1,14"
"##MN-00 00 44 0160 01974 5190 439571 347835 203"
"151.981262"
"$GPGGA,233258,2511.8239,N,07917.2396,W,1,10,2.1,14"
"##MN-00 00 43 0161 01974 5190 439573 347845 203"
"151.981308"
"$GPGGA,233302,2511.8241,N,07917.2372,W,1,10,2.1,14"
"##MN-00 00 43 0162 01975 5191 439610 347849 203"
"151.981354"
"$GPGGA,233306,2511.8240,N,07917.2347,W,1,10,2.1,14"
"##MN-00 00 44 0163 01976 5192 439590 347848 203"
"151.9814"
"$GPGGA,233310,2511.8241,N,07917.2322,W,1,10,2.1,14"
"##MN-00 00 44 0163 01976 5193 439528 347828 203"
"151.981447"
"$GPGGA,233314,2511.8241,N,07917.2297,W,1,10,2.1,14"
"##MN-00 00 43 0164 01976 5193 439487 347817 203"
"151.981493"
"$GPGGA,233318,2511.8239,N,07917.2271,W,1,10,2.1,14"
"##MN-00 00 44 0165 01975 5194 439589 347842 203"
"151.981539"
"$GPGGA,233322,2511.8239,N,07917.2245,W,1,10,2.1,14"
"##MN-00 00 43 0166 01974 5195 439658 347872 203"
"151.981586"
"$GPGGA,233326,2511.8239,N,07917.2220,W,1,10,2.1,13"
"##MN-00 00 44 0167 01974 5195 439560 347838 203"
"151.981632"
"$GPGGA,233330,2511.8237,N,07917.2195,W,1,10,2.1,13"
"##MN-00 00 44 0167 01975 5196 439554 347836 203"
"151.981678"
"$GPGGA,233334,2511.8237,N,07917.2169,W,1,10,2.1,13"
"##MN-00 00 43 0168 01975 5196 439568 347839 203"
"151.981725"
"$GPGGA,233338,2511.8238,N,07917.2143,W,1,10,2.1,13"
"##MN-00 00 43 0169 01975 5197 439626 347846 203"
"151.981771"
"$GPGGA,233342,2511.8238,N,07917.2117,W,1,10,2.1,13"
"##MN-00 00 43 0170 01975 5198 439630 347852 203"
"151.981817"
"$GPGGA,233346,2511.8239,N,07917.2092,W,1,10,2.1,13"
"##MN-00 00 43 0171 01976 5199 439572 347842 203"
"151.981863"
"$GPGGA,233350,2511.8239,N,07917.2067,W,1,10,2.1,14"
"##MN-00 00 43 0171 01974 5199 439552 347832 203"
"151.98191"
"$GPGGA,233354,2511.8239,N,07917.2041,W,1,10,2.1,14"
"##MN-00 00 44 0172 01975 5200 439530 347832 203"
"151.981956"
"$GPGGA,233358,2511.8239,N,07917.2015,W,1,10,2.1,14"
"##MN-00 00 44 0173 01975 5200 439576 347859 203"
"151.982002"
"$GPGGA,233402,2511.8242,N,07917.1990,W,1,10,2.1,13"
"##MN-00 00 44 0173 01972 5201 439607 347857 203"
"151.982049"
"$GPGGA,233406,2511.8242,N,07917.1964,W,1,10,2.1,13"
"##MN-00 00 43 0174 01974 5202 439588 347855 203"
"151.982095"
"$GPGGA,233410,2511.8243,N,07917.1940,W,1,10,2.1,13"
"##MN-00 00 45 0175 01972 5203 439531 347835 203"
"151.982141"
"$GPGGA,233414,2511.8244,N,07917.1915,W,1,10,2.1,13"
"##MN-00 00 43 0175 01974 5203 439520 347825 203"
"151.982188"
"$GPGGA,233418,2511.8246,N,07917.1890,W,1,10,2.1,13"
"##MN-00 00 45 0176 01974 5204 439548 347843 203"
"151.982234"
"$GPGGA,233422,2511.8246,N,07917.1865,W,1,10,2.1,13"
"##MN+00 00 44 0177 01974 5205 439585 347847 203"
"151.98228"
"$GPGGA,233426,2511.8248,N,07917.1841,W,1,10,2.1,13"
"##MN+00 00 45 0177 01973 5205 439567 347847 203"
"151.982326"
"$GPGGA,233430,2511.8249,N,07917.1816,W,1,10,2.1,13"
"##MN+00 00 44 0178 01973 5206 439517 347849 203"
"151.982373"
"$GPGGA,233434,2511.8250,N,07917.1791,W,1,10,2.1,13"
"##MN-00 00 52 0179 01976 5207 439591 347862 203"
"151.982419"
"$GPGGA,233438,2511.8253,N,07917.1767,W,1,10,2.1,13"
"##MN+00 00 49 0179 01974 5207 439646 347865 203"
"151.982465"
"$GPGGA,233442,2511.8253,N,07917.1743,W,1,10,2.1,13"
"##MN+00 00 44 0180 01976 5208 439688 347882 203"
"151.982512"
"$GPGGA,233446,2511.8254,N,07917.1719,W,1,10,2.1,13"
"##MN+00 00 43 0181 01977 5209 439716 347899 203"
"151.982558"
"#increment_net"
"$GPGGA,233450,2511.8255,N,07917.1694,W,1,10,2.3,13"
"##MN-00 00 42 0182 01977 5209 439745 347918 203"
"151.982604"
"$GPGGA,233454,2511.8257,N,07917.1670,W,1,10,2.1,13"
"##MN-00 00 42 0182 01977 5210 439757 347925 203"
"151.98265"
"$GPGGA,233458,2511.8259,N,07917.1645,W,1,10,2.1,13"
"##MN-00 00 42 0183 01974 5211 439761 347926 203"
"151.982697"
"$GPGGA,233502,2511.8260,N,07917.1621,W,1,10,2.1,13"
"##MN-00 00 42 0184 01976 5211 439775 347931 203"
"151.982743"
"$GPGGA,233506,2511.8261,N,07917.1603,W,1,10,2.1,13"
"##MN-00 00 41 0185 01977 5211 439795 347941 203"
"151.982789"
"$GPGGA,233510,2511.8264,N,07917.1572,W,1,10,2.1,13"
"##MN-00 00 41 0185 01978 5212 439822 347948 203"
"151.982836"
"$GPGGA,233514,2511.8264,N,07917.1549,W,1,10,2.1,13"
"##MN-00 00 40 0186 01977 5213 439835 347953 203"
"151.982882"
"$GPGGA,233518,2511.8265,N,07917.1525,W,1,10,2.1,13"
"##MN-00 00 41 0187 01976 5214 439846 347958 203"
"151.982928"
"$GPGGA,233522,2511.8266,N,07917.1500,W,1,10,2.1,13"
"##MN-00 00 39 0187 01977 5214 439856 347961 203"
"151.982975"
"$GPGGA,233526,2511.8266,N,07917.1477,W,1,10,2.1,13"
"##MN-00 00 40 0188 01977 5215 439854 347960 203"
"151.983021"
"$GPGGA,233530,2511.8268,N,07917.1452,W,1,9,2.1,13,"
"##MN-00 00 41 0189 01978 5215 439865 347963 203"
"151.983067"
"$GPGGA,233534,2511.8270,N,07917.1428,W,1,10,2.1,13"
"##MN-00 00 40 0190 01979 5216 439876 347969 203"
"151.983113"
"$GPGGA,233538,2511.8270,N,07917.1405,W,1,10,2.1,13"
"##MN-00 00 41 0190 01976 5217 439891 347972 203"
"151.98316"
"$GPGGA,233542,2511.8271,N,07917.1381,W,1,10,2.1,13"
"##MN-00 00 41 0191 01977 5217 439893 347972 203"
"151.983206"
"$GPGGA,233546,2511.8273,N,07917.1356,W,1,9,2.1,13,"
"##MN-00 00 41 0192 01978 5218 439896 347973 203"
"151.983252"
"$GPGGA,233550,2511.8275,N,07917.1330,W,1,10,2.1,13"
"##MN-00 00 41 0193 01979 5219 439900 347973 203"
"151.983299"
"$GPGGA,233554,2511.8278,N,07917.1305,W,1,10,2.1,13"
"##MN-00 00 41 0193 01980 5219 439907 347977 203"
"151.983345"
"$GPGGA,233559,2511.8279,N,07917.1273,W,1,10,2.1,13"
"##MN-00 00 42 0194 01978 5220 439913 347979 203"
"151.983391"
"$GPGGA,233603,2511.8279,N,07917.1249,W,1,10,2.1,13"
"##MN-00 00 40 0195 01978 5221 439913 347978 203"
"151.983438"
"$GPGGA,233606,2511.8282,N,07917.1230,W,1,9,2.1,13,"
"##MN-00 00 41 0196 01978 5221 439911 347978 203"
"151.983484"
"$GPGGA,233611,2511.8286,N,07917.1200,W,1,10,2.1,13"
"##MN-00 00 41 0196 01976 5222 439910 347978 203"
"151.98353"
"$GPGGA,233614,2511.8286,N,07917.1181,W,1,10,2.1,13"
"##MN-00 00 41 0197 01976 5222 439911 347978 203"
"151.983576"
"$GPGGA,233619,2511.8286,N,07917.1149,W,1,10,2.1,13"
"##MN-00 00 41 0198 01976 5223 439911 347978 203"
"151.983634"
"$GPGGA,233623,2511.8288,N,07917.1124,W,1,10,2.1,13"
"##MN-00 00 41 0199 01978 5223 439912 347978 203"
"151.983681"
"$GPGGA,233627,2511.8289,N,07917.1099,W,1,10,2.1,13"
"##MN-00 00 41 0199 01974 5224 439912 347977 203"
"151.983727"
"$GPGGA,233631,2511.8292,N,07917.1075,W,1,10,2.1,13"
"##MN-00 00 41 0200 01976 5225 439911 347976 203"
"151.983773"
"$GPGGA,233635,2511.8293,N,07917.1050,W,1,10,2.1,13"
"##MN-00 00 40 0201 01974 5225 439909 347976 203"
"151.983819"
"$GPGGA,233639,2511.8296,N,07917.1025,W,1,10,2.1,13"
"##MN-00 00 42 0202 01974 5226 439908 347977 203"
"151.983866"
"$GPGGA,233643,2511.8297,N,07917.0999,W,1,10,2.1,13"
"##MN-00 00 41 0202 01974 5227 439907 347975 203"
"151.983912"
"$GPGGA,233647,2511.8300,N,07917.0973,W,1,10,2.1,13"
"##MN-00 00 42 0203 01976 5227 439906 347976 203"
"151.983958"
"$GPGGA,233651,2511.8300,N,07917.0948,W,1,10,2.1,13"
"##MN-00 00 42 0204 01975 5228 439905 347977 203"
"151.984005"
"$GPGGA,233655,2511.8304,N,07917.0922,W,1,10,2.1,13"
"##MN-00 00 42 0205 01974 5228 439904 347977 203"
"151.984051"
"$GPGGA,233659,2511.8306,N,07917.0897,W,1,9,2.2,13,"
"##MN+00 00 43 0205 01975 5229 439902 347975 203"
"151.984097"
"$GPGGA,233703,2511.8307,N,07917.0868,W,1,10,2.1,13"
"##MN+00 00 41 0206 01975 5229 439899 347974 203"
"151.984143"
"$GPGGA,233707,2511.8308,N,07917.0841,W,1,10,2.1,13"
"##MN+00 00 42 0207 01975 5230 439897 347970 203"
"151.98419"
"$GPGGA,233711,2511.8307,N,07917.0816,W,1,10,2.1,13"
"##MN+00 00 50 0207 01978 5230 439896 347969 203"
"151.984236"
"#increment_net"
"$GPGGA,233715,2511.8307,N,07917.0791,W,1,10,2.1,13"
"##MN+00 00 48 0208 01974 5231 439894 347969 203"
"151.984282"
"$GPGGA,233719,2511.8309,N,07917.0766,W,1,10,2.1,13"
"##MN+00 00 45 0209 01975 5232 439892 347969 203"
"151.984329"
"$GPGGA,233723,2511.8311,N,07917.0742,W,1,10,2.1,14"
"##MN-00 00 44 0210 01974 5232 439896 347970 203"
"151.984375"
"$GPGGA,233727,2511.8315,N,07917.0716,W,1,10,2.1,14"
"##MN-00 00 41 0210 01974 5233 439903 347978 203"
"151.984421"
"$GPGGA,233731,2511.8316,N,07917.0692,W,1,10,2.1,14"
"##MN-00 00 43 0211 01972 5234 439908 347984 203"
"151.984468"
"$GPGGA,233735,2511.8320,N,07917.0665,W,1,9,2.1,14,"
"##MN-00 00 41 0211 01973 5234 439912 347986 203"
"151.984514"
"$GPGGA,233739,2511.8322,N,07917.0640,W,1,10,2.1,14"
"##MN-00 00 42 0212 01973 5235 439918 347991 203"
"151.98456"
"$GPGGA,233743,2511.8322,N,07917.0615,W,1,10,2.1,13"
"##MN-00 00 41 0213 01973 5235 439920 347994 203"
"151.984607"
"$GPGGA,233747,2511.8322,N,07917.0590,W,1,10,2.1,13"
"##MN-00 00 43 0214 01973 5236 439920 347993 203"
"151.984653"
"$GPGGA,233751,2511.8323,N,07917.0564,W,1,10,2.1,13"
"##MN-00 00 42 0214 01973 5236 439922 347994 203"
"151.984699"
"$GPGGA,233755,2511.8326,N,07917.0539,W,1,10,2.1,13"
"##MN-00 00 42 0215 01970 5237 439927 347997 203"
"151.984745"
"$GPGGA,233759,2511.8328,N,07917.0513,W,1,10,2.1,13"
"##MN-00 00 42 0215 01974 5237 439926 347995 203"
"151.984792"
"$GPGGA,233803,2511.8329,N,07917.0488,W,1,10,2.1,13"
"##MN-00 00 42 0216 01972 5238 439921 347994 203"
"151.984838"
"$GPGGA,233807,2511.8330,N,07917.0463,W,1,10,2.1,13"
"##MN-00 00 43 0217 01974 5238 439920 347994 203"
"151.984884"
"$GPGGA,233811,2511.8333,N,07917.0438,W,1,10,2.1,13"
"##MN-00 00 41 0218 01974 5239 439914 347992 203"
"151.984931"
"$GPGGA,233815,2511.8333,N,07917.0413,W,1,10,2.1,13"
"##MN-00 00 42 0219 01975 5240 439908 347986 203"
"151.984977"
"$GPGGA,233819,2511.8335,N,07917.0388,W,1,9,2.1,13,"
"##MN-00 00 43 0219 01971 5240 439913 347989 203"
"151.985023"
"$GPGGA,233823,2511.8336,N,07917.0363,W,1,10,2.1,13"
"##MN-00 00 39 0220 01974 5241 439921 347992 203"
"151.985069"
"$GPGGA,233827,2511.8337,N,07917.0338,W,1,10,2.1,13"
"##MN-00 00 42 0221 01972 5241 439910 347985 203"
"151.985116"
"$GPGGA,233831,2511.8340,N,07917.0314,W,1,10,2.1,13"
"##MN-00 00 41 0221 01975 5242 439903 347982 203"
"151.985162"
"$GPGGA,233835,2511.8341,N,07917.0289,W,1,10,2.1,13"
"##MN-00 00 43 0222 01973 5242 439903 347978 203"
"151.985208"
"$GPGGA,233839,2511.8342,N,07917.0264,W,1,9,2.1,13,"
"##MN-00 00 40 0222 01973 5243 439900 347976 203"
"151.985255"
"$GPGGA,233843,2511.8347,N,07917.0239,W,1,10,2.1,13"
"##MN-00 00 43 0223 01973 5244 439909 347980 203"
"151.985301"
"$GPGGA,233847,2511.8351,N,07917.0213,W,1,10,2.3,13"
"##MN-00 00 43 0224 01974 5244 439920 347984 203"
"151.985347"
"$GPGGA,233851,2511.8351,N,07917.0187,W,1,9,2.1,13,"
"##MN-00 00 42 0224 01975 5245 439912 347982 203"
"151.985394"
"$GPGGA,233855,2511.8352,N,07917.0162,W,1,9,2.1,13,"
"##MN-00 00 42 0225 01974 5245 439890 347976 203"
"151.98544"
"$GPGGA,233859,2511.8353,N,07917.0137,W,1,10,2.1,13"
"##MN-00 00 42 0226 01974 5246 439872 347974 203"
"151.985486"
"$GPGGA,233903,2511.8355,N,07917.0112,W,1,10,2.1,14"
"##MN-00 00 42 0227 01974 5246 439872 347975 203"
"151.985532"
"$GPGGA,233907,2511.8358,N,07917.0085,W,1,10,2.1,14"
"##MN-00 00 42 0227 01974 5246 439899 347982 203"
"151.985579"
"$GPGGA,233911,2511.8361,N,07917.0061,W,1,10,2.1,14"
"##MN-00 00 42 0228 01975 5247 439914 347980 203"
"151.985625"
"$GPGGA,233915,2511.8359,N,07917.0034,W,1,10,2.1,15"
"##MN-00 00 40 0229 01974 5248 439913 347974 203"
"151.985671"
"$GPGGA,233919,2511.8362,N,07917.0009,W,1,10,2.1,15"
"##MN-00 00 42 0230 01975 5248 439913 347973 203"
"151.985718"
"$GPGGA,233923,2511.8365,N,07916.9984,W,1,10,2.1,16"
"##MN+00 00 42 0230 01976 5249 439923 347980 203"
"151.985764"
"$GPGGA,233927,2511.8366,N,07916.9960,W,1,10,2.1,16"
"##MN+00 00 42 0231 01973 5249 439922 347986 203"
"151.98581"
"$GPGGA,233931,2511.8371,N,07916.9934,W,1,9,2.1,16,"
"##MN+00 00 42 0232 01976 5250 439918 347982 203"
"151.985856"
"$GPGGA,233935,2511.8375,N,07916.9908,W,1,9,2.2,16,"
"##MN-00 00 49 0232 01977 5250 439933 347982 203"
"151.985903"
"$GPGGA,233939,2511.8380,N,07916.9883,W,1,10,2.1,17"
"##MN-00 00 49 0233 01975 5251 439915 347981 203"
"151.985949"
"$GPGGA,233943,2511.8385,N,07916.9857,W,1,9,2.2,17,"
"##MN+00 00 44 0234 01978 5251 440023 348004 203"
"151.985995"
"$GPGGA,233947,2511.8387,N,07916.9831,W,1,10,2.1,17"
"##MN+00 00 43 0235 01981 5252 440144 348051 203"
"151.986042"
"#increment_net"
"$GPGGA,233951,2511.8391,N,07916.9805,W,1,10,2.1,17"
"##MN+00 00 40 0236 01987 5252 440315 348114 203"
"151.986088"
"$GPGGA,233955,2511.8396,N,07916.9780,W,1,10,2.1,18"
"##MN-00 00 40 0237 01989 5253 440576 348178 203"
"151.986134"
"$GPGGA,233959,2511.8400,N,07916.9755,W,1,10,2.1,18"
"##MN-00 00 40 0238 01992 5253 440751 348190 203"
"151.986181"
"$GPGGA,234003,2511.8405,N,07916.9729,W,1,10,2.1,18"
"##MN-00 00 38 0239 01993 5253 440890 348235 203"
"151.986227"
"$GPGGA,234007,2511.8409,N,07916.9703,W,1,10,2.1,19"
"##MN-00 00 37 0241 01997 5254 441031 348270 203"
"151.986273"
"$GPGGA,234011,2511.8415,N,07916.9675,W,1,9,2.3,19,"
"##MN-00 00 37 0242 01989 5254 441111 348287 203"
"151.986319"
"$GPGGA,234015,2511.8420,N,07916.9648,W,1,9,2.3,19,"
"##MN-00 00 37 0243 01981 5255 441041 348285 203"
"151.986366"
"$GPGGA,234019,2511.8426,N,07916.9621,W,1,9,2.3,19,"
"##MN-00 00 37 0244 01974 5255 440834 348249 203"
"151.986412"
"$GPGGA,234023,2511.8430,N,07916.9594,W,1,10,2.1,19"
"##MN-00 00 38 0245 01967 5256 440480 348189 203"
"151.986458"
"$GPGGA,234027,2511.8436,N,07916.9567,W,1,9,2.3,19,"
"##MN-00 00 38 0246 01959 5256 440143 348093 203"
"151.986505"
"$GPGGA,234031,2511.8440,N,07916.9540,W,1,10,2.1,19"
"##MN-00 00 40 0247 01947 5256 440031 348049 203"
"151.986551"
"$GPGGA,234035,2511.8445,N,07916.9513,W,1,10,2.1,19"
"##MN-00 00 38 0248 01940 5257 439870 348011 203"
"151.986597"
"$GPGGA,234039,2511.8451,N,07916.9486,W,1,10,2.1,19"
"##MN-00 00 38 0249 01931 5257 439580 347945 203"
"151.986644"
"$GPGGA,234044,2511.8458,N,07916.9452,W,1,10,2.1,19"
"##MN-00 00 38 0250 01919 5258 439298 347846 203"
"151.98669"
"$GPGGA,234048,2511.8463,N,07916.9426,W,1,10,2.1,19"
"##MN-00 00 37 0252 01908 5259 438834 347665 203"
"151.986736"
"$GPGGA,234052,2511.8472,N,07916.9399,W,1,10,2.1,19"
"##MN-00 00 36 0253 01898 5259 437807 347494 203"
"151.986782"
"$GPGGA,234056,2511.8480,N,07916.9372,W,1,9,2.2,19,"
"##MN-00 00 35 0254 01886 5259 437092 347390 203"
"151.986829"
"$GPGGA,234059,2511.8484,N,07916.9353,W,1,10,2.1,18"
"##MN-00 00 35 0254 01877 5260 436952 347350 203"
"151.986887"
"$GPGGA,234103,2511.8492,N,07916.9328,W,1,10,2.1,18"
"##MN-00 00 33 0255 01867 5260 436949 347301 203"
"151.986933"
"$GPGGA,234108,2511.8501,N,07916.9297,W,1,9,2.2,18,"
"##MN-00 00 33 0256 01859 5261 436975 347322 203"
"151.986979"
"$GPGGA,234112,2511.8508,N,07916.9274,W,1,9,2.2,18,"
"##MN-00 00 31 0257 01859 5261 437058 347326 203"
"151.987025"
"$GPGGA,234116,2511.8514,N,07916.9252,W,1,9,2.2,18,"
"##MN-00 00 25 0258 01856 5262 437060 347331 203"
"151.987072"
"$GPGGA,234120,2511.8519,N,07916.9229,W,1,9,2.1,18,"
"##MN-00 00 18 0258 01860 5262 437087 347324 203"
