" Tow: 2Es-B   RVWS/WS1406"
" Date: 05/31/2014"
" Temperature Probe #  2597    Conductivity Probe #  2870"
" Pressure Probe #  109"
" Flow Meter Calibration  4.71 (m/count)  "
"151.999282"
"$GPGGA,235851,2511.8824,N,07915.7646,W,1,10,1.8,20"
"##MN-00 00 18 0084 01857 5302 446684 925335 203"
"151.999329"
"$GPGGA,235859,2511.8849,N,07915.7600,W,1,10,1.6,20"
"##MN-00 00 29 0084 01857 5302 443325 875303 203"
"151.999375"
"$GPGGA,235903,2511.8864,N,07915.7572,W,1,10,1.6,20"
"##MN-00 00 31 0085 01860 5302 437200 421747 203"
"151.999421"
"$GPGGA,235907,2511.8878,N,07915.7550,W,1,10,1.6,20"
"##MN-00 00 37 0085 01857 5302 437032 366898 203"
"151.999468"
"$GPGGA,235911,2511.8891,N,07915.7528,W,1,10,1.6,20"
"##MN-00 00 36 0086 01857 5302 437091 355354 203"
"151.999514"
"$GPGGA,235915,2511.8904,N,07915.7506,W,1,10,1.6,21"
"##MN-00 00 38 0086 01854 5302 437094 348443 203"
"151.99956"
"$GPGGA,235919,2511.8918,N,07915.7484,W,1,10,1.6,21"
"##MN-00 00 41 0087 01859 5301 437080 356237 203"
"151.999606"
"$GPGGA,235923,2511.8932,N,07915.7462,W,1,10,1.6,21"
"##MN-00 00 44 0087 01857 5301 437043 348722 203"
"151.999653"
"$GPGGA,235927,2511.8947,N,07915.7440,W,1,10,1.8,21"
"##MN-00 00 44 0088 01858 5301 436987 346847 203"
"151.999699"
"$GPGGA,235931,2511.8965,N,07915.7418,W,1,10,1.8,21"
"##MN-00 00 49 0089 01863 5301 436948 347306 203"
"151.999745"
"$GPGGA,235935,2511.8979,N,07915.7396,W,1,10,1.8,21"
"##MN-00 00 49 0089 01870 5301 436921 348109 203"
"151.999792"
"$GPGGA,235939,2511.8994,N,07915.7375,W,1,10,1.8,21"
"##MN-00 00 48 0090 01879 5300 436907 346687 203"
"151.999838"
"$GPGGA,235943,2511.9007,N,07915.7358,W,1,10,1.8,20"
"##MN-00 00 48 0090 01885 5300 436907 346681 203"
"151.999884"
"$GPGGA,235947,2511.9016,N,07915.7341,W,1,10,1.6,21"
"##MN-00 00 47 0091 01894 5300 436923 346681 203"
"151.999931"
"$GPGGA,235951,2511.9029,N,07915.7325,W,1,10,1.8,21"
"##MN-00 00 47 0091 01900 5300 437107 346763 203"
"151.999988"
"$GPGGA,235955,2511.9034,N,07915.7309,W,1,10,1.6,21"
"##MN-00 00 47 0092 01908 5300 438530 347364 203"
"152.000069"
"$GPGGA,235959,2511.9043,N,07915.7295,W,1,10,1.6,21"
"##MN-00 00 43 0093 01921 5300 440515 347909 203"
"152.000116"
"$GPGGA,000007,2511.9062,N,07915.7266,W,1,10,1.6,22"
"##MN-00 00 45 0093 01930 5300 441047 348057 203"
"152.000162"
"$GPGGA,000011,2511.9069,N,07915.7250,W,1,10,1.6,22"
"##MN-00 00 44 0094 01939 5300 441095 348075 203"
"152.000208"
"$GPGGA,000015,2511.9077,N,07915.7232,W,1,9,1.6,22,"
"##MN-00 00 45 0094 01948 5300 441247 348142 203"
"152.000255"
"$GPGGA,000019,2511.9084,N,07915.7212,W,1,10,1.6,23"
"##MN-00 00 44 0095 01958 5300 441318 348158 203"
"152.000301"
"$GPGGA,000023,2511.9094,N,07915.7193,W,1,10,1.6,23"
"##MN-00 00 43 0095 01964 5300 441378 348180 203"
"152.000347"
"$GPGGA,000027,2511.9102,N,07915.7173,W,1,10,1.6,22"
"##MN-00 00 42 0096 01970 5300 441424 348197 203"
"152.000394"
"$GPGGA,000031,2511.9108,N,07915.7151,W,1,10,1.6,22"
"##MN-00 00 42 0096 01978 5300 441440 348190 203"
"152.00044"
"$GPGGA,000035,2511.9115,N,07915.7130,W,1,10,1.6,22"
"##MN-00 00 41 0097 01981 5300 441431 348183 203"
"152.000486"
"$GPGGA,000039,2511.9120,N,07915.7107,W,1,10,1.6,22"
"##MN-00 00 37 0097 01977 5300 441425 348179 203"
"152.000532"
"$GPGGA,000043,2511.9128,N,07915.7085,W,1,10,1.6,22"
"##MN-00 00 36 0098 01977 5300 441415 348174 203"
"152.000579"
"$GPGGA,000047,2511.9135,N,07915.7063,W,1,10,1.6,22"
"##MN-00 00 36 0099 01975 5300 441403 348171 203"
"152.000625"
"$GPGGA,000051,2511.9141,N,07915.7040,W,1,10,1.6,22"
"##MN-00 00 38 0099 01976 5300 441386 348168 203"
"152.000671"
"$GPGGA,000055,2511.9148,N,07915.7018,W,1,10,1.6,21"
"##MN-00 00 37 0100 01973 5300 441369 348162 203"
"152.000718"
"$GPGGA,000059,2511.9153,N,07915.6997,W,1,10,1.6,21"
"##MN-00 00 38 0101 01972 5300 441349 348152 203"
"152.000764"
"$GPGGA,000103,2511.9155,N,07915.6975,W,1,10,1.6,21"
"##MN-00 00 39 0101 01973 5300 441345 348152 203"
"152.00081"
"$GPGGA,000107,2511.9160,N,07915.6956,W,1,10,1.6,21"
"##MN+00 00 39 0102 01972 5300 441347 348154 203"
"152.000856"
"$GPGGA,000111,2511.9164,N,07915.6935,W,1,10,1.6,21"
"##MN+00 00 38 0103 01973 5300 441356 348158 203"
"152.000903"
"$GPGGA,000115,2511.9173,N,07915.6917,W,1,9,1.6,21,"
"##MN+00 00 39 0103 01972 5300 441365 348161 203"
"152.000949"
"$GPGGA,000119,2511.9182,N,07915.6899,W,1,10,1.6,21"
"##MN-00 00 39 0104 01973 5301 441376 348163 203"
"152.000995"
"$GPGGA,000123,2511.9188,N,07915.6877,W,1,10,1.6,21"
"##MN+00 00 39 0105 01973 5301 441386 348166 203"
"152.001042"
"$GPGGA,000127,2511.9193,N,07915.6856,W,1,10,1.6,21"
"##MN+00 00 38 0105 01972 5301 441397 348169 203"
"152.001088"
"$GPGGA,000131,2511.9199,N,07915.6834,W,1,10,1.6,21"
"##MN+00 00 46 0106 01972 5301 441401 348171 203"
"152.001134"
"$GPGGA,000135,2511.9204,N,07915.6812,W,1,10,1.6,21"
"##MN-00 00 45 0106 01972 5301 441399 348171 203"
"152.001181"
"#increment_net"
"$GPGGA,000139,2511.9209,N,07915.6790,W,1,10,1.6,20"
"##MN-00 00 41 0107 01970 5301 441388 348167 203"
"152.001227"
"$GPGGA,000143,2511.9213,N,07915.6768,W,1,10,1.6,20"
"##MN-00 00 39 0107 01972 5301 441371 348162 203"
"152.001273"
"$GPGGA,000147,2511.9220,N,07915.6746,W,1,9,1.6,19,"
"##MN-00 00 40 0108 01971 5301 441367 348160 203"
"152.001319"
"$GPGGA,000151,2511.9225,N,07915.6724,W,1,10,1.6,19"
"##MN-00 00 39 0109 01968 5301 441368 348161 203"
"152.001366"
"$GPGGA,000155,2511.9230,N,07915.6701,W,1,10,1.6,19"
"##MN-00 00 40 0109 01969 5301 441373 348163 203"
"152.001412"
"$GPGGA,000159,2511.9236,N,07915.6679,W,1,10,1.6,19"
"##MN-00 00 38 0110 01968 5301 441378 348165 203"
"152.001458"
"$GPGGA,000203,2511.9243,N,07915.6657,W,1,10,1.6,19"
"##MN-00 00 40 0111 01967 5302 441372 348165 203"
"152.001505"
"$GPGGA,000207,2511.9247,N,07915.6633,W,1,10,1.6,19"
"##MN-00 00 40 0111 01966 5302 441364 348162 203"
"152.001551"
"$GPGGA,000211,2511.9250,N,07915.6609,W,1,10,1.6,19"
"##MN-00 00 39 0112 01965 5302 441359 348161 203"
"152.001597"
"$GPGGA,000215,2511.9256,N,07915.6585,W,1,10,1.6,19"
"##MN-00 00 40 0113 01961 5302 441351 348158 203"
"152.001644"
"$GPGGA,000219,2511.9259,N,07915.6560,W,1,10,1.6,19"
"##MN-00 00 40 0114 01961 5302 441345 348157 203"
"152.00169"
"$GPGGA,000223,2511.9265,N,07915.6536,W,1,10,1.6,19"
"##MN-00 00 42 0114 01958 5302 441333 348162 203"
"152.001736"
"$GPGGA,000227,2511.9268,N,07915.6511,W,1,10,1.6,19"
"##MN-00 00 42 0115 01959 5302 441326 348152 203"
"152.001782"
"$GPGGA,000231,2511.9272,N,07915.6487,W,1,10,1.6,19"
"##MN-00 00 42 0116 01957 5302 441323 348152 203"
"152.001829"
"$GPGGA,000235,2511.9278,N,07915.6462,W,1,10,1.6,19"
"##MN-00 00 44 0116 01960 5302 441322 348151 203"
"152.001875"
"$GPGGA,000239,2511.9282,N,07915.6438,W,1,10,1.6,19"
"##MN-00 00 44 0117 01960 5303 441323 348151 203"
"152.001921"
"$GPGGA,000243,2511.9286,N,07915.6412,W,1,10,1.6,19"
"##MN-00 00 44 0118 01961 5303 441324 348150 203"
"152.001968"
"$GPGGA,000247,2511.9290,N,07915.6387,W,1,10,1.6,19"
"##MN-00 00 44 0119 01963 5303 441328 348151 203"
"152.002014"
"$GPGGA,000251,2511.9294,N,07915.6362,W,1,10,1.6,18"
"##MN-00 00 45 0120 01963 5303 441335 348153 203"
"152.00206"
"$GPGGA,000255,2511.9298,N,07915.6336,W,1,10,1.6,18"
"##MN-00 00 44 0120 01964 5303 441343 348157 203"
"152.002106"
"$GPGGA,000259,2511.9303,N,07915.6310,W,1,10,1.6,18"
"##MN-00 00 46 0121 01965 5303 441348 348157 203"
"152.002153"
"$GPGGA,000303,2511.9308,N,07915.6285,W,1,10,1.6,18"
"##MN-00 00 44 0122 01965 5304 441349 348156 203"
"152.002199"
"$GPGGA,000307,2511.9312,N,07915.6260,W,1,10,1.6,18"
"##MN-00 00 46 0122 01967 5304 441352 348157 203"
"152.002245"
"$GPGGA,000311,2511.9318,N,07915.6234,W,1,10,1.6,17"
"##MN-00 00 46 0123 01967 5304 441357 348158 203"
"152.002292"
"$GPGGA,000315,2511.9323,N,07915.6208,W,1,10,1.6,17"
"##MN-00 00 46 0124 01969 5304 441361 348159 203"
"152.002338"
"$GPGGA,000319,2511.9326,N,07915.6183,W,1,10,1.6,17"
"##MN-00 00 48 0125 01970 5304 441370 348160 203"
"152.002384"
"$GPGGA,000323,2511.9330,N,07915.6158,W,1,10,1.6,17"
"##MN-00 00 46 0125 01971 5304 441404 348172 203"
"152.002431"
"$GPGGA,000327,2511.9333,N,07915.6133,W,1,10,1.6,17"
"##MN-00 00 46 0126 01974 5304 441419 348176 203"
"152.002477"
"$GPGGA,000331,2511.9337,N,07915.6108,W,1,10,1.6,17"
"##MN+00 00 47 0127 01973 5305 441421 348176 203"
"152.002523"
"$GPGGA,000335,2511.9341,N,07915.6083,W,1,10,1.6,17"
"##MN+00 00 47 0128 01975 5305 441419 348175 203"
"152.002569"
"$GPGGA,000339,2511.9344,N,07915.6057,W,1,10,1.6,16"
"##MN+00 00 47 0129 01977 5305 441421 348177 203"
"152.002616"
"$GPGGA,000343,2511.9348,N,07915.6032,W,1,10,1.6,16"
"##MN-00 00 46 0129 01978 5305 441430 348181 203"
"152.002662"
"$GPGGA,000347,2511.9350,N,07915.6007,W,1,10,1.6,16"
"##MN-00 00 44 0130 01975 5305 441430 348180 203"
"152.002708"
"$GPGGA,000351,2511.9352,N,07915.5981,W,1,10,1.6,16"
"##MN-00 00 46 0131 01973 5305 441424 348178 203"
"152.002755"
"$GPGGA,000355,2511.9355,N,07915.5956,W,1,10,1.6,16"
"##MN+00 00 46 0132 01977 5305 441421 348178 203"
"152.002801"
"$GPGGA,000359,2511.9359,N,07915.5930,W,1,10,1.6,16"
"##MN+00 00 46 0133 01973 5306 441422 348178 203"
"152.002847"
"$GPGGA,000403,2511.9362,N,07915.5905,W,1,10,1.6,15"
"##MN+00 00 55 0134 01978 5306 441425 348178 203"
"152.002894"
"#increment_net"
"$GPGGA,000407,2511.9365,N,07915.5880,W,1,10,1.6,15"
"##MN-00 00 51 0134 01978 5306 441443 348180 203"
"152.00294"
"$GPGGA,000411,2511.9368,N,07915.5854,W,1,10,1.6,15"
"##MN-00 00 47 0135 01976 5306 441466 348192 203"
"152.002986"
"$GPGGA,000415,2511.9371,N,07915.5828,W,1,10,1.6,15"
"##MN-00 00 47 0136 01975 5307 441460 348194 203"
"152.003032"
"$GPGGA,000419,2511.9377,N,07915.5804,W,1,10,1.6,15"
"##MN-00 00 46 0137 01973 5307 441441 348192 203"
"152.003079"
"$GPGGA,000423,2511.9380,N,07915.5779,W,1,10,1.6,15"
"##MN-00 00 45 0137 01974 5306 441427 348189 203"
"152.003125"
"$GPGGA,000427,2511.9383,N,07915.5755,W,1,10,1.6,15"
"##MN-00 00 45 0138 01974 5307 441428 348189 203"
"152.003171"
"$GPGGA,000432,2511.9384,N,07915.5724,W,1,10,1.6,15"
"##MN-00 00 46 0139 01975 5307 441424 348187 203"
"152.003218"
"$GPGGA,000435,2511.9386,N,07915.5705,W,1,10,1.6,15"
"##MN-00 00 45 0140 01974 5307 441433 348189 203"
"152.003264"
"$GPGGA,000439,2511.9388,N,07915.5680,W,1,10,1.6,15"
"##MN-00 00 45 0141 01974 5307 441436 348187 203"
"152.00331"
"$GPGGA,000443,2511.9391,N,07915.5656,W,1,10,1.6,15"
"##MN-00 00 45 0141 01972 5308 441437 348188 203"
"152.003368"
"$GPGGA,000447,2511.9395,N,07915.5632,W,1,10,1.6,15"
"##MN-00 00 45 0142 01976 5308 441417 348181 203"
"152.003414"
"$GPGGA,000451,2511.9397,N,07915.5608,W,1,10,1.6,15"
"##MN-00 00 45 0143 01975 5308 441390 348167 203"
"152.003461"
"$GPGGA,000455,2511.9398,N,07915.5583,W,1,10,1.6,15"
"##MN-00 00 45 0144 01974 5308 441378 348166 203"
"152.003507"
"$GPGGA,000459,2511.9400,N,07915.5558,W,1,10,1.6,16"
"##MN-00 00 45 0145 01975 5308 441363 348160 203"
"152.003553"
"$GPGGA,000504,2511.9404,N,07915.5527,W,1,10,1.6,16"
"##MN-00 00 45 0146 01975 5308 441336 348149 203"
"152.0036"
"$GPGGA,000508,2511.9406,N,07915.5502,W,1,10,1.6,16"
"##MN-00 00 45 0146 01977 5308 441313 348137 203"
"152.003646"
"$GPGGA,000512,2511.9408,N,07915.5478,W,1,10,1.6,16"
"##MN-00 00 45 0147 01976 5309 441291 348123 203"
"152.003692"
"$GPGGA,000516,2511.9408,N,07915.5453,W,1,10,1.6,16"
"##MN-00 00 45 0148 01976 5309 441288 348126 203"
"152.003738"
"$GPGGA,000520,2511.9411,N,07915.5430,W,1,10,1.6,16"
"##MN-00 00 45 0149 01975 5309 441277 348107 203"
"152.003785"
"$GPGGA,000524,2511.9413,N,07915.5406,W,1,10,1.6,16"
"##MN-00 00 45 0150 01977 5309 441268 348101 203"
"152.003831"
"$GPGGA,000528,2511.9417,N,07915.5383,W,1,10,1.6,16"
"##MN-00 00 45 0150 01975 5309 441267 348100 203"
"152.003877"
"$GPGGA,000532,2511.9419,N,07915.5360,W,1,10,1.6,16"
"##MN-00 00 45 0151 01977 5310 441267 348098 203"
"152.003924"
"$GPGGA,000536,2511.9421,N,07915.5336,W,1,10,1.6,16"
"##MN-00 00 43 0152 01977 5310 441277 348098 203"
"152.00397"
"$GPGGA,000540,2511.9424,N,07915.5313,W,1,10,1.6,16"
"##MN-00 00 45 0153 01976 5310 441272 348094 203"
"152.004016"
"$GPGGA,000544,2511.9427,N,07915.5288,W,1,10,1.6,16"
"##MN-00 00 45 0153 01977 5310 441287 348096 203"
"152.004062"
"$GPGGA,000548,2511.9430,N,07915.5266,W,1,10,1.6,16"
"##MN-00 00 44 0154 01976 5310 441288 348095 203"
"152.004109"
"$GPGGA,000552,2511.9433,N,07915.5243,W,1,10,1.6,16"
"##MN+00 00 45 0155 01977 5311 441292 348095 203"
"152.004155"
"$GPGGA,000556,2511.9435,N,07915.5221,W,1,10,1.6,16"
"##MN+00 00 44 0156 01977 5311 441288 348092 203"
"152.004201"
"$GPGGA,000600,2511.9441,N,07915.5198,W,1,10,1.6,16"
"##MN+00 00 45 0156 01975 5311 441279 348090 203"
"152.004248"
"$GPGGA,000604,2511.9445,N,07915.5176,W,1,10,1.6,16"
"##MN-00 00 44 0157 01979 5311 441268 348086 203"
"152.004294"
"$GPGGA,000608,2511.9449,N,07915.5154,W,1,10,1.6,16"
"##MN-00 00 44 0158 01977 5311 441255 348080 203"
"152.00434"
"$GPGGA,000612,2511.9453,N,07915.5132,W,1,10,1.6,16"
"##MN-00 00 44 0158 01979 5311 441251 348080 203"
"152.004387"
"$GPGGA,000616,2511.9460,N,07915.5110,W,1,10,1.6,16"
"##MN-00 00 44 0159 01979 5312 441262 348081 203"
"152.004433"
"$GPGGA,000620,2511.9464,N,07915.5086,W,1,10,1.6,16"
"##MN+00 00 44 0160 01982 5312 441271 348084 203"
"152.004479"
"$GPGGA,000624,2511.9467,N,07915.5063,W,1,10,1.6,16"
"##MN+00 00 44 0161 01978 5312 441275 348082 203"
"152.004525"
"$GPGGA,000628,2511.9471,N,07915.5040,W,1,10,1.6,16"
"##MN+00 00 52 0161 01981 5312 441274 348081 203"
"152.004572"
"$GPGGA,000632,2511.9477,N,07915.5017,W,1,10,1.6,16"
"##MN-00 00 49 0162 01981 5312 441269 348080 203"
"152.004618"
"#increment_net"
"$GPGGA,000636,2511.9481,N,07915.5001,W,1,10,1.6,16"
"##MN-00 00 44 0163 01980 5313 441263 348079 203"
"152.004664"
"$GPGGA,000640,2511.9485,N,07915.4974,W,1,10,1.6,16"
"##MN-00 00 44 0164 01981 5313 441255 348075 203"
"152.004711"
"$GPGGA,000644,2511.9492,N,07915.4951,W,1,10,1.8,16"
"##MN-00 00 42 0164 01980 5313 441251 348075 203"
"152.004757"
"$GPGGA,000648,2511.9496,N,07915.4933,W,1,10,1.6,16"
"##MN-00 00 42 0165 01982 5313 441248 348073 203"
"152.004803"
"$GPGGA,000652,2511.9503,N,07915.4911,W,1,10,1.6,16"
"##MN-00 00 42 0166 01980 5313 441246 348073 203"
"152.00485"
"$GPGGA,000656,2511.9510,N,07915.4883,W,1,10,1.6,16"
"##MN-00 00 42 0167 01979 5313 441249 348074 203"
"152.004896"
"$GPGGA,000700,2511.9516,N,07915.4861,W,1,10,1.6,16"
"##MN-00 00 41 0167 01978 5313 441262 348079 203"
"152.004942"
"$GPGGA,000704,2511.9521,N,07915.4839,W,1,10,1.6,16"
"##MN-00 00 40 0168 01974 5313 441264 348079 203"
"152.004988"
"$GPGGA,000708,2511.9527,N,07915.4817,W,1,10,1.6,16"
"##MN-00 00 42 0169 01973 5314 441249 348075 203"
"152.005035"
"$GPGGA,000712,2511.9532,N,07915.4795,W,1,10,1.6,16"
"##MN-00 00 42 0170 01973 5314 441239 348072 203"
"152.005081"
"$GPGGA,000716,2511.9538,N,07915.4773,W,1,10,1.6,16"
"##MN-00 00 42 0170 01973 5314 441248 348075 203"
"152.005127"
"$GPGGA,000720,2511.9541,N,07915.4750,W,1,10,1.6,16"
"##MN-00 00 42 0171 01971 5314 441255 348075 203"
"152.005174"
"$GPGGA,000724,2511.9549,N,07915.4728,W,1,9,1.6,16,"
"##MN-00 00 41 0172 01972 5315 441253 348075 203"
"152.00522"
"$GPGGA,000728,2511.9556,N,07915.4706,W,1,10,1.6,16"
"##MN-00 00 42 0173 01974 5315 441259 348076 203"
"152.005266"
"$GPGGA,000732,2511.9563,N,07915.4684,W,1,10,1.6,16"
"##MN-00 00 40 0173 01974 5315 441268 348080 203"
"152.005312"
"$GPGGA,000736,2511.9568,N,07915.4661,W,1,10,1.6,16"
"##MN-00 00 42 0174 01973 5315 441276 348081 203"
"152.005359"
"$GPGGA,000740,2511.9576,N,07915.4638,W,1,10,1.6,16"
"##MN-00 00 42 0175 01971 5315 441278 348082 203"
"152.005405"
"$GPGGA,000744,2511.9582,N,07915.4615,W,1,10,1.6,16"
"##MN-00 00 42 0176 01972 5315 441278 348082 203"
"152.005451"
"$GPGGA,000748,2511.9586,N,07915.4590,W,1,10,1.6,16"
"##MN-00 00 41 0177 01972 5316 441281 348083 203"
"152.005498"
"$GPGGA,000752,2511.9594,N,07915.4566,W,1,10,1.6,16"
"##MN-00 00 41 0177 01972 5316 441283 348085 203"
"152.005544"
"$GPGGA,000756,2511.9600,N,07915.4542,W,1,10,1.6,16"
"##MN-00 00 42 0178 01971 5316 441277 348083 203"
"152.00559"
"$GPGGA,000800,2511.9605,N,07915.4518,W,1,10,1.6,16"
"##MN-00 00 42 0179 01969 5316 441269 348083 203"
"152.005637"
"$GPGGA,000804,2511.9612,N,07915.4494,W,1,10,1.6,16"
"##MN-00 00 41 0180 01971 5317 441277 348086 203"
"152.005683"
"$GPGGA,000808,2511.9618,N,07915.4472,W,1,10,1.6,16"
"##MN-00 00 42 0181 01970 5317 441268 348082 203"
"152.005729"
"$GPGGA,000812,2511.9623,N,07915.4449,W,1,10,1.6,16"
"##MN-00 00 43 0181 01972 5317 441257 348074 203"
"152.005775"
"$GPGGA,000816,2511.9630,N,07915.4425,W,1,10,1.6,16"
"##MN-00 00 42 0182 01970 5317 441239 348069 203"
"152.005822"
"$GPGGA,000820,2511.9635,N,07915.4400,W,1,10,1.6,16"
"##MN+00 00 43 0183 01971 5317 441236 348069 203"
"152.005868"
"$GPGGA,000824,2511.9639,N,07915.4375,W,1,10,1.6,16"
"##MN+00 00 43 0184 01969 5317 441245 348072 203"
"152.005914"
"$GPGGA,000828,2511.9644,N,07915.4351,W,1,10,1.6,16"
"##MN+00 00 40 0185 01971 5318 441246 348072 203"
"152.005961"
"$GPGGA,000832,2511.9650,N,07915.4326,W,1,10,1.6,16"
"##MN-00 00 42 0185 01970 5318 441234 348070 203"
"152.006007"
"$GPGGA,000836,2511.9657,N,07915.4303,W,1,10,1.6,16"
"##MN-00 00 43 0186 01972 5318 441244 348074 203"
"152.006053"
"$GPGGA,000840,2511.9662,N,07915.4280,W,1,10,1.6,16"
"##MN-00 00 41 0187 01970 5318 441260 348080 203"
"152.0061"
"$GPGGA,000844,2511.9669,N,07915.4257,W,1,10,1.6,16"
"##MN+00 00 42 0188 01972 5318 441264 348081 203"
"152.006146"
"$GPGGA,000848,2511.9675,N,07915.4234,W,1,10,1.6,16"
"##MN+00 00 43 0188 01971 5318 441267 348081 203"
"152.006192"
"$GPGGA,000852,2511.9680,N,07915.4211,W,1,10,1.6,16"
"##MN+00 00 51 0189 01972 5319 441288 348088 203"
"152.006238"
"#increment_net"
"$GPGGA,000856,2511.9687,N,07915.4189,W,1,10,1.6,16"
"##MN-00 00 48 0190 01972 5319 441297 348089 203"
"152.006285"
"$GPGGA,000900,2511.9691,N,07915.4165,W,1,9,1.6,16,"
"##MN-00 00 45 0191 01971 5319 441298 348090 203"
"152.006331"
"$GPGGA,000904,2511.9697,N,07915.4142,W,1,9,1.6,16,"
"##MN-00 00 43 0191 01970 5319 441295 348091 203"
"152.006377"
"$GPGGA,000908,2511.9701,N,07915.4118,W,1,9,1.6,15,"
"##MN-00 00 43 0192 01970 5319 441293 348091 203"
"152.006424"
"$GPGGA,000912,2511.9705,N,07915.4095,W,1,9,1.6,15,"
"##MN-00 00 43 0193 01972 5320 441290 348089 203"
"152.00647"
"$GPGGA,000916,2511.9709,N,07915.4073,W,1,9,1.6,15,"
"##MN-00 00 43 0194 01969 5320 441285 348088 203"
"152.006516"
"$GPGGA,000920,2511.9715,N,07915.4049,W,1,9,1.6,15,"
"##MN-00 00 42 0195 01970 5320 441283 348087 203"
"152.006562"
"$GPGGA,000925,2511.9720,N,07915.4020,W,1,9,1.6,15,"
"##MN-00 00 42 0195 01969 5320 441280 348087 203"
"152.00662"
"$GPGGA,000929,2511.9726,N,07915.3996,W,1,9,1.6,15,"
"##MN-00 00 43 0196 01968 5320 441276 348087 203"
"152.006667"
"$GPGGA,000933,2511.9731,N,07915.3971,W,1,9,1.6,14,"
"##MN-00 00 43 0197 01969 5321 441271 348087 203"
"152.006713"
"$GPGGA,000937,2511.9735,N,07915.3947,W,1,9,1.6,14,"
"##MN-00 00 43 0198 01968 5321 441268 348086 203"
"152.006759"
"$GPGGA,000941,2511.9742,N,07915.3923,W,1,9,1.6,14,"
"##MN-00 00 43 0199 01967 5321 441266 348084 202"
"152.006806"
"$GPGGA,000945,2511.9747,N,07915.3899,W,1,9,1.6,14,"
"##MN-00 00 44 0199 01966 5321 441262 348084 202"
"152.006852"
"$GPGGA,000949,2511.9753,N,07915.3875,W,1,10,1.6,14"
"##MN-00 00 43 0200 01968 5321 441263 348082 203"
"152.006898"
"$GPGGA,000953,2511.9760,N,07915.3850,W,1,10,1.6,14"
"##MN-00 00 43 0201 01966 5321 441277 348080 203"
"152.006944"
"$GPGGA,000957,2511.9767,N,07915.3826,W,1,10,1.6,14"
"##MN-00 00 43 0202 01967 5322 441276 348079 202"
"152.006991"
"$GPGGA,001001,2511.9773,N,07915.3803,W,1,10,1.6,14"
"##MN-00 00 44 0203 01965 5322 441258 348078 202"
"152.007037"
"$GPGGA,001005,2511.9778,N,07915.3779,W,1,10,1.6,14"
"##MN-00 00 43 0204 01967 5322 441281 348079 202"
"152.007083"
"$GPGGA,001009,2511.9785,N,07915.3755,W,1,10,1.6,14"
"##MN-00 00 43 0204 01967 5322 441299 348081 202"
"152.00713"
"$GPGGA,001013,2511.9789,N,07915.3733,W,1,10,1.6,14"
"##MN-00 00 43 0205 01966 5322 441304 348082 202"
"152.007176"
"$GPGGA,001017,2511.9795,N,07915.3710,W,1,10,1.6,14"
"##MN-00 00 44 0206 01966 5323 441310 348084 202"
"152.007222"
"$GPGGA,001021,2511.9799,N,07915.3688,W,1,10,1.6,14"
"##MN-00 00 43 0207 01966 5323 441316 348086 202"
"152.007269"
"$GPGGA,001025,2511.9803,N,07915.3665,W,1,10,1.6,14"
"##MN-00 00 43 0208 01965 5323 441302 348082 202"
"152.007315"
"$GPGGA,001029,2511.9809,N,07915.3642,W,1,10,1.6,14"
"##MN-00 00 42 0209 01969 5323 441284 348078 202"
"152.007361"
"$GPGGA,001033,2511.9813,N,07915.3619,W,1,10,1.9,14"
"##MN+00 00 42 0209 01968 5323 441289 348079 202"
"152.007407"
"$GPGGA,001037,2511.9818,N,07915.3596,W,1,10,1.6,14"
"##MN+00 00 44 0210 01970 5324 441290 348078 202"
"152.007454"
"$GPGGA,001041,2511.9823,N,07915.3573,W,1,10,1.6,14"
"##MN+00 00 44 0211 01972 5323 441308 348084 202"
"152.0075"
"$GPGGA,001045,2511.9828,N,07915.3550,W,1,10,1.6,14"
"##MN-00 00 42 0212 01973 5324 441343 348098 203"
"152.007546"
"$GPGGA,001049,2511.9834,N,07915.3527,W,1,9,1.6,14,"
"##MN-00 00 44 0213 01974 5324 441393 348122 203"
"152.007593"
"$GPGGA,001053,2511.9839,N,07915.3504,W,1,9,1.6,14,"
"##MN-00 00 44 0213 01975 5324 441407 348121 203"
"152.007639"
"$GPGGA,001057,2511.9844,N,07915.3480,W,1,9,1.6,14,"
"##MN-00 00 43 0214 01976 5324 441432 348133 203"
"152.007685"
"$GPGGA,001101,2511.9850,N,07915.3456,W,1,9,1.6,15,"
"##MN+00 00 44 0215 01978 5324 441470 348141 203"
"152.007731"
"$GPGGA,001105,2511.9856,N,07915.3432,W,1,9,1.6,15,"
"##MN+00 00 44 0216 01980 5324 441487 348140 202"
"152.007778"
"$GPGGA,001109,2511.9863,N,07915.3408,W,1,9,1.6,15,"
"##MN+00 00 51 0216 01981 5325 441483 348140 202"
"152.007824"
"#increment_net"
"$GPGGA,001113,2511.9867,N,07915.3385,W,1,9,1.6,15,"
"##MN-00 00 49 0217 01981 5325 441478 348140 202"
"152.00787"
"$GPGGA,001117,2511.9871,N,07915.3363,W,1,9,1.6,15,"
"##MN-00 00 45 0218 01987 5326 441507 348146 203"
"152.007917"
"$GPGGA,001121,2511.9875,N,07915.3340,W,1,9,1.6,16,"
"##MN-00 00 44 0219 01989 5325 441586 348187 203"
"152.007963"
"$GPGGA,001125,2511.9879,N,07915.3316,W,1,9,1.6,16,"
"##MN-00 00 43 0220 01993 5325 441683 348209 203"
"152.008009"
"$GPGGA,001129,2511.9883,N,07915.3292,W,1,9,1.6,16,"
"##MN-00 00 40 0221 01998 5325 441767 348238 202"
"152.008056"
"$GPGGA,001133,2511.9888,N,07915.3268,W,1,9,1.6,16,"
"##MN-00 00 40 0223 01994 5325 441798 348250 203"
"152.008102"
"$GPGGA,001137,2511.9893,N,07915.3244,W,1,9,1.6,16,"
"##MN-00 00 38 0224 01988 5325 441793 348251 202"
"152.008148"
"$GPGGA,001141,2511.9899,N,07915.3219,W,1,9,1.6,16,"
"##MN-00 00 40 0225 01983 5325 441787 348253 202"
"152.008194"
"$GPGGA,001145,2511.9906,N,07915.3194,W,1,9,1.9,15,"
"##MN-00 00 39 0226 01976 5326 441710 348238 202"
"152.008241"
"$GPGGA,001149,2511.9911,N,07915.3169,W,1,9,1.6,15,"
"##MN-00 00 39 0227 01972 5326 441540 348179 202"
"152.008287"
"$GPGGA,001153,2511.9917,N,07915.3144,W,1,9,1.6,15,"
"##MN-00 00 40 0229 01965 5326 441454 348162 202"
"152.008333"
"$GPGGA,001157,2511.9922,N,07915.3119,W,1,9,1.9,15,"
"##MN-00 00 40 0230 01958 5326 441402 348144 202"
"152.00838"
"$GPGGA,001201,2511.9930,N,07915.3094,W,1,9,1.9,15,"
"##MN-00 00 39 0231 01947 5326 441337 348119 202"
"152.008426"
"$GPGGA,001205,2511.9936,N,07915.3069,W,1,9,1.9,15,"
"##MN-00 00 38 0232 01941 5326 441276 348096 202"
"152.008472"
"$GPGGA,001209,2511.9941,N,07915.3044,W,1,9,1.9,15,"
"##MN-00 00 39 0233 01934 5326 441177 348081 202"
"152.008519"
"$GPGGA,001213,2511.9948,N,07915.3019,W,1,9,1.9,15,"
"##MN-00 00 39 0235 01924 5327 441110 348051 202"
"152.008565"
"$GPGGA,001217,2511.9953,N,07915.2993,W,1,9,1.9,15,"
"##MN-00 00 39 0236 01918 5327 440912 348006 202"
"152.008611"
"$GPGGA,001221,2511.9956,N,07915.2967,W,1,9,1.9,15,"
"##MN-00 00 37 0237 01908 5327 440268 347850 202"
"152.008657"
"$GPGGA,001225,2511.9960,N,07915.2943,W,1,9,1.9,14,"
"##MN-00 00 38 0238 01899 5327 439168 347485 202"
"152.008704"
"$GPGGA,001229,2511.9966,N,07915.2918,W,1,9,1.9,14,"
"##MN-00 00 38 0239 01889 5327 438598 347236 202"
"152.00875"
"$GPGGA,001233,2511.9971,N,07915.2893,W,1,10,1.5,14"
"##MN-00 00 37 0240 01881 5327 438181 347149 202"
"152.008796"
"$GPGGA,001237,2511.9975,N,07915.2868,W,1,10,1.5,14"
"##MN-00 00 38 0242 01872 5328 438014 347072 202"
"152.008843"
"$GPGGA,001241,2511.9980,N,07915.2843,W,1,10,1.5,14"
"##MN-00 00 38 0243 01862 5328 437886 347014 202"
"152.008889"
"$GPGGA,001245,2511.9987,N,07915.2819,W,1,10,1.5,14"
"##MN-00 00 36 0244 01857 5328 437828 346948 202"
"152.008935"
"$GPGGA,001249,2511.9993,N,07915.2793,W,1,10,1.5,14"
"##MN-00 00 37 0245 01858 5328 437846 346941 202"
"152.008981"
"$GPGGA,001253,2511.9998,N,07915.2768,W,1,10,1.5,14"
"##MN-00 00 36 0246 01858 5328 437874 346937 202"
"152.009028"
"$GPGGA,001257,2512.0005,N,07915.2743,W,1,10,1.5,14"
"##MN-00 00 34 0247 01859 5329 437902 346943 202"
"152.009074"
"$GPGGA,001301,2512.0012,N,07915.2717,W,1,10,1.5,14"
"##MN-00 00 37 0248 01856 5329 437911 346931 202"
"152.00912"
"$GPGGA,001305,2512.0018,N,07915.2692,W,1,10,1.5,14"
"##MN-00 00 35 0249 01859 5329 437893 346930 202"
