" Tow: 3Cd-B   RVWS/WS1406"
" Date: 06/01/2014"
" Temperature Probe #  2597    Conductivity Probe #  2870"
" Pressure Probe #  109"
" Flow Meter Calibration  4.71 (m/count)  "
"152.845937"
"$GPGGA,201810,2442.2122,N,07948.2390,W,1,9,1.8,19,"
"##MN-00 00 49 0088 01860 5376 419518 787179 202"
"152.845984"
"$GPGGA,201818,2442.2137,N,07948.2348,W,1,9,1.8,18,"
"##MN-00 00 49 0089 01857 5375 439019 347867 202"
"152.84603"
"$GPGGA,201822,2442.2144,N,07948.2326,W,1,9,1.8,18,"
"##MN-00 00 47 0089 01857 5375 439005 347866 202"
"152.846076"
"$GPGGA,201826,2442.2155,N,07948.2302,W,1,10,1.6,18"
"##MN-00 00 46 0090 01858 5375 438857 347808 202"
"152.846123"
"$GPGGA,201830,2442.2166,N,07948.2278,W,1,10,1.6,18"
"##MN-00 00 48 0091 01856 5374 438818 347805 202"
"152.846169"
"$GPGGA,201834,2442.2173,N,07948.2257,W,1,10,1.6,19"
"##MN-00 00 52 0091 01860 5374 438752 347785 202"
"152.846215"
"$GPGGA,201838,2442.2180,N,07948.2236,W,1,9,1.6,19,"
"##MN-00 00 50 0092 01861 5374 438767 347793 202"
"152.846262"
"$GPGGA,201842,2442.2186,N,07948.2214,W,1,10,1.6,19"
"##MN-00 00 48 0093 01864 5374 438819 347822 202"
"152.846308"
"$GPGGA,201846,2442.2191,N,07948.2193,W,1,10,1.6,19"
"##MN-00 00 48 0093 01867 5374 438918 347850 202"
"152.846354"
"$GPGGA,201850,2442.2199,N,07948.2172,W,1,10,1.6,19"
"##MN-00 00 49 0094 01873 5374 438939 347851 202"
"152.8464"
"$GPGGA,201854,2442.2204,N,07948.2150,W,1,10,1.6,19"
"##MN-00 00 48 0095 01876 5374 439007 347894 202"
"152.846447"
"$GPGGA,201858,2442.2211,N,07948.2128,W,1,10,1.6,19"
"##MN-00 00 46 0096 01876 5373 439141 347934 202"
"152.846493"
"$GPGGA,201902,2442.2216,N,07948.2104,W,1,10,1.6,19"
"##MN-00 00 47 0096 01882 5373 439457 348063 202"
"152.846539"
"$GPGGA,201906,2442.2220,N,07948.2082,W,1,10,1.6,19"
"##MN-00 00 50 0097 01890 5373 439551 348086 202"
"152.846586"
"$GPGGA,201910,2442.2227,N,07948.2058,W,1,10,1.6,19"
"##MN-00 00 52 0098 01890 5373 439668 348115 202"
"152.846632"
"$GPGGA,201914,2442.2233,N,07948.2034,W,1,10,1.6,20"
"##MN-00 00 51 0099 01894 5373 439749 348165 202"
"152.846678"
"$GPGGA,201918,2442.2238,N,07948.2009,W,1,10,1.6,20"
"##MN-00 00 51 0099 01898 5373 439837 348204 202"
"152.846725"
"$GPGGA,201922,2442.2244,N,07948.1983,W,1,10,1.6,20"
"##MN-00 00 49 0100 01901 5373 440015 348255 202"
"152.846771"
"$GPGGA,201926,2442.2249,N,07948.1958,W,1,10,1.6,20"
"##MN-00 00 50 0101 01903 5373 440113 348295 202"
"152.846817"
"$GPGGA,201930,2442.2255,N,07948.1933,W,1,10,1.6,21"
"##MN-00 00 51 0102 01906 5373 440289 348370 202"
"152.846863"
"$GPGGA,201934,2442.2260,N,07948.1909,W,1,10,2.1,21"
"##MN-00 00 51 0103 01911 5373 440399 348390 202"
"152.84691"
"$GPGGA,201938,2442.2264,N,07948.1883,W,1,9,2.1,22,"
"##MN-00 00 49 0103 01918 5373 440605 348469 202"
"152.846956"
"$GPGGA,201942,2442.2271,N,07948.1855,W,1,10,1.6,22"
"##MN-00 00 53 0104 01923 5373 440651 348502 202"
"152.847002"
"$GPGGA,201946,2442.2278,N,07948.1827,W,1,10,1.6,22"
"##MN-00 00 53 0105 01926 5373 440747 348528 202"
"152.847049"
"$GPGGA,201950,2442.2284,N,07948.1799,W,1,10,2.1,22"
"##MN-00 00 50 0105 01930 5373 440844 348568 202"
"152.847095"
"$GPGGA,201954,2442.2292,N,07948.1772,W,1,10,1.6,22"
"##MN-00 00 53 0106 01935 5373 440941 348600 202"
"152.847141"
"$GPGGA,201958,2442.2298,N,07948.1747,W,1,9,2.1,22,"
"##MN-00 00 52 0107 01940 5373 441030 348650 202"
"152.847188"
"$GPGGA,202002,2442.2303,N,07948.1720,W,1,9,1.6,22,"
"##MN-00 00 51 0108 01943 5373 441107 348651 202"
"152.847234"
"$GPGGA,202006,2442.2310,N,07948.1693,W,1,9,2.1,22,"
"##MN-00 00 53 0109 01949 5373 441178 348684 202"
"152.84728"
"$GPGGA,202010,2442.2314,N,07948.1667,W,1,10,2.1,22"
"##MN-00 00 54 0110 01953 5373 441246 348715 202"
"152.847326"
"$GPGGA,202014,2442.2321,N,07948.1639,W,1,9,2.1,22,"
"##MN-00 00 51 0110 01952 5373 441286 348732 202"
"152.847373"
"$GPGGA,202018,2442.2328,N,07948.1612,W,1,10,1.6,22"
"##MN-00 00 50 0111 01960 5373 441318 348745 202"
"152.847419"
"$GPGGA,202022,2442.2336,N,07948.1585,W,1,10,2.1,22"
"##MN-00 00 51 0112 01963 5373 441345 348753 202"
"152.847465"
"$GPGGA,202026,2442.2342,N,07948.1561,W,1,10,2.1,22"
"##MN-00 00 50 0113 01972 5373 441369 348765 202"
"152.847512"
"$GPGGA,202030,2442.2349,N,07948.1534,W,1,9,1.6,22,"
"##MN-00 00 50 0113 01977 5373 441414 348779 202"
"152.847558"
"$GPGGA,202034,2442.2354,N,07948.1509,W,1,9,1.6,22,"
"##MN-00 00 52 0114 01984 5373 441470 348804 202"
"152.847604"
"$GPGGA,202038,2442.2361,N,07948.1484,W,1,10,1.6,23"
"##MN-00 00 54 0115 01986 5374 441532 348825 202"
"152.84765"
"$GPGGA,202042,2442.2368,N,07948.1455,W,1,9,2.1,23,"
"##MN-00 00 50 0116 01994 5374 441570 348838 202"
"152.847697"
"$GPGGA,202046,2442.2376,N,07948.1428,W,1,9,2.1,23,"
"##MN-00 00 50 0116 01997 5374 441610 348857 202"
"152.847743"
"$GPGGA,202050,2442.2383,N,07948.1400,W,1,9,2.1,22,"
"##MN-00 00 49 0117 02004 5374 441715 348899 202"
"152.847789"
"$GPGGA,202054,2442.2390,N,07948.1375,W,1,9,2.1,22,"
"##MN-00 00 52 0118 02009 5374 441853 348942 202"
"152.847836"
"$GPGGA,202058,2442.2397,N,07948.1351,W,1,9,1.6,22,"
"##MN-00 00 53 0118 02013 5374 442000 349003 202"
"152.847882"
"$GPGGA,202102,2442.2403,N,07948.1325,W,1,10,1.6,22"
"##MN-00 00 51 0119 02018 5374 442229 349089 202"
"152.847928"
"$GPGGA,202106,2442.2411,N,07948.1298,W,1,9,1.6,22,"
"##MN-00 00 49 0120 02029 5374 442492 349175 202"
"152.847986"
"$GPGGA,202110,2442.2418,N,07948.1275,W,1,10,1.6,22"
"##MN-00 00 54 0120 02033 5374 442713 349234 202"
"152.848032"
"$GPGGA,202114,2442.2424,N,07948.1249,W,1,10,2.1,22"
"##MN-00 00 52 0121 02036 5374 442856 349275 202"
"152.848079"
"$GPGGA,202119,2442.2433,N,07948.1215,W,1,10,1.6,22"
"##MN-00 00 48 0122 02041 5374 442988 349310 202"
"152.848125"
"$GPGGA,202123,2442.2440,N,07948.1188,W,1,9,2.1,22,"
"##MN-00 00 49 0122 02050 5374 443069 349338 202"
"152.848171"
"$GPGGA,202127,2442.2446,N,07948.1159,W,1,9,2.1,22,"
"##MN-00 00 51 0123 02052 5374 443144 349350 202"
"152.848218"
"$GPGGA,202131,2442.2451,N,07948.1137,W,1,10,1.6,22"
"##MN-00 00 47 0124 02058 5374 443225 349369 202"
"152.848264"
"$GPGGA,202134,2442.2457,N,07948.1114,W,1,10,1.6,22"
"##MN-00 00 46 0124 02062 5375 443252 349372 202"
"152.84831"
"$GPGGA,202139,2442.2464,N,07948.1078,W,1,10,2.1,22"
"##MN-00 00 52 0125 02066 5374 443257 349368 202"
"152.848356"
"$GPGGA,202143,2442.2470,N,07948.1051,W,1,9,1.6,21,"
"##MN-00 00 50 0125 02070 5375 443255 349364 202"
"152.848403"
"$GPGGA,202147,2442.2475,N,07948.1027,W,1,9,1.6,21,"
"##MN-00 00 51 0126 02077 5375 443261 349366 202"
"152.848449"
"$GPGGA,202151,2442.2484,N,07948.0999,W,1,9,2.1,21,"
"##MN-00 00 46 0127 02084 5375 443260 349367 202"
"152.848495"
"$GPGGA,202155,2442.2491,N,07948.0971,W,1,9,2.1,21,"
"##MN-00 00 53 0127 02088 5375 443262 349365 202"
"152.848542"
"$GPGGA,202159,2442.2498,N,07948.0943,W,1,10,2.1,21"
"##MN-00 00 48 0128 02091 5375 443267 349367 202"
"152.848588"
"$GPGGA,202203,2442.2505,N,07948.0917,W,1,10,1.6,21"
"##MN-00 00 48 0129 02097 5375 443271 349367 202"
"152.848634"
"$GPGGA,202207,2442.2513,N,07948.0891,W,1,9,2.1,21,"
"##MN-00 00 50 0129 02099 5375 443275 349367 202"
"152.848681"
"$GPGGA,202211,2442.2519,N,07948.0865,W,1,9,2.1,21,"
"##MN-00 00 52 0130 02104 5375 443267 349363 202"
"152.848727"
"$GPGGA,202215,2442.2527,N,07948.0837,W,1,9,2.1,21,"
"##MN-00 00 48 0131 02109 5375 443263 349360 202"
"152.848773"
"$GPGGA,202219,2442.2531,N,07948.0813,W,1,10,1.6,21"
"##MN-00 00 49 0131 02114 5375 443258 349354 202"
"152.848819"
"$GPGGA,202223,2442.2534,N,07948.0790,W,1,10,1.6,22"
"##MN-00 00 49 0132 02117 5375 443255 349351 202"
"152.848866"
"$GPGGA,202227,2442.2542,N,07948.0756,W,1,10,2.1,22"
"##MN-00 00 49 0133 02119 5375 443261 349355 202"
"152.848912"
"$GPGGA,202231,2442.2547,N,07948.0727,W,1,9,2.0,22,"
"##MN-00 00 49 0134 02124 5375 443279 349358 202"
"152.848958"
"$GPGGA,202235,2442.2552,N,07948.0696,W,1,9,2.0,22,"
"##MN-00 00 50 0134 02123 5375 443300 349368 202"
"152.849005"
"$GPGGA,202239,2442.2558,N,07948.0666,W,1,8,2.2,21,"
"##MN-00 00 48 0135 02128 5376 443306 349370 202"
"152.849051"
"$GPGGA,202243,2442.2563,N,07948.0636,W,1,9,2.0,21,"
"##MN-00 00 49 0136 02131 5375 443307 349371 202"
"152.849097"
"$GPGGA,202247,2442.2570,N,07948.0604,W,1,9,2.0,22,"
"##MN-00 00 48 0137 02130 5375 443332 349384 202"
"152.849144"
"$GPGGA,202251,2442.2574,N,07948.0575,W,1,9,2.0,22,"
"##MN-00 00 52 0138 02132 5375 443359 349395 202"
"152.84919"
"$GPGGA,202255,2442.2578,N,07948.0546,W,1,10,1.6,22"
"##MN-00 00 46 0138 02138 5375 443382 349405 202"
"152.849236"
"$GPGGA,202259,2442.2585,N,07948.0516,W,1,9,2.0,23,"
"##MN-00 00 50 0139 02141 5376 443385 349408 202"
"152.849282"
"$GPGGA,202303,2442.2591,N,07948.0487,W,1,9,2.0,23,"
"##MN-00 00 48 0140 02146 5375 443390 349409 202"
"152.849329"
"$GPGGA,202307,2442.2596,N,07948.0457,W,1,9,2.0,24,"
"##MN-00 00 48 0140 02150 5375 443404 349410 202"
"152.849375"
"$GPGGA,202311,2442.2603,N,07948.0428,W,1,9,2.0,24,"
"##MN-00 00 54 0141 02153 5376 443398 349408 202"
"152.849421"
"$GPGGA,202315,2442.2607,N,07948.0400,W,1,9,2.0,24,"
"##MN-00 00 49 0142 02157 5376 443388 349405 202"
"152.849468"
"$GPGGA,202319,2442.2614,N,07948.0372,W,1,9,2.0,24,"
"##MN-00 00 49 0142 02160 5376 443388 349401 202"
"152.849514"
"$GPGGA,202323,2442.2620,N,07948.0344,W,1,9,2.0,24,"
"##MN-00 00 50 0143 02163 5375 443403 349403 202"
"152.84956"
"$GPGGA,202327,2442.2625,N,07948.0317,W,1,9,2.0,24,"
"##MN-00 00 49 0144 02165 5376 443412 349402 202"
"152.849607"
"$GPGGA,202331,2442.2634,N,07948.0287,W,1,9,2.0,24,"
"##MN-00 00 51 0145 02170 5376 443429 349408 202"
"152.849653"
"$GPGGA,202335,2442.2639,N,07948.0259,W,1,9,2.0,24,"
"##MN-00 00 51 0146 02173 5376 443448 349418 202"
"152.849699"
"$GPGGA,202339,2442.2639,N,07948.0240,W,1,10,1.6,24"
"##MN-00 00 45 0146 02181 5376 443471 349427 202"
"152.849745"
"$GPGGA,202343,2442.2646,N,07948.0212,W,1,9,2.0,24,"
"##MN-00 00 51 0147 02184 5376 443488 349433 202"
"152.849792"
"$GPGGA,202347,2442.2650,N,07948.0183,W,1,10,1.6,24"
"##MN-00 00 48 0148 02189 5376 443482 349429 202"
"152.849838"
"$GPGGA,202351,2442.2656,N,07948.0155,W,1,9,2.0,24,"
"##MN-00 00 54 0148 02194 5376 443470 349423 202"
"152.849884"
"$GPGGA,202355,2442.2661,N,07948.0129,W,1,10,1.5,24"
"##MN-00 00 49 0149 02198 5376 443460 349418 202"
"152.849931"
"$GPGGA,202359,2442.2664,N,07948.0106,W,1,10,1.5,23"
"##MN-00 00 49 0149 02206 5376 443466 349419 202"
"152.849977"
"$GPGGA,202403,2442.2672,N,07948.0078,W,1,9,2.0,23,"
"##MN-00 00 53 0150 02208 5376 443490 349425 202"
"152.850023"
"$GPGGA,202407,2442.2679,N,07948.0048,W,1,10,1.5,23"
"##MN-00 00 52 0151 02214 5376 443528 349439 202"
"152.850069"
"$GPGGA,202411,2442.2686,N,07948.0021,W,1,10,1.5,23"
"##MN-00 00 49 0151 02219 5376 443532 349437 202"
"152.850116"
"$GPGGA,202415,2442.2695,N,07947.9993,W,1,10,1.5,22"
"##MN-00 00 48 0152 02221 5376 443526 349435 202"
"152.850162"
"$GPGGA,202419,2442.2699,N,07947.9973,W,1,10,1.5,22"
"##MN-00 00 51 0153 02227 5376 443546 349442 202"
"152.850208"
"$GPGGA,202423,2442.2707,N,07947.9947,W,1,10,1.5,22"
"##MN-00 00 52 0154 02228 5375 443545 349436 202"
"152.850255"
"$GPGGA,202427,2442.2715,N,07947.9916,W,1,10,1.5,22"
"##MN-00 00 46 0154 02233 5376 443548 349435 202"
"152.850301"
"$GPGGA,202431,2442.2725,N,07947.9887,W,1,10,1.5,22"
"##MN-00 00 51 0155 02235 5376 443565 349439 202"
"152.850347"
"$GPGGA,202435,2442.2732,N,07947.9859,W,1,9,2.0,22,"
"##MN-00 00 50 0156 02238 5376 443588 349449 202"
"152.850394"
"$GPGGA,202439,2442.2739,N,07947.9832,W,1,9,2.0,22,"
"##MN-00 00 48 0157 02244 5376 443613 349458 202"
"152.85044"
"$GPGGA,202443,2442.2747,N,07947.9802,W,1,9,2.0,22,"
"##MN-00 00 49 0157 02248 5376 443677 349480 202"
"152.850486"
"$GPGGA,202447,2442.2754,N,07947.9772,W,1,9,2.0,22,"
"##MN-00 00 50 0158 02248 5375 443725 349497 202"
"152.850532"
"$GPGGA,202451,2442.2758,N,07947.9746,W,1,9,2.0,22,"
"##MN-00 00 47 0159 02255 5375 443774 349506 202"
"152.850579"
"$GPGGA,202455,2442.2766,N,07947.9716,W,1,9,2.0,22,"
"##MN-00 00 52 0159 02258 5376 443876 349558 202"
"152.850625"
"$GPGGA,202459,2442.2773,N,07947.9685,W,1,9,2.0,22,"
"##MN-00 00 50 0160 02260 5375 444088 349646 202"
"152.850671"
"$GPGGA,202503,2442.2780,N,07947.9653,W,1,9,2.0,22,"
"##MN-00 00 48 0161 02265 5375 444470 349779 202"
"152.850718"
"$GPGGA,202507,2442.2784,N,07947.9628,W,1,10,1.5,22"
"##MN-00 00 50 0162 02268 5375 444641 349824 202"
"152.850764"
"$GPGGA,202511,2442.2791,N,07947.9597,W,1,10,1.5,22"
"##MN-00 00 49 0162 02268 5375 444718 349831 202"
"152.85081"
"$GPGGA,202515,2442.2798,N,07947.9569,W,1,10,1.5,22"
"##MN-00 00 45 0163 02271 5375 445090 349982 202"
"152.850856"
"$GPGGA,202519,2442.2808,N,07947.9540,W,1,10,1.5,22"
"##MN-00 00 50 0164 02278 5375 445273 350068 202"
"152.850903"
"$GPGGA,202523,2442.2816,N,07947.9512,W,1,9,1.5,22,"
"##MN-00 00 51 0165 02283 5375 445380 350130 202"
"152.850949"
"$GPGGA,202527,2442.2823,N,07947.9484,W,1,10,1.5,22"
"##MN-00 00 51 0165 02285 5375 445531 350217 202"
"152.850995"
"$GPGGA,202531,2442.2831,N,07947.9456,W,1,10,1.5,22"
"##MN-00 00 51 0166 02285 5375 445896 350352 202"
"152.851042"
"$GPGGA,202535,2442.2840,N,07947.9426,W,1,10,1.5,22"
"##MN-00 00 48 0167 02289 5375 445922 350331 202"
"152.851088"
"$GPGGA,202539,2442.2847,N,07947.9398,W,1,10,1.5,22"
"##MN-00 00 51 0167 02293 5375 446011 350403 202"
"152.851146"
"$GPGGA,202543,2442.2855,N,07947.9369,W,1,10,1.5,22"
"##MN-00 00 53 0168 02292 5375 446459 350549 202"
"152.851192"
"$GPGGA,202547,2442.2862,N,07947.9341,W,1,10,2.0,22"
"##MN-00 00 49 0169 02301 5375 446595 350600 202"
"152.851238"
"$GPGGA,202551,2442.2870,N,07947.9315,W,1,10,1.5,22"
"##MN-00 00 46 0169 02307 5375 446627 350625 202"
"152.851285"
"$GPGGA,202555,2442.2878,N,07947.9290,W,1,10,1.5,22"
"##MN-00 00 50 0170 02314 5375 446626 350625 202"
"152.851331"
"$GPGGA,202600,2442.2888,N,07947.9259,W,1,9,1.5,22,"
"##MN-00 00 51 0170 02313 5375 446614 350620 202"
"152.851377"
"$GPGGA,202603,2442.2894,N,07947.9240,W,1,10,2.0,22"
"##MN-00 00 48 0171 02313 5375 446604 350613 202"
"152.851424"
"$GPGGA,202608,2442.2905,N,07947.9203,W,1,10,1.5,22"
"##MN-00 00 48 0172 02313 5375 446596 350608 202"
"152.85147"
"$GPGGA,202611,2442.2910,N,07947.9181,W,1,10,1.5,22"
"##MN-00 00 47 0173 02313 5375 446602 350611 202"
"152.851516"
"$GPGGA,202616,2442.2917,N,07947.9151,W,1,10,1.5,22"
"##MN-00 00 49 0174 02313 5375 446598 350608 202"
"152.851563"
"$GPGGA,202620,2442.2927,N,07947.9117,W,1,10,1.5,22"
"##MN-00 00 48 0174 02311 5375 446522 350577 202"
"152.851609"
"$GPGGA,202624,2442.2935,N,07947.9090,W,1,10,1.5,22"
"##MN-00 00 45 0175 02314 5375 446489 350580 202"
"152.851655"
"$GPGGA,202628,2442.2943,N,07947.9064,W,1,10,1.5,22"
"##MN-00 00 52 0176 02315 5374 446499 350577 202"
"152.851701"
"$GPGGA,202632,2442.2953,N,07947.9036,W,1,10,1.5,22"
"##MN-00 00 50 0176 02314 5374 446447 350553 202"
"152.851748"
"$GPGGA,202636,2442.2961,N,07947.9010,W,1,10,1.5,22"
"##MN-00 00 49 0177 02315 5374 446433 350545 202"
"152.851794"
"$GPGGA,202640,2442.2974,N,07947.8981,W,1,10,1.5,22"
"##MN+00 00 46 0178 02320 5374 446449 350548 202"
"152.85184"
"$GPGGA,202644,2442.2982,N,07947.8956,W,1,10,1.5,22"
"##MN+00 00 48 0178 02320 5374 446460 350556 202"
"152.851887"
"$GPGGA,202648,2442.2990,N,07947.8930,W,1,10,2.0,22"
"##MN+00 00 48 0179 02320 5374 446454 350551 202"
"152.851933"
"$GPGGA,202652,2442.3000,N,07947.8905,W,1,10,1.5,22"
"##MN-00 00 48 0180 02319 5374 446449 350549 202"
"152.851979"
"$GPGGA,202656,2442.3007,N,07947.8880,W,1,10,1.5,22"
"##MN+00 00 48 0181 02323 5373 446443 350547 202"
"152.852025"
"$GPGGA,202700,2442.3015,N,07947.8851,W,1,9,1.5,22,"
"##MN+00 00 49 0182 02322 5374 446443 350548 202"
"152.852072"
"$GPGGA,202704,2442.3024,N,07947.8823,W,1,9,1.5,22,"
"##MN+00 00 57 0183 02322 5373 446450 350554 202"
"152.852118"
"$GPGGA,202708,2442.3031,N,07947.8797,W,1,9,2.0,21,"
"##MN-00 00 55 0183 02325 5373 446459 350555 202"
"152.852164"
"#increment_net"
"$GPGGA,202712,2442.3037,N,07947.8768,W,1,9,2.0,21,"
"##MN-00 00 49 0184 02326 5373 446474 350561 202"
"152.852211"
"$GPGGA,202716,2442.3040,N,07947.8746,W,1,10,1.5,21"
"##MN-00 00 50 0185 02325 5373 446504 350578 202"
"152.852257"
"$GPGGA,202720,2442.3046,N,07947.8718,W,1,9,1.5,22,"
"##MN-00 00 49 0185 02323 5373 446512 350581 202"
"152.852303"
"$GPGGA,202724,2442.3051,N,07947.8694,W,1,10,2.0,22"
"##MN-00 00 49 0186 02321 5372 446512 350582 202"
"152.85235"
"$GPGGA,202728,2442.3055,N,07947.8666,W,1,9,1.5,22,"
"##MN-00 00 54 0187 02319 5372 446499 350582 202"
"152.852396"
"$GPGGA,202732,2442.3062,N,07947.8642,W,1,10,2.0,23"
"##MN-00 00 42 0188 02319 5372 446501 350582 202"
"152.852442"
"$GPGGA,202736,2442.3071,N,07947.8612,W,1,9,1.5,23,"
"##MN-00 00 48 0188 02316 5372 446504 350586 202"
"152.852488"
"$GPGGA,202740,2442.3078,N,07947.8584,W,1,10,1.5,23"
"##MN-00 00 50 0189 02315 5372 446489 350578 202"
"152.852535"
"$GPGGA,202744,2442.3083,N,07947.8561,W,1,10,1.5,23"
"##MN-00 00 48 0190 02310 5371 446465 350571 202"
"152.852581"
"$GPGGA,202748,2442.3090,N,07947.8535,W,1,10,1.5,23"
"##MN-00 00 48 0191 02310 5371 446456 350571 202"
"152.852627"
"$GPGGA,202752,2442.3098,N,07947.8505,W,1,10,1.5,23"
"##MN-00 00 48 0192 02311 5371 446441 350564 202"
"152.852674"
"$GPGGA,202756,2442.3105,N,07947.8478,W,1,10,1.5,23"
"##MN-00 00 47 0193 02309 5371 446434 350561 202"
"152.85272"
"$GPGGA,202800,2442.3111,N,07947.8452,W,1,10,1.5,22"
"##MN-00 00 48 0194 02310 5371 446415 350553 202"
"152.852766"
"$GPGGA,202804,2442.3116,N,07947.8425,W,1,10,1.5,22"
"##MN-00 00 49 0194 02309 5371 446403 350548 202"
"152.852813"
"$GPGGA,202808,2442.3125,N,07947.8396,W,1,10,1.5,22"
"##MN-00 00 46 0195 02310 5371 446389 350540 202"
"152.852859"
"$GPGGA,202812,2442.3131,N,07947.8368,W,1,10,1.5,22"
"##MN-00 00 48 0196 02307 5370 446375 350534 202"
"152.852905"
"$GPGGA,202816,2442.3138,N,07947.8340,W,1,10,1.5,22"
"##MN-00 00 50 0197 02306 5370 446367 350532 202"
"152.852951"
"$GPGGA,202820,2442.3141,N,07947.8317,W,1,9,1.5,22,"
"##MN-00 00 50 0198 02305 5370 446369 350533 202"
"152.852998"
"$GPGGA,202824,2442.3149,N,07947.8285,W,1,9,1.5,22,"
"##MN-00 00 48 0199 02304 5370 446360 350527 202"
"152.853044"
"$GPGGA,202828,2442.3156,N,07947.8257,W,1,10,1.5,22"
"##MN-00 00 50 0199 02302 5369 446299 350505 202"
"152.85309"
"$GPGGA,202832,2442.3163,N,07947.8230,W,1,10,1.5,22"
"##MN-00 00 48 0200 02301 5369 446225 350473 202"
"152.853137"
"$GPGGA,202836,2442.3170,N,07947.8202,W,1,9,1.5,21,"
"##MN-00 00 46 0201 02302 5369 446217 350470 202"
"152.853183"
"$GPGGA,202840,2442.3177,N,07947.8174,W,1,10,1.5,21"
"##MN-00 00 48 0202 02303 5369 446210 350464 202"
"152.853229"
"$GPGGA,202844,2442.3185,N,07947.8145,W,1,9,1.5,21,"
"##MN-00 00 45 0203 02302 5369 446212 350467 202"
"152.853275"
"$GPGGA,202848,2442.3192,N,07947.8119,W,1,9,1.5,21,"
"##MN-00 00 49 0203 02306 5368 446201 350464 202"
"152.853322"
"$GPGGA,202852,2442.3195,N,07947.8097,W,1,9,1.9,21,"
"##MN-00 00 52 0204 02305 5368 446195 350461 202"
"152.853368"
"$GPGGA,202856,2442.3205,N,07947.8066,W,1,10,1.5,22"
"##MN-00 00 49 0204 02307 5368 446134 350434 202"
"152.853414"
"$GPGGA,202900,2442.3213,N,07947.8037,W,1,10,1.5,22"
"##MN-00 00 48 0205 02308 5368 446037 350377 202"
"152.853461"
"$GPGGA,202904,2442.3221,N,07947.8008,W,1,10,1.5,21"
"##MN-00 00 49 0206 02309 5367 446054 350399 202"
"152.853507"
"$GPGGA,202908,2442.3228,N,07947.7977,W,1,10,1.5,21"
"##MN-00 00 47 0207 02307 5367 446127 350424 202"
"152.853553"
"$GPGGA,202912,2442.3235,N,07947.7948,W,1,9,1.5,21,"
"##MN-00 00 48 0208 02309 5367 446192 350461 202"
"152.8536"
"$GPGGA,202916,2442.3239,N,07947.7923,W,1,10,1.5,21"
"##MN+00 00 50 0209 02308 5367 446198 350463 202"
"152.853646"
"$GPGGA,202920,2442.3248,N,07947.7893,W,1,10,1.5,21"
"##MN+00 00 49 0209 02305 5367 446186 350458 202"
"152.853692"
"$GPGGA,202924,2442.3253,N,07947.7865,W,1,10,1.5,20"
"##MN+00 00 49 0210 02303 5367 446179 350454 202"
"152.853738"
"$GPGGA,202928,2442.3260,N,07947.7838,W,1,10,1.5,20"
"##MN-00 00 49 0211 02304 5366 446163 350449 202"
"152.853785"
"$GPGGA,202932,2442.3268,N,07947.7808,W,1,9,1.5,20,"
"##MN+00 00 50 0212 02305 5366 446097 350423 202"
"152.853831"
"$GPGGA,202936,2442.3275,N,07947.7779,W,1,9,1.5,20,"
"##MN+00 00 51 0212 02303 5366 446062 350405 202"
"152.853877"
"$GPGGA,202940,2442.3281,N,07947.7751,W,1,10,1.5,20"
"##MN+00 00 58 0213 02307 5366 446065 350405 202"
"152.853924"
"$GPGGA,202944,2442.3285,N,07947.7731,W,1,10,1.9,20"
"##MN-00 00 54 0214 02307 5365 446071 350409 202"
"152.85397"
"$GPGGA,202948,2442.3289,N,07947.7706,W,1,10,1.5,20"
"##MN-00 00 48 0215 02308 5365 446107 350424 202"
"152.854016"
"#increment_net"
"$GPGGA,202952,2442.3297,N,07947.7679,W,1,10,1.5,20"
"##MN-00 00 50 0216 02306 5365 446151 350448 202"
"152.854062"
"$GPGGA,202956,2442.3303,N,07947.7651,W,1,10,1.5,20"
"##MN-00 00 49 0216 02308 5365 446157 350444 202"
"152.854109"
"$GPGGA,203000,2442.3308,N,07947.7624,W,1,10,1.5,21"
"##MN-00 00 48 0217 02305 5365 446137 350438 202"
"152.854155"
"$GPGGA,203004,2442.3315,N,07947.7597,W,1,10,1.5,21"
"##MN-00 00 48 0218 02307 5364 446111 350431 202"
"152.854201"
"$GPGGA,203008,2442.3322,N,07947.7569,W,1,10,1.5,21"
"##MN-00 00 47 0219 02306 5364 446093 350426 202"
"152.854259"
"$GPGGA,203012,2442.3326,N,07947.7547,W,1,9,1.5,21,"
"##MN-00 00 49 0220 02308 5364 446116 350428 202"
"152.854306"
"$GPGGA,203016,2442.3332,N,07947.7522,W,1,9,1.5,22,"
"##MN-00 00 54 0220 02305 5363 446068 350413 202"
"152.854352"
"$GPGGA,203020,2442.3339,N,07947.7492,W,1,10,1.9,22"
"##MN-00 00 43 0221 02311 5363 446091 350422 202"
"152.854398"
"$GPGGA,203024,2442.3347,N,07947.7464,W,1,10,1.5,22"
"##MN-00 00 48 0221 02312 5363 446051 350411 202"
"152.854444"
"$GPGGA,203028,2442.3357,N,07947.7435,W,1,10,1.5,22"
"##MN-00 00 49 0222 02312 5363 446103 350424 202"
"152.854491"
"$GPGGA,203032,2442.3365,N,07947.7406,W,1,10,1.5,22"
"##MN-00 00 42 0223 02315 5363 446118 350434 202"
"152.854537"
"$GPGGA,203036,2442.3372,N,07947.7379,W,1,10,1.5,22"
"##MN-00 00 49 0224 02314 5363 446115 350434 202"
"152.854583"
"$GPGGA,203040,2442.3378,N,07947.7354,W,1,10,1.5,21"
"##MN-00 00 50 0224 02316 5362 446096 350426 202"
"152.85463"
"$GPGGA,203045,2442.3386,N,07947.7322,W,1,10,1.5,21"
"##MN-00 00 54 0225 02317 5362 446108 350434 202"
"152.854676"
"$GPGGA,203049,2442.3394,N,07947.7297,W,1,9,1.5,21,"
"##MN-00 00 43 0225 02320 5362 446126 350441 202"
"152.854722"
"$GPGGA,203053,2442.3402,N,07947.7272,W,1,10,1.5,20"
"##MN-00 00 47 0226 02323 5362 446110 350433 202"
"152.854769"
"$GPGGA,203057,2442.3412,N,07947.7243,W,1,10,1.5,20"
"##MN-00 00 49 0226 02324 5362 446102 350433 202"
"152.854815"
"$GPGGA,203100,2442.3418,N,07947.7224,W,1,10,1.5,20"
"##MN-00 00 48 0227 02325 5361 446099 350432 202"
"152.854861"
"$GPGGA,203105,2442.3426,N,07947.7195,W,1,10,1.5,19"
"##MN-00 00 43 0228 02328 5361 446053 350411 202"
"152.854907"
"$GPGGA,203109,2442.3433,N,07947.7171,W,1,10,1.5,19"
"##MN-00 00 48 0228 02327 5361 446021 350405 202"
"152.854954"
"$GPGGA,203113,2442.3440,N,07947.7144,W,1,10,1.5,19"
"##MN-00 00 48 0229 02324 5361 446040 350408 202"
"152.855"
"$GPGGA,203117,2442.3448,N,07947.7117,W,1,9,1.5,19,"
"##MN-00 00 47 0230 02326 5361 445988 350390 202"
"152.855046"
"$GPGGA,203121,2442.3458,N,07947.7085,W,1,9,1.5,19,"
"##MN-00 00 48 0231 02321 5360 445966 350379 202"
"152.855093"
"$GPGGA,203125,2442.3466,N,07947.7056,W,1,9,1.5,19,"
"##MN-00 00 45 0231 02320 5360 445973 350382 202"
"152.855139"
"$GPGGA,203129,2442.3472,N,07947.7030,W,1,10,1.5,19"
"##MN-00 00 46 0232 02316 5360 445945 350378 202"
"152.855185"
"$GPGGA,203133,2442.3476,N,07947.7004,W,1,10,1.5,19"
"##MN-00 00 49 0233 02314 5359 445866 350341 202"
"152.855231"
"$GPGGA,203137,2442.3484,N,07947.6977,W,1,10,1.5,19"
"##MN-00 00 51 0234 02312 5359 445820 350328 202"
"152.855278"
"$GPGGA,203141,2442.3491,N,07947.6952,W,1,10,1.5,19"
"##MN-00 00 44 0234 02315 5359 445781 350307 202"
"152.855324"
"$GPGGA,203145,2442.3495,N,07947.6928,W,1,10,1.5,19"
"##MN-00 00 45 0235 02317 5359 445718 350280 202"
"152.85537"
"$GPGGA,203149,2442.3502,N,07947.6903,W,1,10,1.5,20"
"##MN-00 00 49 0235 02315 5359 445696 350277 202"
"152.855417"
"$GPGGA,203153,2442.3506,N,07947.6878,W,1,10,1.5,20"
"##MN-00 00 48 0236 02312 5358 445660 350262 202"
"152.855463"
"$GPGGA,203157,2442.3513,N,07947.6854,W,1,10,1.5,20"
"##MN+00 00 46 0237 02315 5358 445700 350290 202"
"152.855509"
"$GPGGA,203201,2442.3523,N,07947.6825,W,1,10,1.5,20"
"##MN+00 00 49 0237 02315 5358 445660 350267 202"
"152.855556"
"$GPGGA,203205,2442.3528,N,07947.6797,W,1,10,1.5,20"
"##MN+00 00 51 0238 02312 5358 445677 350266 202"
"152.855602"
"$GPGGA,203209,2442.3537,N,07947.6770,W,1,9,1.5,20,"
"##MN-00 00 43 0239 02312 5357 445665 350262 202"
"152.855648"
"$GPGGA,203213,2442.3544,N,07947.6746,W,1,9,1.5,20,"
"##MN-00 00 44 0239 02317 5357 445651 350258 202"
"152.855694"
"$GPGGA,203217,2442.3546,N,07947.6726,W,1,10,1.5,20"
"##MN-00 00 48 0240 02315 5357 445648 350258 202"
"152.855741"
"$GPGGA,203221,2442.3555,N,07947.6702,W,1,10,1.5,20"
"##MN-00 00 47 0241 02314 5356 445662 350263 202"
"152.855787"
"$GPGGA,203225,2442.3560,N,07947.6677,W,1,10,1.5,21"
"##MN-00 00 46 0242 02314 5356 445639 350254 202"
"152.855833"
"$GPGGA,203229,2442.3566,N,07947.6652,W,1,10,1.5,21"
"##MN-00 00 46 0243 02314 5356 445630 350249 202"
"152.85588"
"$GPGGA,203233,2442.3575,N,07947.6622,W,1,10,1.5,22"
"##MN+00 00 47 0243 02313 5356 445644 350253 202"
"152.855926"
"$GPGGA,203237,2442.3582,N,07947.6592,W,1,9,1.5,22,"
"##MN+00 00 49 0244 02310 5356 445571 350222 202"
"152.855972"
"$GPGGA,203241,2442.3588,N,07947.6563,W,1,9,1.5,22,"
"##MN+00 00 56 0245 02312 5355 445549 350216 202"
"152.856019"
"$GPGGA,203245,2442.3593,N,07947.6538,W,1,10,1.5,22"
"##MN-00 00 51 0246 02310 5355 445647 350241 202"
"152.856065"
"#increment_net"
"$GPGGA,203249,2442.3599,N,07947.6510,W,1,9,1.5,22,"
"##MN-00 00 49 0247 02307 5355 445749 350279 202"
"152.856111"
"$GPGGA,203253,2442.3604,N,07947.6483,W,1,10,1.6,22"
"##MN-00 00 46 0247 02307 5355 445709 350278 202"
"152.856157"
"$GPGGA,203257,2442.3611,N,07947.6454,W,1,10,1.5,21"
"##MN-00 00 45 0248 02307 5355 445664 350278 202"
"152.856204"
"$GPGGA,203301,2442.3618,N,07947.6424,W,1,9,1.5,21,"
"##MN-00 00 43 0249 02305 5354 445602 350257 202"
"152.85625"
"$GPGGA,203305,2442.3626,N,07947.6397,W,1,9,1.5,21,"
"##MN-00 00 46 0250 02306 5354 445589 350239 202"
"152.856296"
"$GPGGA,203309,2442.3635,N,07947.6370,W,1,10,1.5,21"
"##MN-00 00 45 0250 02303 5354 445659 350263 202"
"152.856343"
"$GPGGA,203313,2442.3642,N,07947.6344,W,1,10,1.5,22"
"##MN-00 00 45 0251 02301 5354 445650 350259 202"
"152.856389"
"$GPGGA,203317,2442.3651,N,07947.6313,W,1,10,1.5,22"
"##MN-00 00 46 0252 02300 5354 445615 350249 202"
"152.856435"
"$GPGGA,203321,2442.3660,N,07947.6283,W,1,9,1.5,22,"
"##MN-00 00 45 0253 02301 5353 445561 350221 202"
"152.856481"
"$GPGGA,203325,2442.3665,N,07947.6257,W,1,10,1.5,22"
"##MN-00 00 45 0253 02301 5353 445506 350208 202"
"152.856528"
"$GPGGA,203329,2442.3669,N,07947.6231,W,1,10,1.5,22"
"##MN-00 00 46 0254 02298 5353 445520 350214 202"
"152.856574"
"$GPGGA,203333,2442.3676,N,07947.6204,W,1,10,1.5,21"
"##MN-00 00 46 0255 02298 5353 445509 350208 202"
"152.85662"
"$GPGGA,203337,2442.3680,N,07947.6178,W,1,10,1.5,21"
"##MN-00 00 43 0256 02300 5353 445448 350183 202"
"152.856667"
"$GPGGA,203341,2442.3687,N,07947.6152,W,1,10,1.5,21"
"##MN-00 00 46 0257 02303 5353 445387 350156 202"
"152.856713"
"$GPGGA,203345,2442.3694,N,07947.6126,W,1,10,1.5,21"
"##MN-00 00 47 0257 02303 5352 445338 350143 202"
"152.856759"
"$GPGGA,203349,2442.3701,N,07947.6100,W,1,11,1.5,20"
"##MN-00 00 44 0258 02304 5352 445311 350131 202"
"152.856806"
"$GPGGA,203353,2442.3708,N,07947.6073,W,1,11,1.5,20"
"##MN-00 00 47 0259 02307 5352 445246 350101 202"
"152.856852"
"$GPGGA,203357,2442.3715,N,07947.6046,W,1,11,1.5,20"
"##MN-00 00 46 0259 02308 5351 445186 350078 202"
"152.856898"
"$GPGGA,203401,2442.3722,N,07947.6019,W,1,11,1.5,20"
"##MN-00 00 47 0260 02307 5351 445185 350096 202"
"152.856944"
"$GPGGA,203405,2442.3729,N,07947.5990,W,1,11,1.5,19"
"##MN-00 00 45 0261 02308 5351 445190 350097 202"
"152.856991"
"$GPGGA,203409,2442.3734,N,07947.5966,W,1,11,1.5,19"
"##MN-00 00 45 0262 02307 5351 445269 350136 202"
"152.857037"
"$GPGGA,203413,2442.3741,N,07947.5940,W,1,11,1.5,19"
"##MN-00 00 43 0262 02310 5351 445336 350153 202"
"152.857083"
"$GPGGA,203417,2442.3748,N,07947.5914,W,1,11,1.5,19"
"##MN-00 00 44 0263 02313 5351 445353 350148 202"
"152.85713"
"$GPGGA,203421,2442.3755,N,07947.5889,W,1,11,1.5,19"
"##MN-00 00 48 0264 02311 5351 445320 350141 202"
"152.857176"
"$GPGGA,203425,2442.3763,N,07947.5863,W,1,11,1.5,19"
"##MN-00 00 47 0265 02309 5350 445397 350171 202"
"152.857222"
"$GPGGA,203429,2442.3769,N,07947.5839,W,1,11,1.5,19"
"##MN-00 00 50 0265 02311 5350 445447 350182 202"
"152.857268"
"$GPGGA,203433,2442.3774,N,07947.5816,W,1,11,1.5,18"
"##MN-00 00 40 0266 02314 5350 445471 350198 202"
"152.857315"
"$GPGGA,203437,2442.3781,N,07947.5795,W,1,11,1.5,18"
"##MN+00 00 42 0266 02319 5350 445490 350204 202"
"152.857361"
"$GPGGA,203441,2442.3788,N,07947.5773,W,1,11,1.5,18"
"##MN+00 00 45 0267 02320 5349 445613 350250 202"
"152.857407"
"$GPGGA,203445,2442.3795,N,07947.5750,W,1,11,1.5,18"
"##MN+00 00 45 0268 02322 5350 445662 350270 202"
"152.857454"
"$GPGGA,203449,2442.3802,N,07947.5726,W,1,11,1.5,18"
"##MN-00 00 46 0268 02320 5349 445712 350292 202"
"152.857512"
"$GPGGA,203453,2442.3809,N,07947.5702,W,1,11,1.5,18"
"##MN-00 00 44 0269 02320 5349 445750 350312 202"
"152.857558"
"$GPGGA,203457,2442.3817,N,07947.5677,W,1,11,1.5,18"
"##MN-00 00 43 0270 02317 5349 445772 350309 202"
"152.857604"
"$GPGGA,203502,2442.3824,N,07947.5649,W,1,11,1.8,18"
"##MN-00 00 39 0271 02317 5349 445615 350238 202"
"152.85765"
"$GPGGA,203505,2442.3825,N,07947.5631,W,1,11,1.4,18"
"##MN-00 00 45 0272 02317 5348 445540 350224 202"
"152.857697"
"$GPGGA,203509,2442.3831,N,07947.5608,W,1,9,2.3,19,"
"##MN+00 00 44 0272 02312 5348 445531 350220 202"
"152.857743"
"$GPGGA,203513,2442.3839,N,07947.5580,W,1,11,1.4,19"
"##MN+00 00 44 0273 02316 5348 445523 350217 202"
"152.857789"
"$GPGGA,203517,2442.3846,N,07947.5556,W,1,11,1.4,19"
"##MN+00 00 53 0274 02316 5348 445527 350218 202"
"152.857836"
"$GPGGA,203522,2442.3856,N,07947.5523,W,1,11,1.4,20"
"##MN-00 00 50 0275 02312 5348 445523 350217 202"
"152.857882"
"#increment_net"
"$GPGGA,203526,2442.3863,N,07947.5498,W,1,11,1.4,20"
"##MN-00 00 46 0276 02313 5347 445515 350214 202"
"152.857928"
"$GPGGA,203530,2442.3871,N,07947.5472,W,1,11,1.5,20"
"##MN-00 00 44 0277 02311 5348 445504 350210 202"
"152.857975"
"$GPGGA,203534,2442.3875,N,07947.5447,W,1,11,1.4,21"
"##MN-00 00 44 0277 02309 5347 445497 350207 202"
"152.858021"
"$GPGGA,203538,2442.3882,N,07947.5421,W,1,11,1.4,21"
"##MN-00 00 43 0278 02309 5347 445492 350204 202"
"152.858067"
"$GPGGA,203542,2442.3886,N,07947.5395,W,1,11,1.4,21"
"##MN-00 00 43 0279 02304 5347 445476 350198 202"
"152.858113"
"$GPGGA,203546,2442.3893,N,07947.5368,W,1,11,1.4,21"
"##MN-00 00 44 0280 02306 5347 445464 350193 202"
"152.85816"
"$GPGGA,203550,2442.3900,N,07947.5340,W,1,11,1.4,21"
"##MN-00 00 48 0281 02303 5347 445453 350187 202"
"152.858206"
"$GPGGA,203554,2442.3907,N,07947.5313,W,1,11,1.4,21"
"##MN-00 00 41 0282 02302 5347 445443 350182 202"
"152.858252"
"$GPGGA,203558,2442.3914,N,07947.5288,W,1,11,1.4,21"
"##MN-00 00 43 0282 02306 5346 445412 350171 202"
"152.858299"
"$GPGGA,203602,2442.3920,N,07947.5262,W,1,11,1.4,21"
"##MN-00 00 44 0283 02305 5346 445411 350171 202"
"152.858345"
"$GPGGA,203606,2442.3925,N,07947.5236,W,1,11,1.4,21"
"##MN-00 00 46 0284 02303 5346 445408 350165 202"
"152.858391"
"$GPGGA,203610,2442.3931,N,07947.5210,W,1,11,1.4,21"
"##MN-00 00 47 0285 02301 5346 445390 350160 202"
"152.858438"
"$GPGGA,203614,2442.3938,N,07947.5185,W,1,11,1.4,21"
"##MN-00 00 41 0286 02305 5346 445385 350158 202"
"152.858484"
"$GPGGA,203618,2442.3945,N,07947.5161,W,1,11,1.4,21"
"##MN-00 00 34 0287 02308 5345 445374 350153 202"
"152.85853"
"$GPGGA,203622,2442.3951,N,07947.5137,W,1,11,1.4,21"
"##MN-00 00 48 0287 02312 5345 445375 350152 202"
"152.858576"
"$GPGGA,203626,2442.3958,N,07947.5115,W,1,11,1.4,21"
"##MN-00 00 49 0288 02317 5345 445400 350161 202"
"152.858623"
"$GPGGA,203630,2442.3968,N,07947.5095,W,1,11,1.4,21"
"##MN-00 00 46 0289 02322 5345 445420 350169 202"
"152.858669"
"$GPGGA,203634,2442.3974,N,07947.5073,W,1,11,1.4,20"
"##MN-00 00 45 0289 02323 5345 445426 350171 202"
"152.858715"
"$GPGGA,203638,2442.3983,N,07947.5051,W,1,11,1.4,20"
"##MN-00 00 40 0290 02325 5345 445434 350175 202"
"152.858762"
"$GPGGA,203642,2442.3990,N,07947.5029,W,1,11,1.4,20"
"##MN-00 00 44 0291 02328 5344 445437 350175 202"
"152.858808"
"$GPGGA,203646,2442.3997,N,07947.5005,W,1,11,1.4,20"
"##MN-00 00 46 0292 02325 5344 445436 350175 202"
"152.858854"
"$GPGGA,203650,2442.4005,N,07947.4981,W,1,11,1.4,20"
"##MN-00 00 44 0292 02324 5344 445457 350186 202"
"152.8589"
"$GPGGA,203654,2442.4012,N,07947.4957,W,1,11,1.4,20"
"##MN-00 00 43 0293 02324 5344 445462 350188 202"
"152.858947"
"$GPGGA,203658,2442.4019,N,07947.4934,W,1,11,1.4,20"
"##MN-00 00 40 0294 02323 5344 445492 350207 202"
"152.858993"
"$GPGGA,203702,2442.4026,N,07947.4910,W,1,11,1.4,20"
"##MN-00 00 42 0295 02324 5343 445453 350188 202"
"152.859039"
"$GPGGA,203706,2442.4034,N,07947.4885,W,1,11,1.4,20"
"##MN-00 00 42 0296 02324 5343 445417 350173 202"
"152.859086"
"$GPGGA,203710,2442.4041,N,07947.4862,W,1,10,1.4,20"
"##MN-00 00 43 0297 02320 5343 445409 350164 202"
"152.859132"
"$GPGGA,203714,2442.4048,N,07947.4838,W,1,11,1.4,20"
"##MN-00 00 42 0298 02317 5343 445389 350157 202"
"152.859178"
"$GPGGA,203718,2442.4055,N,07947.4813,W,1,11,1.4,20"
"##MN+00 00 41 0299 02317 5343 445386 350158 202"
"152.859225"
"$GPGGA,203722,2442.4063,N,07947.4787,W,1,11,1.4,20"
"##MN+00 00 42 0299 02315 5342 445407 350166 202"
"152.859271"
"$GPGGA,203726,2442.4073,N,07947.4761,W,1,11,1.4,20"
"##MN+00 00 44 0300 02313 5342 445370 350147 202"
"152.859317"
"$GPGGA,203730,2442.4081,N,07947.4735,W,1,11,1.4,20"
"##MN+00 00 42 0301 02311 5342 445368 350153 202"
"152.859363"
"$GPGGA,203734,2442.4091,N,07947.4711,W,1,11,1.4,21"
"##MN+00 00 42 0302 02311 5342 445350 350142 202"
"152.85941"
"$GPGGA,203738,2442.4099,N,07947.4684,W,1,11,1.4,21"
"##MN+00 00 51 0303 02313 5342 445347 350142 202"
"152.859456"
"$GPGGA,203742,2442.4108,N,07947.4657,W,1,11,1.4,21"
"##MN-00 00 55 0304 02310 5342 445369 350147 202"
"152.859502"
"#increment_net"
"$GPGGA,203746,2442.4116,N,07947.4631,W,1,11,1.4,21"
"##MN-00 00 46 0304 02315 5342 445360 350140 202"
"152.859549"
"$GPGGA,203750,2442.4124,N,07947.4605,W,1,11,1.4,21"
"##MN-00 00 44 0306 02317 5341 445479 350186 202"
"152.859595"
"$GPGGA,203754,2442.4131,N,07947.4579,W,1,11,1.4,21"
"##MN-00 00 44 0307 02324 5340 445517 350207 202"
"152.859641"
"$GPGGA,203758,2442.4138,N,07947.4551,W,1,11,1.4,21"
"##MN-00 00 45 0308 02319 5340 445542 350220 202"
"152.859687"
"$GPGGA,203802,2442.4146,N,07947.4522,W,1,11,1.4,20"
"##MN-00 00 53 0309 02315 5340 445557 350226 202"
"152.859734"
"$GPGGA,203806,2442.4152,N,07947.4495,W,1,11,1.4,20"
"##MN-00 00 47 0310 02314 5340 445559 350228 202"
"152.85978"
"$GPGGA,203810,2442.4160,N,07947.4469,W,1,11,1.4,20"
"##MN-00 00 44 0311 02312 5340 445519 350203 202"
"152.859826"
"$GPGGA,203814,2442.4169,N,07947.4444,W,1,11,1.4,20"
"##MN-00 00 43 0312 02310 5340 445547 350225 202"
"152.859873"
"$GPGGA,203818,2442.4178,N,07947.4417,W,1,11,1.4,19"
"##MN-00 00 45 0314 02305 5339 445517 350211 202"
"152.859919"
"$GPGGA,203822,2442.4188,N,07947.4391,W,1,11,1.4,19"
"##MN-00 00 44 0315 02302 5339 445460 350200 202"
"152.859965"
"$GPGGA,203826,2442.4196,N,07947.4364,W,1,11,1.4,19"
"##MN-00 00 45 0316 02299 5339 445426 350183 202"
"152.860012"
"$GPGGA,203830,2442.4207,N,07947.4338,W,1,11,1.4,19"
"##MN-00 00 43 0317 02294 5339 445330 350159 202"
"152.860058"
"$GPGGA,203834,2442.4217,N,07947.4311,W,1,11,1.4,19"
"##MN-00 00 44 0318 02290 5339 445354 350152 202"
"152.860104"
"$GPGGA,203838,2442.4225,N,07947.4283,W,1,11,1.4,19"
"##MN-00 00 44 0320 02285 5339 445337 350147 202"
"152.86015"
"$GPGGA,203842,2442.4234,N,07947.4256,W,1,11,1.4,19"
"##MN-00 00 43 0321 02284 5339 445294 350134 202"
"152.860197"
"$GPGGA,203846,2442.4243,N,07947.4227,W,1,11,1.4,19"
"##MN-00 00 45 0322 02280 5338 445180 350109 202"
"152.860243"
"$GPGGA,203850,2442.4253,N,07947.4198,W,1,11,1.4,19"
"##MN-00 00 44 0323 02276 5338 445135 350071 202"
"152.860289"
"$GPGGA,203854,2442.4261,N,07947.4171,W,1,11,1.4,19"
"##MN-00 00 45 0324 02266 5339 445197 350089 202"
"152.860336"
"$GPGGA,203858,2442.4268,N,07947.4142,W,1,11,1.4,19"
"##MN-00 00 50 0325 02258 5338 445168 350076 202"
"152.860382"
"$GPGGA,203902,2442.4278,N,07947.4115,W,1,11,1.4,19"
"##MN-00 00 43 0326 02260 5338 444985 349992 202"
"152.860428"
"$GPGGA,203906,2442.4286,N,07947.4089,W,1,11,1.4,19"
"##MN-00 00 43 0328 02254 5338 444928 349979 202"
"152.860475"
"$GPGGA,203910,2442.4294,N,07947.4062,W,1,11,1.4,18"
"##MN-00 00 42 0329 02251 5338 444915 349974 202"
"152.860521"
"$GPGGA,203914,2442.4303,N,07947.4035,W,1,11,1.4,18"
"##MN-00 00 41 0330 02248 5337 444907 349966 202"
"152.860567"
"$GPGGA,203918,2442.4311,N,07947.4009,W,1,11,1.4,18"
"##MN-00 00 42 0331 02242 5337 444892 349964 202"
"152.860613"
"$GPGGA,203922,2442.4319,N,07947.3982,W,1,11,1.4,18"
"##MN-00 00 40 0332 02235 5337 444865 349958 202"
"152.86066"
"$GPGGA,203926,2442.4326,N,07947.3956,W,1,11,1.4,18"
"##MN-00 00 46 0333 02232 5337 444840 349949 202"
"152.860706"
"$GPGGA,203930,2442.4333,N,07947.3929,W,1,11,1.4,17"
"##MN-00 00 43 0334 02229 5337 444830 349947 202"
"152.860764"
"$GPGGA,203934,2442.4343,N,07947.3902,W,1,11,1.4,17"
"##MN-00 00 43 0335 02225 5337 444829 349949 202"
"152.86081"
"$GPGGA,203938,2442.4350,N,07947.3876,W,1,11,1.4,17"
"##MN-00 00 42 0337 02221 5337 444841 349956 202"
"152.860856"
"$GPGGA,203942,2442.4358,N,07947.3849,W,1,11,1.4,17"
"##MN-00 00 43 0338 02210 5337 444822 349953 202"
"152.860903"
"$GPGGA,203946,2442.4365,N,07947.3821,W,1,11,1.4,18"
"##MN-00 00 43 0339 02208 5337 444757 349939 202"
"152.860949"
"$GPGGA,203951,2442.4375,N,07947.3784,W,1,11,1.4,18"
"##MN-00 00 45 0340 02199 5336 444726 349922 202"
"152.860995"
"$GPGGA,203954,2442.4380,N,07947.3762,W,1,11,1.4,18"
"##MN-00 00 43 0341 02198 5336 444642 349892 202"
"152.861042"
"$GPGGA,203958,2442.4388,N,07947.3736,W,1,11,1.4,18"
"##MN-00 00 41 0342 02188 5336 444602 349885 202"
"152.861088"
"$GPGGA,204002,2442.4398,N,07947.3707,W,1,11,1.4,18"
"##MN-00 00 42 0343 02184 5336 444582 349880 202"
"152.861134"
"$GPGGA,204007,2442.4406,N,07947.3671,W,1,11,1.4,18"
"##MN-00 00 41 0345 02180 5336 444522 349878 202"
"152.861181"
"$GPGGA,204011,2442.4415,N,07947.3641,W,1,11,1.4,18"
"##MN-00 00 43 0346 02171 5336 444412 349843 202"
"152.861227"
"$GPGGA,204015,2442.4423,N,07947.3611,W,1,11,1.4,18"
"##MN-00 00 41 0347 02167 5335 444305 349788 202"
"152.861273"
"$GPGGA,204019,2442.4428,N,07947.3582,W,1,11,1.4,18"
"##MN-00 00 40 0348 02162 5335 444263 349773 202"
"152.861319"
"$GPGGA,204023,2442.4435,N,07947.3552,W,1,11,1.4,18"
"##MN-00 00 43 0349 02155 5335 444145 349734 202"
"152.861366"
"$GPGGA,204027,2442.4442,N,07947.3522,W,1,11,1.4,18"
"##MN-00 00 42 0351 02151 5335 444058 349693 202"
"152.861412"
"$GPGGA,204031,2442.4449,N,07947.3492,W,1,11,1.4,18"
"##MN-00 00 43 0352 02141 5335 443937 349669 202"
"152.861458"
"$GPGGA,204035,2442.4458,N,07947.3462,W,1,11,1.4,18"
"##MN-00 00 44 0353 02135 5335 443826 349620 202"
"152.861505"
"$GPGGA,204039,2442.4466,N,07947.3434,W,1,11,1.4,18"
"##MN-00 00 42 0354 02132 5334 443709 349574 202"
"152.861551"
"$GPGGA,204043,2442.4474,N,07947.3403,W,1,11,1.4,18"
"##MN-00 00 43 0355 02122 5334 443601 349540 202"
"152.861597"
"$GPGGA,204047,2442.4480,N,07947.3377,W,1,11,1.4,18"
"##MN-00 00 40 0356 02122 5334 443406 349476 202"
"152.861644"
"$GPGGA,204051,2442.4488,N,07947.3347,W,1,11,1.4,18"
"##MN-00 00 47 0357 02113 5334 443152 349410 202"
"152.86169"
"$GPGGA,204055,2442.4496,N,07947.3318,W,1,11,1.4,18"
"##MN-00 00 46 0358 02108 5334 442912 349334 202"
"152.861736"
"$GPGGA,204059,2442.4503,N,07947.3292,W,1,11,1.4,18"
"##MN-00 00 42 0359 02105 5334 442733 349280 202"
"152.861782"
"$GPGGA,204103,2442.4511,N,07947.3265,W,1,11,1.4,18"
"##MN-00 00 42 0360 02099 5334 442549 349238 202"
"152.861829"
"$GPGGA,204107,2442.4518,N,07947.3236,W,1,11,1.4,18"
"##MN-00 00 44 0362 02091 5334 442456 349227 202"
"152.861875"
"$GPGGA,204111,2442.4527,N,07947.3208,W,1,11,1.4,18"
"##MN-00 00 44 0363 02087 5334 442331 349153 202"
"152.861921"
"$GPGGA,204115,2442.4534,N,07947.3179,W,1,11,1.4,18"
"##MN-00 00 43 0364 02083 5334 442201 349120 202"
"152.861968"
"$GPGGA,204119,2442.4542,N,07947.3149,W,1,11,1.4,18"
"##MN-00 00 42 0366 02076 5334 442140 349088 202"
"152.862014"
"$GPGGA,204123,2442.4547,N,07947.3122,W,1,11,1.4,18"
"##MN-00 00 41 0367 02068 5333 442104 349068 202"
"152.86206"
"$GPGGA,204127,2442.4554,N,07947.3092,W,1,11,1.4,18"
"##MN-00 00 41 0368 02060 5334 442092 349059 202"
"152.862106"
"$GPGGA,204131,2442.4561,N,07947.3063,W,1,11,1.4,18"
"##MN-00 00 42 0369 02052 5333 442087 349060 202"
"152.862153"
"$GPGGA,204135,2442.4568,N,07947.3034,W,1,11,1.4,18"
"##MN-00 00 47 0370 02042 5333 442072 349056 202"
"152.862199"
"$GPGGA,204139,2442.4575,N,07947.3005,W,1,11,1.4,18"
"##MN-00 00 45 0372 02037 5333 442074 349056 202"
"152.862245"
"$GPGGA,204143,2442.4583,N,07947.2976,W,1,11,1.4,18"
"##MN-00 00 44 0373 02031 5333 442075 349057 202"
"152.862292"
"$GPGGA,204147,2442.4592,N,07947.2946,W,1,11,1.4,18"
"##MN-00 00 50 0374 02025 5333 442092 349063 202"
"152.862338"
"$GPGGA,204151,2442.4600,N,07947.2916,W,1,11,1.4,18"
"##MN-00 00 44 0375 02021 5333 442109 349072 202"
"152.862384"
"$GPGGA,204155,2442.4608,N,07947.2887,W,1,11,1.4,18"
"##MN-00 00 44 0377 02012 5333 442154 349088 202"
"152.862431"
"$GPGGA,204159,2442.4617,N,07947.2857,W,1,11,1.4,18"
"##MN-00 00 45 0378 02003 5333 442154 349094 202"
"152.862477"
"$GPGGA,204203,2442.4625,N,07947.2827,W,1,11,1.4,18"
"##MN-00 00 48 0379 01993 5333 442156 349120 202"
"152.862523"
"$GPGGA,204207,2442.4630,N,07947.2805,W,1,11,1.4,18"
"##MN-00 00 46 0381 01993 5333 442170 349102 202"
"152.862569"
"$GPGGA,204211,2442.4639,N,07947.2771,W,1,11,1.4,17"
"##MN-00 00 45 0382 01984 5333 442176 349153 202"
"152.862616"
"$GPGGA,204215,2442.4646,N,07947.2742,W,1,11,1.4,17"
"##MN-00 00 45 0383 01980 5333 442050 349104 202"
"152.862662"
"$GPGGA,204219,2442.4652,N,07947.2713,W,1,11,1.4,17"
"##MN-00 00 43 0384 01974 5333 441755 348949 202"
"152.862708"
"$GPGGA,204223,2442.4661,N,07947.2687,W,1,11,1.4,17"
"##MN-00 00 49 0385 01969 5333 441435 348823 202"
"152.862755"
"$GPGGA,204227,2442.4666,N,07947.2663,W,1,11,1.4,17"
"##MN-00 00 51 0386 01963 5333 441137 348711 202"
"152.862801"
"$GPGGA,204231,2442.4676,N,07947.2640,W,1,11,1.4,17"
"##MN-00 00 44 0387 01963 5333 440290 348324 202"
"152.862847"
"$GPGGA,204235,2442.4684,N,07947.2617,W,1,11,1.4,17"
"##MN-00 00 42 0389 01958 5333 439899 348194 202"
"152.862894"
"$GPGGA,204239,2442.4694,N,07947.2594,W,1,11,1.4,17"
"##MN-00 00 42 0390 01954 5333 439679 348134 202"
"152.86294"
"$GPGGA,204243,2442.4704,N,07947.2570,W,1,11,1.4,17"
"##MN-00 00 42 0391 01947 5333 439746 348148 202"
"152.862986"
"$GPGGA,204247,2442.4711,N,07947.2544,W,1,11,1.4,17"
"##MN-00 00 39 0392 01942 5333 439348 348110 202"
"152.863032"
"$GPGGA,204251,2442.4720,N,07947.2517,W,1,11,1.4,17"
"##MN-00 00 40 0394 01935 5332 438991 347906 202"
"152.863079"
"$GPGGA,204255,2442.4729,N,07947.2490,W,1,11,1.4,17"
"##MN-00 00 42 0395 01926 5332 438844 347854 202"
"152.863125"
"$GPGGA,204259,2442.4737,N,07947.2463,W,1,11,1.4,17"
"##MN-00 00 50 0396 01916 5332 438798 347824 202"
"152.863171"
"$GPGGA,204303,2442.4745,N,07947.2436,W,1,11,1.4,17"
"##MN-00 00 44 0398 01911 5332 438694 347763 202"
"152.863218"
"$GPGGA,204307,2442.4753,N,07947.2412,W,1,11,1.4,16"
"##MN-00 00 42 0399 01903 5332 438489 347690 202"
"152.863264"
"$GPGGA,204311,2442.4762,N,07947.2386,W,1,11,1.4,16"
"##MN-00 00 51 0400 01892 5332 438288 347608 202"
"152.86331"
"$GPGGA,204315,2442.4771,N,07947.2360,W,1,11,1.4,16"
"##MN-00 00 54 0401 01884 5333 438360 347626 202"
"152.863357"
"$GPGGA,204319,2442.4778,N,07947.2335,W,1,11,1.4,16"
"##MN-00 00 48 0402 01880 5333 438201 347574 202"
"152.863403"
"$GPGGA,204323,2442.4787,N,07947.2313,W,1,11,1.4,16"
"##MN-00 00 45 0404 01877 5333 437926 347501 202"
"152.863449"
"$GPGGA,204327,2442.4794,N,07947.2290,W,1,11,1.4,16"
"##MN-00 00 44 0405 01870 5333 437850 347457 202"
"152.863495"
"$GPGGA,204331,2442.4799,N,07947.2264,W,1,11,1.4,16"
"##MN-00 00 45 0406 01862 5332 437741 347455 202"
"152.863542"
"$GPGGA,204335,2442.4809,N,07947.2238,W,1,11,1.4,16"
"##MN-00 00 48 0408 01858 5332 437712 347416 202"
"152.863588"
"$GPGGA,204339,2442.4816,N,07947.2210,W,1,11,1.4,16"
"##MN-00 00 47 0409 01857 5332 437673 347404 202"
"152.863634"
"$GPGGA,204343,2442.4821,N,07947.2184,W,1,11,1.4,16"
"##MN-00 00 45 0410 01859 5332 437647 347391 202"
"152.863681"
"$GPGGA,204347,2442.4827,N,07947.2158,W,1,11,1.4,16"
"##MN-00 00 47 0411 01859 5332 437700 347399 202"
