" Tow: 3Cd-A   RVWS/WS1406"
" Date: 06/01/2014"
" Temperature Probe #  2597    Conductivity Probe #  2870"
" Pressure Probe #  109"
" Flow Meter Calibration  4.71 (m/count)  "
"152.812616"
"$GPGGA,193011,2441.2029,N,07951.0132,W,1,11,1.4,17"
"##MN-00 00 33 0087 01856 5388 000021 921887 203"
"152.812662"
"$GPGGA,193019,2441.2072,N,07951.0090,W,1,11,1.4,17"
"##MN-00 00 40 0087 01859 5388 440266 349789 203"
"152.812708"
"$GPGGA,193023,2441.2094,N,07951.0067,W,1,11,1.4,17"
"##MN-00 00 43 0087 01857 5390 440287 362716 203"
"152.812755"
"$GPGGA,193027,2441.2118,N,07951.0044,W,1,11,1.5,17"
"##MN-00 00 47 0088 01855 5390 440265 360877 203"
"152.812801"
"$GPGGA,193031,2441.2140,N,07951.0020,W,1,11,1.4,17"
"##MN-00 00 48 0088 01858 5391 440187 348195 203"
"152.812847"
"$GPGGA,193035,2441.2162,N,07950.9998,W,1,11,1.4,17"
"##MN-00 00 43 0089 01859 5392 440123 348538 203"
"152.812894"
"$GPGGA,193039,2441.2184,N,07950.9978,W,1,9,1.6,17,"
"##MN-00 00 44 0089 01862 5393 440094 348354 203"
"152.81294"
"$GPGGA,193043,2441.2205,N,07950.9960,W,1,9,1.6,17,"
"##MN-00 00 45 0090 01868 5394 440110 348180 203"
"152.812986"
"$GPGGA,193047,2441.2226,N,07950.9946,W,1,9,1.6,17,"
"##MN-00 00 44 0090 01875 5395 440160 348290 203"
"152.813032"
"$GPGGA,193051,2441.2245,N,07950.9932,W,1,9,1.6,16,"
"##MN-00 00 38 0091 01885 5395 440244 348333 203"
"152.813079"
"$GPGGA,193055,2441.2266,N,07950.9920,W,1,9,1.6,16,"
"##MN-00 00 37 0091 01895 5396 440590 348430 203"
"152.813125"
"$GPGGA,193059,2441.2288,N,07950.9904,W,1,10,1.5,16"
"##MN-00 00 38 0091 01901 5397 440771 348537 203"
"152.813171"
"$GPGGA,193103,2441.2309,N,07950.9892,W,1,11,1.4,16"
"##MN-00 00 40 0091 01907 5398 440940 348581 203"
"152.813218"
"$GPGGA,193107,2441.2329,N,07950.9880,W,1,11,1.4,16"
"##MN-00 00 38 0092 01915 5399 441045 348631 203"
"152.813264"
"$GPGGA,193111,2441.2353,N,07950.9865,W,1,11,1.4,16"
"##MN-00 00 36 0092 01923 5400 441044 348656 203"
"152.81331"
"$GPGGA,193115,2441.2374,N,07950.9853,W,1,11,1.4,16"
"##MN-00 00 34 0092 01930 5400 441138 348672 203"
"152.813356"
"$GPGGA,193119,2441.2396,N,07950.9840,W,1,11,1.4,16"
"##MN-00 00 32 0093 01940 5401 441230 348715 203"
"152.813403"
"$GPGGA,193123,2441.2418,N,07950.9829,W,1,11,1.4,16"
"##MN-00 00 32 0093 01945 5402 441263 348734 203"
"152.813449"
"$GPGGA,193127,2441.2439,N,07950.9820,W,1,11,1.4,16"
"##MN-00 00 31 0093 01953 5403 441405 348786 203"
"152.813495"
"$GPGGA,193131,2441.2461,N,07950.9807,W,1,11,1.4,16"
"##MN-00 00 31 0093 01957 5403 441433 348796 203"
"152.813542"
"$GPGGA,193135,2441.2480,N,07950.9800,W,1,11,1.4,17"
"##MN-00 00 28 0094 01967 5404 441485 348810 203"
"152.813588"
"$GPGGA,193139,2441.2502,N,07950.9789,W,1,10,1.7,17"
"##MN-00 00 30 0094 01970 5404 441562 348836 203"
"152.813634"
"$GPGGA,193143,2441.2527,N,07950.9776,W,1,9,2.0,17,"
"##MN-00 00 30 0094 01977 5405 441565 348843 203"
"152.813681"
"$GPGGA,193147,2441.2552,N,07950.9765,W,1,10,1.7,17"
"##MN-00 00 29 0094 01985 5406 441670 348875 203"
"152.813727"
"$GPGGA,193151,2441.2576,N,07950.9762,W,1,11,1.4,18"
"##MN-00 00 29 0095 01990 5406 441862 348934 203"
"152.813773"
"$GPGGA,193155,2441.2602,N,07950.9750,W,1,10,1.7,18"
"##MN-00 00 28 0095 01995 5407 442044 348987 203"
"152.813819"
"$GPGGA,193159,2441.2630,N,07950.9735,W,1,10,1.7,19"
"##MN-00 00 30 0095 02002 5407 442208 349018 203"
"152.813866"
"$GPGGA,193203,2441.2656,N,07950.9721,W,1,10,1.7,19"
"##MN-00 00 30 0095 02006 5408 442268 349048 203"
"152.813912"
"$GPGGA,193207,2441.2682,N,07950.9707,W,1,11,1.4,19"
"##MN-00 00 31 0096 02006 5409 442291 349070 203"
"152.813958"
"$GPGGA,193211,2441.2710,N,07950.9691,W,1,11,1.4,19"
"##MN-00 00 31 0096 02014 5409 442289 349070 203"
"152.814005"
"$GPGGA,193215,2441.2736,N,07950.9678,W,1,11,1.4,19"
"##MN-00 00 32 0096 02015 5409 442280 349072 203"
"152.814051"
"$GPGGA,193219,2441.2766,N,07950.9661,W,1,11,1.4,19"
"##MN-00 00 31 0097 02020 5410 442309 349079 203"
"152.814097"
"$GPGGA,193223,2441.2794,N,07950.9645,W,1,11,1.4,19"
"##MN-00 00 34 0097 02024 5410 442345 349092 203"
"152.814143"
"$GPGGA,193227,2441.2823,N,07950.9629,W,1,11,1.4,19"
"##MN-00 00 31 0097 02028 5410 442339 349090 203"
"152.81419"
"$GPGGA,193231,2441.2852,N,07950.9611,W,1,10,1.7,19"
"##MN-00 00 34 0098 02029 5411 442363 349099 203"
"152.814236"
"$GPGGA,193235,2441.2881,N,07950.9593,W,1,10,1.7,19"
"##MN-00 00 35 0098 02029 5411 442386 349104 203"
"152.814294"
"$GPGGA,193239,2441.2910,N,07950.9573,W,1,10,1.7,19"
"##MN-00 00 36 0099 02035 5412 442390 349106 203"
"152.81434"
"$GPGGA,193244,2441.2945,N,07950.9545,W,1,10,1.7,19"
"##MN-00 00 37 0099 02037 5412 442390 349105 203"
"152.814387"
"$GPGGA,193248,2441.2974,N,07950.9524,W,1,10,1.7,19"
"##MN-00 00 41 0100 02039 5413 442394 349107 203"
"152.814433"
"$GPGGA,193252,2441.3001,N,07950.9506,W,1,11,1.7,19"
"##MN-00 00 40 0100 02040 5413 442436 349119 203"
"152.814479"
"$GPGGA,193255,2441.3022,N,07950.9491,W,1,11,1.4,19"
"##MN-00 00 39 0101 02043 5413 442481 349132 203"
"152.814525"
"$GPGGA,193300,2441.3058,N,07950.9459,W,1,11,1.4,19"
"##MN-00 00 42 0102 02046 5414 442507 349140 203"
"152.814572"
"$GPGGA,193304,2441.3084,N,07950.9434,W,1,11,1.7,19"
"##MN-00 00 44 0102 02045 5414 442522 349148 203"
"152.814618"
"$GPGGA,193308,2441.3112,N,07950.9411,W,1,9,1.7,19,"
"##MN-00 00 44 0102 02052 5414 442549 349151 203"
"152.814664"
"$GPGGA,193312,2441.3140,N,07950.9390,W,1,9,2.0,19,"
"##MN-00 00 44 0103 02054 5415 442575 349158 203"
"152.814711"
"$GPGGA,193315,2441.3156,N,07950.9379,W,1,9,2.0,19,"
"##MN-00 00 43 0104 02061 5415 442593 349166 203"
"152.814757"
"$GPGGA,193320,2441.3190,N,07950.9357,W,1,11,2.0,19"
"##MN-00 00 45 0104 02065 5415 442622 349173 203"
"152.814803"
"$GPGGA,193324,2441.3216,N,07950.9333,W,1,10,2.0,19"
"##MN-00 00 45 0105 02068 5415 442638 349177 203"
"152.81485"
"$GPGGA,193328,2441.3238,N,07950.9320,W,1,10,1.8,20"
"##MN-00 00 38 0105 02070 5416 442681 349186 203"
"152.814896"
"$GPGGA,193332,2441.3268,N,07950.9289,W,1,10,1.8,20"
"##MN-00 00 39 0105 02074 5416 442695 349191 203"
"152.814942"
"$GPGGA,193336,2441.3297,N,07950.9261,W,1,10,2.0,20"
"##MN-00 00 45 0106 02082 5416 442719 349196 203"
"152.814988"
"$GPGGA,193340,2441.3322,N,07950.9240,W,1,10,1.8,20"
"##MN-00 00 45 0107 02083 5416 442731 349200 203"
"152.815035"
"$GPGGA,193344,2441.3350,N,07950.9216,W,1,9,1.5,20,"
"##MN-00 00 46 0107 02089 5416 442730 349199 203"
"152.815081"
"$GPGGA,193348,2441.3376,N,07950.9192,W,1,10,2.0,19"
"##MN-00 00 44 0108 02091 5417 442737 349202 203"
"152.815127"
"$GPGGA,193352,2441.3400,N,07950.9174,W,1,10,1.8,19"
"##MN-00 00 45 0108 02096 5417 442742 349204 203"
"152.815174"
"$GPGGA,193356,2441.3425,N,07950.9148,W,1,10,1.8,19"
"##MN-00 00 47 0109 02102 5417 442739 349201 203"
"152.81522"
"$GPGGA,193400,2441.3448,N,07950.9126,W,1,10,1.8,19"
"##MN-00 00 44 0110 02104 5417 442734 349199 203"
"152.815266"
"$GPGGA,193404,2441.3473,N,07950.9101,W,1,11,1.5,19"
"##MN-00 00 46 0110 02111 5417 442745 349202 203"
"152.815312"
"$GPGGA,193408,2441.3495,N,07950.9081,W,1,11,1.5,19"
"##MN-00 00 49 0111 02112 5417 442750 349202 203"
"152.815359"
"$GPGGA,193412,2441.3521,N,07950.9052,W,1,10,1.5,19"
"##MN-00 00 43 0111 02118 5417 442751 349202 203"
"152.815405"
"$GPGGA,193416,2441.3545,N,07950.9030,W,1,10,1.5,19"
"##MN-00 00 46 0112 02124 5418 442754 349202 203"
"152.815451"
"$GPGGA,193420,2441.3571,N,07950.9004,W,1,11,1.5,19"
"##MN-00 00 45 0113 02130 5418 442757 349202 203"
"152.815498"
"$GPGGA,193424,2441.3595,N,07950.8980,W,1,11,1.5,19"
"##MN-00 00 42 0113 02137 5418 442760 349201 203"
"152.815544"
"$GPGGA,193428,2441.3620,N,07950.8952,W,1,11,1.5,19"
"##MN-00 00 47 0113 02141 5418 442768 349202 203"
"152.81559"
"$GPGGA,193432,2441.3646,N,07950.8926,W,1,11,1.8,19"
"##MN-00 00 44 0114 02148 5418 442775 349202 203"
"152.815637"
"$GPGGA,193436,2441.3669,N,07950.8902,W,1,11,1.5,19"
"##MN-00 00 45 0114 02154 5418 442775 349201 203"
"152.815683"
"$GPGGA,193440,2441.3691,N,07950.8880,W,1,10,1.5,18"
"##MN-00 00 49 0115 02158 5418 442777 349200 203"
"152.815729"
"$GPGGA,193444,2441.3715,N,07950.8860,W,1,11,1.5,18"
"##MN-00 00 48 0115 02162 5418 442781 349197 203"
"152.815775"
"$GPGGA,193448,2441.3734,N,07950.8840,W,1,11,1.5,18"
"##MN-00 00 48 0116 02170 5419 442779 349197 203"
"152.815822"
"$GPGGA,193452,2441.3756,N,07950.8819,W,1,11,1.5,18"
"##MN-00 00 45 0117 02173 5419 442778 349195 203"
"152.815868"
"$GPGGA,193456,2441.3777,N,07950.8798,W,1,11,1.6,18"
"##MN-00 00 45 0117 02183 5418 442780 349194 203"
"152.815914"
"$GPGGA,193500,2441.3797,N,07950.8775,W,1,10,1.6,18"
"##MN-00 00 47 0118 02187 5418 442781 349191 203"
"152.815961"
"$GPGGA,193504,2441.3820,N,07950.8750,W,1,10,1.6,18"
"##MN-00 00 46 0118 02194 5418 442779 349188 203"
"152.816007"
"$GPGGA,193508,2441.3839,N,07950.8725,W,1,11,1.5,18"
"##MN-00 00 41 0119 02203 5418 442778 349187 203"
"152.816053"
"$GPGGA,193512,2441.3860,N,07950.8699,W,1,11,1.5,17"
"##MN-00 00 44 0119 02207 5418 442777 349185 203"
"152.8161"
"$GPGGA,193516,2441.3882,N,07950.8671,W,1,11,1.5,17"
"##MN-00 00 46 0119 02215 5419 442777 349185 203"
"152.816146"
"$GPGGA,193520,2441.3902,N,07950.8643,W,1,11,1.6,17"
"##MN-00 00 46 0120 02222 5418 442778 349185 203"
"152.816192"
"$GPGGA,193524,2441.3922,N,07950.8617,W,1,10,1.6,17"
"##MN-00 00 45 0120 02226 5419 442780 349184 203"
"152.816238"
"$GPGGA,193528,2441.3942,N,07950.8589,W,1,10,1.6,17"
"##MN-00 00 46 0121 02232 5418 442782 349183 203"
"152.816285"
"$GPGGA,193532,2441.3960,N,07950.8563,W,1,10,1.6,16"
"##MN-00 00 44 0121 02236 5419 442782 349180 203"
"152.816331"
"$GPGGA,193536,2441.3979,N,07950.8535,W,1,10,1.9,16"
"##MN-00 00 45 0122 02243 5419 442780 349178 203"
"152.816377"
"$GPGGA,193540,2441.3997,N,07950.8504,W,1,11,1.5,16"
"##MN-00 00 44 0122 02245 5419 442781 349175 203"
"152.816424"
"$GPGGA,193544,2441.4016,N,07950.8474,W,1,11,1.5,16"
"##MN-00 00 42 0123 02249 5419 442782 349174 203"
"152.81647"
"$GPGGA,193548,2441.4034,N,07950.8447,W,1,10,1.5,16"
"##MN-00 00 47 0124 02253 5419 442788 349174 203"
"152.816516"
"$GPGGA,193552,2441.4052,N,07950.8419,W,1,10,1.5,16"
"##MN-00 00 43 0124 02260 5418 442805 349176 203"
"152.816562"
"$GPGGA,193556,2441.4070,N,07950.8395,W,1,11,1.6,17"
"##MN-00 00 44 0124 02267 5419 442813 349177 203"
"152.816609"
"$GPGGA,193600,2441.4088,N,07950.8366,W,1,11,1.5,17"
"##MN-00 00 45 0125 02274 5418 442843 349183 203"
"152.816655"
"$GPGGA,193604,2441.4108,N,07950.8341,W,1,11,1.6,17"
"##MN-00 00 44 0125 02280 5419 442878 349163 203"
"152.816701"
"$GPGGA,193608,2441.4128,N,07950.8311,W,1,11,1.5,18"
"##MN-00 00 43 0126 02284 5419 442975 349178 203"
"152.816748"
"$GPGGA,193612,2441.4144,N,07950.8285,W,1,11,1.6,18"
"##MN-00 00 43 0126 02287 5418 443385 349355 203"
"152.816794"
"$GPGGA,193616,2441.4160,N,07950.8260,W,1,10,1.6,19"
"##MN-00 00 44 0127 02293 5418 444254 349712 203"
"152.81684"
"$GPGGA,193620,2441.4178,N,07950.8230,W,1,11,1.6,19"
"##MN-00 00 43 0128 02297 5418 444580 349750 203"
"152.816887"
"$GPGGA,193624,2441.4196,N,07950.8202,W,1,11,1.5,19"
"##MN-00 00 40 0128 02303 5418 444719 349797 203"
"152.816933"
"$GPGGA,193628,2441.4214,N,07950.8173,W,1,11,1.6,19"
"##MN-00 00 37 0128 02308 5418 444746 349814 203"
"152.816979"
"$GPGGA,193632,2441.4232,N,07950.8146,W,1,11,1.6,19"
"##MN-00 00 45 0129 02312 5418 444836 349847 203"
"152.817026"
"$GPGGA,193636,2441.4251,N,07950.8118,W,1,9,1.5,19,"
"##MN-00 00 41 0129 02310 5418 445145 349975 203"
"152.817072"
"$GPGGA,193640,2441.4268,N,07950.8091,W,1,10,1.5,19"
"##MN-00 00 42 0130 02312 5418 445277 350051 203"
"152.817118"
"$GPGGA,193644,2441.4286,N,07950.8064,W,1,10,1.5,18"
"##MN-00 00 41 0130 02308 5418 445427 350095 203"
"152.817164"
"$GPGGA,193648,2441.4305,N,07950.8036,W,1,11,1.5,18"
"##MN-00 00 40 0131 02311 5418 445109 349936 203"
"152.817211"
"$GPGGA,193652,2441.4321,N,07950.8012,W,1,10,1.6,18"
"##MN-00 00 41 0131 02310 5418 444895 349891 203"
"152.817257"
"$GPGGA,193656,2441.4339,N,07950.7985,W,1,10,1.5,18"
"##MN+00 00 43 0132 02309 5417 444720 349821 203"
"152.817303"
"$GPGGA,193700,2441.4357,N,07950.7959,W,1,10,1.6,18"
"##MN+00 00 41 0133 02310 5417 444689 349800 203"
"152.81735"
"$GPGGA,193704,2441.4375,N,07950.7930,W,1,10,1.5,18"
"##MN+00 00 40 0133 02307 5417 444684 349799 203"
"152.817396"
"$GPGGA,193708,2441.4393,N,07950.7901,W,1,11,1.5,19"
"##MN+00 00 41 0134 02310 5417 444682 349799 203"
"152.817442"
"$GPGGA,193712,2441.4409,N,07950.7878,W,1,11,1.5,19"
"##MN+00 00 43 0135 02308 5417 444675 349794 203"
"152.817488"
"$GPGGA,193716,2441.4424,N,07950.7854,W,1,10,1.6,19"
"##MN+00 00 48 0135 02306 5417 444652 349794 203"
"152.817546"
"$GPGGA,193720,2441.4442,N,07950.7825,W,1,11,1.5,19"
"##MN-00 00 47 0136 02309 5417 444654 349794 203"
"152.817593"
"$GPGGA,193724,2441.4456,N,07950.7797,W,1,11,1.5,19"
"##MN-00 00 43 0136 02306 5416 444662 349792 203"
"152.817639"
"$GPGGA,193728,2441.4473,N,07950.7769,W,1,11,1.5,19"
"##MN-00 00 43 0137 02306 5417 444673 349791 203"
"152.817685"
"#increment_net"
"$GPGGA,193733,2441.4491,N,07950.7741,W,1,10,1.6,19"
"##MN-00 00 45 0137 02306 5416 444723 349807 203"
"152.817731"
"$GPGGA,193736,2441.4503,N,07950.7726,W,1,9,1.8,19,"
"##MN-00 00 39 0138 02307 5416 444762 349827 203"
"152.817778"
"$GPGGA,193741,2441.4525,N,07950.7697,W,1,10,1.5,20"
"##MN-00 00 39 0138 02311 5416 444846 349886 203"
"152.817824"
"$GPGGA,193745,2441.4539,N,07950.7675,W,1,11,1.5,20"
"##MN+00 00 43 0139 02315 5416 444784 349840 203"
"152.81787"
"$GPGGA,193749,2441.4552,N,07950.7649,W,1,11,1.5,21"
"##MN+00 00 43 0139 02315 5415 444766 349830 203"
"152.817917"
"$GPGGA,193753,2441.4564,N,07950.7619,W,1,10,1.5,21"
"##MN+00 00 39 0140 02314 5415 444746 349816 203"
"152.817963"
"$GPGGA,193757,2441.4576,N,07950.7591,W,1,10,1.8,22"
"##MN-00 00 41 0141 02315 5415 444744 349822 203"
"152.818009"
"$GPGGA,193801,2441.4587,N,07950.7565,W,1,10,2.1,22"
"##MN-00 00 37 0141 02314 5415 444788 349833 203"
"152.818056"
"$GPGGA,193805,2441.4601,N,07950.7539,W,1,10,2.1,22"
"##MN-00 00 37 0142 02318 5415 444877 349873 203"
"152.818102"
"$GPGGA,193809,2441.4612,N,07950.7514,W,1,10,1.5,22"
"##MN-00 00 43 0142 02316 5415 445415 350082 203"
"152.818148"
"$GPGGA,193813,2441.4625,N,07950.7491,W,1,11,1.5,22"
"##MN-00 00 37 0142 02317 5415 445589 350153 203"
"152.818194"
"$GPGGA,193817,2441.4633,N,07950.7473,W,1,11,1.5,23"
"##MN-00 00 38 0143 02322 5414 445802 350224 203"
"152.818241"
"$GPGGA,193821,2441.4646,N,07950.7449,W,1,11,1.5,22"
"##MN-00 00 42 0143 02320 5414 446067 350335 203"
"152.818287"
"$GPGGA,193825,2441.4659,N,07950.7424,W,1,11,1.5,22"
"##MN-00 00 39 0144 02321 5414 446118 350358 203"
"152.818333"
"$GPGGA,193829,2441.4672,N,07950.7393,W,1,11,1.5,22"
"##MN-00 00 38 0144 02326 5414 446137 350371 203"
"152.81838"
"$GPGGA,193833,2441.4683,N,07950.7367,W,1,11,1.5,22"
"##MN-00 00 39 0145 02326 5414 446158 350382 203"
"152.818426"
"$GPGGA,193837,2441.4695,N,07950.7339,W,1,11,1.5,22"
"##MN-00 00 40 0145 02323 5413 446111 350373 203"
"152.818472"
"$GPGGA,193841,2441.4704,N,07950.7315,W,1,11,1.5,21"
"##MN-00 00 38 0146 02321 5413 446064 350359 203"
"152.818518"
"$GPGGA,193845,2441.4715,N,07950.7290,W,1,11,1.5,21"
"##MN-00 00 34 0146 02320 5413 445958 350332 203"
"152.818565"
"$GPGGA,193849,2441.4724,N,07950.7268,W,1,11,1.5,21"
"##MN-00 00 30 0147 02320 5413 445747 350264 203"
"152.818611"
"$GPGGA,193853,2441.4733,N,07950.7244,W,1,11,1.5,20"
"##MN-00 00 37 0147 02320 5413 445792 350254 203"
"152.818657"
"$GPGGA,193857,2441.4744,N,07950.7219,W,1,11,1.5,20"
"##MN-00 00 39 0148 02315 5412 445610 350186 203"
"152.818704"
"$GPGGA,193901,2441.4753,N,07950.7196,W,1,11,1.5,20"
"##MN-00 00 40 0148 02313 5412 445479 350152 203"
"152.81875"
"$GPGGA,193905,2441.4763,N,07950.7175,W,1,10,1.5,19"
"##MN-00 00 42 0148 02310 5412 445412 350122 203"
"152.818796"
"$GPGGA,193909,2441.4774,N,07950.7153,W,1,11,1.5,19"
"##MN-00 00 36 0149 02315 5412 445477 350138 203"
"152.818843"
"$GPGGA,193913,2441.4787,N,07950.7135,W,1,11,1.5,19"
"##MN-00 00 40 0149 02320 5411 445874 350253 203"
"152.818889"
"$GPGGA,193917,2441.4798,N,07950.7116,W,1,11,1.5,19"
"##MN-00 00 41 0150 02323 5411 446087 350344 203"
"152.818935"
"$GPGGA,193921,2441.4807,N,07950.7096,W,1,11,1.5,18"
"##MN-00 00 36 0150 02325 5411 446171 350385 203"
"152.818981"
"$GPGGA,193925,2441.4818,N,07950.7079,W,1,11,1.5,18"
"##MN-00 00 34 0150 02331 5410 446205 350399 203"
"152.819028"
"$GPGGA,193929,2441.4828,N,07950.7062,W,1,11,1.5,18"
"##MN-00 00 41 0151 02338 5410 446238 350412 203"
"152.819074"
"$GPGGA,193933,2441.4836,N,07950.7041,W,1,11,1.5,18"
"##MN-00 00 39 0152 02336 5410 446279 350426 203"
"152.81912"
"$GPGGA,193937,2441.4846,N,07950.7021,W,1,11,1.5,18"
"##MN-00 00 33 0153 02336 5409 446349 350448 203"
"152.819167"
"$GPGGA,193941,2441.4854,N,07950.7000,W,1,11,1.5,18"
"##MN-00 00 31 0153 02336 5409 446585 350530 203"
"152.819213"
"$GPGGA,193945,2441.4863,N,07950.6980,W,1,11,1.5,18"
"##MN-00 00 32 0154 02333 5409 446670 350582 203"
"152.819259"
"$GPGGA,193949,2441.4870,N,07950.6959,W,1,11,1.5,18"
"##MN-00 00 34 0154 02330 5409 446450 350504 203"
"152.819306"
"$GPGGA,193953,2441.4876,N,07950.6936,W,1,11,1.5,18"
"##MN-00 00 33 0155 02327 5408 446317 350453 203"
"152.819352"
"$GPGGA,193957,2441.4885,N,07950.6911,W,1,11,1.5,18"
"##MN-00 00 32 0155 02322 5408 446214 350422 203"
"152.819398"
"$GPGGA,194001,2441.4892,N,07950.6886,W,1,11,1.5,18"
"##MN-00 00 33 0156 02322 5408 446177 350408 203"
"152.819444"
"$GPGGA,194005,2441.4899,N,07950.6859,W,1,11,1.5,18"
"##MN-00 00 32 0156 02315 5408 446090 350374 203"
"152.819491"
"$GPGGA,194009,2441.4904,N,07950.6833,W,1,11,1.5,18"
"##MN-00 00 34 0157 02311 5407 445727 350237 203"
"152.819537"
"$GPGGA,194013,2441.4911,N,07950.6807,W,1,11,1.5,18"
"##MN-00 00 32 0157 02307 5407 445395 350109 203"
"152.819583"
"$GPGGA,194017,2441.4919,N,07950.6781,W,1,11,1.5,18"
"##MN-00 00 29 0158 02307 5407 445323 350088 203"
"152.81963"
"$GPGGA,194021,2441.4926,N,07950.6756,W,1,11,1.5,18"
"##MN+00 00 34 0158 02307 5406 445109 350019 203"
"152.819676"
"$GPGGA,194025,2441.4935,N,07950.6729,W,1,11,1.5,17"
"##MN+00 00 36 0158 02301 5406 444804 349874 203"
"152.819722"
"$GPGGA,194029,2441.4941,N,07950.6703,W,1,11,1.5,17"
"##MN+00 00 41 0159 02303 5406 444732 349838 203"
"152.819769"
"#increment_net"
"$GPGGA,194033,2441.4948,N,07950.6676,W,1,11,1.5,17"
"##MN-00 00 41 0159 02297 5405 444705 349832 203"
"152.819815"
"$GPGGA,194037,2441.4957,N,07950.6649,W,1,11,1.5,17"
"##MN-00 00 40 0160 02294 5405 444683 349823 203"
"152.819861"
"$GPGGA,194041,2441.4962,N,07950.6623,W,1,11,1.5,16"
"##MN-00 00 37 0160 02292 5405 444665 349811 203"
"152.819907"
"$GPGGA,194045,2441.4969,N,07950.6599,W,1,11,1.5,16"
"##MN-00 00 34 0160 02294 5404 444646 349800 203"
"152.819954"
"$GPGGA,194049,2441.4979,N,07950.6576,W,1,11,1.5,16"
"##MN-00 00 37 0161 02294 5404 444637 349800 203"
"152.82"
"$GPGGA,194053,2441.4986,N,07950.6552,W,1,11,1.5,16"
"##MN-00 00 38 0161 02293 5404 444635 349795 203"
"152.820046"
"$GPGGA,194057,2441.4993,N,07950.6528,W,1,11,1.5,16"
"##MN-00 00 38 0162 02294 5404 444668 349804 203"
"152.820093"
"$GPGGA,194101,2441.5001,N,07950.6503,W,1,10,1.5,15"
"##MN-00 00 37 0162 02295 5403 444687 349811 203"
"152.820139"
"$GPGGA,194105,2441.5009,N,07950.6478,W,1,10,1.5,15"
"##MN-00 00 37 0163 02296 5403 444687 349809 203"
"152.820185"
"$GPGGA,194109,2441.5015,N,07950.6455,W,1,11,1.5,15"
"##MN-00 00 40 0163 02298 5403 444671 349800 203"
"152.820232"
"$GPGGA,194113,2441.5023,N,07950.6428,W,1,11,1.5,15"
"##MN-00 00 36 0164 02302 5402 444667 349796 203"
"152.820278"
"$GPGGA,194117,2441.5030,N,07950.6403,W,1,11,1.5,15"
"##MN-00 00 34 0164 02302 5402 444671 349796 203"
"152.820324"
"$GPGGA,194121,2441.5037,N,07950.6377,W,1,11,1.5,15"
"##MN-00 00 36 0165 02305 5402 444765 349828 203"
"152.82037"
"$GPGGA,194125,2441.5045,N,07950.6350,W,1,11,1.5,15"
"##MN-00 00 37 0165 02304 5401 444783 349853 203"
"152.820417"
"$GPGGA,194129,2441.5052,N,07950.6326,W,1,11,1.5,15"
"##MN-00 00 39 0165 02303 5401 444723 349820 203"
"152.820463"
"$GPGGA,194133,2441.5062,N,07950.6303,W,1,11,1.5,15"
"##MN-00 00 37 0166 02304 5401 444688 349802 203"
"152.820509"
"$GPGGA,194137,2441.5070,N,07950.6280,W,1,11,1.5,15"
"##MN-00 00 37 0167 02306 5401 444706 349810 203"
"152.820556"
"$GPGGA,194141,2441.5078,N,07950.6256,W,1,11,1.5,15"
"##MN-00 00 37 0167 02305 5400 444792 349855 203"
"152.820602"
"$GPGGA,194145,2441.5085,N,07950.6233,W,1,11,1.5,14"
"##MN-00 00 33 0168 02305 5400 444883 349904 203"
"152.820648"
"$GPGGA,194149,2441.5094,N,07950.6209,W,1,11,1.5,14"
"##MN-00 00 38 0168 02305 5400 444774 349848 203"
"152.820694"
"$GPGGA,194153,2441.5100,N,07950.6186,W,1,11,1.5,14"
"##MN-00 00 36 0168 02303 5399 444689 349810 203"
"152.820741"
"$GPGGA,194157,2441.5109,N,07950.6161,W,1,11,1.5,14"
"##MN-00 00 34 0169 02305 5399 444663 349802 203"
"152.820799"
"$GPGGA,194201,2441.5116,N,07950.6137,W,1,11,1.5,14"
"##MN-00 00 35 0169 02302 5399 444595 349789 203"
"152.820845"
"$GPGGA,194205,2441.5125,N,07950.6110,W,1,11,1.5,14"
"##MN-00 00 34 0170 02302 5398 444473 349757 203"
"152.820891"
"$GPGGA,194210,2441.5135,N,07950.6078,W,1,11,1.5,13"
"##MN-00 00 38 0170 02300 5398 444288 349708 203"
"152.820937"
"$GPGGA,194213,2441.5139,N,07950.6061,W,1,10,1.5,13"
"##MN-00 00 37 0171 02299 5398 443907 349617 203"
"152.820984"
"$GPGGA,194218,2441.5149,N,07950.6031,W,1,11,1.5,13"
"##MN-00 00 38 0172 02298 5397 443815 349573 203"
"152.82103"
"$GPGGA,194222,2441.5156,N,07950.6007,W,1,11,1.5,13"
"##MN-00 00 33 0172 02298 5397 444168 349651 203"
"152.821076"
"$GPGGA,194226,2441.5164,N,07950.5983,W,1,11,1.5,13"
"##MN-00 00 35 0173 02297 5397 444385 349725 203"
"152.821123"
"$GPGGA,194229,2441.5168,N,07950.5966,W,1,11,1.5,13"
"##MN-00 00 35 0173 02301 5397 444491 349752 203"
"152.821169"
"$GPGGA,194234,2441.5177,N,07950.5936,W,1,11,1.5,13"
"##MN-00 00 38 0174 02298 5396 444575 349780 203"
"152.821215"
"$GPGGA,194238,2441.5183,N,07950.5910,W,1,11,1.5,13"
"##MN-00 00 39 0174 02296 5396 444488 349752 203"
"152.821262"
"$GPGGA,194242,2441.5192,N,07950.5886,W,1,10,1.5,13"
"##MN-00 00 36 0175 02297 5395 444396 349721 203"
"152.821308"
"$GPGGA,194246,2441.5199,N,07950.5862,W,1,11,1.5,13"
"##MN-00 00 40 0175 02295 5395 444478 349742 203"
"152.821354"
"$GPGGA,194250,2441.5206,N,07950.5838,W,1,10,1.5,12"
"##MN-00 00 32 0175 02296 5395 444572 349758 203"
"152.8214"
"$GPGGA,194254,2441.5212,N,07950.5817,W,1,11,1.5,12"
"##MN-00 00 37 0177 02302 5395 444622 349781 203"
"152.821447"
"$GPGGA,194258,2441.5219,N,07950.5794,W,1,11,1.5,12"
"##MN+00 00 42 0177 02301 5394 444646 349790 203"
"152.821493"
"$GPGGA,194302,2441.5226,N,07950.5771,W,1,11,1.5,12"
"##MN+00 00 40 0177 02308 5394 444653 349791 203"
"152.821539"
"$GPGGA,194306,2441.5236,N,07950.5749,W,1,11,1.5,12"
"##MN+00 00 38 0178 02311 5394 444671 349795 203"
"152.821586"
"$GPGGA,194310,2441.5244,N,07950.5725,W,1,10,1.5,12"
"##MN-00 00 39 0178 02312 5394 444671 349796 203"
"152.821632"
"$GPGGA,194314,2441.5251,N,07950.5700,W,1,11,1.5,12"
"##MN-00 00 38 0179 02309 5393 444665 349795 203"
"152.821678"
"$GPGGA,194318,2441.5258,N,07950.5676,W,1,10,1.5,12"
"##MN-00 00 36 0179 02310 5393 444670 349797 203"
"152.821725"
"$GPGGA,194322,2441.5266,N,07950.5652,W,1,11,1.5,12"
"##MN-00 00 37 0180 02311 5392 444685 349807 203"
"152.821771"
"$GPGGA,194326,2441.5273,N,07950.5627,W,1,11,1.5,12"
"##MN-00 00 36 0180 02310 5393 444847 349875 203"
"152.821817"
"$GPGGA,194330,2441.5282,N,07950.5602,W,1,10,1.5,12"
"##MN-00 00 36 0181 02311 5392 445109 349948 203"
"152.821863"
"$GPGGA,194334,2441.5289,N,07950.5576,W,1,11,1.5,12"
"##MN+00 00 39 0181 02309 5392 445228 350052 203"
"152.82191"
"$GPGGA,194338,2441.5294,N,07950.5550,W,1,11,1.5,12"
"##MN+00 00 37 0181 02305 5392 445099 349988 203"
"152.821956"
"$GPGGA,194342,2441.5302,N,07950.5529,W,1,11,1.5,12"
"##MN+00 00 44 0182 02304 5391 444890 349911 203"
"152.822002"
"$GPGGA,194346,2441.5308,N,07950.5506,W,1,11,1.5,12"
"##MN-00 00 43 0183 02307 5391 444771 349849 203"
"152.822049"
"#increment_net"
"$GPGGA,194350,2441.5316,N,07950.5481,W,1,11,1.5,12"
"##MN-00 00 38 0183 02306 5391 444869 349904 203"
"152.822095"
"$GPGGA,194354,2441.5324,N,07950.5456,W,1,11,1.5,12"
"##MN-00 00 38 0183 02306 5390 444807 349883 203"
"152.822141"
"$GPGGA,194358,2441.5331,N,07950.5431,W,1,11,1.5,12"
"##MN-00 00 39 0184 02299 5390 444991 349949 203"
"152.822188"
"$GPGGA,194402,2441.5338,N,07950.5405,W,1,11,1.5,12"
"##MN-00 00 35 0184 02304 5390 444712 349877 203"
"152.822234"
"$GPGGA,194406,2441.5345,N,07950.5381,W,1,11,1.5,12"
"##MN-00 00 37 0185 02306 5389 444644 349799 203"
"152.82228"
"$GPGGA,194410,2441.5352,N,07950.5356,W,1,11,1.5,12"
"##MN-00 00 38 0185 02299 5389 444638 349790 203"
"152.822326"
"$GPGGA,194414,2441.5360,N,07950.5330,W,1,11,1.5,12"
"##MN-00 00 41 0186 02298 5389 444640 349787 203"
"152.822373"
"$GPGGA,194418,2441.5367,N,07950.5307,W,1,10,1.5,12"
"##MN-00 00 34 0186 02302 5388 444649 349788 203"
"152.822419"
"$GPGGA,194422,2441.5377,N,07950.5285,W,1,10,1.5,12"
"##MN-00 00 38 0186 02303 5388 444796 349863 203"
"152.822465"
"$GPGGA,194426,2441.5384,N,07950.5261,W,1,10,1.5,12"
"##MN-00 00 38 0187 02307 5388 445126 350003 203"
"152.822512"
"$GPGGA,194430,2441.5392,N,07950.5235,W,1,11,1.5,12"
"##MN-00 00 36 0188 02306 5388 445449 350113 203"
"152.822558"
"$GPGGA,194434,2441.5399,N,07950.5211,W,1,11,1.5,12"
"##MN-00 00 32 0188 02309 5387 445619 350190 203"
"152.822604"
"$GPGGA,194438,2441.5406,N,07950.5188,W,1,11,1.5,12"
"##MN-00 00 39 0189 02313 5387 445597 350177 203"
"152.82265"
"$GPGGA,194442,2441.5413,N,07950.5163,W,1,11,1.5,12"
"##MN-00 00 37 0189 02314 5387 445578 350173 203"
"152.822697"
"$GPGGA,194446,2441.5420,N,07950.5138,W,1,11,1.5,12"
"##MN-00 00 35 0190 02311 5386 445310 350074 203"
"152.822743"
"$GPGGA,194450,2441.5428,N,07950.5113,W,1,11,1.5,12"
"##MN-00 00 36 0190 02311 5386 445036 349989 203"
"152.822789"
"$GPGGA,194454,2441.5434,N,07950.5090,W,1,11,1.5,12"
"##MN-00 00 37 0191 02310 5386 444989 349960 203"
"152.822836"
"$GPGGA,194458,2441.5441,N,07950.5066,W,1,10,1.5,12"
"##MN-00 00 36 0192 02307 5386 444912 349930 203"
"152.822882"
"$GPGGA,194502,2441.5449,N,07950.5039,W,1,11,1.6,12"
"##MN-00 00 37 0192 02309 5385 444764 349832 203"
"152.822928"
"$GPGGA,194506,2441.5456,N,07950.5013,W,1,11,1.6,12"
"##MN-00 00 37 0193 02307 5385 444704 349820 203"
"152.822975"
"$GPGGA,194510,2441.5464,N,07950.4986,W,1,11,1.5,12"
"##MN-00 00 37 0193 02305 5384 444666 349804 203"
"152.823021"
"$GPGGA,194514,2441.5471,N,07950.4959,W,1,11,1.5,12"
"##MN-00 00 36 0194 02306 5384 444631 349795 203"
"152.823067"
"$GPGGA,194518,2441.5481,N,07950.4931,W,1,10,1.5,12"
"##MN-00 00 38 0195 02303 5384 444618 349789 203"
"152.823113"
"$GPGGA,194522,2441.5489,N,07950.4903,W,1,11,1.5,12"
"##MN-00 00 37 0195 02301 5384 444546 349769 203"
"152.82316"
"$GPGGA,194526,2441.5496,N,07950.4876,W,1,11,1.6,11"
"##MN-00 00 37 0196 02300 5383 444484 349750 203"
"152.823206"
"$GPGGA,194530,2441.5503,N,07950.4849,W,1,11,1.5,11"
"##MN-00 00 37 0197 02298 5383 444280 349699 203"
"152.823252"
"$GPGGA,194534,2441.5508,N,07950.4823,W,1,10,1.5,11"
"##MN-00 00 36 0197 02298 5383 443871 349531 203"
"152.823299"
"$GPGGA,194538,2441.5515,N,07950.4797,W,1,11,1.5,11"
"##MN-00 00 32 0198 02300 5383 443889 349553 203"
"152.823345"
"$GPGGA,194542,2441.5522,N,07950.4774,W,1,11,1.5,11"
"##MN-00 00 42 0198 02307 5382 444133 349614 203"
"152.823391"
"$GPGGA,194546,2441.5529,N,07950.4750,W,1,11,1.5,11"
"##MN-00 00 39 0199 02306 5382 444422 349696 203"
"152.823438"
"$GPGGA,194550,2441.5536,N,07950.4727,W,1,11,1.5,11"
"##MN-00 00 39 0199 02310 5382 444557 349764 203"
"152.823484"
"$GPGGA,194554,2441.5543,N,07950.4703,W,1,10,1.5,11"
"##MN-00 00 39 0200 02312 5382 444610 349784 203"
"152.82353"
"$GPGGA,194558,2441.5550,N,07950.4680,W,1,11,1.5,11"
"##MN+00 00 33 0201 02314 5381 444639 349784 203"
"152.823576"
"$GPGGA,194602,2441.5557,N,07950.4656,W,1,11,1.5,11"
"##MN+00 00 41 0201 02317 5381 445225 350013 203"
"152.823623"
"$GPGGA,194606,2441.5565,N,07950.4631,W,1,11,1.5,11"
"##MN+00 00 40 0201 02318 5381 445810 350245 203"
"152.823669"
"$GPGGA,194610,2441.5571,N,07950.4614,W,1,11,1.5,11"
"##MN-00 00 38 0202 02320 5380 446118 350339 203"
"152.823715"
"$GPGGA,194614,2441.5580,N,07950.4583,W,1,10,1.5,11"
"##MN-00 00 32 0202 02321 5380 446164 350376 203"
"152.823762"
"$GPGGA,194618,2441.5587,N,07950.4564,W,1,11,1.6,11"
"##MN-00 00 37 0203 02324 5380 446156 350384 203"
"152.823808"
"$GPGGA,194622,2441.5597,N,07950.4541,W,1,10,1.6,11"
"##MN-00 00 36 0203 02324 5380 446170 350392 203"
"152.823854"
"$GPGGA,194626,2441.5607,N,07950.4513,W,1,11,1.5,12"
"##MN-00 00 33 0204 02323 5379 446167 350393 203"
"152.8239"
"$GPGGA,194630,2441.5612,N,07950.4495,W,1,11,1.5,12"
"##MN+00 00 36 0204 02323 5379 446154 350389 203"
"152.823947"
"$GPGGA,194634,2441.5623,N,07950.4465,W,1,10,1.5,12"
"##MN+00 00 37 0205 02322 5379 446148 350387 203"
"152.823993"
"$GPGGA,194639,2441.5634,N,07950.4436,W,1,10,1.6,12"
"##MN+00 00 42 0206 02324 5378 446149 350388 203"
"152.824051"
"$GPGGA,194642,2441.5638,N,07950.4419,W,1,10,1.5,12"
"##MN-00 00 44 0206 02318 5378 446159 350393 203"
"152.824097"
"$GPGGA,194646,2441.5645,N,07950.4398,W,1,11,1.5,12"
"##MN-00 00 39 0207 02316 5378 446163 350396 203"
"152.824143"
"#increment_net"
"$GPGGA,194651,2441.5656,N,07950.4368,W,1,10,1.6,12"
"##MN-00 00 34 0207 02319 5378 446162 350397 203"
"152.82419"
"$GPGGA,194655,2441.5663,N,07950.4344,W,1,11,1.5,12"
"##MN-00 00 38 0208 02316 5378 446154 350396 203"
"152.824236"
"$GPGGA,194659,2441.5670,N,07950.4323,W,1,11,1.5,12"
"##MN-00 00 35 0208 02314 5377 446154 350394 203"
"152.824282"
"$GPGGA,194703,2441.5678,N,07950.4300,W,1,11,1.5,12"
"##MN-00 00 35 0209 02315 5377 446153 350393 203"
"152.824329"
"$GPGGA,194707,2441.5685,N,07950.4275,W,1,11,1.5,12"
"##MN-00 00 34 0209 02314 5377 446133 350390 203"
"152.824375"
"$GPGGA,194711,2441.5692,N,07950.4252,W,1,11,1.5,12"
"##MN-00 00 34 0210 02312 5376 446093 350374 203"
"152.824421"
"$GPGGA,194715,2441.5699,N,07950.4227,W,1,10,1.6,12"
"##MN-00 00 35 0211 02311 5376 445978 350361 203"
"152.824468"
"$GPGGA,194719,2441.5705,N,07950.4202,W,1,11,1.5,13"
"##MN-00 00 33 0211 02312 5376 445639 350203 203"
"152.824514"
"$GPGGA,194723,2441.5710,N,07950.4178,W,1,11,1.5,13"
"##MN-00 00 33 0212 02312 5375 445423 350133 203"
"152.82456"
"$GPGGA,194727,2441.5717,N,07950.4153,W,1,10,1.6,13"
"##MN-00 00 36 0213 02312 5375 445208 350072 203"
"152.824606"
"$GPGGA,194731,2441.5724,N,07950.4126,W,1,11,1.5,13"
"##MN-00 00 36 0213 02311 5375 445077 350026 203"
"152.824653"
"$GPGGA,194735,2441.5730,N,07950.4101,W,1,11,1.5,13"
"##MN-00 00 32 0213 02309 5374 445210 350052 203"
"152.824699"
"$GPGGA,194739,2441.5738,N,07950.4079,W,1,11,1.5,13"
"##MN-00 00 35 0215 02315 5374 445427 350100 203"
"152.824745"
"$GPGGA,194743,2441.5745,N,07950.4054,W,1,11,1.5,13"
"##MN-00 00 35 0215 02311 5374 445668 350192 203"
"152.824792"
"$GPGGA,194747,2441.5753,N,07950.4031,W,1,11,1.5,13"
"##MN-00 00 27 0216 02311 5374 445931 350310 203"
"152.824838"
"$GPGGA,194751,2441.5760,N,07950.4008,W,1,11,1.5,13"
"##MN-00 00 36 0216 02317 5373 446102 350374 203"
"152.824884"
"$GPGGA,194755,2441.5767,N,07950.3985,W,1,11,1.5,13"
"##MN-00 00 36 0217 02316 5373 446141 350377 203"
"152.824931"
"$GPGGA,194759,2441.5773,N,07950.3963,W,1,11,1.5,13"
"##MN-00 00 35 0217 02314 5373 446158 350390 203"
"152.824977"
"$GPGGA,194803,2441.5779,N,07950.3938,W,1,11,1.5,13"
"##MN-00 00 34 0218 02313 5373 446170 350399 203"
"152.825023"
"$GPGGA,194807,2441.5786,N,07950.3914,W,1,10,1.6,13"
"##MN-00 00 30 0218 02317 5372 446185 350404 203"
"152.825069"
"$GPGGA,194811,2441.5796,N,07950.3889,W,1,11,1.5,13"
"##MN-00 00 36 0219 02319 5372 446183 350405 203"
"152.825116"
"$GPGGA,194815,2441.5804,N,07950.3864,W,1,11,1.5,13"
"##MN-00 00 38 0219 02317 5371 446174 350401 203"
"152.825162"
"$GPGGA,194819,2441.5811,N,07950.3841,W,1,11,1.5,12"
"##MN-00 00 36 0219 02321 5371 446174 350402 203"
"152.825208"
"$GPGGA,194823,2441.5820,N,07950.3817,W,1,11,1.5,12"
"##MN-00 00 36 0220 02321 5371 446173 350401 203"
"152.825255"
"$GPGGA,194827,2441.5826,N,07950.3794,W,1,11,1.5,12"
"##MN-00 00 35 0221 02318 5371 446172 350401 203"
"152.825301"
"$GPGGA,194831,2441.5833,N,07950.3769,W,1,11,1.5,12"
"##MN-00 00 34 0221 02318 5370 446173 350401 203"
"152.825347"
"$GPGGA,194835,2441.5840,N,07950.3746,W,1,11,1.5,12"
"##MN-00 00 36 0222 02320 5370 446174 350402 203"
"152.825394"
"$GPGGA,194839,2441.5844,N,07950.3721,W,1,11,1.5,12"
"##MN-00 00 35 0222 02316 5370 446176 350402 202"
"152.82544"
"$GPGGA,194843,2441.5851,N,07950.3696,W,1,11,1.5,11"
"##MN-00 00 38 0223 02315 5369 446179 350404 203"
"152.825486"
"$GPGGA,194847,2441.5858,N,07950.3673,W,1,11,1.5,11"
"##MN-00 00 31 0223 02315 5369 446178 350404 203"
"152.825532"
"$GPGGA,194851,2441.5864,N,07950.3652,W,1,11,1.5,11"
"##MN-00 00 31 0224 02318 5369 446178 350404 203"
"152.825579"
"$GPGGA,194855,2441.5871,N,07950.3631,W,1,11,1.5,11"
"##MN+00 00 36 0224 02317 5369 446179 350405 203"
"152.825625"
"$GPGGA,194859,2441.5876,N,07950.3608,W,1,11,1.5,11"
"##MN+00 00 32 0225 02315 5368 446173 350404 202"
"152.825671"
"$GPGGA,194903,2441.5883,N,07950.3587,W,1,11,1.5,11"
"##MN+00 00 33 0226 02311 5368 446157 350400 202"
"152.825718"
"$GPGGA,194907,2441.5890,N,07950.3564,W,1,11,1.5,11"
"##MN-00 00 31 0226 02316 5368 446035 350382 202"
"152.825764"
"$GPGGA,194911,2441.5897,N,07950.3542,W,1,11,1.5,11"
"##MN-00 00 37 0226 02316 5367 445935 350357 203"
"152.82581"
"$GPGGA,194915,2441.5905,N,07950.3521,W,1,11,1.5,11"
"##MN-00 00 39 0227 02317 5367 446030 350360 203"
"152.825856"
"$GPGGA,194919,2441.5912,N,07950.3503,W,1,11,1.5,11"
"##MN-00 00 36 0227 02318 5367 446117 350380 203"
"152.825903"
"$GPGGA,194923,2441.5920,N,07950.3484,W,1,11,1.5,12"
"##MN-00 00 37 0227 02321 5366 446173 350399 203"
"152.825949"
"$GPGGA,194927,2441.5929,N,07950.3464,W,1,11,1.5,12"
"##MN-00 00 32 0228 02326 5366 446186 350404 203"
"152.825995"
"$GPGGA,194931,2441.5936,N,07950.3446,W,1,11,1.5,12"
"##MN+00 00 32 0228 02330 5366 446202 350409 203"
"152.826042"
"$GPGGA,194935,2441.5945,N,07950.3427,W,1,11,1.5,12"
"##MN+00 00 36 0228 02334 5365 446222 350416 202"
"152.826088"
"$GPGGA,194939,2441.5952,N,07950.3406,W,1,11,1.5,12"
"##MN+00 00 36 0229 02332 5365 446263 350436 202"
"152.826134"
"$GPGGA,194943,2441.5959,N,07950.3385,W,1,11,1.5,12"
"##MN-00 00 36 0229 02331 5365 446258 350436 202"
"152.826181"
"$GPGGA,194947,2441.5966,N,07950.3363,W,1,11,1.5,12"
"##MN-00 00 36 0230 02328 5365 446231 350421 203"
"152.826227"
"$GPGGA,194951,2441.5973,N,07950.3341,W,1,11,1.5,12"
"##MN+00 00 34 0231 02327 5365 446220 350418 203"
"152.826273"
"$GPGGA,194955,2441.5981,N,07950.3318,W,1,11,1.5,12"
"##MN+00 00 32 0231 02327 5364 446216 350416 202"
"152.826319"
"$GPGGA,194959,2441.5985,N,07950.3297,W,1,11,1.5,12"
"##MN+00 00 32 0232 02331 5364 446217 350417 202"
"152.826366"
"#increment_net"
"$GPGGA,195003,2441.5994,N,07950.3274,W,1,11,1.5,12"
"##MN-00 00 31 0233 02330 5363 446219 350418 202"
"152.826412"
"$GPGGA,195007,2441.6001,N,07950.3252,W,1,11,1.5,12"
"##MN-00 00 30 0234 02333 5363 446219 350417 202"
"152.826458"
"$GPGGA,195011,2441.6009,N,07950.3229,W,1,11,1.5,12"
"##MN-00 00 31 0235 02330 5363 446218 350417 203"
"152.826505"
"$GPGGA,195015,2441.6017,N,07950.3207,W,1,11,1.5,12"
"##MN-00 00 30 0235 02328 5362 446217 350417 202"
"152.826551"
"$GPGGA,195019,2441.6024,N,07950.3183,W,1,11,1.6,12"
"##MN-00 00 29 0236 02329 5362 446212 350416 202"
"152.826597"
"$GPGGA,195023,2441.6028,N,07950.3162,W,1,11,1.5,12"
"##MN-00 00 29 0237 02330 5361 446211 350416 202"
"152.826644"
"$GPGGA,195027,2441.6034,N,07950.3139,W,1,11,1.5,12"
"##MN-00 00 29 0238 02316 5361 446212 350418 202"
"152.82669"
"$GPGGA,195031,2441.6039,N,07950.3116,W,1,11,1.5,12"
"##MN-00 00 28 0239 02303 5361 445881 350348 202"
"152.826736"
"$GPGGA,195035,2441.6045,N,07950.3093,W,1,11,1.5,13"
"##MN-00 00 32 0240 02287 5361 444649 350066 202"
"152.826782"
"$GPGGA,195039,2441.6050,N,07950.3070,W,1,11,1.5,13"
"##MN-00 00 31 0241 02273 5360 443413 349454 202"
"152.826829"
"$GPGGA,195043,2441.6057,N,07950.3047,W,1,11,1.5,13"
"##MN-00 00 28 0242 02256 5360 442951 349349 202"
"152.826875"
"$GPGGA,195047,2441.6061,N,07950.3023,W,1,11,1.5,13"
"##MN-00 00 30 0243 02243 5360 442870 349293 202"
"152.826921"
"$GPGGA,195051,2441.6068,N,07950.2999,W,1,11,1.5,13"
"##MN-00 00 30 0244 02228 5359 442849 349255 202"
"152.826968"
"$GPGGA,195055,2441.6075,N,07950.2976,W,1,11,1.5,13"
"##MN-00 00 31 0245 02213 5359 442841 349273 202"
"152.827014"
"$GPGGA,195059,2441.6081,N,07950.2951,W,1,11,1.6,13"
"##MN-00 00 31 0246 02196 5359 442837 349254 202"
"152.82706"
"$GPGGA,195103,2441.6086,N,07950.2926,W,1,11,1.6,13"
"##MN-00 00 32 0247 02180 5358 442828 349239 202"
"152.827106"
"$GPGGA,195107,2441.6093,N,07950.2902,W,1,11,1.5,13"
"##MN-00 00 31 0248 02166 5358 442817 349230 202"
"152.827153"
"$GPGGA,195111,2441.6099,N,07950.2876,W,1,11,1.6,13"
"##MN-00 00 31 0249 02151 5358 442789 349228 202"
"152.827211"
"$GPGGA,195115,2441.6106,N,07950.2851,W,1,11,1.6,13"
"##MN-00 00 34 0250 02132 5357 442771 349230 202"
"152.827257"
"$GPGGA,195119,2441.6111,N,07950.2825,W,1,11,1.6,13"
"##MN-00 00 35 0251 02117 5357 442740 349213 202"
"152.827303"
"$GPGGA,195124,2441.6120,N,07950.2793,W,1,11,1.6,12"
"##MN-00 00 32 0252 02102 5356 442727 349208 202"
"152.82735"
"$GPGGA,195127,2441.6125,N,07950.2774,W,1,11,1.6,12"
"##MN-00 00 31 0254 02090 5356 442719 349209 202"
"152.827396"
"$GPGGA,195132,2441.6133,N,07950.2742,W,1,11,1.6,12"
"##MN-00 00 37 0255 02073 5356 442712 349225 202"
"152.827442"
"$GPGGA,195135,2441.6138,N,07950.2726,W,1,11,1.6,12"
"##MN-00 00 34 0256 02058 5356 442707 349205 202"
"152.827488"
"$GPGGA,195140,2441.6147,N,07950.2696,W,1,11,1.6,12"
"##MN-00 00 36 0257 02040 5356 442688 349204 202"
"152.827535"
"$GPGGA,195144,2441.6151,N,07950.2672,W,1,11,1.6,12"
"##MN-00 00 38 0258 02026 5355 442649 349196 202"
"152.827581"
"$GPGGA,195148,2441.6158,N,07950.2649,W,1,11,1.6,12"
"##MN-00 00 36 0259 02009 5355 442576 349268 202"
"152.827627"
"$GPGGA,195152,2441.6164,N,07950.2626,W,1,11,1.6,12"
"##MN-00 00 37 0260 01994 5355 442419 349128 202"
"152.827674"
"$GPGGA,195156,2441.6169,N,07950.2603,W,1,11,1.6,12"
"##MN-00 00 37 0261 01974 5355 442337 349118 202"
"152.82772"
"$GPGGA,195200,2441.6176,N,07950.2580,W,1,11,1.6,12"
"##MN-00 00 39 0262 01960 5355 442243 349102 202"
"152.827766"
"$GPGGA,195204,2441.6182,N,07950.2556,W,1,11,1.6,12"
"##MN-00 00 43 0264 01944 5354 442069 349039 202"
"152.827813"
"$GPGGA,195208,2441.6187,N,07950.2534,W,1,11,1.6,12"
"##MN-00 00 39 0265 01928 5354 441847 348953 202"
"152.827859"
"$GPGGA,195212,2441.6194,N,07950.2512,W,1,11,1.6,12"
"##MN-00 00 37 0266 01911 5354 441368 348823 202"
"152.827905"
"$GPGGA,195216,2441.6201,N,07950.2490,W,1,11,1.6,12"
"##MN-00 00 37 0267 01894 5354 440828 348661 202"
"152.827951"
"$GPGGA,195220,2441.6207,N,07950.2467,W,1,11,1.6,12"
"##MN-00 00 39 0268 01875 5353 440440 348518 202"
"152.827998"
"$GPGGA,195224,2441.6212,N,07950.2445,W,1,11,1.6,12"
"##MN-00 00 50 0269 01858 5353 440219 348478 202"
"152.828044"
"$GPGGA,195228,2441.6221,N,07950.2424,W,1,11,1.6,12"
"##MN-00 00 51 0271 01856 5353 440067 348383 202"
"152.82809"
"$GPGGA,195232,2441.6226,N,07950.2404,W,1,11,1.6,12"
"##MN-00 00 48 0272 01852 5353 440070 348395 202"
"152.828137"
"$GPGGA,195236,2441.6233,N,07950.2385,W,1,11,1.6,12"
"##MN-00 00 40 0273 01856 5353 440022 348339 202"
"152.828183"
"$GPGGA,195240,2441.6237,N,07950.2365,W,1,11,1.6,12"
"##MN-00 00 41 0274 01857 5352 439977 348327 202"
