" Tow: 3Cm-A   RVWS/WS1406"
" Date: 06/01/2014"
" Temperature Probe #  2597    Conductivity Probe #  2870"
" Pressure Probe #  109"
" Flow Meter Calibration  4.71 (m/count)  "
"152.63"
"$GPGGA,150703,2437.2729,N,07950.8588,W,1,9,1.5,20,"
"##MN-00 00 36 0086 01849 5978 000035 925273 204"
"152.630046"
"$GPGGA,150712,2437.2731,N,07950.8516,W,1,8,1.7,20,"
"##MN-00 00 48 0087 01847 5979 433977 515120 204"
"152.630093"
"$GPGGA,150716,2437.2735,N,07950.8496,W,1,8,1.7,20,"
"##MN-00 00 51 0088 01848 5980 441133 364676 204"
"152.630139"
"$GPGGA,150720,2437.2740,N,07950.8467,W,1,8,1.7,20,"
"##MN-00 00 47 0088 01845 5981 441414 353619 204"
"152.630185"
"$GPGGA,150724,2437.2744,N,07950.8450,W,1,8,1.5,20,"
"##MN-00 00 49 0089 01848 5982 441314 348390 204"
"152.630231"
"$GPGGA,150728,2437.2748,N,07950.8427,W,1,9,1.5,20,"
"##MN-00 00 48 0090 01849 5983 441534 348620 204"
"152.630278"
"$GPGGA,150732,2437.2755,N,07950.8399,W,1,9,1.5,20,"
"##MN-00 00 49 0091 01850 5984 441542 348767 204"
"152.630324"
"$GPGGA,150736,2437.2760,N,07950.8376,W,1,9,1.5,20,"
"##MN-00 00 50 0092 01853 5984 441506 348674 204"
"152.63037"
"$GPGGA,150740,2437.2766,N,07950.8354,W,1,9,1.5,20,"
"##MN-00 00 50 0092 01858 5985 441519 348652 204"
"152.630417"
"$GPGGA,150744,2437.2769,N,07950.8331,W,1,9,1.5,20,"
"##MN-00 00 49 0093 01859 5986 441598 348821 204"
"152.630463"
"$GPGGA,150748,2437.2773,N,07950.8309,W,1,9,1.5,19,"
"##MN-00 00 51 0094 01863 5987 441566 348799 204"
"152.630509"
"$GPGGA,150752,2437.2776,N,07950.8287,W,1,9,1.5,19,"
"##MN-00 00 53 0095 01869 5987 441700 348861 204"
"152.630556"
"$GPGGA,150756,2437.2780,N,07950.8264,W,1,9,1.5,19,"
"##MN-00 00 48 0095 01877 5989 441895 348963 204"
"152.630602"
"$GPGGA,150800,2437.2784,N,07950.8244,W,1,9,1.5,19,"
"##MN-00 00 51 0096 01884 5989 441973 349003 204"
"152.630648"
"$GPGGA,150804,2437.2786,N,07950.8222,W,1,8,1.7,19,"
"##MN-00 00 52 0097 01891 5989 442029 349013 204"
"152.630694"
"$GPGGA,150808,2437.2789,N,07950.8201,W,1,8,1.7,18,"
"##MN-00 00 50 0097 01896 5990 442022 349018 204"
"152.630741"
"$GPGGA,150812,2437.2792,N,07950.8180,W,1,8,1.7,18,"
"##MN-00 00 49 0098 01905 5990 442057 349037 204"
"152.630787"
"$GPGGA,150816,2437.2798,N,07950.8158,W,1,9,1.7,18,"
"##MN-00 00 53 0099 01909 5990 442156 349068 204"
"152.630833"
"$GPGGA,150820,2437.2802,N,07950.8136,W,1,8,1.7,18,"
"##MN-00 00 47 0099 01914 5991 442233 349091 204"
"152.63088"
"$GPGGA,150824,2437.2807,N,07950.8115,W,1,9,1.5,17,"
"##MN-00 00 49 0100 01925 5991 442293 349125 204"
"152.630926"
"$GPGGA,150828,2437.2812,N,07950.8092,W,1,9,1.5,17,"
"##MN-00 00 50 0101 01928 5991 442352 349141 204"
"152.630972"
"$GPGGA,150832,2437.2816,N,07950.8069,W,1,9,1.5,17,"
"##MN-00 00 48 0102 01935 5991 442376 349145 204"
"152.631019"
"$GPGGA,150836,2437.2823,N,07950.8046,W,1,9,1.5,17,"
"##MN-00 00 49 0102 01942 5991 442415 349161 204"
"152.631065"
"$GPGGA,150840,2437.2827,N,07950.8022,W,1,9,1.5,17,"
"##MN-00 00 52 0103 01945 5991 442491 349185 204"
"152.631111"
"$GPGGA,150844,2437.2833,N,07950.7999,W,1,9,1.5,17,"
"##MN-00 00 45 0103 01953 5991 442581 349200 204"
"152.631157"
"$GPGGA,150848,2437.2838,N,07950.7978,W,1,9,1.5,17,"
"##MN-00 00 47 0104 01963 5991 442664 349224 204"
"152.631204"
"$GPGGA,150852,2437.2845,N,07950.7956,W,1,9,1.5,17,"
"##MN-00 00 50 0104 01968 5991 442701 349228 204"
"152.63125"
"$GPGGA,150856,2437.2852,N,07950.7935,W,1,9,1.5,17,"
"##MN-00 00 48 0105 01974 5991 442728 349231 204"
"152.631296"
"$GPGGA,150900,2437.2858,N,07950.7915,W,1,9,1.5,17,"
"##MN-00 00 49 0106 01984 5991 442753 349238 204"
"152.631343"
"$GPGGA,150904,2437.2863,N,07950.7893,W,1,9,1.5,17,"
"##MN-00 00 49 0106 01988 5990 442788 349245 204"
"152.631389"
"$GPGGA,150908,2437.2869,N,07950.7872,W,1,9,1.5,17,"
"##MN-00 00 43 0107 01997 5990 442843 349258 204"
"152.631435"
"$GPGGA,150912,2437.2877,N,07950.7852,W,1,9,1.5,17,"
"##MN-00 00 48 0107 02001 5990 442871 349263 204"
"152.631481"
"$GPGGA,150916,2437.2885,N,07950.7830,W,1,9,1.5,17,"
"##MN-00 00 49 0108 02008 5989 442897 349269 204"
"152.631528"
"$GPGGA,150920,2437.2892,N,07950.7808,W,1,9,1.5,17,"
"##MN-00 00 45 0109 02012 5989 442910 349274 204"
"152.631574"
"$GPGGA,150924,2437.2898,N,07950.7787,W,1,9,1.5,17,"
"##MN-00 00 44 0109 02020 5989 442917 349278 204"
"152.63162"
"$GPGGA,150928,2437.2906,N,07950.7765,W,1,9,1.5,17,"
"##MN-00 00 45 0110 02025 5988 442947 349281 204"
"152.631667"
"$GPGGA,150932,2437.2914,N,07950.7742,W,1,9,1.5,17,"
"##MN-00 00 44 0110 02029 5988 442955 349284 204"
"152.631713"
"$GPGGA,150936,2437.2921,N,07950.7718,W,1,9,1.5,16,"
"##MN-00 00 44 0111 02034 5987 442958 349287 204"
"152.631759"
"$GPGGA,150940,2437.2930,N,07950.7694,W,1,9,1.5,16,"
"##MN-00 00 45 0112 02039 5986 442957 349286 204"
"152.631806"
"$GPGGA,150944,2437.2939,N,07950.7670,W,1,9,1.5,16,"
"##MN-00 00 46 0112 02041 5986 442972 349291 204"
"152.631852"
"$GPGGA,150948,2437.2946,N,07950.7646,W,1,9,1.5,16,"
"##MN-00 00 46 0113 02045 5985 442973 349294 204"
"152.631898"
"$GPGGA,150952,2437.2954,N,07950.7622,W,1,9,1.5,16,"
"##MN-00 00 45 0114 02052 5984 442969 349289 204"
"152.631944"
"$GPGGA,150956,2437.2964,N,07950.7598,W,1,9,1.5,16,"
"##MN-00 00 44 0114 02054 5984 442987 349291 204"
"152.631991"
"$GPGGA,151000,2437.2971,N,07950.7574,W,1,9,1.5,16,"
"##MN-00 00 46 0115 02061 5983 443006 349301 204"
"152.632037"
"$GPGGA,151004,2437.2979,N,07950.7549,W,1,9,1.5,16,"
"##MN-00 00 46 0116 02061 5982 443028 349307 204"
"152.632083"
"$GPGGA,151008,2437.2990,N,07950.7524,W,1,9,1.5,15,"
"##MN-00 00 44 0116 02064 5981 443026 349302 204"
"152.63213"
"$GPGGA,151012,2437.2997,N,07950.7499,W,1,9,1.5,15,"
"##MN-00 00 44 0117 02071 5980 443033 349300 204"
"152.632176"
"$GPGGA,151016,2437.3006,N,07950.7474,W,1,9,1.5,15,"
"##MN-00 00 49 0117 02069 5979 443062 349314 204"
"152.632222"
"$GPGGA,151020,2437.3014,N,07950.7449,W,1,9,1.5,15,"
"##MN-00 00 44 0118 02074 5979 443067 349319 204"
"152.632269"
"$GPGGA,151024,2437.3021,N,07950.7425,W,1,9,1.5,15,"
"##MN-00 00 45 0119 02083 5978 443053 349307 204"
"152.632315"
"$GPGGA,151028,2437.3029,N,07950.7401,W,1,9,1.5,15,"
"##MN-00 00 48 0119 02087 5977 443061 349305 204"
"152.632361"
"$GPGGA,151032,2437.3037,N,07950.7377,W,1,9,1.5,15,"
"##MN-00 00 44 0120 02091 5975 443061 349309 204"
"152.632407"
"$GPGGA,151036,2437.3046,N,07950.7353,W,1,9,1.5,15,"
"##MN-00 00 45 0121 02095 5974 443055 349308 204"
"152.632454"
"$GPGGA,151040,2437.3054,N,07950.7329,W,1,9,1.5,15,"
"##MN-00 00 45 0121 02097 5973 443045 349300 204"
"152.632512"
"$GPGGA,151044,2437.3062,N,07950.7305,W,1,9,1.5,15,"
"##MN-00 00 46 0122 02104 5972 443034 349291 204"
"152.632558"
"$GPGGA,151048,2437.3069,N,07950.7281,W,1,9,1.5,15,"
"##MN-00 00 46 0123 02108 5972 443036 349291 204"
"152.632604"
"$GPGGA,151052,2437.3076,N,07950.7256,W,1,9,1.5,15,"
"##MN-00 00 42 0123 02109 5970 443040 349290 204"
"152.63265"
"$GPGGA,151056,2437.3086,N,07950.7232,W,1,9,1.5,15,"
"##MN-00 00 44 0124 02108 5969 443047 349293 204"
"152.632697"
"$GPGGA,151100,2437.3093,N,07950.7208,W,1,9,1.5,15,"
"##MN-00 00 43 0124 02108 5968 443067 349306 204"
"152.632743"
"$GPGGA,151104,2437.3102,N,07950.7184,W,1,9,1.5,15,"
"##MN-00 00 44 0125 02104 5967 443082 349319 204"
"152.632789"
"$GPGGA,151108,2437.3111,N,07950.7159,W,1,9,1.5,15,"
"##MN-00 00 43 0126 02105 5966 443101 349323 204"
"152.632836"
"$GPGGA,151112,2437.3118,N,07950.7136,W,1,9,1.5,14,"
"##MN-00 00 42 0127 02106 5964 443096 349320 204"
"152.632882"
"$GPGGA,151117,2437.3127,N,07950.7105,W,1,8,1.5,14,"
"##MN-00 00 44 0127 02103 5963 443102 349323 204"
"152.632928"
"$GPGGA,151120,2437.3134,N,07950.7087,W,1,9,1.9,14,"
"##MN-00 00 42 0128 02106 5962 443107 349323 204"
"152.632975"
"$GPGGA,151124,2437.3144,N,07950.7065,W,1,9,1.5,14,"
"##MN-00 00 43 0129 02105 5961 443104 349320 204"
"152.633021"
"$GPGGA,151128,2437.3155,N,07950.7042,W,1,9,1.5,14,"
"##MN-00 00 45 0129 02107 5960 443107 349321 204"
"152.633067"
"$GPGGA,151132,2437.3162,N,07950.7017,W,1,9,1.5,14,"
"##MN-00 00 42 0130 02109 5958 443099 349320 204"
"152.633113"
"$GPGGA,151137,2437.3173,N,07950.6983,W,1,9,1.5,14,"
"##MN-00 00 43 0131 02108 5957 443096 349319 204"
"152.63316"
"$GPGGA,151141,2437.3181,N,07950.6958,W,1,9,1.5,14,"
"##MN+00 00 44 0131 02108 5956 443091 349318 204"
"152.633206"
"$GPGGA,151145,2437.3191,N,07950.6934,W,1,9,1.5,15,"
"##MN+00 00 43 0132 02109 5954 443092 349316 204"
"152.633252"
"$GPGGA,151149,2437.3201,N,07950.6909,W,1,9,1.5,15,"
"##MN+00 00 44 0133 02112 5953 443086 349312 204"
"152.633299"
"$GPGGA,151153,2437.3210,N,07950.6884,W,1,9,1.5,15,"
"##MN+00 00 44 0134 02110 5952 443079 349305 203"
"152.633345"
"$GPGGA,151157,2437.3217,N,07950.6862,W,1,9,1.5,16,"
"##MN+00 00 42 0134 02108 5950 443074 349303 203"
"152.633391"
"$GPGGA,151201,2437.3225,N,07950.6841,W,1,9,1.5,16,"
"##MN+00 00 48 0135 02113 5949 443079 349307 203"
"152.633438"
"$GPGGA,151205,2437.3235,N,07950.6819,W,1,9,1.5,16,"
"##MN-00 00 51 0135 02113 5947 443081 349306 203"
"152.633484"
"#increment_net"
"$GPGGA,151209,2437.3242,N,07950.6797,W,1,9,1.5,16,"
"##MN-00 00 44 0136 02113 5946 443080 349304 204"
"152.63353"
"$GPGGA,151213,2437.3249,N,07950.6776,W,1,9,1.5,16,"
"##MN-00 00 44 0136 02113 5945 443077 349301 204"
"152.633576"
"$GPGGA,151217,2437.3255,N,07950.6754,W,1,9,1.5,16,"
"##MN-00 00 44 0137 02115 5944 443074 349298 204"
"152.633623"
"$GPGGA,151221,2437.3260,N,07950.6733,W,1,9,1.5,17,"
"##MN-00 00 41 0138 02115 5942 443073 349297 204"
"152.633669"
"$GPGGA,151225,2437.3267,N,07950.6711,W,1,9,1.5,17,"
"##MN-00 00 42 0138 02115 5941 443077 349300 203"
"152.633715"
"$GPGGA,151229,2437.3271,N,07950.6687,W,1,9,1.5,17,"
"##MN-00 00 40 0139 02116 5939 443081 349303 203"
"152.633762"
"$GPGGA,151233,2437.3274,N,07950.6663,W,1,9,1.5,17,"
"##MN-00 00 39 0139 02116 5938 443083 349303 203"
"152.633808"
"$GPGGA,151237,2437.3277,N,07950.6640,W,1,9,1.5,17,"
"##MN-00 00 43 0140 02116 5936 443082 349305 203"
"152.633854"
"$GPGGA,151241,2437.3279,N,07950.6617,W,1,9,1.5,18,"
"##MN-00 00 39 0141 02115 5935 443073 349306 203"
"152.6339"
"$GPGGA,151245,2437.3285,N,07950.6596,W,1,9,1.5,18,"
"##MN-00 00 42 0141 02119 5933 443073 349306 203"
"152.633947"
"$GPGGA,151249,2437.3292,N,07950.6572,W,1,9,1.5,18,"
"##MN-00 00 40 0142 02115 5932 443075 349306 203"
"152.633993"
"$GPGGA,151253,2437.3299,N,07950.6548,W,1,9,1.5,18,"
"##MN-00 00 43 0143 02116 5931 443078 349306 203"
"152.634039"
"$GPGGA,151257,2437.3311,N,07950.6523,W,1,9,1.5,19,"
"##MN-00 00 41 0144 02114 5929 443081 349305 203"
"152.634086"
"$GPGGA,151301,2437.3321,N,07950.6500,W,1,9,1.5,19,"
"##MN-00 00 37 0144 02113 5927 443081 349306 203"
"152.634132"
"$GPGGA,151305,2437.3325,N,07950.6479,W,1,9,1.5,20,"
"##MN-00 00 44 0145 02114 5926 443074 349306 203"
"152.634178"
"$GPGGA,151309,2437.3332,N,07950.6456,W,1,9,1.5,20,"
"##MN-00 00 41 0145 02112 5924 443072 349306 203"
"152.634225"
"$GPGGA,151313,2437.3337,N,07950.6432,W,1,9,1.5,20,"
"##MN-00 00 42 0146 02112 5923 443072 349305 203"
"152.634271"
"$GPGGA,151317,2437.3342,N,07950.6406,W,1,9,1.5,20,"
"##MN-00 00 42 0147 02114 5922 443071 349305 203"
"152.634317"
"$GPGGA,151321,2437.3350,N,07950.6381,W,1,9,1.5,20,"
"##MN-00 00 41 0148 02112 5920 443073 349306 203"
"152.634363"
"$GPGGA,151325,2437.3358,N,07950.6357,W,1,9,1.5,21,"
"##MN-00 00 43 0148 02112 5918 443074 349305 203"
"152.63441"
"$GPGGA,151329,2437.3362,N,07950.6337,W,1,9,1.5,21,"
"##MN-00 00 40 0149 02112 5917 443077 349304 203"
"152.634456"
"$GPGGA,151333,2437.3369,N,07950.6317,W,1,9,1.5,22,"
"##MN-00 00 41 0150 02112 5915 443077 349304 203"
"152.634502"
"$GPGGA,151337,2437.3372,N,07950.6296,W,1,9,1.5,22,"
"##MN-00 00 43 0150 02111 5914 443077 349304 203"
"152.634549"
"$GPGGA,151341,2437.3378,N,07950.6275,W,1,9,1.5,22,"
"##MN-00 00 42 0151 02111 5912 443076 349304 203"
"152.634595"
"$GPGGA,151345,2437.3383,N,07950.6251,W,1,9,1.5,22,"
"##MN-00 00 41 0152 02111 5911 443080 349304 203"
"152.634641"
"$GPGGA,151349,2437.3389,N,07950.6229,W,1,9,1.5,22,"
"##MN-00 00 43 0152 02112 5909 443071 349300 203"
"152.634688"
"$GPGGA,151353,2437.3394,N,07950.6206,W,1,9,1.5,22,"
"##MN-00 00 44 0153 02110 5908 443062 349297 203"
"152.634734"
"$GPGGA,151357,2437.3400,N,07950.6184,W,1,9,1.5,22,"
"##MN-00 00 41 0154 02111 5906 443061 349296 203"
"152.63478"
"$GPGGA,151401,2437.3404,N,07950.6162,W,1,9,1.5,22,"
"##MN+00 00 44 0154 02113 5904 443064 349296 203"
"152.634826"
"$GPGGA,151405,2437.3409,N,07950.6139,W,1,9,1.5,22,"
"##MN+00 00 42 0155 02110 5903 443067 349297 203"
"152.634873"
"$GPGGA,151409,2437.3414,N,07950.6116,W,1,9,1.5,22,"
"##MN+00 00 43 0156 02108 5901 443071 349299 203"
"152.634919"
"$GPGGA,151413,2437.3419,N,07950.6093,W,1,9,1.5,22,"
"##MN-00 00 43 0157 02112 5900 443073 349300 203"
"152.634965"
"$GPGGA,151417,2437.3425,N,07950.6069,W,1,9,1.5,22,"
"##MN-00 00 43 0157 02107 5898 443076 349300 203"
"152.635012"
"$GPGGA,151421,2437.3430,N,07950.6046,W,1,9,1.5,21,"
"##MN-00 00 43 0158 02108 5897 443080 349302 203"
"152.635058"
"$GPGGA,151425,2437.3434,N,07950.6022,W,1,9,1.5,21,"
"##MN-00 00 44 0159 02107 5895 443104 349318 203"
"152.635104"
"$GPGGA,151429,2437.3440,N,07950.5998,W,1,9,1.5,21,"
"##MN-00 00 43 0159 02107 5893 443134 349331 203"
"152.63515"
"$GPGGA,151433,2437.3445,N,07950.5974,W,1,9,1.5,20,"
"##MN-00 00 39 0160 02108 5892 443125 349323 203"
"152.635197"
"$GPGGA,151437,2437.3448,N,07950.5949,W,1,9,1.5,20,"
"##MN+00 00 44 0161 02108 5890 443120 349322 203"
"152.635243"
"$GPGGA,151441,2437.3455,N,07950.5925,W,1,9,1.5,20,"
"##MN+00 00 42 0161 02106 5889 443110 349314 203"
"152.635289"
"$GPGGA,151445,2437.3459,N,07950.5902,W,1,9,1.5,19,"
"##MN+00 00 52 0162 02109 5887 443119 349320 203"
"152.635336"
"$GPGGA,151449,2437.3465,N,07950.5878,W,1,9,1.5,19,"
"##MN-00 00 49 0163 02104 5886 443126 349325 203"
"152.635382"
"#increment_net"
"$GPGGA,151453,2437.3467,N,07950.5856,W,1,9,1.5,19,"
"##MN-00 00 42 0163 02108 5884 443133 349329 203"
"152.635428"
"$GPGGA,151457,2437.3470,N,07950.5836,W,1,9,1.5,19,"
"##MN-00 00 45 0164 02108 5883 443138 349327 203"
"152.635475"
"$GPGGA,151501,2437.3474,N,07950.5820,W,1,9,1.5,19,"
"##MN-00 00 46 0164 02108 5881 443149 349331 203"
"152.635521"
"$GPGGA,151505,2437.3479,N,07950.5799,W,1,9,1.5,19,"
"##MN-00 00 41 0165 02110 5879 443165 349339 203"
"152.635567"
"$GPGGA,151509,2437.3484,N,07950.5774,W,1,9,1.5,18,"
"##MN-00 00 44 0165 02110 5877 443157 349333 203"
"152.635613"
"$GPGGA,151513,2437.3488,N,07950.5752,W,1,9,1.5,18,"
"##MN-00 00 39 0166 02111 5876 443165 349339 203"
"152.63566"
"$GPGGA,151517,2437.3494,N,07950.5730,W,1,9,1.5,18,"
"##MN-00 00 43 0166 02111 5874 443174 349345 203"
"152.635706"
"$GPGGA,151521,2437.3498,N,07950.5708,W,1,9,1.5,18,"
"##MN-00 00 44 0167 02111 5873 443176 349348 203"
"152.635764"
"$GPGGA,151525,2437.3503,N,07950.5685,W,1,9,1.5,18,"
"##MN-00 00 39 0168 02111 5871 443175 349350 203"
"152.63581"
"$GPGGA,151529,2437.3508,N,07950.5663,W,1,9,1.5,18,"
"##MN-00 00 42 0168 02114 5870 443158 349343 203"
"152.635856"
"$GPGGA,151533,2437.3513,N,07950.5641,W,1,9,1.5,17,"
"##MN-00 00 43 0169 02112 5868 443166 349349 203"
"152.635903"
"$GPGGA,151537,2437.3517,N,07950.5619,W,1,9,1.5,17,"
"##MN-00 00 42 0170 02113 5867 443180 349347 203"
"152.635949"
"$GPGGA,151541,2437.3521,N,07950.5595,W,1,9,1.5,17,"
"##MN-00 00 42 0170 02111 5865 443170 349341 203"
"152.635995"
"$GPGGA,151545,2437.3526,N,07950.5573,W,1,9,1.5,17,"
"##MN-00 00 40 0171 02114 5864 443176 349345 203"
"152.636042"
"$GPGGA,151549,2437.3531,N,07950.5551,W,1,9,1.5,17,"
"##MN-00 00 41 0171 02113 5862 443180 349344 203"
"152.636088"
"$GPGGA,151553,2437.3537,N,07950.5530,W,1,9,1.5,17,"
"##MN-00 00 43 0172 02113 5860 443172 349340 203"
"152.636134"
"$GPGGA,151557,2437.3542,N,07950.5507,W,1,9,1.5,17,"
"##MN-00 00 41 0173 02110 5859 443167 349335 203"
"152.636181"
"$GPGGA,151601,2437.3546,N,07950.5484,W,1,9,1.5,17,"
"##MN-00 00 42 0174 02111 5857 443178 349348 203"
"152.636227"
"$GPGGA,151605,2437.3552,N,07950.5461,W,1,9,1.5,17,"
"##MN-00 00 40 0174 02111 5855 443192 349349 203"
"152.636273"
"$GPGGA,151609,2437.3557,N,07950.5437,W,1,9,1.5,17,"
"##MN-00 00 40 0175 02112 5853 443200 349356 203"
"152.636319"
"$GPGGA,151614,2437.3564,N,07950.5407,W,1,9,1.5,17,"
"##MN-00 00 44 0176 02110 5852 443208 349355 203"
"152.636366"
"$GPGGA,151618,2437.3568,N,07950.5384,W,1,9,1.5,17,"
"##MN-00 00 44 0176 02110 5850 443202 349351 203"
"152.636412"
"$GPGGA,151622,2437.3575,N,07950.5362,W,1,9,1.5,17,"
"##MN-00 00 38 0177 02111 5849 443193 349345 203"
"152.636458"
"$GPGGA,151626,2437.3579,N,07950.5341,W,1,9,1.5,17,"
"##MN-00 00 39 0177 02113 5847 443185 349340 203"
"152.636505"
"$GPGGA,151630,2437.3585,N,07950.5320,W,1,9,1.5,17,"
"##MN-00 00 45 0178 02116 5846 443185 349338 203"
"152.636551"
"$GPGGA,151633,2437.3591,N,07950.5304,W,1,9,1.5,17,"
"##MN-00 00 42 0178 02112 5844 443200 349350 203"
"152.636597"
"$GPGGA,151638,2437.3600,N,07950.5277,W,1,9,1.5,17,"
"##MN-00 00 38 0179 02111 5843 443193 349348 203"
"152.636644"
"$GPGGA,151642,2437.3607,N,07950.5256,W,1,9,1.5,17,"
"##MN-00 00 42 0179 02114 5841 443185 349337 203"
"152.63669"
"$GPGGA,151646,2437.3614,N,07950.5234,W,1,9,1.5,17,"
"##MN-00 00 45 0180 02112 5840 443190 349340 203"
"152.636736"
"$GPGGA,151650,2437.3620,N,07950.5213,W,1,9,1.5,17,"
"##MN-00 00 40 0180 02113 5838 443193 349347 203"
"152.636782"
"$GPGGA,151654,2437.3628,N,07950.5194,W,1,9,1.5,17,"
"##MN-00 00 36 0181 02118 5836 443191 349347 203"
"152.636829"
"$GPGGA,151658,2437.3636,N,07950.5173,W,1,9,1.7,17,"
"##MN+00 00 44 0181 02122 5835 443194 349346 203"
"152.636875"
"$GPGGA,151702,2437.3646,N,07950.5153,W,1,9,1.5,17,"
"##MN+00 00 42 0182 02122 5833 443193 349344 203"
"152.636921"
"$GPGGA,151706,2437.3653,N,07950.5133,W,1,9,1.5,17,"
"##MN+00 00 39 0182 02123 5832 443191 349338 203"
"152.636968"
"$GPGGA,151710,2437.3658,N,07950.5112,W,1,9,1.5,17,"
"##MN-00 00 38 0183 02123 5830 443193 349339 203"
"152.637014"
"$GPGGA,151714,2437.3665,N,07950.5091,W,1,9,1.5,17,"
"##MN-00 00 39 0184 02116 5829 443193 349339 203"
"152.63706"
"$GPGGA,151718,2437.3672,N,07950.5069,W,1,9,1.5,17,"
"##MN-00 00 39 0184 02117 5827 443193 349345 203"
"152.637106"
"$GPGGA,151722,2437.3676,N,07950.5048,W,1,9,1.5,17,"
"##MN-00 00 37 0185 02114 5826 443180 349342 203"
"152.637153"
"$GPGGA,151726,2437.3683,N,07950.5029,W,1,9,1.5,17,"
"##MN-00 00 38 0185 02115 5824 443187 349342 203"
"152.637199"
"$GPGGA,151730,2437.3689,N,07950.5007,W,1,9,1.5,17,"
"##MN-00 00 40 0186 02116 5822 443181 349339 203"
"152.637245"
"$GPGGA,151734,2437.3693,N,07950.4986,W,1,9,1.5,17,"
"##MN+00 00 40 0187 02115 5821 443187 349338 203"
"152.637292"
"$GPGGA,151738,2437.3701,N,07950.4964,W,1,9,1.5,17,"
"##MN+00 00 39 0187 02114 5820 443183 349337 203"
"152.637338"
"$GPGGA,151742,2437.3707,N,07950.4942,W,1,9,1.5,17,"
"##MN+00 00 46 0188 02114 5818 443176 349334 203"
"152.637384"
"$GPGGA,151746,2437.3712,N,07950.4919,W,1,9,1.5,17,"
"##MN-00 00 45 0189 02114 5817 443170 349335 203"
"152.637431"
"$GPGGA,151750,2437.3716,N,07950.4896,W,1,9,1.5,17,"
"##MN-00 00 42 0189 02111 5815 443168 349334 203"
"152.637477"
"$GPGGA,151754,2437.3722,N,07950.4873,W,1,9,1.5,17,"
"##MN-00 00 40 0190 02110 5813 443190 349340 203"
"152.637523"
"#increment_net"
"$GPGGA,151758,2437.3725,N,07950.4850,W,1,9,1.5,17,"
"##MN-00 00 40 0190 02110 5812 443190 349340 203"
"152.637569"
"$GPGGA,151802,2437.3729,N,07950.4826,W,1,9,1.5,17,"
"##MN-00 00 40 0191 02106 5810 443200 349342 203"
"152.637616"
"$GPGGA,151806,2437.3733,N,07950.4804,W,1,9,1.5,17,"
"##MN-00 00 34 0191 02110 5809 443200 349343 203"
"152.637662"
"$GPGGA,151810,2437.3738,N,07950.4782,W,1,9,1.5,17,"
"##MN-00 00 39 0192 02108 5807 443177 349335 203"
"152.637708"
"$GPGGA,151814,2437.3744,N,07950.4759,W,1,9,1.5,17,"
"##MN-00 00 40 0192 02109 5806 443170 349333 203"
"152.637755"
"$GPGGA,151818,2437.3748,N,07950.4738,W,1,9,1.5,17,"
"##MN-00 00 40 0193 02111 5804 443182 349336 203"
"152.637801"
"$GPGGA,151822,2437.3752,N,07950.4716,W,1,9,1.5,17,"
"##MN-00 00 40 0194 02109 5803 443177 349335 203"
"152.637847"
"$GPGGA,151826,2437.3758,N,07950.4693,W,1,9,1.5,17,"
"##MN-00 00 40 0194 02107 5801 443180 349338 203"
"152.637894"
"$GPGGA,151830,2437.3762,N,07950.4671,W,1,9,1.5,17,"
"##MN-00 00 37 0195 02107 5800 443183 349337 203"
"152.63794"
"$GPGGA,151834,2437.3766,N,07950.4649,W,1,9,1.5,16,"
"##MN-00 00 40 0196 02107 5798 443196 349343 203"
"152.637986"
"$GPGGA,151838,2437.3773,N,07950.4627,W,1,9,1.5,16,"
"##MN-00 00 40 0196 02102 5797 443207 349348 203"
"152.638032"
"$GPGGA,151842,2437.3776,N,07950.4605,W,1,9,1.5,16,"
"##MN-00 00 39 0197 02106 5795 443209 349351 203"
"152.638079"
"$GPGGA,151846,2437.3779,N,07950.4582,W,1,9,1.5,16,"
"##MN-00 00 39 0198 02103 5794 443199 349347 203"
"152.638125"
"$GPGGA,151850,2437.3786,N,07950.4559,W,1,9,1.7,16,"
"##MN-00 00 39 0198 02103 5792 443198 349347 203"
"152.638171"
"$GPGGA,151854,2437.3791,N,07950.4535,W,1,9,1.5,16,"
"##MN-00 00 39 0199 02101 5791 443199 349345 203"
"152.638218"
"$GPGGA,151858,2437.3792,N,07950.4512,W,1,8,1.7,16,"
"##MN-00 00 40 0200 02100 5789 443210 349351 203"
"152.638264"
"$GPGGA,151902,2437.3797,N,07950.4489,W,1,9,1.7,16,"
"##MN-00 00 40 0201 02098 5788 443224 349356 203"
"152.63831"
"$GPGGA,151906,2437.3803,N,07950.4465,W,1,9,1.5,16,"
"##MN-00 00 37 0201 02097 5787 443225 349357 203"
"152.638356"
"$GPGGA,151910,2437.3810,N,07950.4442,W,1,9,1.5,16,"
"##MN-00 00 41 0202 02103 5785 443224 349353 203"
"152.638403"
"$GPGGA,151914,2437.3812,N,07950.4420,W,1,9,1.5,16,"
"##MN-00 00 43 0203 02098 5784 443218 349351 203"
"152.638449"
"$GPGGA,151918,2437.3817,N,07950.4397,W,1,9,1.5,16,"
"##MN-00 00 40 0203 02102 5782 443226 349356 203"
"152.638495"
"$GPGGA,151922,2437.3819,N,07950.4376,W,1,9,1.5,16,"
"##MN-00 00 42 0204 02104 5781 443234 349359 203"
"152.638542"
"$GPGGA,151926,2437.3823,N,07950.4352,W,1,9,1.5,16,"
"##MN-00 00 41 0205 02102 5780 443234 349360 203"
"152.638588"
"$GPGGA,151930,2437.3828,N,07950.4326,W,1,8,1.5,16,"
"##MN-00 00 40 0206 02105 5778 443237 349361 203"
"152.638634"
"$GPGGA,151934,2437.3831,N,07950.4302,W,1,9,1.5,16,"
"##MN-00 00 40 0206 02102 5776 443240 349361 203"
"152.638681"
"$GPGGA,151938,2437.3835,N,07950.4279,W,1,9,1.5,16,"
"##MN-00 00 40 0207 02104 5775 443244 349363 203"
"152.638727"
"$GPGGA,151942,2437.3837,N,07950.4254,W,1,9,1.5,16,"
"##MN-00 00 39 0208 02103 5773 443251 349363 203"
"152.638773"
"$GPGGA,151946,2437.3842,N,07950.4231,W,1,9,1.5,16,"
"##MN+00 00 41 0209 02101 5772 443265 349369 203"
"152.638819"
"$GPGGA,151950,2437.3846,N,07950.4208,W,1,9,1.5,16,"
"##MN+00 00 43 0209 02102 5771 443269 349370 203"
"152.638866"
"$GPGGA,151954,2437.3850,N,07950.4185,W,1,9,1.5,15,"
"##MN+00 00 40 0210 02101 5769 443276 349373 203"
"152.638912"
"$GPGGA,151958,2437.3855,N,07950.4162,W,1,9,1.5,15,"
"##MN-00 00 42 0211 02104 5768 443273 349372 203"
"152.638958"
"$GPGGA,152002,2437.3860,N,07950.4140,W,1,9,1.5,15,"
"##MN-00 00 41 0211 02099 5766 443277 349373 203"
"152.639016"
"$GPGGA,152006,2437.3864,N,07950.4117,W,1,9,1.5,15,"
"##MN-00 00 40 0212 02103 5765 443280 349375 203"
"152.639062"
"$GPGGA,152010,2437.3871,N,07950.4096,W,1,9,1.5,15,"
"##MN-00 00 41 0213 02104 5764 443284 349381 203"
"152.639109"
"$GPGGA,152014,2437.3875,N,07950.4073,W,1,9,1.5,14,"
"##MN+00 00 43 0213 02101 5762 443291 349381 203"
"152.639155"
"$GPGGA,152018,2437.3882,N,07950.4051,W,1,9,1.5,14,"
"##MN+00 00 42 0214 02103 5760 443291 349377 203"
"152.639201"
"$GPGGA,152022,2437.3886,N,07950.4029,W,1,9,1.5,14,"
"##MN+00 00 50 0215 02107 5759 443289 349376 203"
"152.639248"
"#increment_net"
"$GPGGA,152026,2437.3892,N,07950.4007,W,1,9,1.5,14,"
"##MN-00 00 46 0216 02107 5757 443292 349375 203"
"152.639294"
"$GPGGA,152031,2437.3898,N,07950.3978,W,1,9,1.5,14,"
"##MN-00 00 44 0216 02105 5756 443304 349381 203"
"152.63934"
"$GPGGA,152034,2437.3903,N,07950.3962,W,1,9,1.5,14,"
"##MN-00 00 42 0217 02106 5755 443325 349392 203"
"152.639387"
"$GPGGA,152039,2437.3909,N,07950.3934,W,1,9,1.5,14,"
"##MN-00 00 39 0217 02108 5754 443342 349400 203"
"152.639433"
"$GPGGA,152042,2437.3911,N,07950.3917,W,1,9,1.7,14,"
"##MN-00 00 41 0218 02107 5752 443347 349401 203"
"152.639479"
"$GPGGA,152046,2437.3914,N,07950.3894,W,1,9,1.7,14,"
"##MN-00 00 37 0218 02109 5751 443346 349398 203"
"152.639525"
"$GPGGA,152051,2437.3925,N,07950.3867,W,1,9,1.5,14,"
"##MN-00 00 40 0219 02110 5749 443342 349399 203"
"152.639572"
"$GPGGA,152055,2437.3929,N,07950.3845,W,1,9,1.5,14,"
"##MN-00 00 40 0220 02106 5748 443324 349401 203"
"152.639618"
"$GPGGA,152059,2437.3935,N,07950.3822,W,1,9,1.5,14,"
"##MN-00 00 40 0221 02110 5747 443318 349399 203"
"152.639664"
"$GPGGA,152103,2437.3940,N,07950.3800,W,1,9,1.5,14,"
"##MN-00 00 40 0221 02108 5746 443322 349397 203"
"152.639711"
"$GPGGA,152107,2437.3945,N,07950.3777,W,1,9,1.5,14,"
"##MN-00 00 41 0222 02107 5744 443340 349397 203"
"152.639757"
"$GPGGA,152111,2437.3949,N,07950.3755,W,1,9,1.5,14,"
"##MN-00 00 38 0223 02112 5742 443352 349397 203"
"152.639803"
"$GPGGA,152115,2437.3954,N,07950.3733,W,1,9,1.5,14,"
"##MN-00 00 39 0223 02111 5741 443330 349393 203"
"152.63985"
"$GPGGA,152119,2437.3960,N,07950.3710,W,1,9,1.5,14,"
"##MN-00 00 40 0224 02110 5740 443321 349393 203"
"152.639896"
"$GPGGA,152123,2437.3965,N,07950.3688,W,1,9,1.5,15,"
"##MN-00 00 40 0225 02111 5739 443352 349394 203"
"152.639942"
"$GPGGA,152127,2437.3971,N,07950.3665,W,1,9,1.5,15,"
"##MN-00 00 38 0226 02110 5737 443360 349395 203"
"152.639988"
"$GPGGA,152131,2437.3973,N,07950.3642,W,1,9,1.5,15,"
"##MN-00 00 40 0226 02112 5736 443362 349397 203"
"152.640035"
"$GPGGA,152135,2437.3979,N,07950.3619,W,1,9,1.5,15,"
"##MN-00 00 39 0227 02111 5734 443363 349393 203"
"152.640081"
"$GPGGA,152139,2437.3983,N,07950.3596,W,1,9,1.5,15,"
"##MN-00 00 37 0227 02111 5733 443364 349398 203"
"152.640127"
"$GPGGA,152143,2437.3987,N,07950.3573,W,1,9,1.5,15,"
"##MN-00 00 39 0228 02111 5732 443375 349399 203"
"152.640174"
"$GPGGA,152147,2437.3990,N,07950.3550,W,1,8,1.7,15,"
"##MN-00 00 39 0229 02112 5731 443355 349401 203"
"152.64022"
"$GPGGA,152151,2437.3997,N,07950.3528,W,1,9,1.5,15,"
"##MN-00 00 39 0230 02113 5729 443360 349404 203"
"152.640266"
"$GPGGA,152155,2437.4001,N,07950.3505,W,1,9,1.5,16,"
"##MN-00 00 40 0230 02111 5728 443349 349402 203"
"152.640313"
"$GPGGA,152159,2437.4008,N,07950.3482,W,1,9,1.5,16,"
"##MN-00 00 39 0231 02112 5726 443334 349400 203"
"152.640359"
"$GPGGA,152203,2437.4014,N,07950.3460,W,1,9,1.5,16,"
"##MN-00 00 39 0232 02111 5725 443332 349400 203"
"152.640405"
"$GPGGA,152207,2437.4019,N,07950.3438,W,1,9,1.5,16,"
"##MN-00 00 41 0233 02108 5724 443338 349406 203"
"152.640451"
"$GPGGA,152211,2437.4025,N,07950.3416,W,1,9,1.5,16,"
"##MN-00 00 39 0233 02112 5722 443338 349405 203"
"152.640498"
"$GPGGA,152215,2437.4030,N,07950.3394,W,1,9,1.5,16,"
"##MN-00 00 42 0234 02109 5721 443335 349404 203"
"152.640544"
"$GPGGA,152219,2437.4036,N,07950.3371,W,1,9,1.5,16,"
"##MN+00 00 40 0234 02109 5720 443337 349403 203"
"152.64059"
"$GPGGA,152223,2437.4039,N,07950.3350,W,1,8,1.7,16,"
"##MN+00 00 38 0235 02110 5718 443335 349402 203"
"152.640637"
"$GPGGA,152227,2437.4041,N,07950.3329,W,1,8,1.7,16,"
"##MN+00 00 39 0236 02110 5717 443336 349402 203"
"152.640683"
"$GPGGA,152231,2437.4044,N,07950.3306,W,1,8,1.7,16,"
"##MN-00 00 39 0236 02107 5716 443337 349402 203"
"152.640729"
"$GPGGA,152235,2437.4048,N,07950.3284,W,1,8,1.7,15,"
"##MN-00 00 40 0237 02110 5715 443349 349406 203"
"152.640775"
"$GPGGA,152239,2437.4052,N,07950.3260,W,1,8,1.7,15,"
"##MN-00 00 40 0238 02110 5713 443369 349409 203"
"152.640822"
"$GPGGA,152243,2437.4055,N,07950.3236,W,1,8,1.7,15,"
"##MN-00 00 39 0239 02109 5712 443386 349415 203"
"152.640868"
"$GPGGA,152247,2437.4060,N,07950.3212,W,1,8,1.7,14,"
"##MN+00 00 39 0239 02105 5710 443373 349411 203"
"152.640914"
"$GPGGA,152251,2437.4064,N,07950.3189,W,1,8,1.7,14,"
"##MN+00 00 39 0240 02107 5709 443351 349407 203"
"152.640961"
"$GPGGA,152255,2437.4070,N,07950.3165,W,1,8,1.7,14,"
"##MN+00 00 48 0241 02105 5708 443349 349406 203"
"152.641007"
"#increment_net"
"$GPGGA,152259,2437.4074,N,07950.3140,W,1,8,1.7,14,"
"##MN-00 00 44 0242 02105 5707 443359 349409 203"
"152.641053"
"$GPGGA,152303,2437.4079,N,07950.3117,W,1,8,1.7,13,"
"##MN-00 00 42 0242 02108 5706 443361 349408 203"
"152.6411"
"$GPGGA,152307,2437.4084,N,07950.3092,W,1,8,1.7,13,"
"##MN-00 00 42 0244 02109 5704 443365 349409 203"
"152.641146"
"$GPGGA,152311,2437.4090,N,07950.3067,W,1,8,1.7,13,"
"##MN-00 00 44 0245 02112 5702 443366 349408 203"
"152.641192"
"$GPGGA,152315,2437.4095,N,07950.3043,W,1,8,1.7,13,"
"##MN-00 00 40 0246 02118 5701 443375 349412 203"
"152.641238"
"$GPGGA,152319,2437.4099,N,07950.3021,W,1,8,1.7,13,"
"##MN-00 00 39 0247 02120 5699 443382 349414 203"
"152.641285"
"$GPGGA,152323,2437.4106,N,07950.2995,W,1,8,1.7,13,"
"##MN-00 00 40 0248 02123 5698 443375 349411 203"
"152.641331"
"$GPGGA,152327,2437.4110,N,07950.2971,W,1,8,1.7,12,"
"##MN-00 00 32 0249 02129 5697 443379 349412 203"
"152.641377"
"$GPGGA,152331,2437.4117,N,07950.2948,W,1,8,1.7,12,"
"##MN-00 00 39 0250 02128 5695 443388 349425 203"
"152.641424"
"$GPGGA,152335,2437.4124,N,07950.2924,W,1,8,1.7,12,"
"##MN-00 00 38 0251 02132 5694 443424 349428 203"
"152.64147"
"$GPGGA,152339,2437.4130,N,07950.2901,W,1,8,1.7,12,"
"##MN-00 00 37 0251 02134 5693 443381 349410 203"
"152.641516"
"$GPGGA,152343,2437.4135,N,07950.2878,W,1,8,1.7,12,"
"##MN-00 00 36 0252 02138 5692 443378 349408 203"
"152.641563"
"$GPGGA,152347,2437.4142,N,07950.2854,W,1,8,1.7,12,"
"##MN-00 00 36 0253 02140 5691 443376 349407 203"
"152.641609"
"$GPGGA,152351,2437.4148,N,07950.2830,W,1,8,1.7,12,"
"##MN-00 00 34 0254 02144 5690 443384 349412 203"
"152.641655"
"$GPGGA,152355,2437.4153,N,07950.2806,W,1,8,1.7,12,"
"##MN-00 00 34 0255 02140 5688 443418 349423 203"
"152.641701"
"$GPGGA,152359,2437.4159,N,07950.2781,W,1,8,1.7,12,"
"##MN-00 00 34 0256 02144 5687 443396 349409 203"
"152.641748"
"$GPGGA,152403,2437.4163,N,07950.2757,W,1,8,1.7,12,"
"##MN-00 00 36 0258 02138 5686 443371 349402 203"
"152.641794"
"$GPGGA,152407,2437.4167,N,07950.2733,W,1,8,1.7,12,"
"##MN-00 00 33 0259 02127 5685 443367 349403 203"
"152.64184"
"$GPGGA,152411,2437.4171,N,07950.2709,W,1,8,1.7,12,"
"##MN-00 00 33 0260 02124 5684 443363 349403 203"
"152.641887"
"$GPGGA,152415,2437.4175,N,07950.2684,W,1,8,1.7,12,"
"##MN-00 00 36 0261 02112 5683 443361 349404 203"
"152.641933"
"$GPGGA,152419,2437.4180,N,07950.2659,W,1,8,1.7,12,"
"##MN-00 00 36 0262 02105 5681 443359 349403 203"
"152.641979"
"$GPGGA,152423,2437.4184,N,07950.2635,W,1,8,1.7,12,"
"##MN-00 00 36 0263 02095 5680 443355 349422 203"
"152.642025"
"$GPGGA,152427,2437.4186,N,07950.2609,W,1,8,1.7,12,"
"##MN-00 00 36 0264 02088 5679 443347 349404 203"
"152.642072"
"$GPGGA,152431,2437.4192,N,07950.2585,W,1,8,1.7,12,"
"##MN-00 00 35 0265 02083 5677 443326 349401 203"
"152.642118"
"$GPGGA,152435,2437.4196,N,07950.2560,W,1,8,1.7,12,"
"##MN-00 00 34 0266 02072 5676 443304 349398 203"
"152.642164"
"$GPGGA,152439,2437.4200,N,07950.2534,W,1,8,1.7,12,"
"##MN-00 00 34 0268 02064 5675 443298 349397 203"
"152.642211"
"$GPGGA,152443,2437.4206,N,07950.2508,W,1,8,1.7,12,"
"##MN-00 00 39 0269 02056 5674 443275 349393 203"
"152.642268"
"$GPGGA,152447,2437.4211,N,07950.2482,W,1,8,1.7,12,"
"##MN-00 00 38 0270 02047 5673 443235 349385 203"
"152.642315"
"$GPGGA,152451,2437.4217,N,07950.2457,W,1,8,1.7,12,"
"##MN-00 00 37 0271 02036 5672 443170 349378 203"
"152.642361"
"$GPGGA,152455,2437.4221,N,07950.2432,W,1,8,1.7,12,"
"##MN-00 00 37 0272 02031 5670 443130 349370 203"
"152.642407"
"$GPGGA,152459,2437.4227,N,07950.2408,W,1,8,1.7,12,"
"##MN-00 00 36 0273 02019 5669 443038 349348 203"
"152.642454"
"$GPGGA,152503,2437.4229,N,07950.2386,W,1,8,1.7,12,"
"##MN-00 00 37 0274 02011 5668 442882 349316 203"
"152.6425"
"$GPGGA,152508,2437.4231,N,07950.2358,W,1,8,1.7,12,"
"##MN-00 00 38 0275 02001 5667 442816 349300 203"
"152.642546"
"$GPGGA,152511,2437.4232,N,07950.2341,W,1,8,1.7,11,"
"##MN-00 00 37 0277 01991 5666 442732 349285 203"
"152.642593"
"$GPGGA,152515,2437.4236,N,07950.2317,W,1,8,1.7,11,"
"##MN-00 00 37 0278 01983 5664 442587 349250 203"
"152.642639"
"$GPGGA,152519,2437.4238,N,07950.2292,W,1,8,1.7,10,"
"##MN-00 00 38 0279 01972 5663 442348 349180 203"
"152.642685"
"$GPGGA,152524,2437.4245,N,07950.2262,W,1,8,1.7,10,"
"##MN-00 00 37 0280 01962 5662 442214 349140 203"
"152.642731"
"$GPGGA,152528,2437.4247,N,07950.2236,W,1,8,1.7,10,"
"##MN-00 00 41 0281 01951 5661 442172 349112 203"
"152.642778"
"$GPGGA,152532,2437.4253,N,07950.2212,W,1,8,1.7,10,"
"##MN-00 00 39 0282 01946 5660 442127 349201 203"
"152.642824"
"$GPGGA,152536,2437.4258,N,07950.2189,W,1,8,1.7,9,M"
"##MN-00 00 40 0284 01933 5659 442098 349067 203"
"152.64287"
"$GPGGA,152540,2437.4265,N,07950.2163,W,1,8,1.7,9,M"
"##MN-00 00 42 0285 01923 5658 442056 349055 203"
"152.642917"
"$GPGGA,152544,2437.4272,N,07950.2138,W,1,8,1.7,9,M"
"##MN-00 00 41 0286 01917 5656 442030 349044 203"
"152.642963"
"$GPGGA,152548,2437.4279,N,07950.2114,W,1,8,1.7,9,M"
"##MN-00 00 41 0287 01906 5655 442015 349035 203"
"152.643009"
"$GPGGA,152552,2437.4286,N,07950.2089,W,1,8,1.7,9,M"
"##MN-00 00 43 0288 01897 5654 441988 349038 203"
"152.643056"
"$GPGGA,152556,2437.4294,N,07950.2066,W,1,8,1.7,9,M"
"##MN-00 00 41 0290 01889 5653 441953 349019 203"
"152.643102"
"$GPGGA,152600,2437.4304,N,07950.2041,W,1,8,1.7,10,"
"##MN-00 00 41 0291 01880 5652 441839 348998 203"
"152.643148"
"$GPGGA,152604,2437.4311,N,07950.2016,W,1,8,1.7,10,"
"##MN-00 00 42 0292 01869 5651 441660 348935 203"
"152.643194"
"$GPGGA,152608,2437.4318,N,07950.1991,W,1,8,1.7,10,"
"##MN-00 00 41 0293 01860 5649 441631 348919 203"
"152.643241"
"$GPGGA,152612,2437.4326,N,07950.1966,W,1,8,1.7,10,"
"##MN-00 00 44 0295 01853 5649 441468 348897 203"
"152.643287"
"$GPGGA,152616,2437.4333,N,07950.1940,W,1,8,1.7,10,"
"##MN-00 00 42 0296 01850 5647 441461 348853 203"
"152.643333"
"$GPGGA,152620,2437.4339,N,07950.1920,W,1,8,1.7,11,"
"##MN-00 00 42 0297 01853 5646 441440 348844 203"
