" Tow: 3Cm-B   RVWS/WS1406"
" Date: 06/01/2014"
" Temperature Probe #  2597    Conductivity Probe #  2870"
" Pressure Probe #  109"
" Flow Meter Calibration  4.71 (m/count)  "
"152.660995"
"$GPGGA,155142,2438.1023,N,07947.7312,W,1,9,1.8,11,"
"##MN-00 00 48 0088 01853 5440 425187 919615 203"
"152.661042"
"$GPGGA,155150,2438.1050,N,07947.7257,W,1,7,1.9,11,"
"##MN-00 00 57 0089 01855 5440 439958 351052 203"
"152.661088"
"$GPGGA,155154,2438.1064,N,07947.7232,W,1,8,1.8,11,"
"##MN-00 00 46 0089 01856 5440 439979 348214 203"
"152.661134"
"$GPGGA,155158,2438.1073,N,07947.7211,W,1,9,1.8,11,"
"##MN-00 00 52 0089 01853 5440 440057 348288 203"
"152.661181"
"$GPGGA,155202,2438.1084,N,07947.7189,W,1,9,1.8,11,"
"##MN-00 00 48 0090 01852 5440 440077 348260 203"
"152.661227"
"$GPGGA,155206,2438.1095,N,07947.7169,W,1,9,1.8,10,"
"##MN-00 00 51 0090 01854 5440 440126 348294 203"
"152.661273"
"$GPGGA,155210,2438.1104,N,07947.7147,W,1,9,1.8,10,"
"##MN-00 00 51 0091 01853 5440 440105 348292 203"
"152.661319"
"$GPGGA,155214,2438.1118,N,07947.7124,W,1,8,1.8,10,"
"##MN-00 00 46 0091 01855 5439 440102 348293 203"
"152.661366"
"$GPGGA,155218,2438.1132,N,07947.7102,W,1,9,1.9,10,"
"##MN-00 00 50 0091 01853 5439 440097 348313 203"
"152.661412"
"$GPGGA,155222,2438.1139,N,07947.7085,W,1,9,1.8,10,"
"##MN-00 00 44 0091 01854 5439 440125 348287 203"
"152.661458"
"$GPGGA,155226,2438.1147,N,07947.7069,W,1,9,1.8,10,"
"##MN-00 00 45 0092 01855 5439 440134 348281 203"
"152.661505"
"$GPGGA,155230,2438.1157,N,07947.7049,W,1,9,1.8,10,"
"##MN-00 00 49 0092 01856 5439 440139 348289 203"
"152.661551"
"$GPGGA,155234,2438.1168,N,07947.7026,W,1,9,1.8,10,"
"##MN-00 00 45 0093 01855 5439 440139 348288 202"
"152.661597"
"$GPGGA,155238,2438.1180,N,07947.7005,W,1,9,1.8,11,"
"##MN-00 00 46 0093 01857 5439 440149 348293 203"
"152.661644"
"$GPGGA,155242,2438.1190,N,07947.6982,W,1,9,1.8,11,"
"##MN-00 00 48 0094 01855 5439 440125 348291 203"
"152.66169"
"$GPGGA,155246,2438.1201,N,07947.6960,W,1,9,1.8,11,"
"##MN-00 00 45 0094 01852 5439 440115 348288 203"
"152.661736"
"$GPGGA,155250,2438.1209,N,07947.6939,W,1,9,1.8,11,"
"##MN-00 00 44 0095 01855 5439 440116 348287 203"
"152.661782"
"$GPGGA,155254,2438.1219,N,07947.6919,W,1,9,2.0,11,"
"##MN-00 00 48 0095 01853 5439 440112 348283 203"
"152.661829"
"$GPGGA,155258,2438.1227,N,07947.6900,W,1,9,1.8,11,"
"##MN-00 00 50 0095 01856 5439 440116 348279 203"
"152.661875"
"$GPGGA,155302,2438.1234,N,07947.6885,W,1,9,1.8,11,"
"##MN-00 00 44 0096 01857 5438 440150 348289 203"
"152.661921"
"$GPGGA,155306,2438.1245,N,07947.6861,W,1,9,1.8,11,"
"##MN-00 00 47 0097 01858 5438 440165 348286 203"
"152.661968"
"$GPGGA,155310,2438.1252,N,07947.6841,W,1,9,1.8,11,"
"##MN-00 00 45 0097 01861 5438 440151 348282 203"
"152.662014"
"$GPGGA,155314,2438.1261,N,07947.6822,W,1,9,1.8,11,"
"##MN-00 00 45 0098 01861 5438 440151 348280 203"
"152.66206"
"$GPGGA,155318,2438.1266,N,07947.6800,W,1,9,1.8,11,"
"##MN-00 00 48 0099 01865 5438 440148 348284 203"
"152.662106"
"$GPGGA,155322,2438.1273,N,07947.6777,W,1,9,1.8,10,"
"##MN-00 00 45 0099 01870 5438 440250 348322 203"
"152.662164"
"$GPGGA,155326,2438.1280,N,07947.6755,W,1,9,1.8,10,"
"##MN-00 00 45 0100 01875 5438 440373 348346 203"
"152.662211"
"$GPGGA,155330,2438.1286,N,07947.6735,W,1,9,1.8,10,"
"##MN-00 00 46 0101 01877 5438 440402 348372 203"
"152.662257"
"$GPGGA,155334,2438.1290,N,07947.6713,W,1,9,1.8,10,"
"##MN-00 00 47 0102 01882 5438 440338 348334 203"
"152.662303"
"$GPGGA,155338,2438.1292,N,07947.6692,W,1,9,1.8,10,"
"##MN-00 00 47 0102 01886 5438 440297 348319 203"
"152.66235"
"$GPGGA,155342,2438.1297,N,07947.6669,W,1,9,1.8,10,"
"##MN-00 00 47 0103 01890 5438 440205 348294 203"
"152.662396"
"$GPGGA,155346,2438.1299,N,07947.6647,W,1,9,1.8,11,"
"##MN-00 00 48 0104 01895 5438 440192 348296 203"
"152.662442"
"$GPGGA,155350,2438.1302,N,07947.6626,W,1,9,1.8,11,"
"##MN-00 00 46 0105 01899 5438 440280 348315 203"
"152.662488"
"$GPGGA,155354,2438.1303,N,07947.6606,W,1,9,1.8,11,"
"##MN-00 00 48 0105 01902 5437 440343 348337 203"
"152.662535"
"$GPGGA,155358,2438.1302,N,07947.6587,W,1,9,1.8,11,"
"##MN-00 00 48 0106 01904 5438 440443 348370 203"
"152.662581"
"$GPGGA,155402,2438.1301,N,07947.6567,W,1,9,1.8,11,"
"##MN-00 00 48 0107 01909 5438 440502 348373 203"
"152.662627"
"$GPGGA,155406,2438.1301,N,07947.6546,W,1,9,1.8,11,"
"##MN-00 00 48 0108 01913 5438 440495 348357 203"
"152.662674"
"$GPGGA,155411,2438.1299,N,07947.6520,W,1,9,1.8,11,"
"##MN-00 00 48 0108 01917 5438 440584 348388 203"
"152.66272"
"$GPGGA,155415,2438.1297,N,07947.6499,W,1,9,1.8,12,"
"##MN-00 00 49 0109 01921 5437 440682 348416 203"
"152.662766"
"$GPGGA,155419,2438.1294,N,07947.6479,W,1,9,1.8,12,"
"##MN-00 00 47 0109 01922 5437 440731 348452 203"
"152.662813"
"$GPGGA,155423,2438.1292,N,07947.6460,W,1,9,1.8,12,"
"##MN-00 00 45 0110 01926 5437 440778 348474 203"
"152.662859"
"$GPGGA,155427,2438.1290,N,07947.6439,W,1,9,1.8,12,"
"##MN-00 00 50 0111 01931 5437 440792 348480 203"
"152.662905"
"$GPGGA,155431,2438.1288,N,07947.6418,W,1,9,1.8,12,"
"##MN-00 00 46 0112 01933 5437 440821 348498 203"
"152.662951"
"$GPGGA,155435,2438.1285,N,07947.6397,W,1,9,1.8,12,"
"##MN-00 00 48 0112 01939 5437 440831 348498 203"
"152.662998"
"$GPGGA,155439,2438.1283,N,07947.6375,W,1,9,1.8,12,"
"##MN-00 00 49 0113 01942 5437 440833 348498 203"
"152.663044"
"$GPGGA,155443,2438.1281,N,07947.6353,W,1,9,1.8,12,"
"##MN-00 00 49 0114 01942 5437 440825 348489 203"
"152.66309"
"$GPGGA,155447,2438.1280,N,07947.6330,W,1,9,1.8,12,"
"##MN-00 00 48 0115 01945 5437 440802 348482 203"
"152.663137"
"$GPGGA,155451,2438.1277,N,07947.6308,W,1,9,1.8,12,"
"##MN-00 00 51 0116 01949 5437 440810 348487 203"
"152.663183"
"$GPGGA,155455,2438.1274,N,07947.6286,W,1,9,1.8,12,"
"##MN-00 00 48 0116 01950 5437 440871 348519 203"
"152.663229"
"$GPGGA,155459,2438.1271,N,07947.6264,W,1,8,2.0,12,"
"##MN-00 00 48 0117 01952 5436 440980 348572 203"
"152.663275"
"$GPGGA,155503,2438.1266,N,07947.6242,W,1,9,1.8,12,"
"##MN-00 00 50 0118 01957 5436 441039 348609 203"
"152.663322"
"$GPGGA,155507,2438.1263,N,07947.6219,W,1,9,1.8,13,"
"##MN-00 00 49 0119 01957 5436 441084 348612 203"
"152.663368"
"$GPGGA,155511,2438.1260,N,07947.6196,W,1,9,1.8,13,"
"##MN-00 00 49 0120 01961 5436 441097 348599 203"
"152.663414"
"$GPGGA,155515,2438.1257,N,07947.6174,W,1,9,1.8,13,"
"##MN-00 00 51 0121 01964 5436 441112 348622 203"
"152.663461"
"$GPGGA,155519,2438.1254,N,07947.6151,W,1,9,1.8,13,"
"##MN-00 00 50 0121 01968 5436 441296 348721 202"
"152.663507"
"$GPGGA,155523,2438.1252,N,07947.6129,W,1,9,1.8,14,"
"##MN-00 00 49 0122 01971 5436 441396 348747 202"
"152.663553"
"$GPGGA,155527,2438.1250,N,07947.6106,W,1,9,1.8,14,"
"##MN-00 00 51 0123 01973 5436 441436 348756 203"
"152.6636"
"$GPGGA,155531,2438.1247,N,07947.6083,W,1,9,1.8,14,"
"##MN-00 00 51 0124 01976 5436 441455 348756 203"
"152.663646"
"$GPGGA,155535,2438.1245,N,07947.6058,W,1,9,1.8,14,"
"##MN-00 00 51 0125 01978 5436 441527 348793 202"
"152.663692"
"$GPGGA,155539,2438.1243,N,07947.6034,W,1,9,1.8,14,"
"##MN-00 00 51 0126 01984 5436 441717 348868 202"
"152.663738"
"$GPGGA,155543,2438.1241,N,07947.6010,W,1,9,1.8,14,"
"##MN-00 00 49 0126 01986 5436 441857 348933 202"
"152.663785"
"$GPGGA,155547,2438.1238,N,07947.5987,W,1,9,1.8,14,"
"##MN-00 00 53 0127 01992 5435 442040 349057 203"
"152.663831"
"$GPGGA,155551,2438.1237,N,07947.5964,W,1,9,1.8,14,"
"##MN-00 00 50 0128 01994 5435 442150 349089 203"
"152.663877"
"$GPGGA,155555,2438.1235,N,07947.5942,W,1,9,1.8,14,"
"##MN-00 00 49 0129 02001 5435 442168 349086 203"
"152.663924"
"$GPGGA,155559,2438.1235,N,07947.5919,W,1,9,1.8,15,"
"##MN-00 00 52 0129 02003 5435 442155 349080 202"
"152.66397"
"$GPGGA,155603,2438.1232,N,07947.5898,W,1,9,1.8,15,"
"##MN-00 00 51 0130 02008 5435 442152 349077 202"
"152.664016"
"$GPGGA,155607,2438.1230,N,07947.5878,W,1,9,1.8,15,"
"##MN-00 00 49 0131 02011 5435 442134 349069 202"
"152.664063"
"$GPGGA,155611,2438.1227,N,07947.5857,W,1,9,1.8,15,"
"##MN-00 00 51 0132 02014 5435 442109 349055 202"
"152.664109"
"$GPGGA,155615,2438.1224,N,07947.5835,W,1,9,1.8,15,"
"##MN-00 00 50 0132 02019 5435 442080 349043 202"
"152.664155"
"$GPGGA,155619,2438.1223,N,07947.5813,W,1,9,1.8,16,"
"##MN-00 00 51 0133 02021 5435 442046 349019 202"
"152.664201"
"$GPGGA,155623,2438.1219,N,07947.5790,W,1,9,1.8,16,"
"##MN-00 00 49 0134 02023 5435 442002 348989 202"
"152.664248"
"$GPGGA,155627,2438.1218,N,07947.5767,W,1,9,1.8,16,"
"##MN-00 00 51 0135 02027 5435 441975 348983 202"
"152.664294"
"$GPGGA,155631,2438.1214,N,07947.5744,W,1,9,1.8,16,"
"##MN-00 00 49 0136 02030 5435 441952 348967 202"
"152.66434"
"$GPGGA,155635,2438.1210,N,07947.5720,W,1,9,1.8,16,"
"##MN-00 00 48 0137 02030 5435 441923 348945 202"
"152.664387"
"$GPGGA,155639,2438.1208,N,07947.5697,W,1,9,1.8,16,"
"##MN-00 00 50 0137 02030 5435 441902 348930 202"
"152.664433"
"$GPGGA,155643,2438.1205,N,07947.5673,W,1,9,1.8,16,"
"##MN-00 00 50 0138 02037 5435 441826 348888 203"
"152.664479"
"$GPGGA,155647,2438.1204,N,07947.5650,W,1,9,1.8,16,"
"##MN-00 00 52 0139 02041 5435 441796 348823 202"
"152.664525"
"$GPGGA,155651,2438.1200,N,07947.5626,W,1,9,1.8,16,"
"##MN-00 00 49 0140 02044 5434 441796 348808 202"
"152.664572"
"$GPGGA,155655,2438.1198,N,07947.5603,W,1,9,1.8,16,"
"##MN-00 00 50 0141 02048 5434 441825 348811 202"
"152.664618"
"$GPGGA,155659,2438.1194,N,07947.5580,W,1,9,1.8,16,"
"##MN-00 00 50 0142 02050 5434 441859 348814 202"
"152.664664"
"$GPGGA,155703,2438.1191,N,07947.5556,W,1,9,1.8,16,"
"##MN-00 00 49 0142 02053 5434 441912 348831 202"
"152.664711"
"$GPGGA,155707,2438.1189,N,07947.5533,W,1,9,1.8,16,"
"##MN-00 00 52 0143 02057 5434 441996 348868 202"
"152.664757"
"$GPGGA,155711,2438.1187,N,07947.5509,W,1,9,1.8,16,"
"##MN-00 00 49 0144 02061 5434 442056 348890 202"
"152.664803"
"$GPGGA,155715,2438.1185,N,07947.5485,W,1,9,1.8,16,"
"##MN-00 00 51 0145 02065 5434 442091 348890 202"
"152.66485"
"$GPGGA,155719,2438.1183,N,07947.5462,W,1,9,1.8,16,"
"##MN-00 00 51 0146 02067 5434 442136 348911 202"
"152.664896"
"$GPGGA,155723,2438.1178,N,07947.5438,W,1,9,1.8,16,"
"##MN-00 00 49 0147 02070 5433 442203 348917 202"
"152.664942"
"$GPGGA,155727,2438.1176,N,07947.5414,W,1,9,1.8,15,"
"##MN-00 00 50 0147 02073 5433 442242 348923 202"
"152.664988"
"$GPGGA,155731,2438.1176,N,07947.5389,W,1,9,1.8,15,"
"##MN-00 00 52 0148 02075 5433 442324 348948 202"
"152.665035"
"$GPGGA,155735,2438.1172,N,07947.5365,W,1,9,1.8,15,"
"##MN-00 00 51 0149 02077 5433 442443 349000 202"
"152.665081"
"$GPGGA,155739,2438.1170,N,07947.5341,W,1,9,1.8,15,"
"##MN-00 00 50 0150 02082 5433 442516 349017 202"
"152.665127"
"$GPGGA,155743,2438.1169,N,07947.5317,W,1,9,1.8,15,"
"##MN-00 00 50 0151 02087 5433 442542 349018 202"
"152.665174"
"$GPGGA,155747,2438.1165,N,07947.5293,W,1,9,1.8,14,"
"##MN-00 00 51 0151 02087 5433 442606 349033 202"
"152.66522"
"$GPGGA,155751,2438.1162,N,07947.5270,W,1,9,1.8,14,"
"##MN-00 00 51 0152 02091 5433 442716 349065 202"
"152.665266"
"$GPGGA,155755,2438.1160,N,07947.5247,W,1,9,1.8,14,"
"##MN-00 00 50 0153 02096 5433 442801 349084 202"
"152.665312"
"$GPGGA,155759,2438.1158,N,07947.5223,W,1,9,1.8,14,"
"##MN-00 00 52 0154 02098 5432 443012 349188 202"
"152.665359"
"$GPGGA,155803,2438.1156,N,07947.5199,W,1,9,1.8,14,"
"##MN-00 00 50 0155 02101 5432 443356 349264 202"
"152.665417"
"$GPGGA,155807,2438.1153,N,07947.5176,W,1,9,1.8,14,"
"##MN-00 00 51 0155 02104 5432 443474 349274 202"
"152.665463"
"$GPGGA,155811,2438.1151,N,07947.5151,W,1,9,1.8,14,"
"##MN-00 00 51 0156 02106 5432 443608 349341 202"
"152.665509"
"$GPGGA,155815,2438.1151,N,07947.5127,W,1,9,1.8,13,"
"##MN-00 00 50 0157 02110 5432 443662 349370 202"
"152.665556"
"$GPGGA,155819,2438.1147,N,07947.5104,W,1,9,1.8,13,"
"##MN-00 00 50 0158 02112 5432 443668 349359 202"
"152.665602"
"$GPGGA,155823,2438.1147,N,07947.5080,W,1,9,1.8,13,"
"##MN-00 00 50 0158 02116 5432 443673 349379 202"
"152.665648"
"$GPGGA,155827,2438.1145,N,07947.5056,W,1,9,1.8,13,"
"##MN-00 00 53 0159 02117 5431 443740 349412 202"
"152.665694"
"$GPGGA,155831,2438.1145,N,07947.5031,W,1,9,1.8,13,"
"##MN-00 00 47 0160 02116 5432 443851 349441 202"
"152.665741"
"$GPGGA,155835,2438.1144,N,07947.5009,W,1,9,1.8,13,"
"##MN-00 00 50 0161 02117 5431 443862 349441 202"
"152.665787"
"$GPGGA,155839,2438.1143,N,07947.4987,W,1,9,1.8,12,"
"##MN-00 00 50 0161 02117 5431 443849 349433 202"
"152.665833"
"$GPGGA,155843,2438.1142,N,07947.4965,W,1,9,1.8,12,"
"##MN-00 00 48 0162 02118 5431 443840 349436 202"
"152.66588"
"$GPGGA,155847,2438.1142,N,07947.4943,W,1,9,1.8,12,"
"##MN-00 00 51 0163 02120 5431 443853 349439 202"
"152.665926"
"$GPGGA,155851,2438.1143,N,07947.4921,W,1,9,1.8,12,"
"##MN-00 00 48 0164 02121 5431 443867 349441 202"
"152.665972"
"$GPGGA,155856,2438.1142,N,07947.4894,W,1,9,1.8,12,"
"##MN-00 00 46 0164 02121 5431 443874 349450 202"
"152.666019"
"$GPGGA,155859,2438.1143,N,07947.4877,W,1,9,1.8,12,"
"##MN-00 00 50 0165 02123 5430 443864 349452 202"
"152.666065"
"$GPGGA,155904,2438.1142,N,07947.4849,W,1,9,1.8,12,"
"##MN+00 00 48 0166 02124 5430 443904 349466 202"
"152.666111"
"$GPGGA,155908,2438.1142,N,07947.4829,W,1,9,1.8,12,"
"##MN+00 00 48 0167 02123 5430 443868 349448 202"
"152.666157"
"$GPGGA,155911,2438.1143,N,07947.4812,W,1,9,1.8,12,"
"##MN+00 00 48 0168 02125 5430 443841 349444 202"
"152.666204"
"$GPGGA,155915,2438.1142,N,07947.4789,W,1,8,1.8,11,"
"##MN+00 00 49 0168 02124 5430 443838 349444 202"
"152.66625"
"$GPGGA,155919,2438.1140,N,07947.4770,W,1,9,1.8,11,"
"##MN+00 00 49 0169 02124 5429 443895 349459 202"
"152.666296"
"$GPGGA,155924,2438.1138,N,07947.4744,W,1,9,1.8,11,"
"##MN+00 00 57 0170 02127 5429 443902 349457 202"
"152.666343"
"$GPGGA,155927,2438.1136,N,07947.4728,W,1,9,1.8,11,"
"##MN-00 00 52 0171 02128 5429 443929 349467 202"
"152.666389"
"#increment_net"
"$GPGGA,155932,2438.1140,N,07947.4694,W,1,9,1.8,10,"
"##MN-00 00 52 0172 02124 5429 443974 349494 202"
"152.666435"
"$GPGGA,155936,2438.1138,N,07947.4674,W,1,9,1.8,10,"
"##MN-00 00 51 0172 02125 5429 443985 349676 202"
"152.666481"
"$GPGGA,155940,2438.1138,N,07947.4653,W,1,9,1.8,10,"
"##MN-00 00 47 0173 02126 5429 444026 349516 202"
"152.666528"
"$GPGGA,155944,2438.1138,N,07947.4632,W,1,9,1.8,10,"
"##MN-00 00 49 0174 02121 5428 444064 349520 202"
"152.666574"
"$GPGGA,155948,2438.1136,N,07947.4611,W,1,9,1.8,10,"
"##MN-00 00 47 0175 02122 5428 444092 349533 202"
"152.66662"
"$GPGGA,155952,2438.1135,N,07947.4591,W,1,9,1.8,9,M"
"##MN-00 00 48 0176 02124 5428 444104 349543 202"
"152.666667"
"$GPGGA,155956,2438.1133,N,07947.4569,W,1,9,1.8,9,M"
"##MN-00 00 51 0176 02122 5428 444112 349547 202"
"152.666713"
"$GPGGA,160000,2438.1132,N,07947.4548,W,1,9,1.8,9,M"
"##MN-00 00 45 0177 02124 5427 444128 349552 202"
"152.666759"
"$GPGGA,160004,2438.1132,N,07947.4525,W,1,9,2.1,9,M"
"##MN-00 00 49 0177 02125 5427 444149 349570 202"
"152.666806"
"$GPGGA,160008,2438.1129,N,07947.4506,W,1,9,1.8,9,M"
"##MN-00 00 48 0178 02125 5427 444172 349573 202"
"152.666852"
"$GPGGA,160012,2438.1126,N,07947.4486,W,1,9,1.8,9,M"
"##MN-00 00 48 0179 02124 5427 444161 349568 202"
"152.666898"
"$GPGGA,160016,2438.1125,N,07947.4465,W,1,9,1.8,8,M"
"##MN-00 00 46 0180 02127 5427 444153 349568 202"
"152.666944"
"$GPGGA,160020,2438.1125,N,07947.4442,W,1,9,1.8,8,M"
"##MN-00 00 49 0181 02127 5427 444144 349561 202"
"152.666991"
"$GPGGA,160024,2438.1124,N,07947.4420,W,1,9,1.8,8,M"
"##MN-00 00 47 0182 02129 5426 444147 349562 202"
"152.667037"
"$GPGGA,160028,2438.1120,N,07947.4399,W,1,9,1.8,8,M"
"##MN-00 00 46 0182 02128 5426 444146 349563 202"
"152.667083"
"$GPGGA,160032,2438.1117,N,07947.4379,W,1,9,2.1,8,M"
"##MN-00 00 47 0183 02125 5426 444143 349559 202"
"152.66713"
"$GPGGA,160036,2438.1115,N,07947.4359,W,1,9,1.9,8,M"
"##MN-00 00 48 0184 02126 5426 444151 349556 202"
"152.667176"
"$GPGGA,160040,2438.1118,N,07947.4337,W,1,9,1.9,8,M"
"##MN-00 00 46 0185 02120 5425 444041 349522 202"
"152.667222"
"$GPGGA,160044,2438.1118,N,07947.4316,W,1,9,1.9,8,M"
"##MN-00 00 45 0185 02122 5425 443896 349471 202"
"152.667269"
"$GPGGA,160048,2438.1121,N,07947.4291,W,1,9,2.1,8,M"
"##MN-00 00 49 0186 02121 5425 443809 349429 202"
"152.667315"
"$GPGGA,160052,2438.1122,N,07947.4271,W,1,9,1.9,8,M"
"##MN-00 00 49 0187 02122 5425 443775 349419 202"
"152.667361"
"$GPGGA,160056,2438.1122,N,07947.4252,W,1,9,1.9,7,M"
"##MN-00 00 46 0188 02123 5424 443774 349419 202"
"152.667407"
"$GPGGA,160100,2438.1123,N,07947.4232,W,1,9,1.9,7,M"
"##MN-00 00 49 0188 02124 5424 443762 349415 202"
"152.667454"
"$GPGGA,160104,2438.1128,N,07947.4209,W,1,9,1.9,7,M"
"##MN-00 00 46 0189 02123 5424 443772 349418 202"
"152.6675"
"$GPGGA,160108,2438.1132,N,07947.4188,W,1,9,1.9,7,M"
"##MN-00 00 48 0190 02127 5424 443785 349425 202"
"152.667546"
"$GPGGA,160112,2438.1136,N,07947.4164,W,1,9,1.9,7,M"
"##MN-00 00 47 0190 02125 5424 443812 349429 202"
"152.667593"
"$GPGGA,160116,2438.1142,N,07947.4143,W,1,9,2.1,7,M"
"##MN-00 00 43 0191 02129 5424 443825 349434 202"
"152.667639"
"$GPGGA,160120,2438.1147,N,07947.4123,W,1,9,1.9,7,M"
"##MN-00 00 48 0191 02130 5423 443945 349480 202"
"152.667685"
"$GPGGA,160124,2438.1154,N,07947.4100,W,1,9,1.9,7,M"
"##MN-00 00 49 0192 02132 5423 444048 349520 202"
"152.667731"
"$GPGGA,160128,2438.1161,N,07947.4079,W,1,9,1.9,7,M"
"##MN-00 00 45 0193 02137 5422 444130 349555 202"
"152.667778"
"$GPGGA,160132,2438.1169,N,07947.4057,W,1,9,1.9,7,M"
"##MN-00 00 45 0193 02136 5422 444179 349571 202"
"152.667824"
"$GPGGA,160136,2438.1178,N,07947.4035,W,1,9,1.9,7,M"
"##MN-00 00 45 0194 02130 5422 444199 349572 202"
"152.66787"
"$GPGGA,160140,2438.1185,N,07947.4012,W,1,9,1.9,7,M"
"##MN-00 00 44 0194 02126 5422 444170 349564 202"
"152.667917"
"$GPGGA,160144,2438.1193,N,07947.3990,W,1,9,1.9,8,M"
"##MN-00 00 41 0195 02126 5421 444090 349526 202"
"152.667963"
"$GPGGA,160148,2438.1198,N,07947.3971,W,1,9,1.9,8,M"
"##MN-00 00 43 0196 02126 5421 443987 349497 202"
"152.668009"
"$GPGGA,160152,2438.1204,N,07947.3947,W,1,9,2.1,8,M"
"##MN-00 00 47 0196 02118 5421 443915 349467 202"
"152.668056"
"$GPGGA,160156,2438.1205,N,07947.3930,W,1,8,1.9,8,M"
"##MN+00 00 43 0197 02121 5420 443818 349437 202"
"152.668102"
"$GPGGA,160200,2438.1205,N,07947.3915,W,1,9,1.9,8,M"
"##MN+00 00 45 0198 02123 5420 443770 349416 202"
"152.668148"
"$GPGGA,160204,2438.1205,N,07947.3895,W,1,9,1.9,8,M"
"##MN+00 00 45 0198 02122 5420 443763 349414 202"
"152.668194"
"$GPGGA,160208,2438.1204,N,07947.3874,W,1,9,1.9,7,M"
"##MN-00 00 43 0199 02124 5420 443754 349416 202"
"152.668241"
"$GPGGA,160212,2438.1205,N,07947.3855,W,1,9,1.9,8,M"
"##MN+00 00 49 0199 02120 5420 443736 349406 202"
"152.668287"
"$GPGGA,160216,2438.1200,N,07947.3836,W,1,9,2.1,8,M"
"##MN+00 00 44 0200 02119 5420 443715 349396 202"
"152.668333"
"$GPGGA,160220,2438.1195,N,07947.3820,W,1,9,1.9,8,M"
"##MN+00 00 51 0201 02123 5420 443715 349397 202"
"152.66838"
"#increment_net"
"$GPGGA,160224,2438.1191,N,07947.3801,W,1,8,1.9,9,M"
"##MN-00 00 49 0201 02125 5420 443697 349390 202"
"152.668426"
"$GPGGA,160228,2438.1189,N,07947.3783,W,1,9,1.9,9,M"
"##MN-00 00 46 0202 02125 5419 443683 349385 202"
"152.668472"
"$GPGGA,160232,2438.1187,N,07947.3766,W,1,9,1.9,10,"
"##MN-00 00 44 0202 02123 5419 443677 349382 202"
"152.668519"
"$GPGGA,160236,2438.1183,N,07947.3749,W,1,8,2.1,10,"
"##MN-00 00 44 0203 02121 5419 443677 349383 202"
"152.668565"
"$GPGGA,160240,2438.1180,N,07947.3736,W,1,9,1.9,11,"
"##MN-00 00 42 0204 02122 5418 443666 349381 202"
"152.668611"
"$GPGGA,160244,2438.1179,N,07947.3719,W,1,9,1.9,11,"
"##MN-00 00 44 0205 02123 5418 443674 349381 202"
"152.668669"
"$GPGGA,160248,2438.1178,N,07947.3700,W,1,9,1.9,10,"
"##MN-00 00 45 0205 02121 5417 443693 349386 202"
"152.668715"
"$GPGGA,160252,2438.1178,N,07947.3679,W,1,9,2.1,10,"
"##MN-00 00 40 0205 02123 5418 443697 349387 202"
"152.668762"
"$GPGGA,160256,2438.1180,N,07947.3656,W,1,8,1.9,10,"
"##MN-00 00 45 0206 02124 5417 443694 349384 202"
"152.668808"
"$GPGGA,160300,2438.1181,N,07947.3637,W,1,9,2.1,10,"
"##MN-00 00 46 0207 02123 5417 443661 349374 202"
"152.668854"
"$GPGGA,160304,2438.1182,N,07947.3617,W,1,9,1.9,10,"
"##MN-00 00 41 0207 02122 5417 443603 349355 202"
"152.6689"
"$GPGGA,160308,2438.1183,N,07947.3598,W,1,8,1.9,10,"
"##MN-00 00 42 0208 02125 5417 443626 349365 202"
"152.668947"
"$GPGGA,160312,2438.1187,N,07947.3576,W,1,9,1.9,10,"
"##MN-00 00 45 0208 02122 5416 443622 349361 202"
"152.668993"
"$GPGGA,160316,2438.1187,N,07947.3557,W,1,9,2.1,9,M"
"##MN-00 00 43 0209 02121 5416 443563 349343 202"
"152.669039"
"$GPGGA,160320,2438.1187,N,07947.3536,W,1,9,1.9,9,M"
"##MN-00 00 43 0210 02122 5416 443550 349339 202"
"152.669086"
"$GPGGA,160325,2438.1187,N,07947.3512,W,1,9,1.9,9,M"
"##MN-00 00 42 0210 02120 5415 443527 349330 202"
"152.669132"
"$GPGGA,160328,2438.1187,N,07947.3496,W,1,8,1.9,8,M"
"##MN-00 00 43 0211 02119 5415 443505 349326 202"
"152.669178"
"$GPGGA,160333,2438.1191,N,07947.3465,W,1,9,1.9,8,M"
"##MN-00 00 44 0212 02119 5415 443417 349297 202"
"152.669225"
"$GPGGA,160336,2438.1196,N,07947.3444,W,1,8,1.9,8,M"
"##MN-00 00 44 0213 02115 5415 443233 349226 202"
"152.669271"
"$GPGGA,160341,2438.1196,N,07947.3414,W,1,9,1.9,8,M"
"##MN-00 00 44 0213 02117 5415 443144 349207 202"
"152.669317"
"$GPGGA,160344,2438.1198,N,07947.3398,W,1,9,1.9,8,M"
"##MN-00 00 46 0214 02114 5414 443052 349176 202"
"152.669363"
"$GPGGA,160348,2438.1198,N,07947.3371,W,1,9,2.1,9,M"
"##MN-00 00 41 0214 02114 5414 443056 349175 202"
"152.66941"
"$GPGGA,160353,2438.1198,N,07947.3343,W,1,9,1.9,9,M"
"##MN-00 00 45 0215 02115 5413 443027 349169 202"
"152.669456"
"$GPGGA,160357,2438.1194,N,07947.3322,W,1,8,1.9,9,M"
"##MN-00 00 46 0216 02114 5413 443012 349163 202"
"152.669502"
"$GPGGA,160401,2438.1194,N,07947.3300,W,1,9,1.9,9,M"
"##MN-00 00 43 0216 02112 5414 443018 349162 202"
"152.669549"
"$GPGGA,160405,2438.1194,N,07947.3274,W,1,8,1.9,9,M"
"##MN-00 00 43 0217 02114 5413 443034 349166 202"
"152.669595"
"$GPGGA,160409,2438.1191,N,07947.3255,W,1,9,1.9,9,M"
"##MN-00 00 45 0218 02114 5413 443045 349171 202"
"152.669641"
"$GPGGA,160413,2438.1190,N,07947.3236,W,1,9,1.9,9,M"
"##MN-00 00 47 0218 02108 5413 443038 349166 202"
"152.669688"
"$GPGGA,160417,2438.1187,N,07947.3216,W,1,8,1.9,9,M"
"##MN-00 00 45 0219 02113 5413 443035 349164 202"
"152.669734"
"$GPGGA,160421,2438.1186,N,07947.3195,W,1,8,1.9,9,M"
"##MN-00 00 44 0220 02115 5412 443020 349160 202"
"152.66978"
"$GPGGA,160425,2438.1186,N,07947.3171,W,1,9,2.1,9,M"
"##MN-00 00 45 0221 02115 5412 443004 349153 202"
"152.669826"
"$GPGGA,160429,2438.1186,N,07947.3147,W,1,9,2.1,9,M"
"##MN-00 00 45 0221 02112 5412 443008 349154 202"
"152.669873"
"$GPGGA,160433,2438.1183,N,07947.3127,W,1,8,2.1,9,M"
"##MN-00 00 45 0222 02112 5412 443023 349159 202"
"152.669919"
"$GPGGA,160437,2438.1182,N,07947.3107,W,1,9,1.9,9,M"
"##MN-00 00 44 0223 02111 5411 443025 349160 202"
"152.669965"
"$GPGGA,160441,2438.1189,N,07947.3074,W,1,8,2.1,9,M"
"##MN-00 00 45 0224 02111 5411 443026 349161 202"
"152.670012"
"$GPGGA,160445,2438.1187,N,07947.3051,W,1,9,1.9,10,"
"##MN+00 00 44 0224 02109 5411 443026 349161 202"
"152.670058"
"$GPGGA,160449,2438.1190,N,07947.3024,W,1,8,1.9,10,"
"##MN+00 00 44 0225 02109 5411 443027 349162 202"
"152.670104"
"$GPGGA,160453,2438.1190,N,07947.3005,W,1,9,1.9,10,"
"##MN+00 00 45 0226 02108 5410 443018 349160 202"
"152.67015"
"$GPGGA,160457,2438.1191,N,07947.2984,W,1,9,1.9,10,"
"##MN+00 00 48 0226 02112 5410 443030 349165 202"
"152.670197"
"$GPGGA,160501,2438.1194,N,07947.2962,W,1,8,2.1,10,"
"##MN+00 00 48 0227 02115 5410 443053 349168 202"
"152.670243"
"$GPGGA,160505,2438.1196,N,07947.2939,W,1,9,1.9,10,"
"##MN+00 00 54 0228 02119 5410 443080 349178 202"
"152.670289"
"$GPGGA,160509,2438.1200,N,07947.2916,W,1,9,1.9,11,"
"##MN-00 00 51 0229 02118 5410 443148 349195 202"
"152.670336"
"$GPGGA,160513,2438.1204,N,07947.2892,W,1,9,1.9,11,"
"##MN-00 00 47 0229 02118 5409 443195 349202 202"
"152.670382"
"#increment_net"
"$GPGGA,160517,2438.1205,N,07947.2871,W,1,9,1.9,11,"
"##MN-00 00 44 0230 02118 5409 443177 349201 202"
"152.670428"
"$GPGGA,160521,2438.1209,N,07947.2849,W,1,9,1.9,11,"
"##MN-00 00 44 0231 02115 5409 443118 349185 202"
"152.670475"
"$GPGGA,160525,2438.1211,N,07947.2826,W,1,9,1.9,11,"
"##MN-00 00 43 0232 02116 5409 443100 349183 202"
"152.670521"
"$GPGGA,160529,2438.1212,N,07947.2804,W,1,9,1.9,10,"
"##MN-00 00 44 0233 02118 5408 443133 349194 202"
"152.670567"
"$GPGGA,160533,2438.1214,N,07947.2781,W,1,9,1.9,10,"
"##MN-00 00 44 0233 02111 5408 443120 349187 202"
"152.670613"
"$GPGGA,160537,2438.1214,N,07947.2759,W,1,9,1.9,10,"
"##MN-00 00 43 0234 02112 5408 443094 349181 202"
"152.67066"
"$GPGGA,160541,2438.1216,N,07947.2736,W,1,9,1.9,10,"
"##MN-00 00 44 0235 02113 5407 443084 349176 202"
"152.670706"
"$GPGGA,160545,2438.1217,N,07947.2712,W,1,9,1.9,10,"
"##MN-00 00 45 0236 02113 5407 443079 349177 202"
"152.670752"
"$GPGGA,160549,2438.1219,N,07947.2688,W,1,9,1.9,10,"
"##MN-00 00 43 0236 02108 5407 443090 349180 202"
"152.670799"
"$GPGGA,160553,2438.1222,N,07947.2665,W,1,9,1.9,10,"
"##MN-00 00 43 0237 02110 5407 443087 349179 202"
"152.670845"
"$GPGGA,160557,2438.1226,N,07947.2641,W,1,9,1.9,9,M"
"##MN-00 00 45 0238 02113 5407 443085 349177 202"
"152.670891"
"$GPGGA,160601,2438.1229,N,07947.2617,W,1,9,1.9,9,M"
"##MN-00 00 47 0238 02114 5407 443100 349182 202"
"152.670938"
"$GPGGA,160605,2438.1233,N,07947.2591,W,1,9,1.9,9,M"
"##MN-00 00 44 0239 02116 5407 443172 349208 202"
"152.670984"
"$GPGGA,160609,2438.1236,N,07947.2567,W,1,9,1.9,9,M"
"##MN-00 00 45 0240 02114 5406 443228 349226 202"
"152.67103"
"$GPGGA,160613,2438.1239,N,07947.2544,W,1,9,1.9,9,M"
"##MN-00 00 44 0241 02114 5406 443259 349222 202"
"152.671076"
"$GPGGA,160617,2438.1241,N,07947.2519,W,1,9,1.9,9,M"
"##MN-00 00 44 0242 02115 5406 443278 349224 202"
"152.671123"
"$GPGGA,160621,2438.1245,N,07947.2494,W,1,9,1.9,9,M"
"##MN-00 00 44 0242 02115 5406 443280 349231 202"
"152.671169"
"$GPGGA,160625,2438.1246,N,07947.2471,W,1,8,2.1,9,M"
"##MN-00 00 44 0243 02114 5405 443286 349234 202"
"152.671215"
"$GPGGA,160629,2438.1248,N,07947.2449,W,1,9,1.9,8,M"
"##MN-00 00 43 0244 02114 5405 443292 349242 202"
"152.671262"
"$GPGGA,160633,2438.1252,N,07947.2425,W,1,9,1.9,8,M"
"##MN-00 00 46 0245 02114 5405 443272 349237 202"
"152.671308"
"$GPGGA,160637,2438.1255,N,07947.2400,W,1,9,1.9,8,M"
"##MN-00 00 44 0245 02113 5405 443224 349221 202"
"152.671354"
"$GPGGA,160641,2438.1259,N,07947.2376,W,1,9,1.9,8,M"
"##MN-00 00 45 0246 02112 5405 443212 349219 202"
"152.6714"
"$GPGGA,160645,2438.1263,N,07947.2352,W,1,9,1.9,8,M"
"##MN-00 00 44 0247 02114 5404 443198 349216 202"
"152.671447"
"$GPGGA,160649,2438.1265,N,07947.2328,W,1,9,1.9,8,M"
"##MN-00 00 44 0248 02112 5404 443174 349210 202"
"152.671493"
"$GPGGA,160653,2438.1270,N,07947.2304,W,1,9,1.9,7,M"
"##MN-00 00 43 0249 02111 5404 443136 349195 202"
"152.671539"
"$GPGGA,160657,2438.1271,N,07947.2281,W,1,9,1.9,7,M"
"##MN-00 00 44 0250 02112 5404 443048 349162 202"
"152.671586"
"$GPGGA,160701,2438.1276,N,07947.2257,W,1,9,1.9,7,M"
"##MN-00 00 46 0250 02110 5404 442999 349158 202"
"152.671632"
"$GPGGA,160705,2438.1277,N,07947.2233,W,1,9,1.9,7,M"
"##MN-00 00 43 0251 02112 5403 443006 349163 202"
"152.671678"
"$GPGGA,160709,2438.1280,N,07947.2210,W,1,9,1.9,7,M"
"##MN-00 00 44 0252 02113 5403 443001 349158 202"
"152.671725"
"$GPGGA,160713,2438.1281,N,07947.2187,W,1,9,1.9,7,M"
"##MN+00 00 45 0253 02113 5403 442978 349141 202"
"152.671771"
"$GPGGA,160717,2438.1283,N,07947.2163,W,1,9,1.9,7,M"
"##MN+00 00 44 0253 02113 5403 442970 349140 202"
"152.671817"
"$GPGGA,160721,2438.1285,N,07947.2139,W,1,9,1.9,7,M"
"##MN+00 00 44 0254 02112 5403 442963 349140 202"
"152.671863"
"$GPGGA,160725,2438.1288,N,07947.2115,W,1,9,1.9,7,M"
"##MN-00 00 45 0255 02113 5403 442973 349139 202"
"152.671921"
"$GPGGA,160729,2438.1290,N,07947.2090,W,1,9,1.9,7,M"
"##MN+00 00 44 0256 02110 5402 442988 349142 202"
"152.671968"
"$GPGGA,160733,2438.1292,N,07947.2066,W,1,9,1.9,7,M"
"##MN+00 00 43 0257 02110 5402 442988 349139 202"
"152.672014"
"$GPGGA,160737,2438.1294,N,07947.2041,W,1,9,1.9,7,M"
"##MN+00 00 54 0258 02112 5402 442976 349135 202"
"152.67206"
"#increment_net"
"$GPGGA,160741,2438.1299,N,07947.2017,W,1,9,1.9,7,M"
"##MN-00 00 50 0259 02114 5402 443000 349137 202"
"152.672107"
"$GPGGA,160745,2438.1301,N,07947.1993,W,1,9,1.9,7,M"
"##MN-00 00 49 0259 02112 5402 443019 349147 202"
"152.672153"
"$GPGGA,160749,2438.1308,N,07947.1968,W,1,9,1.9,7,M"
"##MN-00 00 43 0260 02112 5402 443013 349143 202"
"152.672199"
"$GPGGA,160753,2438.1313,N,07947.1944,W,1,9,1.9,8,M"
"##MN-00 00 44 0261 02109 5402 443008 349142 202"
"152.672245"
"$GPGGA,160757,2438.1317,N,07947.1918,W,1,9,1.9,8,M"
"##MN-00 00 44 0262 02110 5401 443020 349146 202"
"152.672292"
"$GPGGA,160801,2438.1324,N,07947.1891,W,1,8,2.2,8,M"
"##MN-00 00 44 0263 02115 5401 443043 349155 202"
"152.672338"
"$GPGGA,160805,2438.1331,N,07947.1865,W,1,8,2.2,8,M"
"##MN-00 00 44 0263 02110 5401 443061 349159 202"
"152.672384"
"$GPGGA,160809,2438.1335,N,07947.1840,W,1,9,1.9,8,M"
"##MN-00 00 44 0264 02110 5401 443067 349163 202"
"152.672431"
"$GPGGA,160814,2438.1342,N,07947.1814,W,1,9,1.9,8,M"
"##MN-00 00 44 0265 02109 5400 443073 349165 202"
"152.672477"
"$GPGGA,160817,2438.1346,N,07947.1789,W,1,9,1.9,9,M"
"##MN-00 00 44 0266 02109 5400 443085 349167 202"
"152.672523"
"$GPGGA,160822,2438.1352,N,07947.1762,W,1,8,1.9,9,M"
"##MN-00 00 44 0267 02105 5400 443093 349171 202"
"152.672569"
"$GPGGA,160826,2438.1357,N,07947.1739,W,1,9,2.2,9,M"
"##MN-00 00 44 0268 02107 5400 443082 349168 202"
"152.672616"
"$GPGGA,160830,2438.1364,N,07947.1711,W,1,9,1.9,9,M"
"##MN-00 00 44 0269 02106 5400 443044 349163 202"
"152.672662"
"$GPGGA,160834,2438.1371,N,07947.1683,W,1,8,2.2,9,M"
"##MN-00 00 44 0270 02112 5399 443002 349138 202"
"152.672708"
"$GPGGA,160838,2438.1375,N,07947.1654,W,1,8,1.9,9,M"
"##MN-00 00 47 0271 02109 5399 442991 349132 202"
"152.672755"
"$GPGGA,160842,2438.1382,N,07947.1626,W,1,8,2.2,9,M"
"##MN-00 00 47 0271 02114 5400 443025 349141 202"
"152.672801"
"$GPGGA,160846,2438.1385,N,07947.1599,W,1,9,2.2,9,M"
"##MN-00 00 46 0272 02118 5399 443054 349150 202"
"152.672847"
"$GPGGA,160850,2438.1389,N,07947.1577,W,1,9,1.9,9,M"
"##MN-00 00 44 0273 02116 5399 443107 349170 202"
"152.672894"
"$GPGGA,160854,2438.1392,N,07947.1552,W,1,8,1.9,9,M"
"##MN-00 00 46 0274 02113 5399 443095 349167 202"
"152.67294"
"$GPGGA,160858,2438.1398,N,07947.1526,W,1,9,1.9,9,M"
"##MN-00 00 44 0275 02113 5399 443080 349157 202"
"152.672986"
"$GPGGA,160902,2438.1404,N,07947.1500,W,1,9,2.2,9,M"
"##MN-00 00 44 0276 02110 5398 443056 349152 202"
"152.673032"
"$GPGGA,160906,2438.1407,N,07947.1476,W,1,9,1.9,9,M"
"##MN-00 00 46 0277 02112 5399 443056 349152 202"
"152.673079"
"$GPGGA,160910,2438.1414,N,07947.1448,W,1,9,1.9,9,M"
"##MN-00 00 46 0278 02110 5398 443067 349154 202"
"152.673125"
"$GPGGA,160914,2438.1422,N,07947.1421,W,1,9,1.9,9,M"
"##MN-00 00 44 0279 02110 5398 443071 349156 202"
"152.673171"
"$GPGGA,160918,2438.1429,N,07947.1395,W,1,9,1.9,9,M"
"##MN-00 00 44 0280 02114 5397 443048 349150 202"
"152.673218"
"$GPGGA,160922,2438.1435,N,07947.1370,W,1,9,1.9,9,M"
"##MN+00 00 46 0280 02113 5398 443074 349157 202"
"152.673264"
"$GPGGA,160926,2438.1440,N,07947.1347,W,1,9,1.9,9,M"
"##MN+00 00 45 0281 02113 5397 443082 349158 202"
"152.67331"
"$GPGGA,160930,2438.1449,N,07947.1314,W,1,8,1.8,10,"
"##MN+00 00 45 0282 02114 5397 443091 349162 202"
"152.673356"
"$GPGGA,160934,2438.1457,N,07947.1282,W,1,8,1.8,10,"
"##MN-00 00 46 0283 02113 5397 443094 349162 202"
"152.673403"
"$GPGGA,160938,2438.1464,N,07947.1253,W,1,8,1.8,11,"
"##MN+00 00 44 0284 02113 5397 443085 349158 202"
"152.673449"
"$GPGGA,160942,2438.1471,N,07947.1227,W,1,9,1.8,12,"
"##MN+00 00 46 0285 02112 5397 443096 349161 202"
"152.673495"
"$GPGGA,160946,2438.1475,N,07947.1202,W,1,8,1.6,13,"
"##MN+00 00 55 0286 02116 5397 443072 349151 202"
"152.673542"
"#increment_net"
"$GPGGA,160950,2438.1478,N,07947.1178,W,1,9,1.6,14,"
"##MN-00 00 53 0287 02118 5397 443078 349155 202"
"152.673588"
"$GPGGA,160954,2438.1480,N,07947.1157,W,1,10,1.6,15"
"##MN-00 00 49 0288 02121 5397 443097 349159 202"
"152.673634"
"#increment_net"
"$GPGGA,160958,2438.1485,N,07947.1134,W,1,10,1.6,15"
"##MN-00 00 48 0289 02126 5396 443121 349163 202"
"152.673681"
"$GPGGA,161002,2438.1489,N,07947.1109,W,1,10,1.6,16"
"##MN-00 00 46 0290 02131 5395 443140 349173 202"
"152.673727"
"$GPGGA,161006,2438.1494,N,07947.1082,W,1,10,1.6,16"
"##MN-00 00 47 0291 02135 5395 443166 349182 202"
"152.673773"
"$GPGGA,161010,2438.1498,N,07947.1054,W,1,10,1.6,16"
"##MN-00 00 46 0293 02131 5394 443175 349183 202"
"152.673819"
"$GPGGA,161014,2438.1504,N,07947.1028,W,1,10,1.7,16"
"##MN-00 00 45 0294 02127 5395 443164 349181 202"
"152.673866"
"$GPGGA,161018,2438.1508,N,07947.1000,W,1,10,1.7,17"
"##MN-00 00 48 0295 02124 5395 443134 349175 202"
"152.673912"
"$GPGGA,161022,2438.1514,N,07947.0973,W,1,10,1.7,17"
"##MN-00 00 46 0296 02122 5394 443108 349168 202"
"152.673958"
"$GPGGA,161026,2438.1516,N,07947.0946,W,1,10,1.7,17"
"##MN-00 00 46 0298 02117 5394 443082 349162 202"
"152.674005"
"$GPGGA,161030,2438.1521,N,07947.0920,W,1,10,1.7,17"
"##MN-00 00 44 0299 02115 5394 443030 349144 202"
"152.674051"
"$GPGGA,161034,2438.1526,N,07947.0893,W,1,10,1.7,18"
"##MN-00 00 45 0300 02109 5394 442885 349114 202"
"152.674097"
"$GPGGA,161038,2438.1532,N,07947.0865,W,1,10,1.7,18"
"##MN-00 00 45 0302 02105 5394 442692 349072 202"
"152.674144"
"$GPGGA,161042,2438.1536,N,07947.0839,W,1,8,1.9,18,"
"##MN-00 00 46 0303 02105 5393 442598 349034 202"
"152.67419"
"$GPGGA,161046,2438.1541,N,07947.0813,W,1,9,1.9,18,"
"##MN-00 00 45 0304 02099 5393 442580 349010 202"
"152.674236"
"$GPGGA,161050,2438.1551,N,07947.0781,W,1,8,2.1,18,"
"##MN-00 00 43 0306 02096 5394 442579 349003 202"
"152.674282"
"$GPGGA,161054,2438.1558,N,07947.0750,W,1,8,2.1,18,"
"##MN-00 00 43 0307 02093 5394 442541 348988 202"
"152.674329"
"$GPGGA,161058,2438.1559,N,07947.0731,W,1,8,1.9,18,"
"##MN-00 00 44 0308 02088 5393 442375 348951 202"
"152.674375"
"$GPGGA,161102,2438.1559,N,07947.0706,W,1,9,1.9,17,"
"##MN-00 00 44 0310 02082 5393 442340 348956 202"
"152.674421"
"$GPGGA,161106,2438.1563,N,07947.0681,W,1,9,1.9,17,"
"##MN-00 00 44 0311 02078 5393 442365 348929 202"
"152.674468"
"$GPGGA,161110,2438.1570,N,07947.0654,W,1,9,1.9,17,"
"##MN-00 00 42 0312 02075 5393 442403 348936 202"
"152.674514"
"$GPGGA,161114,2438.1576,N,07947.0627,W,1,9,1.9,17,"
"##MN-00 00 44 0313 02069 5393 442369 348930 202"
"152.67456"
"$GPGGA,161118,2438.1583,N,07947.0598,W,1,9,1.9,17,"
"##MN-00 00 46 0315 02062 5392 442363 348927 202"
"152.674606"
"$GPGGA,161122,2438.1588,N,07947.0571,W,1,9,1.9,16,"
"##MN-00 00 44 0316 02055 5392 442194 348883 202"
"152.674653"
"$GPGGA,161126,2438.1595,N,07947.0545,W,1,9,1.9,16,"
"##MN-00 00 45 0317 02042 5392 441889 348820 202"
"152.674699"
"$GPGGA,161130,2438.1602,N,07947.0516,W,1,9,1.9,16,"
"##MN-00 00 47 0319 02033 5392 441735 348779 202"
"152.674745"
"$GPGGA,161134,2438.1609,N,07947.0490,W,1,8,1.9,15,"
"##MN-00 00 43 0320 02023 5392 441605 348728 202"
"152.674792"
"$GPGGA,161138,2438.1616,N,07947.0464,W,1,9,1.9,15,"
"##MN-00 00 46 0321 02013 5392 441555 348733 202"
"152.674838"
"$GPGGA,161142,2438.1622,N,07947.0437,W,1,9,1.9,15,"
"##MN-00 00 46 0323 02003 5391 441513 348710 202"
"152.674884"
"$GPGGA,161146,2438.1628,N,07947.0411,W,1,9,1.9,15,"
"##MN-00 00 46 0324 01992 5392 441468 348697 202"
"152.674931"
"$GPGGA,161150,2438.1634,N,07947.0383,W,1,9,1.9,15,"
"##MN-00 00 45 0325 01983 5391 441442 348695 202"
"152.674977"
"$GPGGA,161154,2438.1639,N,07947.0356,W,1,9,1.9,14,"
"##MN-00 00 46 0327 01970 5391 441358 348667 202"
"152.675023"
"$GPGGA,161158,2438.1646,N,07947.0330,W,1,9,1.9,14,"
"##MN-00 00 42 0328 01965 5391 441153 348607 202"
"152.675081"
"$GPGGA,161202,2438.1653,N,07947.0301,W,1,9,2.1,14,"
"##MN-00 00 53 0330 01950 5391 440867 348521 202"
"152.675127"
"$GPGGA,161206,2438.1659,N,07947.0275,W,1,9,1.9,14,"
"##MN-00 00 49 0331 01943 5391 440593 348559 202"
"152.675174"
"$GPGGA,161210,2438.1667,N,07947.0249,W,1,8,1.9,14,"
"##MN-00 00 46 0332 01933 5391 440384 348366 202"
"152.67522"
"$GPGGA,161214,2438.1674,N,07947.0226,W,1,9,1.9,14,"
"##MN-00 00 51 0333 01924 5391 440313 348292 202"
"152.675266"
"$GPGGA,161218,2438.1682,N,07947.0202,W,1,8,1.9,14,"
"##MN-00 00 46 0334 01917 5391 440266 348278 202"
"152.675313"
"$GPGGA,161222,2438.1684,N,07947.0186,W,1,8,1.9,14,"
"##MN-00 00 46 0335 01908 5391 440222 348274 202"
"152.675359"
"$GPGGA,161226,2438.1692,N,07947.0160,W,1,9,1.9,14,"
"##MN-00 00 49 0337 01898 5390 440198 348255 202"
"152.675405"
"$GPGGA,161230,2438.1700,N,07947.0133,W,1,9,1.9,14,"
"##MN-00 00 44 0338 01891 5390 440102 348239 202"
"152.675451"
"$GPGGA,161234,2438.1706,N,07947.0110,W,1,9,1.9,14,"
"##MN-00 00 44 0339 01878 5390 439979 348214 202"
"152.675498"
"$GPGGA,161238,2438.1711,N,07947.0085,W,1,9,1.9,14,"
"##MN-00 00 49 0341 01864 5390 439704 348151 202"
"152.675544"
"$GPGGA,161242,2438.1718,N,07947.0059,W,1,8,1.9,14,"
"##MN-00 00 43 0342 01859 5389 439612 348079 202"
