" Tow: 3Cs-A   RVWS/WS1406"
" Date: 06/01/2014"
" Temperature Probe #  2597    Conductivity Probe #  2870"
" Pressure Probe #  109"
" Flow Meter Calibration  4.71 (m/count)  "
"152.984213"
"$GPGGA,233717,2446.0876,N,07951.2387,W,1,10,2.1,13"
"##MN-00 00 10 0086 01859 5266 441808 923495 202"
"152.984259"
"$GPGGA,233724,2446.0901,N,07951.2365,W,1,10,2.1,13"
"##MN-00 00 09 0086 01861 5267 441252 348711 202"
"152.984306"
"$GPGGA,233729,2446.0919,N,07951.2349,W,1,10,2.1,13"
"##MN-00 00 11 0086 01860 5268 441222 348848 202"
"152.984352"
"$GPGGA,233733,2446.0933,N,07951.2335,W,1,10,2.1,13"
"##MN-00 00 13 0086 01861 5268 441216 348848 202"
"152.984398"
"$GPGGA,233737,2446.0944,N,07951.2319,W,1,10,2.1,14"
"##MN-00 00 16 0086 01865 5268 441203 348856 202"
"152.984444"
"$GPGGA,233741,2446.0956,N,07951.2303,W,1,10,2.1,14"
"##MN-00 00 18 0087 01864 5269 441200 348851 202"
"152.984491"
"$GPGGA,233745,2446.0966,N,07951.2287,W,1,10,2.1,15"
"##MN-00 00 28 0087 01866 5269 441212 348858 202"
"152.984537"
"$GPGGA,233749,2446.0977,N,07951.2269,W,1,10,2.1,15"
"##MN-00 00 32 0088 01867 5270 441211 348865 202"
"152.984583"
"$GPGGA,233753,2446.0987,N,07951.2250,W,1,9,2.2,16,"
"##MN-00 00 37 0088 01866 5270 441186 348853 202"
"152.98463"
"$GPGGA,233757,2446.0995,N,07951.2237,W,1,10,2.0,16"
"##MN-00 00 41 0088 01865 5271 441200 348810 202"
"152.984676"
"$GPGGA,233801,2446.1006,N,07951.2223,W,1,10,2.0,16"
"##MN-00 00 40 0089 01864 5271 441212 348746 202"
"152.984722"
"$GPGGA,233805,2446.1016,N,07951.2210,W,1,10,2.0,16"
"##MN-00 00 39 0090 01865 5272 441206 348735 202"
"152.984769"
"$GPGGA,233809,2446.1021,N,07951.2192,W,1,10,2.0,15"
"##MN-00 00 43 0090 01865 5273 441212 348741 202"
"152.984815"
"$GPGGA,233813,2446.1028,N,07951.2172,W,1,10,2.0,15"
"##MN-00 00 43 0091 01866 5273 441217 348743 202"
"152.984861"
"$GPGGA,233817,2446.1031,N,07951.2153,W,1,10,2.0,14"
"##MN-00 00 42 0091 01865 5274 441231 348747 202"
"152.984907"
"$GPGGA,233821,2446.1035,N,07951.2132,W,1,9,2.4,14,"
"##MN-00 00 48 0092 01866 5274 441223 348745 202"
"152.984954"
"$GPGGA,233825,2446.1042,N,07951.2118,W,1,10,2.0,13"
"##MN-00 00 48 0093 01866 5274 441234 348747 202"
"152.985"
"$GPGGA,233829,2446.1045,N,07951.2106,W,1,8,2.5,13,"
"##MN-00 00 50 0094 01875 5275 441231 348746 202"
"152.985046"
"$GPGGA,233833,2446.1049,N,07951.2094,W,1,10,2.0,12"
"##MN-00 00 52 0094 01875 5275 441240 348749 202"
"152.985093"
"$GPGGA,233837,2446.1049,N,07951.2075,W,1,10,2.0,11"
"##MN-00 00 51 0095 01880 5276 441260 348755 202"
"152.985139"
"$GPGGA,233841,2446.1049,N,07951.2055,W,1,10,2.0,11"
"##MN-00 00 49 0096 01888 5276 441243 348750 202"
"152.985185"
"$GPGGA,233845,2446.1048,N,07951.2035,W,1,10,2.0,10"
"##MN-00 00 54 0096 01894 5277 441226 348744 202"
"152.985231"
"$GPGGA,233849,2446.1046,N,07951.2016,W,1,10,2.0,10"
"##MN-00 00 52 0097 01898 5277 441243 348749 202"
"152.985278"
"$GPGGA,233853,2446.1046,N,07951.1999,W,1,10,2.0,10"
"##MN-00 00 54 0098 01902 5278 441237 348744 202"
"152.985324"
"$GPGGA,233857,2446.1043,N,07951.1981,W,1,10,2.0,10"
"##MN-00 00 51 0099 01908 5278 441207 348736 202"
"152.98537"
"$GPGGA,233901,2446.1042,N,07951.1965,W,1,10,2.0,10"
"##MN-00 00 51 0099 01914 5279 441185 348729 202"
"152.985417"
"$GPGGA,233905,2446.1040,N,07951.1948,W,1,10,2.0,10"
"##MN-00 00 50 0100 01919 5279 441178 348728 202"
"152.985463"
"$GPGGA,233909,2446.1039,N,07951.1934,W,1,10,2.0,10"
"##MN-00 00 53 0101 01925 5280 441175 348723 202"
"152.985509"
"$GPGGA,233913,2446.1037,N,07951.1916,W,1,10,2.0,10"
"##MN-00 00 52 0102 01936 5280 441174 348719 202"
"152.985556"
"$GPGGA,233917,2446.1036,N,07951.1905,W,1,10,2.0,10"
"##MN-00 00 54 0102 01938 5280 441175 348717 202"
"152.985602"
"$GPGGA,233921,2446.1035,N,07951.1889,W,1,9,2.4,10,"
"##MN-00 00 52 0103 01946 5281 441193 348723 202"
"152.985648"
"$GPGGA,233925,2446.1035,N,07951.1877,W,1,10,2.0,10"
"##MN-00 00 54 0104 01954 5281 441174 348713 202"
"152.985694"
"$GPGGA,233929,2446.1036,N,07951.1862,W,1,10,2.0,10"
"##MN-00 00 54 0105 01959 5282 441162 348706 202"
"152.985741"
"$GPGGA,233933,2446.1038,N,07951.1845,W,1,10,2.0,10"
"##MN-00 00 51 0106 01964 5282 441159 348706 202"
"152.985787"
"$GPGGA,233937,2446.1039,N,07951.1828,W,1,10,2.0,10"
"##MN-00 00 52 0106 01972 5282 441147 348698 202"
"152.985833"
"$GPGGA,233941,2446.1039,N,07951.1812,W,1,10,2.0,10"
"##MN-00 00 54 0107 01976 5283 441140 348689 202"
"152.98588"
"$GPGGA,233945,2446.1039,N,07951.1794,W,1,10,2.0,10"
"##MN-00 00 50 0108 01976 5283 441136 348683 202"
"152.985926"
"$GPGGA,233949,2446.1039,N,07951.1777,W,1,9,2.0,10,"
"##MN-00 00 50 0109 01972 5284 441130 348675 202"
"152.985972"
"$GPGGA,233953,2446.1039,N,07951.1761,W,1,9,2.0,10,"
"##MN-00 00 51 0109 01971 5284 441135 348682 202"
"152.986018"
"$GPGGA,233957,2446.1041,N,07951.1746,W,1,9,2.0,10,"
"##MN-00 00 52 0110 01967 5284 441141 348685 202"
"152.986065"
"$GPGGA,234001,2446.1040,N,07951.1731,W,1,9,2.0,10,"
"##MN-00 00 51 0111 01965 5285 441142 348690 202"
"152.986111"
"$GPGGA,234005,2446.1039,N,07951.1714,W,1,9,2.0,9,M"
"##MN-00 00 49 0112 01968 5285 441142 348692 202"
"152.986157"
"$GPGGA,234009,2446.1039,N,07951.1695,W,1,9,2.0,9,M"
"##MN-00 00 51 0113 01964 5285 441140 348690 202"
"152.986204"
"$GPGGA,234013,2446.1035,N,07951.1674,W,1,9,2.0,9,M"
"##MN-00 00 50 0114 01963 5286 441137 348691 202"
"152.98625"
"$GPGGA,234017,2446.1035,N,07951.1653,W,1,9,2.0,9,M"
"##MN-00 00 52 0115 01965 5286 441138 348688 202"
"152.986296"
"$GPGGA,234021,2446.1033,N,07951.1632,W,1,9,2.0,9,M"
"##MN-00 00 55 0116 01960 5286 441138 348681 202"
"152.986343"
"$GPGGA,234025,2446.1029,N,07951.1608,W,1,9,2.0,9,M"
"##MN-00 00 51 0117 01959 5287 441138 348680 202"
"152.986389"
"$GPGGA,234029,2446.1028,N,07951.1586,W,1,9,2.0,9,M"
"##MN-00 00 55 0118 01960 5287 441133 348676 202"
"152.986435"
"$GPGGA,234033,2446.1026,N,07951.1558,W,1,9,2.0,10,"
"##MN-00 00 57 0119 01958 5288 441136 348692 202"
"152.986493"
"$GPGGA,234037,2446.1024,N,07951.1538,W,1,9,2.0,10,"
"##MN-00 00 49 0120 01961 5288 441166 348722 202"
"152.986539"
"$GPGGA,234041,2446.1024,N,07951.1520,W,1,9,2.0,10,"
"##MN-00 00 51 0121 01964 5288 441156 348715 202"
"152.986586"
"$GPGGA,234045,2446.1024,N,07951.1503,W,1,9,2.0,10,"
"##MN-00 00 52 0121 01968 5289 441149 348714 202"
"152.986632"
"$GPGGA,234049,2446.1024,N,07951.1483,W,1,9,2.0,10,"
"##MN-00 00 57 0122 01970 5289 441134 348708 202"
"152.986678"
"$GPGGA,234053,2446.1023,N,07951.1459,W,1,8,2.0,10,"
"##MN-00 00 55 0123 01974 5290 441133 348702 202"
"152.986725"
"$GPGGA,234057,2446.1026,N,07951.1440,W,1,9,2.0,10,"
"##MN-00 00 53 0124 01977 5290 441130 348701 202"
"152.986771"
"$GPGGA,234101,2446.1025,N,07951.1421,W,1,9,2.0,10,"
"##MN-00 00 55 0125 01974 5290 441126 348696 202"
"152.986817"
"$GPGGA,234105,2446.1028,N,07951.1400,W,1,9,2.0,10,"
"##MN-00 00 54 0126 01976 5291 441127 348697 202"
"152.986863"
"$GPGGA,234109,2446.1024,N,07951.1364,W,1,10,1.7,11"
"##MN-00 00 53 0127 01975 5291 441128 348695 202"
"152.98691"
"$GPGGA,234113,2446.1025,N,07951.1334,W,1,10,1.5,12"
"##MN-00 00 54 0128 01974 5291 441121 348689 202"
"152.986956"
"$GPGGA,234117,2446.1024,N,07951.1305,W,1,10,1.5,12"
"##MN-00 00 53 0129 01976 5291 441118 348686 202"
"152.987002"
"$GPGGA,234121,2446.1024,N,07951.1281,W,1,9,1.5,14,"
"##MN-00 00 50 0130 01977 5292 441118 348685 202"
"152.987049"
"$GPGGA,234125,2446.1028,N,07951.1265,W,1,10,1.5,15"
"##MN-00 00 53 0131 01975 5292 441119 348682 202"
"152.987095"
"$GPGGA,234129,2446.1030,N,07951.1246,W,1,10,1.5,16"
"##MN-00 00 51 0132 01976 5292 441120 348679 202"
"152.987141"
"$GPGGA,234133,2446.1030,N,07951.1222,W,1,10,1.5,16"
"##MN-00 00 50 0133 01978 5293 441122 348677 202"
"152.987187"
"$GPGGA,234137,2446.1031,N,07951.1201,W,1,10,1.5,17"
"##MN-00 00 49 0133 01980 5293 441134 348670 202"
"152.987234"
"$GPGGA,234142,2446.1030,N,07951.1177,W,1,10,1.5,18"
"##MN-00 00 53 0134 01981 5293 441127 348670 202"
"152.98728"
"$GPGGA,234145,2446.1031,N,07951.1164,W,1,10,1.5,18"
"##MN-00 00 57 0135 01983 5294 441128 348670 202"
"152.987326"
"$GPGGA,234150,2446.1038,N,07951.1142,W,1,10,1.5,18"
"##MN-00 00 53 0136 01987 5294 441117 348674 202"
"152.987373"
"$GPGGA,234154,2446.1042,N,07951.1127,W,1,10,1.5,19"
"##MN-00 00 51 0137 01994 5294 441121 348679 202"
"152.987419"
"$GPGGA,234158,2446.1046,N,07951.1111,W,1,10,1.5,19"
"##MN-00 00 54 0137 02000 5295 441120 348677 202"
"152.987465"
"$GPGGA,234201,2446.1050,N,07951.1101,W,1,9,1.6,19,"
"##MN-00 00 52 0138 02001 5295 441114 348676 202"
"152.987512"
"$GPGGA,234205,2446.1055,N,07951.1088,W,1,9,1.7,20,"
"##MN-00 00 54 0138 02004 5296 441108 348668 202"
"152.987558"
"$GPGGA,234209,2446.1060,N,07951.1073,W,1,9,1.7,20,"
"##MN-00 00 48 0139 02008 5296 441104 348663 202"
"152.987604"
"$GPGGA,234214,2446.1068,N,07951.1055,W,1,10,1.5,20"
"##MN-00 00 47 0140 02013 5296 441104 348666 202"
"152.98765"
"$GPGGA,234218,2446.1077,N,07951.1040,W,1,9,1.5,20,"
"##MN-00 00 49 0140 02017 5297 441102 348658 202"
"152.987697"
"$GPGGA,234222,2446.1089,N,07951.1031,W,1,10,1.5,20"
"##MN-00 00 47 0141 02018 5297 441095 348653 202"
"152.987743"
"$GPGGA,234226,2446.1102,N,07951.1027,W,1,10,1.5,20"
"##MN-00 00 44 0142 02023 5297 441091 348645 202"
"152.987789"
"$GPGGA,234230,2446.1113,N,07951.1015,W,1,9,1.6,20,"
"##MN-00 00 45 0142 02026 5297 441092 348642 202"
"152.987836"
"$GPGGA,234234,2446.1122,N,07951.1002,W,1,9,1.6,20,"
"##MN-00 00 39 0143 02027 5297 441099 348655 202"
"152.987882"
"$GPGGA,234238,2446.1129,N,07951.0984,W,1,8,1.5,20,"
"##MN-00 00 39 0143 02032 5298 441103 348658 202"
"152.987928"
"$GPGGA,234242,2446.1136,N,07951.0967,W,1,9,1.5,21,"
"##MN-00 00 42 0144 02034 5298 441103 348656 202"
"152.987975"
"$GPGGA,234246,2446.1147,N,07951.0955,W,1,10,1.5,21"
"##MN-00 00 42 0144 02034 5298 441105 348655 202"
"152.988021"
"$GPGGA,234250,2446.1158,N,07951.0942,W,1,10,1.5,22"
"##MN-00 00 37 0145 02035 5299 441103 348654 202"
"152.988067"
"$GPGGA,234254,2446.1171,N,07951.0927,W,1,9,1.5,22,"
"##MN-00 00 39 0145 02038 5299 441101 348648 202"
"152.988113"
"$GPGGA,234258,2446.1180,N,07951.0915,W,1,10,1.5,22"
"##MN-00 00 39 0146 02041 5299 441100 348643 202"
"152.98816"
"$GPGGA,234302,2446.1193,N,07951.0902,W,1,9,1.6,22,"
"##MN-00 00 37 0146 02040 5299 441100 348641 202"
"152.988206"
"$GPGGA,234306,2446.1204,N,07951.0891,W,1,10,1.5,22"
"##MN-00 00 37 0147 02043 5300 441099 348644 202"
"152.988252"
"$GPGGA,234310,2446.1212,N,07951.0879,W,1,10,1.5,22"
"##MN-00 00 34 0147 02045 5300 441101 348642 202"
"152.988299"
"$GPGGA,234314,2446.1227,N,07951.0869,W,1,10,1.5,23"
"##MN-00 00 30 0147 02046 5301 441106 348638 202"
"152.988345"
"$GPGGA,234318,2446.1238,N,07951.0855,W,1,9,1.5,23,"
"##MN-00 00 29 0148 02047 5301 441105 348640 202"
"152.988391"
"$GPGGA,234322,2446.1251,N,07951.0845,W,1,10,1.5,23"
"##MN-00 00 32 0148 02046 5301 441108 348639 202"
"152.988437"
"$GPGGA,234326,2446.1265,N,07951.0839,W,1,8,1.6,22,"
"##MN-00 00 31 0149 02048 5301 441113 348637 202"
"152.988484"
"$GPGGA,234330,2446.1279,N,07951.0828,W,1,9,1.6,22,"
"##MN-00 00 28 0149 02049 5301 441108 348637 202"
"152.98853"
"$GPGGA,234334,2446.1292,N,07951.0818,W,1,10,1.5,22"
"##MN-00 00 26 0149 02046 5302 441103 348636 202"
"152.988576"
"$GPGGA,234338,2446.1302,N,07951.0802,W,1,9,1.7,22,"
"##MN-00 00 23 0150 02044 5302 441105 348636 202"
"152.988623"
"$GPGGA,234342,2446.1315,N,07951.0792,W,1,9,1.7,22,"
"##MN-00 00 20 0150 02036 5302 441106 348642 202"
"152.988669"
"$GPGGA,234346,2446.1330,N,07951.0789,W,1,9,1.7,22,"
"##MN-00 00 17 0150 02031 5303 441117 348654 202"
"152.988715"
"$GPGGA,234350,2446.1342,N,07951.0776,W,1,9,1.7,22,"
"##MN-00 00 17 0151 02024 5303 441110 348660 202"
"152.988762"
"$GPGGA,234354,2446.1357,N,07951.0770,W,1,10,1.5,23"
"##MN-00 00 16 0151 02012 5303 441111 348658 202"
"152.988808"
"$GPGGA,234358,2446.1373,N,07951.0766,W,1,10,1.5,23"
"##MN-00 00 12 0151 02003 5304 441109 348654 202"
"152.988854"
"$GPGGA,234402,2446.1385,N,07951.0758,W,1,10,1.5,22"
"##MN-00 00 11 0151 01994 5303 441113 348654 202"
"152.988901"
"$GPGGA,234406,2446.1399,N,07951.0756,W,1,10,1.5,22"
"##MN-00 00 16 0151 01987 5304 441123 348662 202"
"152.988947"
"$GPGGA,234410,2446.1414,N,07951.0752,W,1,10,1.5,22"
"##MN-00 00 16 0152 01978 5304 441142 348673 202"
"152.988993"
"$GPGGA,234414,2446.1428,N,07951.0747,W,1,10,1.5,21"
"##MN-00 00 13 0152 01970 5305 441154 348686 202"
"152.989039"
"$GPGGA,234418,2446.1442,N,07951.0739,W,1,10,1.5,21"
"##MN-00 00 17 0152 01972 5305 441151 348692 202"
"152.989086"
"$GPGGA,234422,2446.1454,N,07951.0727,W,1,10,1.5,20"
"##MN-00 00 18 0152 01974 5305 441147 348691 202"
"152.989132"
"$GPGGA,234426,2446.1465,N,07951.0716,W,1,9,1.5,20,"
"##MN-00 00 18 0153 01970 5305 441138 348684 202"
"152.989178"
"$GPGGA,234430,2446.1479,N,07951.0707,W,1,10,1.5,20"
"##MN-00 00 19 0153 01972 5305 441132 348677 202"
"152.989225"
"$GPGGA,234434,2446.1490,N,07951.0697,W,1,10,1.5,20"
"##MN-00 00 18 0153 01971 5306 441127 348672 202"
"152.989271"
"$GPGGA,234438,2446.1503,N,07951.0688,W,1,10,1.5,20"
"##MN-00 00 19 0153 01970 5306 441122 348668 202"
"152.989317"
"$GPGGA,234442,2446.1516,N,07951.0679,W,1,10,1.5,20"
"##MN-00 00 19 0154 01970 5306 441120 348663 202"
"152.989363"
"$GPGGA,234446,2446.1526,N,07951.0667,W,1,10,1.7,20"
"##MN-00 00 20 0154 01969 5306 441125 348666 202"
"152.98941"
"$GPGGA,234450,2446.1539,N,07951.0660,W,1,10,1.5,20"
"##MN-00 00 20 0154 01969 5306 441126 348668 202"
"152.989456"
"$GPGGA,234454,2446.1550,N,07951.0653,W,1,10,1.5,20"
"##MN-00 00 20 0154 01969 5307 441132 348674 202"
"152.989502"
"$GPGGA,234458,2446.1559,N,07951.0648,W,1,10,1.5,20"
"##MN-00 00 20 0155 01968 5307 441135 348679 202"
"152.989549"
"$GPGGA,234502,2446.1573,N,07951.0634,W,1,10,1.7,20"
"##MN-00 00 20 0155 01968 5307 441134 348679 202"
"152.989595"
"$GPGGA,234506,2446.1579,N,07951.0626,W,1,10,1.7,20"
"##MN-00 00 19 0155 01966 5308 441134 348677 202"
"152.989641"
"$GPGGA,234510,2446.1590,N,07951.0618,W,1,10,1.5,20"
"##MN-00 00 21 0155 01964 5308 441135 348679 202"
"152.989688"
"$GPGGA,234514,2446.1599,N,07951.0606,W,1,9,1.5,20,"
"##MN-00 00 27 0156 01960 5308 441134 348677 202"
"152.989745"
"$GPGGA,234518,2446.1606,N,07951.0591,W,1,10,1.7,20"
"##MN-00 00 26 0156 01953 5308 441136 348680 202"
"152.989792"
"$GPGGA,234522,2446.1612,N,07951.0579,W,1,10,1.5,20"
"##MN-00 00 23 0156 01955 5309 441138 348681 202"
"152.989838"
"$GPGGA,234526,2446.1617,N,07951.0568,W,1,10,1.5,20"
"##MN-00 00 28 0156 01949 5308 441149 348687 202"
"152.989884"
"$GPGGA,234530,2446.1620,N,07951.0554,W,1,10,1.5,20"
"##MN-00 00 33 0157 01940 5308 441160 348693 202"
"152.989931"
"$GPGGA,234534,2446.1618,N,07951.0536,W,1,10,1.5,20"
"##MN-00 00 35 0158 01927 5309 441163 348699 202"
"152.989977"
"$GPGGA,234538,2446.1614,N,07951.0511,W,1,9,1.7,20,"
"##MN-00 00 43 0159 01918 5309 441175 348702 202"
"152.990023"
"$GPGGA,234542,2446.1609,N,07951.0492,W,1,9,1.5,20,"
"##MN-00 00 46 0159 01907 5309 441178 348708 202"
"152.990069"
"$GPGGA,234546,2446.1602,N,07951.0474,W,1,8,1.5,19,"
"##MN-00 00 47 0160 01901 5310 441216 348725 202"
"152.990116"
"$GPGGA,234550,2446.1593,N,07951.0455,W,1,9,1.6,19,"
"##MN-00 00 50 0162 01895 5310 441245 348734 202"
"152.990162"
"$GPGGA,234554,2446.1582,N,07951.0442,W,1,9,1.5,20,"
"##MN-00 00 51 0163 01887 5310 441227 348735 202"
"152.990208"
"$GPGGA,234558,2446.1572,N,07951.0420,W,1,8,1.7,20,"
"##MN-00 00 54 0164 01884 5311 441224 348732 202"
"152.990255"
"$GPGGA,234602,2446.1564,N,07951.0400,W,1,7,1.7,20,"
"##MN-00 00 56 0165 01883 5311 441233 348734 202"
"152.990301"
"$GPGGA,234606,2446.1556,N,07951.0377,W,1,9,1.7,21,"
"##MN-00 00 57 0167 01879 5311 441236 348735 202"
"152.990347"
"$GPGGA,234610,2446.1551,N,07951.0352,W,1,8,1.5,21,"
"##MN-00 00 58 0168 01879 5311 441248 348736 202"
"152.990393"
"$GPGGA,234614,2446.1545,N,07951.0331,W,1,9,1.5,21,"
"##MN-00 00 55 0169 01880 5311 441259 348738 202"
"152.99044"
"$GPGGA,234618,2446.1543,N,07951.0308,W,1,9,1.5,22,"
"##MN-00 00 59 0170 01881 5312 441248 348738 202"
"152.990486"
"$GPGGA,234622,2446.1542,N,07951.0285,W,1,9,1.5,22,"
"##MN-00 00 59 0171 01884 5312 441234 348736 202"
"152.990532"
"$GPGGA,234626,2446.1541,N,07951.0261,W,1,9,1.5,22,"
"##MN-00 00 62 0172 01886 5312 441264 348747 202"
"152.990579"
"$GPGGA,234630,2446.1538,N,07951.0228,W,1,8,1.7,22,"
"##MN-00 00 55 0173 01892 5312 441268 348746 202"
"152.990625"
"$GPGGA,234635,2446.1542,N,07951.0203,W,1,9,1.6,22,"
"##MN-00 00 57 0174 01895 5313 441243 348738 202"
"152.990671"
"$GPGGA,234639,2446.1544,N,07951.0181,W,1,9,1.5,23,"
"##MN-00 00 57 0175 01898 5313 441258 348739 202"
"152.990718"
"$GPGGA,234643,2446.1550,N,07951.0162,W,1,9,1.5,23,"
"##MN-00 00 58 0176 01898 5313 441265 348745 202"
"152.990764"
"$GPGGA,234647,2446.1554,N,07951.0140,W,1,9,1.5,23,"
"##MN-00 00 55 0177 01901 5313 441265 348747 202"
"152.99081"
"$GPGGA,234651,2446.1557,N,07951.0115,W,1,9,1.5,23,"
"##MN-00 00 58 0178 01905 5313 441245 348739 202"
"152.990856"
"$GPGGA,234655,2446.1559,N,07951.0084,W,1,9,1.5,23,"
"##MN-00 00 60 0179 01905 5313 441208 348720 202"
"152.990903"
"$GPGGA,234659,2446.1565,N,07951.0058,W,1,8,1.6,23,"
"##MN-00 00 52 0180 01912 5314 441193 348713 202"
"152.990949"
"$GPGGA,234703,2446.1572,N,07951.0029,W,1,9,1.5,23,"
"##MN-00 00 55 0181 01914 5314 441186 348708 202"
"152.990995"
"$GPGGA,234707,2446.1577,N,07950.9999,W,1,8,1.6,23,"
"##MN-00 00 57 0182 01917 5315 441183 348706 202"
"152.991042"
"$GPGGA,234711,2446.1584,N,07950.9967,W,1,9,1.5,23,"
"##MN-00 00 55 0182 01921 5315 441183 348706 202"
"152.991088"
"$GPGGA,234715,2446.1595,N,07950.9936,W,1,9,1.5,23,"
"##MN-00 00 55 0184 01926 5315 441184 348708 202"
"152.991134"
"$GPGGA,234719,2446.1604,N,07950.9903,W,1,9,1.5,23,"
"##MN-00 00 57 0184 01926 5315 441189 348709 202"
"152.991181"
"$GPGGA,234723,2446.1613,N,07950.9869,W,1,9,1.5,23,"
"##MN-00 00 57 0185 01927 5315 441199 348712 202"
"152.991227"
"$GPGGA,234727,2446.1623,N,07950.9835,W,1,9,1.5,23,"
"##MN-00 00 56 0186 01932 5315 441220 348726 202"
"152.991273"
"$GPGGA,234731,2446.1634,N,07950.9802,W,1,9,1.5,23,"
"##MN-00 00 48 0187 01942 5315 441185 348706 202"
"152.991319"
"$GPGGA,234735,2446.1646,N,07950.9775,W,1,9,1.5,23,"
"##MN-00 00 55 0188 01946 5316 441187 348708 202"
"152.991366"
"$GPGGA,234739,2446.1655,N,07950.9748,W,1,9,1.5,23,"
"##MN-00 00 56 0188 01951 5316 441195 348711 202"
"152.991412"
"$GPGGA,234743,2446.1663,N,07950.9721,W,1,8,1.6,23,"
"##MN-00 00 52 0189 01959 5317 441190 348708 202"
"152.991458"
"$GPGGA,234747,2446.1671,N,07950.9695,W,1,9,1.5,23,"
"##MN-00 00 54 0190 01959 5317 441202 348715 202"
"152.991505"
"$GPGGA,234751,2446.1677,N,07950.9671,W,1,9,1.5,23,"
"##MN-00 00 52 0191 01960 5317 441201 348712 202"
"152.991551"
"$GPGGA,234755,2446.1686,N,07950.9647,W,1,9,1.5,24,"
"##MN-00 00 50 0192 01964 5317 441196 348707 202"
"152.991597"
"$GPGGA,234759,2446.1693,N,07950.9624,W,1,9,1.6,24,"
"##MN-00 00 51 0193 01964 5317 441212 348715 202"
"152.991644"
"$GPGGA,234803,2446.1703,N,07950.9598,W,1,9,1.5,24,"
"##MN-00 00 51 0193 01966 5317 441223 348723 202"
"152.99169"
"$GPGGA,234807,2446.1713,N,07950.9575,W,1,9,1.5,25,"
"##MN-00 00 46 0194 01968 5317 441224 348725 202"
"152.991736"
"$GPGGA,234811,2446.1720,N,07950.9552,W,1,9,1.5,25,"
"##MN-00 00 51 0195 01971 5317 441221 348724 202"
"152.991782"
"$GPGGA,234815,2446.1728,N,07950.9528,W,1,9,1.6,25,"
"##MN-00 00 52 0196 01970 5318 441214 348721 202"
"152.991829"
"$GPGGA,234819,2446.1734,N,07950.9505,W,1,9,1.5,25,"
"##MN-00 00 49 0196 01971 5318 441206 348716 202"
"152.991875"
"$GPGGA,234823,2446.1743,N,07950.9481,W,1,9,1.5,25,"
"##MN-00 00 47 0197 01974 5318 441203 348715 202"
"152.991921"
"$GPGGA,234827,2446.1751,N,07950.9459,W,1,8,1.5,25,"
"##MN-00 00 49 0198 01974 5319 441202 348715 202"
"152.991968"
"$GPGGA,234831,2446.1760,N,07950.9436,W,1,9,1.5,25,"
"##MN-00 00 46 0199 01975 5319 441202 348714 202"
"152.992014"
"$GPGGA,234835,2446.1769,N,07950.9413,W,1,8,1.5,25,"
"##MN-00 00 47 0200 01977 5319 441208 348713 202"
"152.99206"
"$GPGGA,234839,2446.1779,N,07950.9389,W,1,9,1.5,25,"
"##MN-00 00 48 0200 01976 5319 441205 348710 202"
"152.992107"
"$GPGGA,234843,2446.1786,N,07950.9364,W,1,8,1.6,25,"
"##MN+00 00 48 0201 01977 5319 441210 348712 202"
"152.992153"
"$GPGGA,234847,2446.1796,N,07950.9338,W,1,9,1.6,25,"
"##MN+00 00 47 0202 01977 5319 441219 348717 202"
"152.992199"
"$GPGGA,234851,2446.1805,N,07950.9312,W,1,9,1.6,25,"
"##MN+00 00 48 0203 01977 5320 441212 348716 202"
"152.992245"
"$GPGGA,234855,2446.1815,N,07950.9287,W,1,9,1.6,25,"
"##MN+00 00 48 0204 01977 5320 441199 348709 202"
"152.992292"
"$GPGGA,234859,2446.1825,N,07950.9263,W,1,9,1.6,25,"
"##MN+00 00 46 0205 01976 5320 441190 348706 202"
"152.992338"
"$GPGGA,234903,2446.1837,N,07950.9237,W,1,10,1.6,25"
"##MN+00 00 57 0206 01977 5320 441190 348701 202"
"152.992384"
"$GPGGA,234907,2446.1848,N,07950.9210,W,1,10,1.6,25"
"##MN-00 00 54 0207 01974 5320 441193 348702 202"
"152.992431"
"#increment_net"
"$GPGGA,234911,2446.1859,N,07950.9183,W,1,10,1.6,25"
"##MN-00 00 46 0207 01975 5321 441194 348703 202"
"152.992477"
"$GPGGA,234915,2446.1870,N,07950.9160,W,1,10,1.6,25"
"##MN-00 00 50 0208 01975 5321 441183 348695 202"
"152.992523"
"$GPGGA,234919,2446.1880,N,07950.9135,W,1,10,1.6,25"
"##MN-00 00 53 0209 01974 5321 441176 348688 202"
"152.992569"
"$GPGGA,234923,2446.1893,N,07950.9106,W,1,10,1.6,25"
"##MN-00 00 50 0209 01974 5321 441171 348682 202"
"152.992616"
"$GPGGA,234927,2446.1902,N,07950.9078,W,1,10,1.6,26"
"##MN-00 00 48 0210 01976 5321 441221 348720 202"
"152.992662"
"$GPGGA,234931,2446.1917,N,07950.9052,W,1,9,1.6,26,"
"##MN-00 00 47 0211 01977 5321 441226 348719 202"
"152.992708"
"$GPGGA,234935,2446.1927,N,07950.9027,W,1,10,1.6,26"
"##MN-00 00 49 0212 01978 5321 441240 348721 202"
"152.992755"
"$GPGGA,234939,2446.1940,N,07950.9000,W,1,10,1.6,26"
"##MN-00 00 50 0213 01974 5322 441272 348736 202"
"152.992801"
"$GPGGA,234943,2446.1953,N,07950.8973,W,1,10,1.6,26"
"##MN-00 00 48 0213 01974 5322 441259 348730 202"
"152.992847"
"$GPGGA,234947,2446.1964,N,07950.8948,W,1,10,1.6,26"
"##MN-00 00 50 0214 01975 5322 441227 348708 202"
"152.992894"
"$GPGGA,234951,2446.1977,N,07950.8921,W,1,10,1.6,26"
"##MN-00 00 48 0215 01974 5322 441213 348701 202"
"152.992951"
"$GPGGA,234955,2446.1989,N,07950.8896,W,1,9,1.9,25,"
"##MN-00 00 47 0216 01974 5323 441200 348694 202"
"152.992998"
"$GPGGA,234959,2446.2003,N,07950.8872,W,1,10,1.6,25"
"##MN-00 00 46 0217 01976 5323 441180 348678 202"
"152.993044"
"$GPGGA,235003,2446.2017,N,07950.8846,W,1,10,1.6,24"
"##MN-00 00 49 0218 01973 5323 441165 348673 202"
"152.99309"
"$GPGGA,235007,2446.2025,N,07950.8819,W,1,10,1.6,24"
"##MN-00 00 46 0218 01973 5323 441194 348684 202"
"152.993137"
"$GPGGA,235011,2446.2036,N,07950.8793,W,1,10,1.6,24"
"##MN-00 00 46 0219 01975 5323 441216 348700 202"
"152.993183"
"$GPGGA,235015,2446.2047,N,07950.8766,W,1,10,1.6,23"
"##MN-00 00 49 0220 01974 5324 441214 348703 202"
"152.993229"
"$GPGGA,235019,2446.2057,N,07950.8741,W,1,9,1.9,23,"
"##MN-00 00 50 0221 01977 5324 441237 348710 202"
"152.993275"
"$GPGGA,235023,2446.2067,N,07950.8713,W,1,10,1.6,22"
"##MN-00 00 48 0221 01975 5324 441228 348702 202"
"152.993322"
"$GPGGA,235027,2446.2078,N,07950.8688,W,1,10,1.6,22"
"##MN-00 00 47 0222 01977 5324 441215 348700 202"
"152.993368"
"$GPGGA,235031,2446.2087,N,07950.8664,W,1,10,1.6,22"
"##MN-00 00 47 0223 01978 5324 441206 348693 202"
"152.993414"
"$GPGGA,235035,2446.2097,N,07950.8638,W,1,10,1.6,22"
"##MN-00 00 48 0224 01979 5324 441222 348707 202"
"152.993461"
"$GPGGA,235039,2446.2107,N,07950.8611,W,1,10,1.6,22"
"##MN-00 00 50 0225 01977 5324 441252 348722 202"
"152.993507"
"$GPGGA,235043,2446.2114,N,07950.8585,W,1,10,1.6,22"
"##MN-00 00 48 0225 01976 5325 441262 348729 202"
"152.993553"
"$GPGGA,235047,2446.2123,N,07950.8560,W,1,10,1.6,22"
"##MN-00 00 45 0226 01976 5325 441266 348730 202"
"152.9936"
"$GPGGA,235051,2446.2135,N,07950.8535,W,1,10,1.6,22"
"##MN-00 00 51 0227 01977 5325 441264 348732 202"
"152.993646"
"$GPGGA,235055,2446.2144,N,07950.8511,W,1,10,1.6,22"
"##MN-00 00 52 0228 01975 5325 441247 348725 202"
"152.993692"
"$GPGGA,235059,2446.2155,N,07950.8487,W,1,10,1.6,21"
"##MN+00 00 47 0228 01978 5326 441235 348719 202"
"152.993738"
"$GPGGA,235104,2446.2168,N,07950.8457,W,1,10,1.8,21"
"##MN+00 00 51 0229 01978 5326 441233 348718 202"
"152.993785"
"$GPGGA,235107,2446.2173,N,07950.8440,W,1,10,1.6,21"
"##MN+00 00 47 0229 01978 5326 441243 348723 202"
"152.993831"
"$GPGGA,235111,2446.2182,N,07950.8417,W,1,10,1.6,21"
"##MN-00 00 43 0230 01981 5326 441237 348722 202"
"152.993877"
"$GPGGA,235115,2446.2190,N,07950.8395,W,1,10,1.6,21"
"##MN-00 00 43 0231 01981 5326 441220 348710 202"
"152.993924"
"$GPGGA,235120,2446.2201,N,07950.8370,W,1,10,1.6,22"
"##MN-00 00 49 0231 01981 5327 441205 348695 202"
"152.99397"
"$GPGGA,235124,2446.2206,N,07950.8352,W,1,10,1.6,22"
"##MN-00 00 49 0232 01981 5327 441215 348700 202"
"152.994016"
"$GPGGA,235128,2446.2215,N,07950.8331,W,1,10,1.6,23"
"##MN-00 00 48 0233 01983 5327 441230 348717 202"
"152.994063"
"$GPGGA,235132,2446.2220,N,07950.8309,W,1,10,1.8,23"
"##MN+00 00 50 0234 01981 5327 441250 348725 202"
"152.994109"
"$GPGGA,235136,2446.2227,N,07950.8286,W,1,10,1.6,24"
"##MN+00 00 49 0234 01982 5327 441260 348725 202"
"152.994155"
"$GPGGA,235139,2446.2234,N,07950.8266,W,1,10,1.7,24"
"##MN+00 00 55 0235 01984 5327 441244 348716 202"
"152.994201"
"$GPGGA,235143,2446.2242,N,07950.8246,W,1,9,1.6,25,"
"##MN-00 00 51 0236 01984 5328 441242 348716 202"
"152.994248"
"#increment_net"
"$GPGGA,235148,2446.2253,N,07950.8214,W,1,10,1.6,25"
"##MN-00 00 46 0236 01980 5328 441237 348715 202"
"152.994294"
"$GPGGA,235152,2446.2266,N,07950.8190,W,1,10,1.6,26"
"##MN-00 00 46 0237 01981 5328 441232 348714 202"
"152.99434"
"$GPGGA,235156,2446.2276,N,07950.8165,W,1,10,1.6,26"
"##MN-00 00 47 0238 01976 5328 441264 348725 202"
"152.994387"
"$GPGGA,235200,2446.2289,N,07950.8139,W,1,10,1.6,26"
"##MN-00 00 46 0239 01976 5328 441284 348730 202"
"152.994433"
"$GPGGA,235204,2446.2298,N,07950.8112,W,1,9,1.6,26,"
"##MN-00 00 47 0240 01972 5328 441296 348741 202"
"152.994479"
"$GPGGA,235208,2446.2306,N,07950.8083,W,1,10,1.7,26"
"##MN-00 00 46 0241 01971 5328 441277 348730 202"
"152.994525"
"$GPGGA,235212,2446.2314,N,07950.8059,W,1,10,1.6,26"
"##MN-00 00 45 0242 01969 5329 441250 348720 202"
"152.994572"
"$GPGGA,235216,2446.2323,N,07950.8038,W,1,10,1.6,26"
"##MN-00 00 47 0243 01971 5329 441258 348721 202"
"152.994618"
"$GPGGA,235220,2446.2331,N,07950.8008,W,1,10,1.6,25"
"##MN-00 00 49 0243 01970 5329 441269 348725 202"
"152.994664"
"$GPGGA,235224,2446.2341,N,07950.7983,W,1,9,1.6,25,"
"##MN-00 00 57 0244 01965 5329 441271 348731 202"
"152.994711"
"$GPGGA,235228,2446.2350,N,07950.7960,W,1,10,1.6,25"
"##MN-00 00 46 0245 01968 5329 441245 348702 202"
"152.994757"
"$GPGGA,235232,2446.2360,N,07950.7937,W,1,10,1.7,25"
"##MN-00 00 50 0246 01969 5329 441276 348736 202"
"152.994803"
"$GPGGA,235236,2446.2368,N,07950.7912,W,1,10,1.6,24"
"##MN-00 00 54 0246 01969 5330 441326 348758 202"
"152.99485"
"$GPGGA,235240,2446.2379,N,07950.7891,W,1,10,1.6,24"
"##MN-00 00 45 0247 01969 5330 441325 348760 202"
"152.994896"
"$GPGGA,235244,2446.2390,N,07950.7871,W,1,10,1.6,24"
"##MN-00 00 43 0247 01976 5330 441315 348758 202"
"152.994942"
"$GPGGA,235248,2446.2401,N,07950.7847,W,1,10,1.7,24"
"##MN-00 00 48 0248 01978 5330 441307 348758 202"
"152.994988"
"$GPGGA,235252,2446.2411,N,07950.7828,W,1,10,1.7,24"
"##MN-00 00 48 0249 01979 5331 441321 348759 202"
"152.995035"
"$GPGGA,235256,2446.2421,N,07950.7808,W,1,10,1.6,24"
"##MN-00 00 45 0250 01982 5331 441321 348757 202"
"152.995081"
"$GPGGA,235300,2446.2429,N,07950.7786,W,1,10,1.6,24"
"##MN-00 00 44 0251 01981 5331 441315 348746 202"
"152.995127"
"$GPGGA,235304,2446.2439,N,07950.7763,W,1,9,1.6,23,"
"##MN-00 00 44 0251 01980 5331 441300 348743 202"
"152.995174"
"$GPGGA,235308,2446.2444,N,07950.7746,W,1,10,1.6,23"
"##MN-00 00 45 0252 01977 5331 441286 348738 202"
"152.99522"
"$GPGGA,235312,2446.2455,N,07950.7716,W,1,10,1.6,23"
"##MN-00 00 47 0253 01978 5331 441270 348723 202"
"152.995266"
"$GPGGA,235316,2446.2459,N,07950.7692,W,1,10,1.6,23"
"##MN-00 00 46 0254 01977 5331 441250 348706 202"
"152.995313"
"$GPGGA,235320,2446.2466,N,07950.7662,W,1,9,1.7,23,"
"##MN-00 00 46 0255 01974 5331 441249 348707 202"
"152.995359"
"$GPGGA,235324,2446.2476,N,07950.7636,W,1,9,1.7,23,"
"##MN-00 00 46 0255 01973 5331 441254 348711 202"
"152.995405"
"$GPGGA,235328,2446.2484,N,07950.7611,W,1,10,1.6,23"
"##MN-00 00 44 0256 01975 5332 441230 348686 202"
"152.995451"
"$GPGGA,235332,2446.2494,N,07950.7585,W,1,10,1.6,23"
"##MN+00 00 48 0257 01976 5332 441221 348680 202"
"152.995498"
"$GPGGA,235336,2446.2502,N,07950.7559,W,1,10,1.6,23"
"##MN+00 00 47 0258 01973 5332 441240 348692 202"
"152.995544"
"$GPGGA,235340,2446.2513,N,07950.7531,W,1,8,1.6,23,"
"##MN+00 00 48 0259 01971 5332 441309 348719 202"
"152.99559"
"$GPGGA,235344,2446.2523,N,07950.7503,W,1,10,1.6,23"
"##MN-00 00 47 0260 01970 5332 441330 348756 202"
"152.995637"
"$GPGGA,235348,2446.2530,N,07950.7479,W,1,9,1.6,23,"
"##MN-00 00 46 0261 01971 5333 441334 348759 202"
"152.995683"
"$GPGGA,235352,2446.2537,N,07950.7454,W,1,10,1.6,22"
"##MN-00 00 48 0262 01971 5333 441347 348765 202"
"152.995729"
"$GPGGA,235356,2446.2545,N,07950.7429,W,1,10,1.6,22"
"##MN+00 00 52 0262 01969 5333 441349 348766 202"
"152.995775"
"$GPGGA,235400,2446.2551,N,07950.7400,W,1,10,1.9,23"
"##MN+00 00 47 0263 01969 5333 441320 348745 202"
"152.995822"
"$GPGGA,235404,2446.2560,N,07950.7375,W,1,10,1.7,23"
"##MN+00 00 57 0264 01970 5333 441325 348755 202"
"152.995868"
"$GPGGA,235408,2446.2567,N,07950.7351,W,1,10,1.6,23"
"##MN-00 00 55 0265 01966 5333 441296 348745 202"
"152.995914"
"#increment_net"
"$GPGGA,235412,2446.2576,N,07950.7327,W,1,10,1.6,23"
"##MN-00 00 47 0265 01966 5334 441291 348741 202"
"152.995961"
"$GPGGA,235416,2446.2584,N,07950.7302,W,1,10,1.8,23"
"##MN-00 00 47 0266 01967 5333 441273 348726 202"
"152.996007"
"$GPGGA,235420,2446.2592,N,07950.7277,W,1,10,1.6,23"
"##MN-00 00 49 0267 01966 5333 441260 348714 202"
"152.996065"
"$GPGGA,235424,2446.2599,N,07950.7251,W,1,10,1.6,23"
"##MN-00 00 50 0268 01962 5334 441273 348727 202"
"152.996111"
"$GPGGA,235428,2446.2607,N,07950.7226,W,1,10,1.6,23"
"##MN-00 00 49 0269 01964 5333 441283 348734 202"
"152.996157"
"$GPGGA,235432,2446.2614,N,07950.7199,W,1,10,1.8,23"
"##MN-00 00 45 0269 01966 5334 441300 348745 202"
"152.996204"
"$GPGGA,235436,2446.2623,N,07950.7175,W,1,9,1.6,23,"
"##MN-00 00 47 0270 01965 5334 441336 348762 202"
"152.99625"
"$GPGGA,235440,2446.2630,N,07950.7150,W,1,9,1.6,23,"
"##MN-00 00 48 0271 01971 5334 441335 348759 202"
"152.996296"
"$GPGGA,235444,2446.2639,N,07950.7126,W,1,10,1.6,23"
"##MN-00 00 47 0272 01966 5334 441318 348754 202"
"152.996343"
"$GPGGA,235448,2446.2646,N,07950.7103,W,1,10,1.6,23"
"##MN-00 00 46 0273 01968 5334 441313 348753 202"
"152.996389"
"$GPGGA,235452,2446.2656,N,07950.7078,W,1,9,1.6,23,"
"##MN-00 00 44 0274 01969 5335 441298 348744 202"
"152.996435"
"$GPGGA,235456,2446.2667,N,07950.7053,W,1,10,1.6,23"
"##MN-00 00 48 0275 01971 5335 441288 348738 202"
"152.996481"
"$GPGGA,235500,2446.2675,N,07950.7029,W,1,10,1.6,22"
"##MN-00 00 46 0275 01969 5335 441288 348737 202"
"152.996528"
"$GPGGA,235504,2446.2685,N,07950.7006,W,1,10,1.6,22"
"##MN-00 00 49 0276 01967 5335 441286 348735 202"
"152.996574"
"$GPGGA,235508,2446.2695,N,07950.6983,W,1,10,1.6,23"
"##MN-00 00 46 0277 01971 5335 441321 348761 202"
"152.99662"
"$GPGGA,235512,2446.2706,N,07950.6958,W,1,10,1.6,23"
"##MN-00 00 46 0278 01972 5335 441329 348761 202"
"152.996667"
"$GPGGA,235516,2446.2712,N,07950.6935,W,1,10,1.6,23"
"##MN-00 00 46 0279 01971 5335 441320 348758 202"
"152.996713"
"$GPGGA,235520,2446.2721,N,07950.6911,W,1,10,1.6,23"
"##MN-00 00 43 0280 01971 5336 441322 348756 202"
"152.996759"
"$GPGGA,235524,2446.2728,N,07950.6888,W,1,10,1.6,23"
"##MN-00 00 47 0281 01970 5336 441320 348755 202"
"152.996806"
"$GPGGA,235528,2446.2735,N,07950.6865,W,1,10,1.6,23"
"##MN-00 00 48 0281 01968 5336 441328 348759 202"
"152.996852"
"$GPGGA,235532,2446.2742,N,07950.6840,W,1,10,1.6,22"
"##MN-00 00 45 0282 01968 5336 441321 348754 202"
"152.996898"
"$GPGGA,235536,2446.2751,N,07950.6814,W,1,10,1.6,22"
"##MN-00 00 47 0283 01969 5336 441315 348750 202"
"152.996944"
"$GPGGA,235540,2446.2758,N,07950.6788,W,1,10,1.6,22"
"##MN-00 00 45 0284 01968 5336 441320 348751 202"
"152.996991"
"$GPGGA,235544,2446.2766,N,07950.6762,W,1,10,1.6,22"
"##MN-00 00 46 0285 01967 5336 441333 348756 202"
"152.997037"
"$GPGGA,235549,2446.2776,N,07950.6730,W,1,10,1.6,21"
"##MN+00 00 46 0286 01964 5337 441331 348755 202"
"152.997083"
"$GPGGA,235553,2446.2783,N,07950.6702,W,1,10,1.6,21"
"##MN+00 00 48 0287 01965 5337 441317 348751 202"
"152.99713"
"$GPGGA,235557,2446.2791,N,07950.6675,W,1,10,1.6,21"
"##MN+00 00 45 0288 01964 5337 441316 348747 202"
"152.997176"
"$GPGGA,235601,2446.2798,N,07950.6648,W,1,10,1.6,21"
"##MN-00 00 46 0289 01966 5337 441320 348748 202"
"152.997222"
"$GPGGA,235605,2446.2807,N,07950.6621,W,1,10,1.6,21"
"##MN-00 00 49 0290 01964 5337 441314 348744 202"
"152.997269"
"$GPGGA,235609,2446.2816,N,07950.6595,W,1,10,1.6,21"
"##MN+00 00 47 0291 01962 5337 441317 348743 202"
"152.997315"
"$GPGGA,235613,2446.2824,N,07950.6572,W,1,9,1.7,21,"
"##MN+00 00 46 0292 01964 5337 441342 348758 202"
"152.997361"
"$GPGGA,235617,2446.2834,N,07950.6552,W,1,10,1.6,20"
"##MN+00 00 57 0293 01969 5338 441340 348764 202"
"152.997407"
"#increment_net"
"$GPGGA,235621,2446.2842,N,07950.6524,W,1,10,1.6,20"
"##MN-00 00 51 0294 01969 5338 441334 348765 202"
"152.997454"
"$GPGGA,235625,2446.2851,N,07950.6497,W,1,10,1.6,20"
"##MN-00 00 49 0294 01965 5339 441333 348764 202"
"152.9975"
"$GPGGA,235629,2446.2859,N,07950.6471,W,1,10,1.6,20"
"##MN-00 00 48 0295 01965 5339 441326 348762 202"
"152.997546"
"$GPGGA,235633,2446.2867,N,07950.6447,W,1,10,1.6,20"
"##MN-00 00 45 0296 01968 5339 441326 348764 202"
"152.997593"
"$GPGGA,235637,2446.2877,N,07950.6422,W,1,10,1.6,19"
"##MN-00 00 47 0297 01964 5339 441354 348772 202"
"152.997639"
"$GPGGA,235641,2446.2885,N,07950.6396,W,1,10,1.6,19"
"##MN-00 00 45 0298 01967 5339 441379 348778 202"
"152.997685"
"$GPGGA,235645,2446.2894,N,07950.6368,W,1,10,1.6,19"
"##MN-00 00 47 0299 01965 5339 441354 348771 202"
"152.997731"
"$GPGGA,235649,2446.2902,N,07950.6338,W,1,10,1.6,19"
"##MN-00 00 46 0300 01964 5339 441331 348761 202"
"152.997778"
"$GPGGA,235653,2446.2910,N,07950.6311,W,1,10,1.6,19"
"##MN-00 00 48 0301 01965 5339 441338 348761 202"
"152.997824"
"$GPGGA,235657,2446.2917,N,07950.6286,W,1,10,1.8,19"
"##MN-00 00 48 0302 01962 5339 441345 348761 202"
"152.99787"
"$GPGGA,235701,2446.2925,N,07950.6264,W,1,10,1.8,19"
"##MN-00 00 48 0303 01966 5339 441357 348766 202"
"152.997917"
"$GPGGA,235705,2446.2931,N,07950.6239,W,1,10,1.7,20"
"##MN-00 00 47 0304 01965 5340 441342 348764 202"
"152.997963"
"$GPGGA,235709,2446.2939,N,07950.6213,W,1,10,1.6,20"
"##MN-00 00 47 0305 01964 5339 441323 348758 202"
"152.998009"
"$GPGGA,235713,2446.2948,N,07950.6190,W,1,10,1.6,21"
"##MN-00 00 49 0306 01965 5339 441320 348754 202"
"152.998056"
"$GPGGA,235717,2446.2957,N,07950.6166,W,1,8,1.6,21,"
"##MN-00 00 44 0307 01965 5340 441351 348773 202"
"152.998102"
"$GPGGA,235721,2446.2967,N,07950.6137,W,1,10,1.8,21"
"##MN-00 00 44 0307 01969 5340 441353 348769 202"
"152.998148"
"$GPGGA,235725,2446.2975,N,07950.6112,W,1,10,1.6,21"
"##MN-00 00 46 0308 01970 5340 441338 348763 202"
"152.998194"
"$GPGGA,235729,2446.2986,N,07950.6089,W,1,10,1.6,21"
"##MN-00 00 45 0309 01972 5340 441336 348762 202"
"152.998241"
"$GPGGA,235733,2446.2997,N,07950.6064,W,1,10,1.6,21"
"##MN-00 00 45 0310 01973 5340 441333 348759 202"
"152.998287"
"$GPGGA,235737,2446.3008,N,07950.6041,W,1,9,1.6,21,"
"##MN-00 00 49 0311 01973 5340 441350 348763 202"
"152.998333"
"$GPGGA,235741,2446.3019,N,07950.6016,W,1,10,1.6,21"
"##MN-00 00 48 0312 01973 5341 441355 348763 202"
"152.99838"
"$GPGGA,235745,2446.3031,N,07950.5991,W,1,10,1.6,21"
"##MN-00 00 45 0312 01974 5340 441336 348747 202"
"152.998426"
"$GPGGA,235749,2446.3042,N,07950.5967,W,1,10,1.6,21"
"##MN-00 00 42 0313 01977 5341 441319 348739 202"
"152.998472"
"$GPGGA,235753,2446.3055,N,07950.5941,W,1,10,1.6,21"
"##MN+00 00 44 0314 01980 5341 441361 348762 202"
"152.998519"
"$GPGGA,235757,2446.3065,N,07950.5914,W,1,10,1.6,21"
"##MN+00 00 45 0315 01979 5341 441359 348769 202"
"152.998565"
"$GPGGA,235801,2446.3076,N,07950.5887,W,1,10,1.6,21"
"##MN+00 00 45 0315 01978 5341 441339 348765 202"
"152.998611"
"$GPGGA,235805,2446.3087,N,07950.5863,W,1,10,1.6,21"
"##MN-00 00 43 0316 01979 5341 441334 348763 202"
"152.998657"
"$GPGGA,235809,2446.3100,N,07950.5838,W,1,10,1.6,21"
"##MN-00 00 43 0317 01980 5341 441346 348767 202"
"152.998704"
"$GPGGA,235813,2446.3112,N,07950.5811,W,1,10,1.6,21"
"##MN-00 00 46 0318 01978 5341 441335 348759 202"
"152.99875"
"$GPGGA,235817,2446.3123,N,07950.5784,W,1,10,1.6,21"
"##MN-00 00 45 0319 01978 5342 441337 348759 202"
"152.998796"
"$GPGGA,235821,2446.3134,N,07950.5758,W,1,10,1.6,21"
"##MN+00 00 44 0320 01977 5342 441343 348759 202"
"152.998843"
"$GPGGA,235825,2446.3145,N,07950.5730,W,1,10,1.6,21"
"##MN+00 00 44 0321 01978 5342 441364 348771 202"
"152.998889"
"$GPGGA,235829,2446.3159,N,07950.5703,W,1,10,1.6,21"
"##MN+00 00 54 0322 01980 5342 441353 348765 202"
"152.998935"
"$GPGGA,235833,2446.3170,N,07950.5675,W,1,10,1.6,21"
"##MN-00 00 51 0322 01977 5342 441349 348761 202"
"152.998981"
"$GPGGA,235837,2446.3184,N,07950.5646,W,1,10,1.6,20"
"##MN-00 00 49 0323 01980 5342 441335 348754 202"
"152.999028"
"$GPGGA,235841,2446.3195,N,07950.5617,W,1,10,1.6,20"
"##MN-00 00 46 0325 01986 5342 441331 348749 202"
"152.999074"
"#increment_net"
"$GPGGA,235845,2446.3206,N,07950.5587,W,1,10,1.6,20"
"##MN-00 00 45 0326 01989 5342 441331 348746 202"
"152.99912"
"$GPGGA,235849,2446.3219,N,07950.5557,W,1,10,1.6,19"
"##MN-00 00 46 0327 01991 5342 441329 348741 202"
"152.999167"
"$GPGGA,235853,2446.3231,N,07950.5526,W,1,10,1.6,19"
"##MN-00 00 44 0328 01997 5342 441327 348738 202"
"152.999213"
"$GPGGA,235857,2446.3242,N,07950.5495,W,1,10,1.6,19"
"##MN-00 00 43 0330 01993 5342 441328 348741 202"
"152.999271"
"$GPGGA,235901,2446.3253,N,07950.5464,W,1,10,1.6,18"
"##MN-00 00 46 0331 01989 5342 441338 348747 202"
"152.999317"
"$GPGGA,235905,2446.3264,N,07950.5433,W,1,10,1.6,18"
"##MN-00 00 44 0332 01982 5342 441351 348755 202"
"152.999363"
"$GPGGA,235909,2446.3275,N,07950.5403,W,1,10,1.6,18"
"##MN-00 00 48 0334 01971 5342 441365 348766 202"
"152.99941"
"$GPGGA,235913,2446.3286,N,07950.5371,W,1,10,1.6,18"
"##MN-00 00 48 0335 01962 5342 441366 348772 202"
"152.999456"
"$GPGGA,235917,2446.3297,N,07950.5341,W,1,10,1.6,17"
"##MN-00 00 49 0337 01950 5343 441376 348779 202"
"152.999502"
"$GPGGA,235921,2446.3308,N,07950.5311,W,1,10,1.6,17"
"##MN-00 00 47 0338 01943 5343 441376 348781 202"
"152.999549"
"$GPGGA,235925,2446.3320,N,07950.5282,W,1,10,1.6,17"
"##MN-00 00 49 0339 01931 5343 441382 348783 202"
"152.999595"
"$GPGGA,235929,2446.3331,N,07950.5251,W,1,10,1.6,17"
"##MN-00 00 47 0341 01920 5343 441402 348793 202"
"152.999641"
"$GPGGA,235933,2446.3342,N,07950.5222,W,1,10,1.6,17"
"##MN-00 00 47 0342 01909 5343 441419 348799 202"
"152.999688"
"$GPGGA,235937,2446.3351,N,07950.5192,W,1,10,1.6,17"
"##MN-00 00 49 0344 01899 5343 441428 348804 202"
"152.999734"
"$GPGGA,235941,2446.3361,N,07950.5162,W,1,10,1.6,16"
"##MN-00 00 49 0345 01885 5343 441426 348805 202"
"152.99978"
"$GPGGA,235945,2446.3371,N,07950.5134,W,1,10,1.6,16"
"##MN-00 00 49 0347 01876 5343 441454 348812 202"
"152.999826"
"$GPGGA,235949,2446.3380,N,07950.5105,W,1,10,1.6,16"
"##MN-00 00 52 0348 01864 5344 441465 348818 202"
"152.999873"
"$GPGGA,235953,2446.3391,N,07950.5075,W,1,10,1.6,16"
"##MN-00 00 52 0349 01861 5343 441436 348813 202"
"152.999919"
"$GPGGA,235957,2446.3401,N,07950.5046,W,1,10,1.6,16"
"##MN-00 00 61 0351 01858 5344 441466 348818 202"
"152.999965"
"$GPGGA,000001,2446.3409,N,07950.5017,W,1,10,1.6,16"
"##MN-00 00 63 0352 01857 5344 441540 355471 202"
"153.000081"
"$GPGGA,000009,2446.3432,N,07950.4961,W,1,10,1.6,16"
"##MN-00 00 57 0354 01858 5344 448535 631633 202"
"153.000127"
"$GPGGA,000016,2446.3452,N,07950.4913,W,1,10,1.6,16"
"##MN-00 00 11 0355 01857 5345 453495 893937 202"
