" Tow: 3Cs-B   RVWS/WS1406"
" Date: 06/01/2014"
" Temperature Probe #  2597    Conductivity Probe #  2870"
" Pressure Probe #  109"
" Flow Meter Calibration  4.71 (m/count)  "
"153.008704"
"$GPGGA,001232,2446.5919,N,07949.8309,W,1,9,2.4,18,"
"##MN-00 00 34 0084 01854 5276 448767 925210 202"
"153.00875"
"$GPGGA,001240,2446.5938,N,07949.8245,W,1,9,2.4,18,"
"##MN-00 00 45 0085 01856 5275 446525 925387 202"
"153.008796"
"$GPGGA,001244,2446.5947,N,07949.8211,W,1,9,2.4,17,"
"##MN-00 00 48 0085 01856 5275 446041 920195 202"
"153.008843"
"$GPGGA,001248,2446.5958,N,07949.8179,W,1,9,2.4,17,"
"##MN-00 00 46 0086 01856 5275 442275 351030 202"
"153.008889"
"$GPGGA,001252,2446.5966,N,07949.8147,W,1,8,2.4,17,"
"##MN-00 00 53 0086 01856 5275 441932 354825 202"
"153.008935"
"$GPGGA,001256,2446.5977,N,07949.8116,W,1,9,2.4,16,"
"##MN-00 00 52 0087 01858 5275 441759 349657 202"
"153.008981"
"$GPGGA,001300,2446.5988,N,07949.8085,W,1,8,2.4,16,"
"##MN-00 00 54 0087 01858 5275 441745 349074 202"
"153.009028"
"$GPGGA,001304,2446.5998,N,07949.8054,W,1,8,1.8,16,"
"##MN-00 00 55 0088 01858 5275 441691 349191 202"
"153.009074"
"$GPGGA,001308,2446.6006,N,07949.8023,W,1,9,2.4,16,"
"##MN-00 00 50 0088 01859 5275 441657 349080 202"
"153.00912"
"$GPGGA,001312,2446.6013,N,07949.7996,W,1,8,1.8,16,"
"##MN-00 00 49 0089 01864 5275 441681 348955 202"
"153.009167"
"$GPGGA,001316,2446.6023,N,07949.7967,W,1,9,1.8,16,"
"##MN-00 00 54 0090 01866 5275 441746 348964 202"
"153.009213"
"$GPGGA,001320,2446.6030,N,07949.7933,W,1,10,1.5,16"
"##MN-00 00 52 0091 01870 5275 441694 348966 202"
"153.009259"
"$GPGGA,001324,2446.6041,N,07949.7905,W,1,9,2.4,16,"
"##MN-00 00 52 0092 01873 5274 441675 348936 202"
"153.009306"
"$GPGGA,001328,2446.6052,N,07949.7878,W,1,8,1.7,16,"
"##MN-00 00 54 0092 01878 5274 441702 348917 202"
"153.009352"
"$GPGGA,001332,2446.6063,N,07949.7853,W,1,9,1.8,16,"
"##MN-00 00 54 0093 01884 5274 441706 348924 202"
"153.009398"
"$GPGGA,001337,2446.6072,N,07949.7823,W,1,10,1.8,16"
"##MN-00 00 54 0094 01890 5274 441693 348931 202"
"153.009444"
"$GPGGA,001340,2446.6084,N,07949.7804,W,1,8,2.4,16,"
"##MN-00 00 54 0095 01896 5274 441672 348907 202"
"153.009491"
"$GPGGA,001345,2446.6099,N,07949.7772,W,1,8,1.8,16,"
"##MN-00 00 52 0096 01900 5274 441650 348887 202"
"153.009537"
"$GPGGA,001348,2446.6104,N,07949.7755,W,1,9,2.4,16,"
"##MN-00 00 52 0097 01905 5274 441646 348903 202"
"153.009583"
"$GPGGA,001353,2446.6113,N,07949.7726,W,1,8,2.4,16,"
"##MN-00 00 52 0097 01911 5274 441645 348894 202"
"153.00963"
"$GPGGA,001357,2446.6125,N,07949.7704,W,1,8,2.4,16,"
"##MN-00 00 51 0098 01918 5274 441639 348874 202"
"153.009676"
"$GPGGA,001401,2446.6138,N,07949.7680,W,1,8,2.4,16,"
"##MN-00 00 52 0099 01924 5273 441623 348865 202"
"153.009722"
"$GPGGA,001405,2446.6151,N,07949.7656,W,1,8,2.4,16,"
"##MN-00 00 51 0100 01928 5273 441629 348868 202"
"153.009769"
"$GPGGA,001409,2446.6160,N,07949.7631,W,1,9,1.7,16,"
"##MN-00 00 51 0100 01935 5273 441649 348876 202"
"153.009815"
"$GPGGA,001413,2446.6169,N,07949.7607,W,1,8,2.4,16,"
"##MN-00 00 50 0101 01940 5273 441664 348875 202"
"153.009861"
"$GPGGA,001417,2446.6185,N,07949.7585,W,1,8,2.4,16,"
"##MN-00 00 49 0102 01945 5273 441670 348875 202"
"153.009907"
"$GPGGA,001421,2446.6197,N,07949.7563,W,1,8,2.4,16,"
"##MN-00 00 51 0103 01949 5273 441676 348872 202"
"153.009954"
"$GPGGA,001425,2446.6208,N,07949.7540,W,1,8,2.4,16,"
"##MN-00 00 47 0103 01953 5273 441646 348861 202"
"153.01"
"$GPGGA,001429,2446.6223,N,07949.7516,W,1,8,2.4,16,"
"##MN-00 00 51 0104 01960 5273 441650 348864 202"
"153.010046"
"$GPGGA,001433,2446.6234,N,07949.7493,W,1,8,2.4,16,"
"##MN-00 00 49 0105 01967 5273 441650 348864 202"
"153.010093"
"$GPGGA,001437,2446.6244,N,07949.7470,W,1,8,2.4,16,"
"##MN-00 00 48 0105 01971 5273 441639 348861 202"
"153.010139"
"$GPGGA,001441,2446.6256,N,07949.7446,W,1,9,1.7,16,"
"##MN-00 00 49 0106 01975 5273 441638 348857 202"
"153.010185"
"$GPGGA,001445,2446.6263,N,07949.7423,W,1,9,1.8,16,"
"##MN-00 00 51 0106 01979 5273 441631 348852 202"
"153.010231"
"$GPGGA,001449,2446.6277,N,07949.7400,W,1,8,2.4,16,"
"##MN-00 00 48 0107 01978 5273 441632 348850 202"
"153.010278"
"$GPGGA,001453,2446.6292,N,07949.7380,W,1,8,2.4,16,"
"##MN-00 00 43 0108 01983 5273 441636 348849 202"
"153.010324"
"$GPGGA,001457,2446.6308,N,07949.7358,W,1,8,2.4,15,"
"##MN-00 00 45 0108 01984 5273 441640 348848 202"
"153.01037"
"$GPGGA,001501,2446.6320,N,07949.7338,W,1,8,2.4,15,"
"##MN-00 00 44 0109 01988 5273 441643 348847 202"
"153.010417"
"$GPGGA,001505,2446.6331,N,07949.7316,W,1,8,2.4,15,"
"##MN-00 00 43 0110 01987 5273 441651 348848 202"
"153.010463"
"$GPGGA,001509,2446.6339,N,07949.7296,W,1,8,2.4,15,"
"##MN-00 00 43 0110 01989 5274 441661 348852 202"
"153.010509"
"$GPGGA,001513,2446.6350,N,07949.7274,W,1,9,1.8,15,"
"##MN-00 00 43 0111 01992 5274 441658 348859 202"
"153.010556"
"$GPGGA,001517,2446.6360,N,07949.7251,W,1,9,1.8,15,"
"##MN-00 00 42 0112 01985 5274 441651 348857 202"
"153.010602"
"$GPGGA,001521,2446.6370,N,07949.7225,W,1,10,1.5,15"
"##MN-00 00 43 0113 01984 5274 441641 348853 202"
"153.010648"
"$GPGGA,001525,2446.6375,N,07949.7202,W,1,9,1.5,16,"
"##MN-00 00 43 0114 01983 5274 441632 348851 202"
"153.010694"
"$GPGGA,001529,2446.6381,N,07949.7188,W,1,10,1.5,16"
"##MN-00 00 41 0114 01980 5274 441630 348850 202"
"153.010741"
"$GPGGA,001533,2446.6389,N,07949.7174,W,1,10,1.5,17"
"##MN-00 00 41 0115 01980 5273 441635 348850 202"
"153.010787"
"$GPGGA,001537,2446.6396,N,07949.7159,W,1,9,1.7,18,"
"##MN-00 00 42 0115 01980 5274 441638 348854 202"
"153.010833"
"$GPGGA,001541,2446.6404,N,07949.7142,W,1,9,1.7,18,"
"##MN-00 00 44 0116 01980 5274 441644 348853 202"
"153.01088"
"$GPGGA,001545,2446.6414,N,07949.7121,W,1,9,1.7,19,"
"##MN+00 00 41 0117 01979 5274 441638 348850 202"
"153.010926"
"$GPGGA,001549,2446.6424,N,07949.7104,W,1,10,1.5,19"
"##MN+00 00 39 0117 01979 5274 441631 348851 202"
"153.010972"
"$GPGGA,001553,2446.6432,N,07949.7085,W,1,10,1.7,19"
"##MN+00 00 44 0118 01982 5275 441638 348852 202"
"153.011019"
"$GPGGA,001557,2446.6442,N,07949.7065,W,1,10,1.5,19"
"##MN+00 00 44 0118 01979 5275 441640 348853 202"
"153.011065"
"$GPGGA,001601,2446.6445,N,07949.7051,W,1,10,1.7,19"
"##MN+00 00 44 0119 01977 5275 441643 348854 202"
"153.011111"
"$GPGGA,001605,2446.6454,N,07949.7031,W,1,9,1.7,19,"
"##MN+00 00 48 0120 01982 5275 441644 348854 202"
"153.011157"
"$GPGGA,001609,2446.6465,N,07949.7011,W,1,9,1.7,19,"
"##MN-00 00 48 0120 01981 5275 441648 348854 202"
"153.011204"
"$GPGGA,001613,2446.6474,N,07949.6991,W,1,9,1.7,19,"
"##MN-00 00 43 0121 01986 5275 441652 348855 202"
"153.01125"
"#increment_net"
"$GPGGA,001617,2446.6485,N,07949.6971,W,1,10,1.5,19"
"##MN-00 00 42 0121 01980 5275 441650 348854 202"
"153.011296"
"$GPGGA,001621,2446.6494,N,07949.6957,W,1,10,1.8,19"
"##MN-00 00 43 0122 01981 5275 441651 348854 202"
"153.011343"
"$GPGGA,001625,2446.6498,N,07949.6940,W,1,9,1.5,19,"
"##MN-00 00 42 0123 01984 5275 441653 348854 202"
"153.011389"
"$GPGGA,001629,2446.6505,N,07949.6920,W,1,9,1.7,19,"
"##MN-00 00 43 0124 01983 5275 441657 348855 202"
"153.011435"
"$GPGGA,001633,2446.6512,N,07949.6900,W,1,9,1.7,19,"
"##MN-00 00 42 0124 01981 5275 441663 348856 202"
"153.011493"
"$GPGGA,001637,2446.6525,N,07949.6881,W,1,9,1.7,19,"
"##MN-00 00 44 0125 01979 5275 441663 348858 202"
"153.011539"
"$GPGGA,001641,2446.6534,N,07949.6860,W,1,9,1.7,19,"
"##MN-00 00 42 0126 01978 5276 441666 348859 202"
"153.011586"
"$GPGGA,001645,2446.6543,N,07949.6840,W,1,9,1.7,19,"
"##MN-00 00 43 0126 01979 5276 441668 348857 202"
"153.011632"
"$GPGGA,001649,2446.6552,N,07949.6822,W,1,10,1.7,19"
"##MN-00 00 46 0127 01976 5276 441670 348857 202"
"153.011678"
"$GPGGA,001653,2446.6562,N,07949.6801,W,1,9,1.7,19,"
"##MN-00 00 42 0128 01978 5276 441674 348858 202"
"153.011725"
"$GPGGA,001657,2446.6570,N,07949.6780,W,1,9,1.7,19,"
"##MN-00 00 43 0128 01976 5276 441664 348859 202"
"153.011771"
"$GPGGA,001701,2446.6581,N,07949.6762,W,1,9,1.7,19,"
"##MN-00 00 44 0129 01977 5276 441662 348858 202"
"153.011817"
"$GPGGA,001705,2446.6588,N,07949.6742,W,1,9,1.7,20,"
"##MN-00 00 42 0130 01978 5277 441667 348858 202"
"153.011863"
"$GPGGA,001709,2446.6595,N,07949.6722,W,1,10,1.5,20"
"##MN-00 00 43 0131 01976 5277 441674 348858 202"
"153.01191"
"$GPGGA,001713,2446.6602,N,07949.6701,W,1,9,1.7,20,"
"##MN-00 00 43 0131 01976 5277 441681 348858 202"
"153.011956"
"$GPGGA,001717,2446.6610,N,07949.6678,W,1,9,1.7,20,"
"##MN-00 00 42 0132 01976 5277 441682 348857 202"
"153.012002"
"$GPGGA,001721,2446.6620,N,07949.6657,W,1,9,1.5,20,"
"##MN-00 00 46 0133 01974 5278 441678 348855 202"
"153.012049"
"$GPGGA,001725,2446.6624,N,07949.6641,W,1,8,2.4,20,"
"##MN-00 00 44 0133 01974 5278 441657 348854 202"
"153.012095"
"$GPGGA,001729,2446.6628,N,07949.6621,W,1,9,1.7,20,"
"##MN-00 00 43 0134 01977 5278 441660 348854 202"
"153.012141"
"$GPGGA,001733,2446.6638,N,07949.6602,W,1,8,2.4,20,"
"##MN-00 00 45 0135 01974 5278 441652 348852 202"
"153.012187"
"$GPGGA,001737,2446.6651,N,07949.6585,W,1,8,2.4,21,"
"##MN-00 00 42 0135 01975 5278 441645 348851 202"
"153.012234"
"$GPGGA,001741,2446.6660,N,07949.6566,W,1,10,1.5,21"
"##MN-00 00 45 0136 01975 5278 441637 348849 202"
"153.01228"
"$GPGGA,001745,2446.6669,N,07949.6544,W,1,9,1.7,21,"
"##MN-00 00 48 0137 01973 5279 441636 348849 202"
"153.012326"
"$GPGGA,001749,2446.6680,N,07949.6524,W,1,8,2.4,21,"
"##MN-00 00 45 0137 01974 5279 441635 348850 202"
"153.012373"
"$GPGGA,001753,2446.6691,N,07949.6506,W,1,8,2.4,20,"
"##MN-00 00 44 0138 01973 5279 441636 348850 202"
"153.012419"
"$GPGGA,001757,2446.6696,N,07949.6483,W,1,8,2.4,20,"
"##MN-00 00 45 0139 01973 5279 441636 348851 202"
"153.012465"
"$GPGGA,001801,2446.6698,N,07949.6459,W,1,9,1.7,20,"
"##MN-00 00 44 0140 01975 5279 441636 348851 202"
"153.012512"
"$GPGGA,001806,2446.6710,N,07949.6431,W,1,8,1.7,20,"
"##MN+00 00 45 0140 01974 5280 441628 348850 202"
"153.012558"
"$GPGGA,001810,2446.6714,N,07949.6413,W,1,10,1.5,20"
"##MN+00 00 43 0141 01974 5280 441633 348849 202"
"153.012604"
"$GPGGA,001814,2446.6721,N,07949.6397,W,1,9,1.7,20,"
"##MN+00 00 43 0141 01975 5280 441641 348851 202"
"153.01265"
"$GPGGA,001817,2446.6728,N,07949.6377,W,1,9,1.7,21,"
"##MN-00 00 45 0142 01973 5280 441631 348847 202"
"153.012697"
"$GPGGA,001821,2446.6735,N,07949.6354,W,1,10,1.5,21"
"##MN-00 00 42 0143 01975 5281 441625 348847 202"
"153.012743"
"$GPGGA,001825,2446.6743,N,07949.6332,W,1,10,1.5,21"
"##MN-00 00 42 0143 01976 5281 441636 348849 202"
"153.012789"
"$GPGGA,001830,2446.6753,N,07949.6306,W,1,9,1.5,21,"
"##MN-00 00 48 0144 01976 5281 441655 348853 202"
"153.012836"
"$GPGGA,001834,2446.6764,N,07949.6286,W,1,9,1.7,21,"
"##MN-00 00 47 0144 01976 5281 441642 348851 202"
"153.012882"
"$GPGGA,001838,2446.6774,N,07949.6270,W,1,10,1.7,21"
"##MN-00 00 42 0145 01978 5281 441642 348850 202"
"153.012928"
"$GPGGA,001842,2446.6783,N,07949.6254,W,1,10,1.5,21"
"##MN+00 00 43 0146 01980 5282 441644 348850 202"
"153.012975"
"$GPGGA,001846,2446.6792,N,07949.6233,W,1,9,1.5,21,"
"##MN+00 00 44 0146 01980 5282 441637 348847 202"
"153.013021"
"$GPGGA,001850,2446.6800,N,07949.6215,W,1,8,1.5,21,"
"##MN+00 00 49 0147 01980 5282 441634 348845 202"
"153.013067"
"$GPGGA,001854,2446.6808,N,07949.6196,W,1,10,1.5,21"
"##MN-00 00 46 0148 01982 5282 441629 348846 202"
"153.013113"
"#increment_net"
"$GPGGA,001858,2446.6818,N,07949.6177,W,1,9,1.7,21,"
"##MN-00 00 43 0148 01981 5282 441626 348847 202"
"153.01316"
"$GPGGA,001902,2446.6825,N,07949.6159,W,1,9,1.5,20,"
"##MN-00 00 46 0149 01979 5282 441639 348848 202"
"153.013206"
"$GPGGA,001906,2446.6830,N,07949.6144,W,1,10,1.5,20"
"##MN-00 00 43 0149 01977 5283 441654 348851 202"
"153.013252"
"$GPGGA,001910,2446.6841,N,07949.6124,W,1,9,1.5,20,"
"##MN-00 00 42 0150 01977 5283 441654 348849 202"
"153.013299"
"$GPGGA,001914,2446.6848,N,07949.6104,W,1,9,1.5,20,"
"##MN-00 00 41 0151 01976 5283 441630 348847 202"
"153.013345"
"$GPGGA,001918,2446.6859,N,07949.6085,W,1,9,1.7,20,"
"##MN-00 00 42 0151 01976 5283 441607 348842 202"
"153.013391"
"$GPGGA,001922,2446.6865,N,07949.6063,W,1,9,1.7,20,"
"##MN-00 00 39 0152 01977 5284 441609 348839 202"
"153.013437"
"$GPGGA,001926,2446.6873,N,07949.6045,W,1,9,1.5,20,"
"##MN-00 00 42 0152 01979 5284 441624 348843 202"
"153.013484"
"$GPGGA,001930,2446.6877,N,07949.6025,W,1,9,1.5,20,"
"##MN-00 00 45 0153 01976 5284 441618 348841 202"
"153.01353"
"$GPGGA,001934,2446.6886,N,07949.6003,W,1,9,1.7,20,"
"##MN-00 00 43 0154 01978 5284 441617 348843 202"
"153.013576"
"$GPGGA,001938,2446.6894,N,07949.5984,W,1,9,1.5,20,"
"##MN-00 00 44 0154 01976 5285 441628 348847 202"
"153.013623"
"$GPGGA,001942,2446.6902,N,07949.5967,W,1,7,1.5,20,"
"##MN-00 00 41 0155 01976 5285 441656 348856 202"
"153.013669"
"$GPGGA,001946,2446.6911,N,07949.5949,W,1,9,1.7,20,"
"##MN-00 00 42 0156 01975 5285 441646 348851 202"
"153.013715"
"$GPGGA,001950,2446.6920,N,07949.5929,W,1,10,1.7,20"
"##MN-00 00 44 0157 01975 5285 441639 348849 202"
"153.013762"
"$GPGGA,001954,2446.6930,N,07949.5909,W,1,10,1.5,20"
"##MN-00 00 39 0157 01974 5285 441652 348854 202"
"153.013808"
"$GPGGA,001958,2446.6941,N,07949.5891,W,1,9,1.7,20,"
"##MN-00 00 44 0158 01975 5286 441621 348845 202"
"153.013854"
"$GPGGA,002002,2446.6951,N,07949.5873,W,1,9,1.5,20,"
"##MN-00 00 43 0158 01973 5286 441640 348850 202"
"153.0139"
"$GPGGA,002006,2446.6956,N,07949.5855,W,1,8,1.5,20,"
"##MN-00 00 40 0159 01973 5286 441664 348856 202"
"153.013947"
"$GPGGA,002010,2446.6971,N,07949.5839,W,1,8,1.7,19,"
"##MN-00 00 40 0160 01975 5286 441673 348858 202"
"153.013993"
"$GPGGA,002014,2446.6974,N,07949.5818,W,1,9,1.7,19,"
"##MN-00 00 45 0160 01975 5286 441624 348843 202"
"153.014039"
"$GPGGA,002018,2446.6981,N,07949.5800,W,1,9,1.7,19,"
"##MN-00 00 46 0161 01974 5287 441623 348844 202"
"153.014086"
"$GPGGA,002022,2446.6989,N,07949.5782,W,1,9,1.7,19,"
"##MN-00 00 40 0161 01976 5287 441630 348845 202"
"153.014132"
"$GPGGA,002026,2446.6996,N,07949.5765,W,1,9,1.7,19,"
"##MN-00 00 44 0162 01977 5287 441645 348850 202"
"153.014178"
"$GPGGA,002030,2446.7003,N,07949.5748,W,1,9,1.8,20,"
"##MN-00 00 44 0163 01975 5287 441645 348850 202"
"153.014225"
"$GPGGA,002034,2446.7018,N,07949.5733,W,1,9,1.7,20,"
"##MN-00 00 42 0164 01977 5288 441644 348850 202"
"153.014271"
"$GPGGA,002038,2446.7028,N,07949.5713,W,1,8,2.4,20,"
"##MN-00 00 44 0164 01973 5288 441644 348851 202"
"153.014317"
"$GPGGA,002042,2446.7038,N,07949.5693,W,1,9,2.4,20,"
"##MN-00 00 42 0165 01974 5288 441671 348858 202"
"153.014363"
"$GPGGA,002046,2446.7045,N,07949.5673,W,1,9,1.7,20,"
"##MN-00 00 38 0166 01977 5288 441692 348866 202"
"153.01441"
"$GPGGA,002050,2446.7053,N,07949.5655,W,1,9,1.7,20,"
"##MN-00 00 45 0166 01975 5289 441682 348861 202"
"153.014456"
"$GPGGA,002054,2446.7057,N,07949.5636,W,1,10,1.8,20"
"##MN+00 00 44 0167 01973 5289 441648 348851 202"
"153.014502"
"$GPGGA,002058,2446.7061,N,07949.5619,W,1,9,1.8,20,"
"##MN+00 00 43 0168 01973 5289 441632 348845 202"
"153.014549"
"$GPGGA,002102,2446.7065,N,07949.5603,W,1,9,1.5,20,"
"##MN+00 00 43 0168 01972 5289 441649 348850 202"
"153.014595"
"$GPGGA,002106,2446.7070,N,07949.5584,W,1,10,1.7,20"
"##MN-00 00 43 0169 01971 5289 441658 348855 202"
"153.014641"
"$GPGGA,002110,2446.7076,N,07949.5562,W,1,10,2.4,20"
"##MN-00 00 44 0170 01971 5289 441647 348851 202"
"153.014687"
"$GPGGA,002114,2446.7082,N,07949.5541,W,1,10,1.5,20"
"##MN-00 00 44 0171 01972 5290 441638 348844 202"
"153.014745"
"$GPGGA,002118,2446.7087,N,07949.5520,W,1,9,1.7,20,"
"##MN-00 00 44 0171 01970 5290 441627 348842 202"
"153.014792"
"$GPGGA,002122,2446.7094,N,07949.5502,W,1,9,1.7,20,"
"##MN-00 00 42 0172 01972 5291 441655 348853 202"
"153.014838"
"$GPGGA,002126,2446.7101,N,07949.5482,W,1,9,1.7,20,"
"##MN-00 00 46 0173 01970 5291 441655 348851 202"
"153.014884"
"$GPGGA,002130,2446.7104,N,07949.5460,W,1,9,1.7,20,"
"##MN+00 00 44 0173 01968 5291 441656 348850 202"
"153.014931"
"$GPGGA,002134,2446.7112,N,07949.5442,W,1,9,1.7,20,"
"##MN+00 00 42 0174 01971 5291 441675 348855 202"
"153.014977"
"$GPGGA,002138,2446.7118,N,07949.5426,W,1,9,1.5,20,"
"##MN+00 00 52 0175 01970 5291 441614 348838 202"
"153.015023"
"$GPGGA,002142,2446.7126,N,07949.5409,W,1,9,1.5,20,"
"##MN-00 00 50 0176 01970 5291 441594 348834 202"
"153.015069"
"#increment_net"
"$GPGGA,002146,2446.7137,N,07949.5392,W,1,8,2.4,19,"
"##MN-00 00 45 0176 01970 5292 441623 348842 202"
"153.015116"
"$GPGGA,002150,2446.7140,N,07949.5373,W,1,8,1.5,19,"
"##MN-00 00 44 0177 01967 5292 441648 348851 202"
"153.015162"
"$GPGGA,002154,2446.7148,N,07949.5355,W,1,10,1.7,19"
"##MN-00 00 44 0178 01966 5292 441660 348852 202"
"153.015208"
"$GPGGA,002158,2446.7151,N,07949.5331,W,1,9,1.5,19,"
"##MN-00 00 44 0179 01963 5292 441645 348848 202"
"153.015255"
"$GPGGA,002202,2446.7151,N,07949.5307,W,1,10,1.7,19"
"##MN-00 00 41 0179 01963 5292 441629 348844 202"
"153.015301"
"$GPGGA,002206,2446.7159,N,07949.5287,W,1,9,2.4,20,"
"##MN-00 00 44 0180 01963 5292 441639 348847 202"
"153.015347"
"$GPGGA,002210,2446.7169,N,07949.5268,W,1,10,1.7,20"
"##MN-00 00 43 0181 01963 5293 441625 348842 202"
"153.015394"
"$GPGGA,002214,2446.7176,N,07949.5247,W,1,10,2.4,19"
"##MN-00 00 46 0182 01964 5293 441620 348841 202"
"153.01544"
"$GPGGA,002218,2446.7182,N,07949.5227,W,1,8,1.7,19,"
"##MN-00 00 45 0182 01968 5293 441661 348849 202"
"153.015486"
"$GPGGA,002222,2446.7188,N,07949.5207,W,1,8,2.4,19,"
"##MN-00 00 44 0183 01967 5294 441710 348862 202"
"153.015532"
"$GPGGA,002226,2446.7198,N,07949.5188,W,1,9,2.4,18,"
"##MN-00 00 45 0184 01965 5294 441711 348861 202"
"153.015579"
"$GPGGA,002230,2446.7202,N,07949.5169,W,1,9,1.8,18,"
"##MN-00 00 45 0185 01963 5294 441673 348856 202"
"153.015625"
"$GPGGA,002234,2446.7204,N,07949.5149,W,1,9,1.8,18,"
"##MN-00 00 43 0186 01964 5294 441649 348851 202"
"153.015671"
"$GPGGA,002238,2446.7209,N,07949.5128,W,1,8,1.8,18,"
"##MN-00 00 44 0187 01963 5294 441651 348854 202"
"153.015718"
"$GPGGA,002242,2446.7213,N,07949.5107,W,1,9,1.5,18,"
"##MN-00 00 44 0188 01966 5295 441699 348863 202"
"153.015764"
"$GPGGA,002246,2446.7220,N,07949.5084,W,1,10,1.5,18"
"##MN-00 00 47 0188 01964 5295 441706 348863 202"
"153.01581"
"$GPGGA,002251,2446.7226,N,07949.5056,W,1,10,1.5,18"
"##MN-00 00 46 0189 01961 5295 441656 348852 202"
"153.015856"
"$GPGGA,002255,2446.7233,N,07949.5036,W,1,10,1.5,18"
"##MN-00 00 48 0190 01967 5295 441651 348852 202"
"153.015903"
"$GPGGA,002259,2446.7240,N,07949.5019,W,1,10,1.5,18"
"##MN-00 00 46 0190 01972 5296 441663 348854 202"
"153.015949"
"$GPGGA,002303,2446.7249,N,07949.5000,W,1,9,1.8,17,"
"##MN-00 00 48 0191 01973 5296 441660 348852 202"
"153.015995"
"$GPGGA,002307,2446.7249,N,07949.4980,W,1,9,1.8,17,"
"##MN-00 00 48 0191 01972 5296 441653 348850 202"
"153.016042"
"$GPGGA,002311,2446.7255,N,07949.4959,W,1,10,1.5,18"
"##MN-00 00 43 0192 01974 5296 441643 348847 202"
"153.016088"
"$GPGGA,002315,2446.7262,N,07949.4940,W,1,10,1.5,18"
"##MN-00 00 43 0193 01974 5296 441645 348849 202"
"153.016134"
"$GPGGA,002319,2446.7267,N,07949.4923,W,1,9,1.8,18,"
"##MN-00 00 44 0194 01978 5297 441658 348851 202"
"153.016181"
"$GPGGA,002323,2446.7276,N,07949.4902,W,1,10,1.5,18"
"##MN-00 00 44 0195 01975 5297 441667 348853 202"
"153.016227"
"$GPGGA,002327,2446.7284,N,07949.4883,W,1,10,1.5,18"
"##MN+00 00 44 0196 01975 5297 441672 348854 202"
"153.016273"
"$GPGGA,002331,2446.7288,N,07949.4860,W,1,10,1.5,17"
"##MN+00 00 44 0196 01973 5297 441667 348853 202"
"153.016319"
"$GPGGA,002335,2446.7292,N,07949.4841,W,1,10,1.5,17"
"##MN+00 00 43 0197 01975 5297 441682 348860 202"
"153.016366"
"$GPGGA,002339,2446.7300,N,07949.4824,W,1,9,1.8,17,"
"##MN-00 00 45 0198 01974 5298 441706 348865 202"
"153.016412"
"$GPGGA,002343,2446.7305,N,07949.4803,W,1,9,1.8,17,"
"##MN-00 00 46 0199 01973 5298 441705 348867 202"
"153.016458"
"$GPGGA,002347,2446.7313,N,07949.4786,W,1,8,2.4,17,"
"##MN-00 00 44 0200 01972 5298 441669 348857 202"
"153.016505"
"$GPGGA,002351,2446.7318,N,07949.4768,W,1,9,1.8,17,"
"##MN-00 00 45 0200 01975 5299 441663 348855 202"
"153.016551"
"$GPGGA,002355,2446.7325,N,07949.4747,W,1,9,1.7,17,"
"##MN+00 00 45 0201 01974 5299 441675 348858 202"
"153.016597"
"$GPGGA,002359,2446.7332,N,07949.4732,W,1,9,1.8,17,"
"##MN+00 00 43 0202 01974 5299 441711 348865 202"
"153.016644"
"$GPGGA,002403,2446.7329,N,07949.4704,W,1,10,1.5,17"
"##MN+00 00 53 0203 01974 5299 441684 348858 202"
"153.01669"
"$GPGGA,002407,2446.7336,N,07949.4681,W,1,10,1.5,17"
"##MN-00 00 51 0204 01972 5300 441679 348857 202"
"153.016736"
"#increment_net"
"$GPGGA,002411,2446.7342,N,07949.4663,W,1,10,1.7,18"
"##MN-00 00 45 0205 01973 5300 441681 348859 202"
"153.016782"
"$GPGGA,002415,2446.7349,N,07949.4642,W,1,9,1.7,18,"
"##MN-00 00 45 0205 01972 5300 441689 348862 202"
"153.016829"
"$GPGGA,002419,2446.7356,N,07949.4623,W,1,10,1.5,18"
"##MN-00 00 47 0206 01968 5300 441695 348863 202"
"153.016875"
"$GPGGA,002423,2446.7361,N,07949.4605,W,1,9,1.5,18,"
"##MN-00 00 46 0207 01968 5300 441702 348866 202"
"153.016921"
"$GPGGA,002427,2446.7364,N,07949.4589,W,1,10,1.5,18"
"##MN-00 00 44 0208 01972 5301 441697 348864 202"
"153.016968"
"$GPGGA,002431,2446.7370,N,07949.4569,W,1,8,1.5,18,"
"##MN-00 00 45 0209 01971 5301 441701 348866 202"
"153.017014"
"$GPGGA,002435,2446.7375,N,07949.4553,W,1,9,1.8,18,"
"##MN-00 00 44 0209 01975 5301 441698 348865 202"
"153.01706"
"$GPGGA,002439,2446.7382,N,07949.4536,W,1,9,1.8,18,"
"##MN-00 00 45 0210 01973 5301 441713 348871 202"
"153.017106"
"$GPGGA,002443,2446.7389,N,07949.4511,W,1,10,1.5,18"
"##MN-00 00 43 0211 01973 5302 441717 348872 202"
"153.017153"
"$GPGGA,002447,2446.7393,N,07949.4491,W,1,10,1.4,19"
"##MN-00 00 43 0212 01976 5302 441720 348875 202"
"153.017199"
"$GPGGA,002451,2446.7400,N,07949.4469,W,1,10,1.4,19"
"##MN-00 00 45 0212 01978 5302 441728 348877 202"
"153.017245"
"$GPGGA,002455,2446.7407,N,07949.4448,W,1,10,1.4,19"
"##MN-00 00 42 0213 01976 5302 441735 348877 202"
"153.017292"
"$GPGGA,002459,2446.7414,N,07949.4429,W,1,10,1.4,19"
"##MN-00 00 44 0214 01980 5302 441750 348881 202"
"153.017338"
"$GPGGA,002503,2446.7422,N,07949.4407,W,1,10,1.8,19"
"##MN-00 00 46 0214 01978 5303 441772 348885 202"
"153.017384"
"$GPGGA,002507,2446.7430,N,07949.4389,W,1,9,1.4,19,"
"##MN-00 00 40 0215 01978 5303 441776 348887 202"
"153.017431"
"$GPGGA,002511,2446.7437,N,07949.4368,W,1,10,1.4,19"
"##MN-00 00 42 0216 01978 5303 441759 348884 202"
"153.017477"
"$GPGGA,002515,2446.7444,N,07949.4348,W,1,10,1.4,19"
"##MN-00 00 36 0217 01984 5303 441746 348880 202"
"153.017523"
"$GPGGA,002519,2446.7451,N,07949.4336,W,1,9,1.8,19,"
"##MN-00 00 43 0217 01984 5303 441749 348879 202"
"153.017569"
"$GPGGA,002523,2446.7462,N,07949.4321,W,1,10,1.4,19"
"##MN-00 00 44 0218 01986 5303 441742 348876 202"
"153.017616"
"$GPGGA,002527,2446.7473,N,07949.4299,W,1,10,1.7,19"
"##MN-00 00 42 0219 01986 5304 441709 348864 202"
"153.017662"
"$GPGGA,002531,2446.7480,N,07949.4287,W,1,10,1.4,18"
"##MN-00 00 42 0219 01989 5304 441699 348861 202"
"153.017708"
"$GPGGA,002535,2446.7487,N,07949.4271,W,1,10,1.4,18"
"##MN-00 00 40 0220 01989 5304 441720 348870 202"
"153.017755"
"$GPGGA,002539,2446.7495,N,07949.4245,W,1,10,1.4,18"
"##MN-00 00 40 0221 01987 5304 441699 348865 202"
"153.017801"
"$GPGGA,002543,2446.7502,N,07949.4226,W,1,10,1.4,18"
"##MN-00 00 41 0222 01988 5304 441657 348848 202"
"153.017847"
"$GPGGA,002547,2446.7508,N,07949.4207,W,1,10,1.4,18"
"##MN-00 00 41 0222 01987 5305 441671 348855 202"
"153.017894"
"$GPGGA,002551,2446.7518,N,07949.4189,W,1,9,1.8,18,"
"##MN-00 00 41 0223 01984 5305 441681 348856 202"
"153.01794"
"$GPGGA,002555,2446.7526,N,07949.4170,W,1,9,1.8,18,"
"##MN+00 00 40 0224 01977 5305 441668 348853 202"
"153.017998"
"$GPGGA,002559,2446.7531,N,07949.4146,W,1,10,1.4,18"
"##MN+00 00 42 0225 01971 5305 441674 348855 202"
"153.018044"
"$GPGGA,002603,2446.7537,N,07949.4122,W,1,10,1.4,17"
"##MN+00 00 42 0226 01972 5306 441702 348865 202"
"153.01809"
"$GPGGA,002607,2446.7542,N,07949.4100,W,1,10,1.4,17"
"##MN-00 00 43 0227 01971 5306 441690 348863 202"
"153.018137"
"$GPGGA,002611,2446.7551,N,07949.4082,W,1,10,1.4,17"
"##MN-00 00 44 0228 01968 5306 441664 348856 202"
"153.018183"
"$GPGGA,002615,2446.7562,N,07949.4066,W,1,9,1.8,17,"
"##MN-00 00 44 0228 01969 5306 441641 348845 202"
"153.018229"
"$GPGGA,002619,2446.7567,N,07949.4044,W,1,10,1.4,17"
"##MN-00 00 42 0229 01968 5306 441648 348845 202"
"153.018275"
"$GPGGA,002623,2446.7571,N,07949.4023,W,1,9,1.8,17,"
"##MN+00 00 42 0230 01968 5306 441652 348843 202"
"153.018322"
"$GPGGA,002627,2446.7578,N,07949.4003,W,1,10,1.4,17"
"##MN+00 00 44 0231 01965 5307 441627 348838 202"
"153.018368"
"$GPGGA,002631,2446.7583,N,07949.3981,W,1,10,1.4,17"
"##MN+00 00 56 0232 01967 5307 441625 348839 202"
"153.018414"
"$GPGGA,002635,2446.7589,N,07949.3962,W,1,10,1.4,17"
"##MN-00 00 51 0233 01969 5307 441627 348838 202"
"153.018461"
"#increment_net"
"$GPGGA,002639,2446.7596,N,07949.3943,W,1,10,1.4,17"
"##MN-00 00 47 0234 01972 5307 441644 348843 202"
"153.018507"
"$GPGGA,002643,2446.7602,N,07949.3924,W,1,10,1.4,17"
"##MN-00 00 47 0235 01975 5307 441685 348857 202"
"153.018553"
"$GPGGA,002647,2446.7607,N,07949.3905,W,1,10,1.4,17"
"##MN-00 00 44 0236 01979 5307 441720 348867 202"
"153.0186"
"$GPGGA,002651,2446.7613,N,07949.3886,W,1,10,1.4,17"
"##MN-00 00 43 0237 01982 5307 441690 348856 202"
"153.018646"
"$GPGGA,002655,2446.7620,N,07949.3865,W,1,10,1.4,17"
"##MN-00 00 43 0239 01983 5307 441690 348863 202"
"153.018692"
"$GPGGA,002659,2446.7628,N,07949.3842,W,1,10,1.4,17"
"##MN-00 00 44 0240 01984 5308 441701 348859 202"
"153.018738"
"$GPGGA,002703,2446.7632,N,07949.3820,W,1,10,1.4,17"
"##MN-00 00 39 0241 01988 5308 441681 348855 202"
"153.018785"
"$GPGGA,002707,2446.7641,N,07949.3800,W,1,10,1.4,17"
"##MN-00 00 41 0242 01987 5308 441659 348842 202"
"153.018831"
"$GPGGA,002711,2446.7646,N,07949.3779,W,1,9,1.8,17,"
"##MN-00 00 41 0243 01979 5308 441657 348847 202"
"153.018877"
"$GPGGA,002715,2446.7653,N,07949.3758,W,1,10,1.4,17"
"##MN-00 00 41 0245 01969 5308 441653 348846 202"
"153.018924"
"$GPGGA,002719,2446.7657,N,07949.3735,W,1,10,1.4,17"
"##MN-00 00 40 0246 01961 5309 441662 348848 202"
"153.01897"
"$GPGGA,002723,2446.7664,N,07949.3713,W,1,10,1.4,17"
"##MN-00 00 44 0247 01953 5308 441655 348846 202"
"153.019016"
"$GPGGA,002727,2446.7670,N,07949.3692,W,1,10,1.4,17"
"##MN-00 00 42 0248 01946 5309 441663 348849 202"
"153.019063"
"$GPGGA,002731,2446.7675,N,07949.3670,W,1,10,1.4,17"
"##MN-00 00 43 0250 01937 5309 441689 348858 202"
"153.019109"
"$GPGGA,002735,2446.7681,N,07949.3650,W,1,10,1.4,17"
"##MN-00 00 43 0251 01931 5309 441696 348863 202"
"153.019155"
"$GPGGA,002740,2446.7686,N,07949.3620,W,1,10,1.4,17"
"##MN-00 00 42 0252 01921 5310 441675 348859 202"
"153.019201"
"$GPGGA,002744,2446.7692,N,07949.3599,W,1,9,1.4,17,"
"##MN-00 00 48 0253 01907 5309 441666 348856 202"
"153.019248"
"$GPGGA,002748,2446.7695,N,07949.3575,W,1,10,1.8,17"
"##MN-00 00 45 0254 01898 5310 441647 348851 202"
"153.019294"
"$GPGGA,002752,2446.7704,N,07949.3556,W,1,10,1.4,17"
"##MN-00 00 48 0255 01887 5310 441647 348851 202"
"153.01934"
"$GPGGA,002756,2446.7711,N,07949.3537,W,1,10,1.4,17"
"##MN-00 00 49 0257 01878 5311 441697 348865 202"
"153.019387"
"$GPGGA,002800,2446.7718,N,07949.3517,W,1,10,1.4,17"
"##MN-00 00 42 0258 01870 5311 441678 348861 202"
"153.019433"
"$GPGGA,002804,2446.7724,N,07949.3497,W,1,9,1.4,17,"
"##MN-00 00 44 0259 01861 5311 441657 348859 202"
"153.019479"
"$GPGGA,002808,2446.7729,N,07949.3474,W,1,10,1.4,17"
"##MN-00 00 50 0260 01857 5311 441682 348951 202"
"153.019525"
"$GPGGA,002812,2446.7735,N,07949.3458,W,1,10,1.7,17"
"##MN-00 00 42 0261 01859 5312 441690 348867 202"
