" Tow: 3Wd-A   RVWS/WS1406"
" Date: 06/04/2014"
" Temperature Probe #  2597    Conductivity Probe #  2870"
" Pressure Probe #  109"
" Flow Meter Calibration  4.71 (m/count)  "
"155.769387"
"$GPGGA,182748,2507.0329,N,08012.5055,W,1,10,1.5,16"
"##MN-00 00 19 0085 01853 5766 434783 925136 202"
"155.769433"
"$GPGGA,182756,2507.0346,N,08012.5002,W,1,10,1.5,16"
"##MN-00 00 20 0087 01851 5766 437198 925289 202"
"155.769479"
"$GPGGA,182800,2507.0354,N,08012.4974,W,1,10,1.5,16"
"##MN-00 00 26 0088 01852 5767 436915 925290 202"
"155.769525"
"$GPGGA,182804,2507.0365,N,08012.4948,W,1,10,1.5,16"
"##MN-00 00 25 0089 01851 5767 437863 824490 202"
"155.769572"
"$GPGGA,182808,2507.0372,N,08012.4923,W,1,10,1.5,17"
"##MN-00 00 37 0089 01854 5768 439872 365802 202"
"155.769618"
"$GPGGA,182812,2507.0382,N,08012.4897,W,1,10,1.5,17"
"##MN-00 00 40 0090 01855 5768 439858 348138 202"
"155.769664"
"$GPGGA,182816,2507.0393,N,08012.4872,W,1,10,1.5,17"
"##MN-00 00 39 0090 01853 5769 439790 359853 202"
"155.769711"
"$GPGGA,182820,2507.0401,N,08012.4848,W,1,10,1.5,18"
"##MN-00 00 43 0091 01853 5770 439734 348775 202"
"155.769757"
"$GPGGA,182824,2507.0412,N,08012.4823,W,1,10,1.7,18"
"##MN-00 00 48 0091 01853 5770 439826 348706 202"
"155.769803"
"$GPGGA,182828,2507.0419,N,08012.4799,W,1,9,1.5,18,"
"##MN-00 00 49 0092 01855 5771 439843 348003 202"
"155.76985"
"$GPGGA,182832,2507.0428,N,08012.4775,W,1,9,1.5,18,"
"##MN-00 00 46 0093 01854 5771 439891 348057 202"
"155.769896"
"$GPGGA,182836,2507.0437,N,08012.4751,W,1,10,1.5,18"
"##MN-00 00 47 0093 01853 5771 439890 348034 202"
"155.769942"
"$GPGGA,182840,2507.0444,N,08012.4728,W,1,10,1.5,18"
"##MN-00 00 47 0094 01853 5772 439904 348083 202"
"155.769988"
"$GPGGA,182844,2507.0454,N,08012.4706,W,1,10,1.5,18"
"##MN-00 00 48 0095 01852 5772 439907 348095 202"
"155.770035"
"$GPGGA,182848,2507.0463,N,08012.4683,W,1,10,1.5,18"
"##MN-00 00 50 0095 01854 5772 439912 348112 202"
"155.770081"
"$GPGGA,182852,2507.0472,N,08012.4661,W,1,10,1.5,18"
"##MN-00 00 39 0096 01850 5773 439902 348111 202"
"155.770127"
"$GPGGA,182856,2507.0481,N,08012.4642,W,1,10,1.6,18"
"##MN-00 00 44 0096 01853 5773 439922 348129 202"
"155.770174"
"$GPGGA,182900,2507.0491,N,08012.4618,W,1,10,1.5,18"
"##MN-00 00 45 0097 01856 5774 439906 348123 202"
"155.77022"
"$GPGGA,182904,2507.0499,N,08012.4598,W,1,10,1.5,18"
"##MN-00 00 49 0097 01864 5774 439875 348119 202"
"155.770266"
"$GPGGA,182908,2507.0509,N,08012.4575,W,1,10,1.5,18"
"##MN-00 00 49 0098 01868 5774 439938 348134 202"
"155.770312"
"$GPGGA,182912,2507.0517,N,08012.4554,W,1,10,1.5,18"
"##MN-00 00 50 0098 01877 5774 440030 348163 202"
"155.770359"
"$GPGGA,182916,2507.0524,N,08012.4532,W,1,10,1.5,18"
"##MN-00 00 50 0099 01882 5774 439999 348144 202"
"155.770405"
"$GPGGA,182920,2507.0534,N,08012.4509,W,1,10,1.5,18"
"##MN-00 00 50 0099 01896 5774 439848 348100 202"
"155.770463"
"$GPGGA,182924,2507.0542,N,08012.4486,W,1,10,1.5,18"
"##MN-00 00 49 0100 01905 5774 439925 348144 202"
"155.770509"
"$GPGGA,182928,2507.0552,N,08012.4465,W,1,10,1.7,18"
"##MN-00 00 49 0100 01912 5774 440299 348246 202"
"155.770556"
"$GPGGA,182932,2507.0562,N,08012.4442,W,1,10,1.5,18"
"##MN-00 00 49 0101 01921 5774 440354 348269 202"
"155.770602"
"$GPGGA,182936,2507.0571,N,08012.4421,W,1,10,1.5,18"
"##MN-00 00 50 0101 01929 5774 440403 348283 202"
"155.770648"
"$GPGGA,182941,2507.0582,N,08012.4394,W,1,10,1.5,18"
"##MN-00 00 51 0102 01937 5774 440488 348306 202"
"155.770694"
"$GPGGA,182945,2507.0591,N,08012.4370,W,1,10,1.5,18"
"##MN-00 00 51 0102 01944 5774 440520 348314 202"
"155.770741"
"$GPGGA,182949,2507.0596,N,08012.4347,W,1,10,1.5,18"
"##MN-00 00 49 0103 01957 5774 440586 348326 202"
"155.770787"
"$GPGGA,182953,2507.0603,N,08012.4325,W,1,9,1.6,18,"
"##MN-00 00 49 0103 01970 5774 440660 348347 202"
"155.770833"
"$GPGGA,182956,2507.0607,N,08012.4309,W,1,9,1.6,18,"
"##MN-00 00 50 0104 01975 5774 440728 348355 202"
"155.77088"
"$GPGGA,183000,2507.0611,N,08012.4285,W,1,10,1.5,19"
"##MN-00 00 50 0104 01988 5773 440813 348372 202"
"155.770926"
"$GPGGA,183005,2507.0618,N,08012.4260,W,1,9,1.6,19,"
"##MN-00 00 50 0104 01997 5773 440907 348394 202"
"155.770972"
"$GPGGA,183009,2507.0624,N,08012.4242,W,1,9,1.6,19,"
"##MN-00 00 50 0105 02008 5773 441011 348411 202"
"155.771019"
"$GPGGA,183013,2507.0629,N,08012.4223,W,1,10,1.5,19"
"##MN-00 00 48 0105 02013 5773 441098 348422 202"
"155.771065"
"$GPGGA,183017,2507.0631,N,08012.4203,W,1,9,1.7,19,"
"##MN-00 00 49 0106 02021 5772 441160 348435 202"
"155.771111"
"$GPGGA,183021,2507.0636,N,08012.4186,W,1,10,1.9,19"
"##MN-00 00 48 0106 02032 5772 441182 348437 202"
"155.771157"
"$GPGGA,183025,2507.0639,N,08012.4169,W,1,8,1.9,19,"
"##MN-00 00 47 0107 02037 5772 441207 348440 202"
"155.771204"
"$GPGGA,183029,2507.0642,N,08012.4150,W,1,10,1.5,19"
"##MN-00 00 49 0107 02047 5772 441228 348442 202"
"155.77125"
"$GPGGA,183033,2507.0649,N,08012.4132,W,1,10,1.5,19"
"##MN-00 00 48 0108 02055 5771 441240 348443 202"
"155.771296"
"$GPGGA,183037,2507.0654,N,08012.4113,W,1,9,1.7,19,"
"##MN-00 00 46 0108 02061 5771 441293 348456 202"
"155.771343"
"$GPGGA,183041,2507.0657,N,08012.4101,W,1,9,1.6,19,"
"##MN-00 00 48 0108 02076 5771 442803 348873 202"
"155.771389"
"$GPGGA,183045,2507.0658,N,08012.4086,W,1,9,1.7,19,"
"##MN-00 00 46 0109 02084 5770 445575 349559 202"
"155.771435"
"$GPGGA,183049,2507.0658,N,08012.4070,W,1,9,1.7,18,"
"##MN-00 00 48 0109 02093 5770 447935 350317 202"
"155.771482"
"$GPGGA,183053,2507.0664,N,08012.4052,W,1,10,1.5,18"
"##MN-00 00 49 0110 02100 5769 448490 350503 202"
"155.771528"
"$GPGGA,183057,2507.0668,N,08012.4034,W,1,10,1.5,18"
"##MN-00 00 49 0110 02112 5769 448569 350550 202"
"155.771574"
"$GPGGA,183101,2507.0668,N,08012.4018,W,1,9,1.7,18,"
"##MN-00 00 48 0111 02121 5768 448663 350588 202"
"155.77162"
"$GPGGA,183105,2507.0670,N,08012.4001,W,1,10,1.5,18"
"##MN-00 00 44 0111 02125 5768 448860 350649 202"
"155.771667"
"$GPGGA,183109,2507.0675,N,08012.3982,W,1,9,1.7,18,"
"##MN-00 00 45 0111 02135 5767 448995 350711 202"
"155.771713"
"$GPGGA,183113,2507.0676,N,08012.3963,W,1,10,1.5,17"
"##MN-00 00 46 0112 02140 5767 449339 350842 202"
"155.771759"
"$GPGGA,183117,2507.0678,N,08012.3940,W,1,9,1.7,17,"
"##MN-00 00 44 0112 02144 5766 449643 350952 202"
"155.771806"
"$GPGGA,183121,2507.0678,N,08012.3919,W,1,9,1.7,16,"
"##MN-00 00 47 0113 02150 5765 449826 351012 202"
"155.771852"
"$GPGGA,183125,2507.0681,N,08012.3898,W,1,9,1.7,16,"
"##MN-00 00 46 0113 02157 5764 450082 351122 202"
"155.771898"
"$GPGGA,183129,2507.0690,N,08012.3877,W,1,10,1.5,16"
"##MN-00 00 46 0114 02160 5764 450262 351173 202"
"155.771944"
"$GPGGA,183133,2507.0697,N,08012.3858,W,1,10,1.5,16"
"##MN-00 00 48 0114 02166 5764 450470 351241 202"
"155.771991"
"$GPGGA,183137,2507.0699,N,08012.3837,W,1,8,1.9,17,"
"##MN-00 00 44 0115 02172 5762 450594 351287 202"
"155.772037"
"$GPGGA,183141,2507.0704,N,08012.3816,W,1,9,1.6,17,"
"##MN-00 00 41 0115 02177 5762 450720 351324 202"
"155.772083"
"$GPGGA,183145,2507.0705,N,08012.3796,W,1,9,1.6,18,"
"##MN-00 00 46 0115 02184 5761 450834 351375 202"
"155.77213"
"$GPGGA,183149,2507.0706,N,08012.3770,W,1,9,1.7,18,"
"##MN-00 00 49 0116 02190 5760 450939 351409 202"
"155.772176"
"$GPGGA,183153,2507.0708,N,08012.3749,W,1,8,1.9,18,"
"##MN-00 00 48 0116 02198 5759 451071 351452 202"
"155.772222"
"$GPGGA,183157,2507.0708,N,08012.3725,W,1,10,1.5,18"
"##MN-00 00 47 0117 02200 5758 451148 351475 202"
"155.772269"
"$GPGGA,183201,2507.0708,N,08012.3695,W,1,9,1.7,18,"
"##MN-00 00 48 0117 02203 5758 451384 351548 202"
"155.772315"
"$GPGGA,183205,2507.0710,N,08012.3671,W,1,8,1.9,19,"
"##MN-00 00 45 0118 02212 5757 451669 351623 202"
"155.772361"
"$GPGGA,183209,2507.0711,N,08012.3646,W,1,9,1.7,19,"
"##MN-00 00 49 0118 02216 5756 452054 351758 202"
"155.772407"
"$GPGGA,183213,2507.0712,N,08012.3624,W,1,10,1.5,19"
"##MN-00 00 49 0119 02220 5755 452449 351883 202"
"155.772454"
"$GPGGA,183217,2507.0713,N,08012.3599,W,1,9,1.7,19,"
"##MN-00 00 46 0119 02227 5754 452743 351965 202"
"155.7725"
"$GPGGA,183221,2507.0715,N,08012.3570,W,1,9,1.6,19,"
"##MN-00 00 47 0120 02231 5753 453185 352142 202"
"155.772546"
"$GPGGA,183225,2507.0719,N,08012.3545,W,1,9,1.6,19,"
"##MN-00 00 49 0121 02238 5752 453555 352284 202"
"155.772593"
"$GPGGA,183229,2507.0715,N,08012.3514,W,1,9,1.7,19,"
"##MN-00 00 50 0121 02245 5751 453809 352369 202"
"155.772639"
"$GPGGA,183233,2507.0714,N,08012.3489,W,1,9,1.7,20,"
"##MN-00 00 49 0121 02247 5750 453948 352409 202"
"155.772685"
"$GPGGA,183237,2507.0712,N,08012.3462,W,1,9,1.7,20,"
"##MN-00 00 49 0122 02251 5749 453998 352433 202"
"155.772731"
"$GPGGA,183241,2507.0712,N,08012.3440,W,1,8,1.9,20,"
"##MN-00 00 50 0123 02260 5748 454187 352528 202"
"155.772778"
"$GPGGA,183245,2507.0713,N,08012.3416,W,1,9,1.7,20,"
"##MN-00 00 51 0123 02266 5747 454435 352583 202"
"155.772824"
"$GPGGA,183249,2507.0712,N,08012.3387,W,1,9,1.7,19,"
"##MN-00 00 50 0124 02267 5746 454561 352637 202"
"155.77287"
"$GPGGA,183253,2507.0712,N,08012.3359,W,1,9,1.7,19,"
"##MN-00 00 48 0124 02272 5745 454827 352719 202"
"155.772917"
"$GPGGA,183257,2507.0712,N,08012.3333,W,1,9,1.7,19,"
"##MN-00 00 48 0125 02275 5744 455051 352801 202"
"155.772963"
"$GPGGA,183301,2507.0711,N,08012.3306,W,1,9,1.7,19,"
"##MN-00 00 48 0125 02282 5743 455209 352849 202"
"155.773009"
"$GPGGA,183305,2507.0712,N,08012.3282,W,1,9,1.7,18,"
"##MN-00 00 44 0126 02285 5741 455275 352873 202"
"155.773056"
"$GPGGA,183309,2507.0712,N,08012.3261,W,1,8,1.9,18,"
"##MN-00 00 49 0126 02291 5740 455300 352887 202"
"155.773102"
"$GPGGA,183313,2507.0710,N,08012.3240,W,1,8,1.9,18,"
"##MN-00 00 50 0127 02301 5739 455367 352919 202"
"155.773148"
"$GPGGA,183317,2507.0709,N,08012.3215,W,1,8,1.9,18,"
"##MN-00 00 51 0127 02309 5737 455435 352935 202"
"155.773194"
"$GPGGA,183321,2507.0709,N,08012.3192,W,1,9,1.7,17,"
"##MN-00 00 51 0128 02313 5736 455582 352974 202"
"155.773241"
"$GPGGA,183325,2507.0710,N,08012.3168,W,1,8,1.9,17,"
"##MN-00 00 52 0128 02314 5735 455720 353029 202"
"155.773287"
"$GPGGA,183329,2507.0710,N,08012.3143,W,1,9,1.7,16,"
"##MN-00 00 51 0129 02319 5733 455994 353109 202"
"155.773333"
"$GPGGA,183333,2507.0710,N,08012.3119,W,1,9,1.7,16,"
"##MN-00 00 49 0129 02328 5733 456239 353200 202"
"155.77338"
"$GPGGA,183337,2507.0708,N,08012.3093,W,1,9,1.7,16,"
"##MN-00 00 46 0130 02334 5731 456496 353272 202"
"155.773426"
"$GPGGA,183341,2507.0705,N,08012.3067,W,1,9,1.7,16,"
"##MN-00 00 51 0131 02343 5730 456601 353309 202"
"155.773472"
"$GPGGA,183345,2507.0705,N,08012.3042,W,1,9,1.7,16,"
"##MN-00 00 52 0131 02349 5729 456748 353370 202"
"155.773518"
"$GPGGA,183349,2507.0705,N,08012.3017,W,1,9,1.7,16,"
"##MN-00 00 51 0132 02354 5727 457065 353463 202"
"155.773565"
"$GPGGA,183353,2507.0704,N,08012.2991,W,1,9,1.7,16,"
"##MN-00 00 51 0133 02356 5726 457155 353493 202"
"155.773611"
"$GPGGA,183357,2507.0701,N,08012.2966,W,1,9,1.7,16,"
"##MN-00 00 50 0133 02363 5724 457311 353522 202"
"155.773657"
"$GPGGA,183401,2507.0698,N,08012.2942,W,1,9,1.9,16,"
"##MN-00 00 51 0134 02369 5723 457369 353536 202"
"155.773715"
"$GPGGA,183405,2507.0697,N,08012.2918,W,1,9,1.7,15,"
"##MN-00 00 49 0135 02374 5722 457436 353555 202"
"155.773762"
"$GPGGA,183409,2507.0698,N,08012.2895,W,1,9,1.7,15,"
"##MN-00 00 52 0135 02380 5720 457545 353568 202"
"155.773808"
"$GPGGA,183413,2507.0697,N,08012.2870,W,1,8,1.9,15,"
"##MN-00 00 51 0136 02381 5718 457558 353565 202"
"155.773854"
"$GPGGA,183417,2507.0696,N,08012.2839,W,1,9,1.7,15,"
"##MN-00 00 51 0136 02390 5717 457640 353601 202"
"155.7739"
"$GPGGA,183422,2507.0701,N,08012.2806,W,1,8,1.7,15,"
"##MN-00 00 52 0137 02391 5716 457927 353695 202"
"155.773947"
"$GPGGA,183425,2507.0704,N,08012.2786,W,1,9,1.7,16,"
"##MN-00 00 54 0138 02398 5714 458191 353799 202"
"155.773993"
"$GPGGA,183430,2507.0708,N,08012.2753,W,1,9,1.7,17,"
"##MN-00 00 51 0138 02404 5712 458399 353827 202"
"155.774039"
"$GPGGA,183433,2507.0707,N,08012.2736,W,1,9,1.7,18,"
"##MN-00 00 50 0139 02403 5711 458529 353886 202"
"155.774086"
"$GPGGA,183438,2507.0705,N,08012.2708,W,1,9,1.7,19,"
"##MN-00 00 48 0140 02401 5709 458485 353865 202"
"155.774132"
"$GPGGA,183442,2507.0703,N,08012.2685,W,1,9,1.7,20,"
"##MN-00 00 46 0141 02401 5708 458499 353861 202"
"155.774178"
"$GPGGA,183446,2507.0699,N,08012.2662,W,1,9,1.7,20,"
"##MN-00 00 49 0141 02400 5706 458432 353851 202"
"155.774225"
"$GPGGA,183450,2507.0698,N,08012.2636,W,1,9,1.7,20,"
"##MN-00 00 49 0142 02396 5704 458421 353848 202"
"155.774271"
"$GPGGA,183454,2507.0694,N,08012.2609,W,1,9,1.7,20,"
"##MN-00 00 47 0143 02395 5703 458343 353826 202"
"155.774317"
"$GPGGA,183458,2507.0691,N,08012.2585,W,1,9,1.7,21,"
"##MN-00 00 50 0144 02395 5701 457951 353702 202"
"155.774363"
"$GPGGA,183502,2507.0690,N,08012.2559,W,1,9,1.7,21,"
"##MN-00 00 49 0145 02394 5699 457920 353708 202"
"155.77441"
"$GPGGA,183506,2507.0686,N,08012.2535,W,1,9,1.7,21,"
"##MN-00 00 50 0145 02390 5698 457904 353704 202"
"155.774456"
"$GPGGA,183510,2507.0685,N,08012.2510,W,1,9,1.7,21,"
"##MN-00 00 52 0146 02390 5696 457940 353714 202"
"155.774502"
"$GPGGA,183514,2507.0681,N,08012.2485,W,1,9,1.9,20,"
"##MN-00 00 49 0147 02390 5695 457987 353726 202"
"155.774549"
"$GPGGA,183518,2507.0679,N,08012.2463,W,1,9,1.7,20,"
"##MN-00 00 51 0148 02392 5693 458043 353751 202"
"155.774595"
"$GPGGA,183522,2507.0676,N,08012.2438,W,1,8,1.7,20,"
"##MN-00 00 50 0149 02391 5691 458107 353773 202"
"155.774641"
"$GPGGA,183526,2507.0674,N,08012.2415,W,1,8,1.7,20,"
"##MN-00 00 51 0149 02390 5690 458140 353778 202"
"155.774688"
"$GPGGA,183530,2507.0671,N,08012.2388,W,1,9,1.7,20,"
"##MN-00 00 51 0150 02390 5688 458205 353809 202"
"155.774734"
"$GPGGA,183534,2507.0668,N,08012.2364,W,1,9,1.7,19,"
"##MN-00 00 50 0151 02387 5686 458244 353811 202"
"155.77478"
"$GPGGA,183538,2507.0663,N,08012.2337,W,1,9,1.7,19,"
"##MN-00 00 51 0152 02390 5685 458299 353836 202"
"155.774826"
"$GPGGA,183542,2507.0664,N,08012.2314,W,1,9,1.7,19,"
"##MN-00 00 51 0153 02387 5683 458341 353853 202"
"155.774873"
"$GPGGA,183546,2507.0661,N,08012.2290,W,1,9,1.7,19,"
"##MN-00 00 50 0153 02389 5681 458369 353858 202"
"155.774919"
"$GPGGA,183550,2507.0661,N,08012.2266,W,1,9,1.7,19,"
"##MN-00 00 50 0154 02392 5679 458399 353861 202"
"155.774965"
"$GPGGA,183554,2507.0660,N,08012.2242,W,1,9,1.7,19,"
"##MN-00 00 50 0155 02391 5677 458469 353899 202"
"155.775012"
"$GPGGA,183558,2507.0658,N,08012.2217,W,1,9,1.7,19,"
"##MN-00 00 49 0156 02394 5676 458548 353915 202"
"155.775058"
"$GPGGA,183602,2507.0656,N,08012.2193,W,1,8,1.7,19,"
"##MN-00 00 52 0156 02394 5674 458608 353933 202"
"155.775104"
"$GPGGA,183606,2507.0656,N,08012.2169,W,1,9,1.7,19,"
"##MN-00 00 53 0157 02399 5672 458741 353980 202"
"155.77515"
"$GPGGA,183610,2507.0655,N,08012.2143,W,1,8,1.7,18,"
"##MN-00 00 52 0158 02400 5670 458881 354021 202"
"155.775197"
"$GPGGA,183614,2507.0656,N,08012.2118,W,1,9,1.7,18,"
"##MN-00 00 54 0158 02401 5669 458902 354022 202"
"155.775243"
"$GPGGA,183618,2507.0654,N,08012.2098,W,1,9,2.0,18,"
"##MN-00 00 49 0159 02401 5667 458950 354039 202"
"155.775289"
"$GPGGA,183622,2507.0652,N,08012.2075,W,1,8,2.0,18,"
"##MN-00 00 50 0160 02402 5665 458961 354042 202"
"155.775336"
"$GPGGA,183626,2507.0652,N,08012.2048,W,1,9,1.7,17,"
"##MN-00 00 49 0161 02404 5663 458983 354034 202"
"155.775382"
"$GPGGA,183630,2507.0650,N,08012.2026,W,1,9,1.7,17,"
"##MN-00 00 51 0161 02407 5661 458915 354029 202"
"155.775428"
"$GPGGA,183634,2507.0649,N,08012.2002,W,1,9,1.7,17,"
"##MN+00 00 52 0162 02404 5660 458999 354068 202"
"155.775475"
"$GPGGA,183638,2507.0647,N,08012.1982,W,1,8,1.7,17,"
"##MN+00 00 52 0163 02408 5658 459019 354066 201"
"155.775521"
"$GPGGA,183642,2507.0646,N,08012.1960,W,1,9,1.7,17,"
"##MN+00 00 50 0164 02407 5656 458982 354056 201"
"155.775567"
"$GPGGA,183646,2507.0645,N,08012.1937,W,1,9,2.0,17,"
"##MN-00 00 50 0164 02409 5654 458991 354059 200"
"155.775613"
"$GPGGA,183650,2507.0644,N,08012.1911,W,1,9,1.7,17,"
"##MN+00 00 50 0165 02406 5652 459018 354068 200"
"155.77566"
"$GPGGA,183654,2507.0643,N,08012.1888,W,1,9,2.0,17,"
"##MN+00 00 51 0166 02408 5651 459052 354082 198"
"155.775706"
"$GPGGA,183658,2507.0643,N,08012.1868,W,1,9,1.7,17,"
"##MN+00 00 59 0166 02411 5649 459070 354087 201"
"155.775752"
"$GPGGA,183702,2507.0644,N,08012.1845,W,1,9,2.0,17,"
"##MN-00 00 58 0167 02411 5647 459094 354091 201"
"155.775799"
"#increment_net"
"$GPGGA,183706,2507.0645,N,08012.1823,W,1,9,1.7,16,"
"##MN-00 00 51 0168 02417 5645 459108 354097 201"
"155.775845"
"$GPGGA,183710,2507.0646,N,08012.1801,W,1,9,1.7,16,"
"##MN-00 00 52 0168 02415 5643 459135 354108 201"
"155.775891"
"$GPGGA,183714,2507.0644,N,08012.1776,W,1,9,1.7,16,"
"##MN-00 00 48 0169 02413 5641 459143 354112 201"
"155.775937"
"$GPGGA,183718,2507.0645,N,08012.1754,W,1,9,2.0,16,"
"##MN-00 00 46 0170 02410 5639 459144 354117 201"
"155.775984"
"$GPGGA,183722,2507.0646,N,08012.1730,W,1,9,1.7,16,"
"##MN-00 00 49 0170 02402 5638 459097 354114 201"
"155.77603"
"$GPGGA,183726,2507.0645,N,08012.1707,W,1,8,2.0,16,"
"##MN-00 00 49 0171 02399 5636 458743 354035 201"
"155.776076"
"$GPGGA,183730,2507.0645,N,08012.1681,W,1,8,1.7,15,"
"##MN-00 00 49 0172 02397 5634 458376 353922 201"
"155.776123"
"$GPGGA,183734,2507.0645,N,08012.1658,W,1,8,1.7,15,"
"##MN-00 00 48 0173 02400 5632 458283 353871 201"
"155.776169"
"$GPGGA,183738,2507.0646,N,08012.1635,W,1,9,2.0,15,"
"##MN-00 00 50 0173 02399 5630 458140 353839 201"
"155.776215"
"$GPGGA,183742,2507.0646,N,08012.1612,W,1,9,1.7,15,"
"##MN-00 00 51 0174 02398 5628 458094 353819 201"
"155.776262"
"$GPGGA,183746,2507.0644,N,08012.1587,W,1,9,1.7,14,"
"##MN-00 00 51 0175 02396 5627 458091 353812 201"
"155.776308"
"$GPGGA,183750,2507.0643,N,08012.1562,W,1,9,1.7,14,"
"##MN-00 00 49 0176 02398 5624 458060 353801 201"
"155.776354"
"$GPGGA,183754,2507.0643,N,08012.1538,W,1,9,1.7,14,"
"##MN-00 00 49 0176 02395 5622 458088 353812 201"
"155.7764"
"$GPGGA,183758,2507.0640,N,08012.1512,W,1,9,1.7,14,"
"##MN-00 00 52 0177 02394 5621 458110 353813 201"
"155.776447"
"$GPGGA,183802,2507.0639,N,08012.1490,W,1,8,1.7,15,"
"##MN-00 00 49 0178 02395 5619 458229 353853 201"
"155.776493"
"$GPGGA,183806,2507.0638,N,08012.1463,W,1,9,1.7,15,"
"##MN-00 00 49 0179 02393 5617 458253 353864 201"
"155.776539"
"$GPGGA,183810,2507.0635,N,08012.1446,W,1,9,1.7,15,"
"##MN-00 00 48 0180 02391 5615 458144 353812 201"
"155.776586"
"$GPGGA,183814,2507.0632,N,08012.1415,W,1,9,1.7,15,"
"##MN-00 00 49 0180 02388 5613 458078 353807 201"
"155.776632"
"$GPGGA,183818,2507.0629,N,08012.1395,W,1,9,1.7,15,"
"##MN-00 00 46 0181 02388 5611 457962 353778 201"
"155.776678"
"$GPGGA,183822,2507.0627,N,08012.1364,W,1,9,1.7,15,"
"##MN-00 00 54 0182 02384 5610 457764 353709 201"
"155.776724"
"$GPGGA,183826,2507.0625,N,08012.1347,W,1,9,1.7,15,"
"##MN-00 00 53 0183 02385 5608 457658 353672 201"
"155.776771"
"$GPGGA,183830,2507.0624,N,08012.1316,W,1,8,1.7,15,"
"##MN-00 00 54 0183 02384 5606 457722 353689 201"
"155.776829"
"$GPGGA,183834,2507.0621,N,08012.1301,W,1,9,1.7,15,"
"##MN-00 00 52 0184 02385 5604 457794 353709 201"
"155.776875"
"$GPGGA,183838,2507.0620,N,08012.1270,W,1,9,1.7,15,"
"##MN-00 00 55 0185 02382 5602 457919 353760 201"
"155.776921"
"$GPGGA,183842,2507.0620,N,08012.1249,W,1,9,2.0,15,"
"##MN-00 00 52 0186 02386 5600 457898 353747 201"
"155.776968"
"$GPGGA,183846,2507.0618,N,08012.1226,W,1,9,1.7,15,"
"##MN-00 00 49 0186 02388 5598 457917 353754 201"
"155.777014"
"$GPGGA,183851,2507.0618,N,08012.1197,W,1,9,1.7,15,"
"##MN-00 00 50 0187 02388 5596 457909 353750 201"
"155.77706"
"$GPGGA,183854,2507.0616,N,08012.1179,W,1,9,1.7,15,"
"##MN-00 00 52 0188 02389 5595 457857 353729 201"
"155.777106"
"$GPGGA,183859,2507.0617,N,08012.1151,W,1,9,1.7,15,"
"##MN-00 00 49 0188 02388 5593 457804 353711 201"
"155.777153"
"$GPGGA,183903,2507.0613,N,08012.1126,W,1,9,1.7,15,"
"##MN-00 00 52 0189 02387 5591 457658 353668 201"
"155.777199"
"$GPGGA,183907,2507.0612,N,08012.1103,W,1,9,1.7,15,"
"##MN-00 00 52 0190 02387 5589 457590 353648 201"
"155.777245"
"$GPGGA,183911,2507.0611,N,08012.1079,W,1,9,1.7,15,"
"##MN+00 00 45 0191 02384 5587 457625 353653 201"
"155.777292"
"$GPGGA,183915,2507.0607,N,08012.1055,W,1,9,1.7,15,"
"##MN+00 00 51 0191 02387 5585 457379 353583 201"
"155.777338"
"$GPGGA,183919,2507.0607,N,08012.1031,W,1,9,1.7,15,"
"##MN+00 00 51 0192 02384 5584 457375 353581 198"
"155.777384"
"$GPGGA,183923,2507.0607,N,08012.1007,W,1,9,1.7,16,"
"##MN-00 00 54 0193 02383 5582 457323 353555 200"
"155.777431"
"$GPGGA,183927,2507.0605,N,08012.0988,W,1,9,1.7,16,"
"##MN-00 00 50 0194 02385 5580 457273 353542 200"
"155.777477"
"$GPGGA,183931,2507.0607,N,08012.0966,W,1,9,1.7,16,"
"##MN-00 00 51 0195 02383 5578 457253 353545 200"
"155.777523"
"$GPGGA,183935,2507.0607,N,08012.0945,W,1,9,1.7,15,"
"##MN-00 00 49 0195 02386 5576 457193 353517 200"
"155.777569"
"$GPGGA,183939,2507.0604,N,08012.0922,W,1,9,1.7,15,"
"##MN-00 00 48 0196 02384 5574 457142 353499 200"
"155.777616"
"$GPGGA,183943,2507.0606,N,08012.0893,W,1,9,1.7,15,"
"##MN+00 00 51 0197 02382 5572 457119 353493 200"
"155.777662"
"$GPGGA,183947,2507.0605,N,08012.0869,W,1,9,1.7,15,"
"##MN+00 00 53 0198 02379 5570 457070 353474 200"
"155.777708"
"$GPGGA,183951,2507.0606,N,08012.0847,W,1,8,2.0,15,"
"##MN+00 00 59 0198 02385 5569 457043 353466 201"
"155.777755"
"$GPGGA,183955,2507.0607,N,08012.0822,W,1,9,1.7,14,"
"##MN-00 00 57 0199 02381 5567 457096 353477 199"
"155.777801"
"#increment_net"
"$GPGGA,183959,2507.0607,N,08012.0799,W,1,9,1.7,14,"
"##MN-00 00 52 0200 02382 5565 457105 353480 199"
"155.777847"
"$GPGGA,184003,2507.0607,N,08012.0775,W,1,9,1.7,14,"
"##MN-00 00 51 0201 02384 5563 457130 353487 199"
"155.777894"
"$GPGGA,184007,2507.0607,N,08012.0749,W,1,9,1.7,14,"
"##MN-00 00 51 0202 02383 5562 457159 353494 199"
"155.77794"
"$GPGGA,184011,2507.0605,N,08012.0724,W,1,8,2.0,14,"
"##MN-00 00 51 0203 02384 5560 457153 353500 199"
"155.777986"
"$GPGGA,184015,2507.0604,N,08012.0698,W,1,9,1.7,14,"
"##MN-00 00 50 0204 02385 5558 457189 353510 199"
"155.778032"
"$GPGGA,184019,2507.0603,N,08012.0671,W,1,9,1.7,14,"
"##MN-00 00 50 0204 02389 5556 457253 353524 199"
"155.778079"
"$GPGGA,184023,2507.0605,N,08012.0646,W,1,9,1.7,14,"
"##MN-00 00 47 0205 02389 5554 457308 353550 199"
"155.778125"
"$GPGGA,184027,2507.0605,N,08012.0621,W,1,9,1.7,14,"
"##MN-00 00 50 0206 02386 5553 457363 353563 199"
"155.778171"
"$GPGGA,184031,2507.0605,N,08012.0599,W,1,9,1.7,14,"
"##MN-00 00 50 0207 02393 5551 457402 353582 199"
"155.778218"
"$GPGGA,184035,2507.0605,N,08012.0577,W,1,9,1.7,14,"
"##MN-00 00 48 0207 02393 5549 457503 353622 199"
"155.778264"
"$GPGGA,184039,2507.0604,N,08012.0555,W,1,9,1.7,14,"
"##MN-00 00 50 0208 02397 5547 457614 353658 199"
"155.77831"
"$GPGGA,184043,2507.0606,N,08012.0533,W,1,9,1.7,14,"
"##MN-00 00 46 0209 02398 5546 457799 353701 199"
"155.778356"
"$GPGGA,184047,2507.0605,N,08012.0511,W,1,9,1.7,14,"
"##MN-00 00 51 0209 02400 5544 457806 353718 199"
"155.778403"
"$GPGGA,184051,2507.0603,N,08012.0490,W,1,9,1.7,14,"
"##MN-00 00 51 0210 02400 5542 457814 353710 199"
"155.778449"
"$GPGGA,184055,2507.0603,N,08012.0468,W,1,9,1.7,14,"
"##MN-00 00 49 0211 02401 5540 457807 353710 199"
"155.778495"
"$GPGGA,184059,2507.0602,N,08012.0447,W,1,9,1.7,14,"
"##MN-00 00 50 0212 02401 5539 457669 353685 199"
"155.778542"
"$GPGGA,184103,2507.0600,N,08012.0423,W,1,9,1.7,14,"
"##MN-00 00 51 0213 02400 5537 457549 353627 199"
"155.778588"
"$GPGGA,184107,2507.0598,N,08012.0400,W,1,9,1.7,14,"
"##MN-00 00 50 0214 02402 5535 457413 353607 199"
"155.778634"
"$GPGGA,184111,2507.0599,N,08012.0378,W,1,9,1.7,14,"
"##MN-00 00 51 0214 02402 5534 457317 353556 199"
"155.778681"
"$GPGGA,184115,2507.0597,N,08012.0355,W,1,9,1.7,14,"
"##MN-00 00 49 0215 02403 5532 457267 353539 199"
"155.778727"
"$GPGGA,184119,2507.0596,N,08012.0332,W,1,9,1.7,14,"
"##MN-00 00 50 0216 02402 5530 457186 353515 199"
"155.778773"
"$GPGGA,184123,2507.0594,N,08012.0310,W,1,9,1.7,14,"
"##MN-00 00 51 0217 02402 5528 457084 353465 199"
"155.778819"
"$GPGGA,184127,2507.0594,N,08012.0287,W,1,9,1.7,14,"
"##MN-00 00 50 0218 02399 5526 457033 353459 199"
"155.778866"
"$GPGGA,184131,2507.0592,N,08012.0263,W,1,9,1.7,14,"
"##MN-00 00 46 0218 02402 5525 456988 353434 199"
"155.778912"
"$GPGGA,184135,2507.0590,N,08012.0243,W,1,9,1.7,14,"
"##MN-00 00 47 0219 02406 5523 457000 353437 199"
"155.778958"
"$GPGGA,184139,2507.0589,N,08012.0221,W,1,9,1.7,14,"
"##MN-00 00 50 0220 02402 5522 456978 353430 199"
"155.779005"
"$GPGGA,184143,2507.0589,N,08012.0198,W,1,9,1.7,14,"
"##MN-00 00 48 0220 02403 5520 456971 353427 199"
"155.779051"
"$GPGGA,184147,2507.0589,N,08012.0175,W,1,9,1.7,14,"
"##MN-00 00 51 0221 02405 5518 456954 353421 199"
"155.779097"
"$GPGGA,184151,2507.0589,N,08012.0154,W,1,9,1.7,14,"
"##MN+00 00 48 0222 02405 5516 456944 353417 199"
"155.779143"
"$GPGGA,184155,2507.0586,N,08012.0130,W,1,10,1.6,14"
"##MN+00 00 51 0223 02402 5515 456917 353405 201"
"155.77919"
"$GPGGA,184159,2507.0584,N,08012.0107,W,1,10,1.6,14"
"##MN+00 00 51 0223 02403 5513 456897 353400 201"
"155.779236"
"$GPGGA,184203,2507.0584,N,08012.0083,W,1,10,1.6,14"
"##MN-00 00 52 0224 02398 5511 456880 353392 201"
"155.779282"
"$GPGGA,184207,2507.0582,N,08012.0060,W,1,10,1.6,14"
"##MN-00 00 53 0225 02398 5509 456834 353377 201"
"155.779329"
"$GPGGA,184211,2507.0582,N,08012.0038,W,1,10,1.6,14"
"##MN-00 00 49 0225 02403 5508 456854 353380 201"
"155.779375"
"$GPGGA,184215,2507.0582,N,08012.0016,W,1,10,1.6,14"
"##MN-00 00 47 0226 02403 5506 456835 353373 201"
"155.779421"
"$GPGGA,184219,2507.0580,N,08011.9995,W,1,10,1.6,14"
"##MN-00 00 52 0227 02407 5505 456811 353366 201"
"155.779468"
"$GPGGA,184223,2507.0580,N,08011.9972,W,1,10,1.6,14"
"##MN+00 00 51 0228 02406 5503 456814 353365 201"
"155.779514"
"$GPGGA,184227,2507.0582,N,08011.9950,W,1,10,1.6,14"
"##MN+00 00 53 0228 02405 5501 456826 353371 201"
"155.77956"
"$GPGGA,184231,2507.0580,N,08011.9928,W,1,10,1.6,14"
"##MN+00 00 61 0229 02408 5500 456879 353386 200"
"155.779607"
"#increment_net"
"$GPGGA,184235,2507.0582,N,08011.9905,W,1,10,1.6,14"
"##MN-00 00 57 0230 02406 5498 456901 353390 201"
"155.779653"
"$GPGGA,184239,2507.0580,N,08011.9884,W,1,10,1.6,14"
"##MN-00 00 51 0231 02407 5496 456856 353371 201"
"155.779699"
"$GPGGA,184243,2507.0580,N,08011.9863,W,1,10,1.6,14"
"##MN-00 00 49 0231 02410 5495 456833 353366 201"
"155.779745"
"$GPGGA,184247,2507.0578,N,08011.9841,W,1,10,1.6,14"
"##MN-00 00 48 0232 02406 5493 456801 353352 201"
"155.779792"
"$GPGGA,184251,2507.0576,N,08011.9819,W,1,10,1.6,14"
"##MN-00 00 47 0233 02407 5491 456766 353342 201"
"155.779838"
"$GPGGA,184255,2507.0575,N,08011.9798,W,1,10,1.6,14"
"##MN-00 00 49 0234 02405 5490 456793 353354 201"
"155.779884"
"$GPGGA,184259,2507.0574,N,08011.9774,W,1,10,1.6,14"
"##MN-00 00 46 0234 02403 5488 456807 353355 201"
"155.779931"
"$GPGGA,184303,2507.0572,N,08011.9749,W,1,9,1.7,14,"
"##MN-00 00 49 0235 02399 5486 456795 353352 201"
"155.779988"
"$GPGGA,184307,2507.0571,N,08011.9726,W,1,10,1.6,14"
"##MN-00 00 48 0236 02405 5485 456788 353347 201"
"155.780035"
"$GPGGA,184311,2507.0571,N,08011.9703,W,1,10,1.6,14"
"##MN-00 00 48 0236 02401 5483 456759 353323 201"
"155.780081"
"$GPGGA,184315,2507.0568,N,08011.9679,W,1,10,1.6,14"
"##MN-00 00 48 0237 02402 5482 456721 353317 201"
"155.780127"
"$GPGGA,184319,2507.0567,N,08011.9657,W,1,10,1.6,14"
"##MN-00 00 49 0238 02403 5480 456719 353316 201"
"155.780174"
"$GPGGA,184323,2507.0564,N,08011.9636,W,1,10,1.6,14"
"##MN-00 00 48 0239 02405 5479 456730 353322 201"
"155.78022"
"$GPGGA,184327,2507.0562,N,08011.9614,W,1,10,1.6,14"
"##MN-00 00 54 0239 02400 5477 456797 353346 201"
"155.780266"
"$GPGGA,184331,2507.0561,N,08011.9591,W,1,10,1.6,14"
"##MN-00 00 46 0240 02404 5476 456857 353367 201"
"155.780313"
"$GPGGA,184335,2507.0564,N,08011.9570,W,1,10,1.6,14"
"##MN-00 00 48 0241 02409 5474 456829 353357 201"
"155.780359"
"$GPGGA,184339,2507.0563,N,08011.9551,W,1,10,1.6,14"
"##MN-00 00 48 0242 02407 5473 456841 353367 201"
"155.780405"
"$GPGGA,184344,2507.0562,N,08011.9523,W,1,10,1.6,14"
"##MN-00 00 49 0242 02409 5471 456894 353381 201"
"155.780451"
"$GPGGA,184348,2507.0563,N,08011.9501,W,1,10,1.6,14"
"##MN-00 00 46 0243 02408 5469 456871 353376 201"
"155.780498"
"$GPGGA,184351,2507.0560,N,08011.9484,W,1,10,1.6,14"
"##MN-00 00 48 0244 02407 5468 456832 353350 201"
"155.780544"
"$GPGGA,184356,2507.0560,N,08011.9458,W,1,10,1.6,14"
"##MN-00 00 46 0245 02408 5467 456878 353377 201"
"155.78059"
"$GPGGA,184400,2507.0557,N,08011.9435,W,1,10,1.6,14"
"##MN-00 00 48 0245 02406 5465 456863 353362 201"
"155.780637"
"$GPGGA,184404,2507.0556,N,08011.9412,W,1,10,1.6,14"
"##MN-00 00 51 0246 02408 5463 456877 353369 201"
"155.780683"
"$GPGGA,184408,2507.0554,N,08011.9389,W,1,10,1.7,14"
"##MN-00 00 45 0247 02410 5462 456864 353363 201"
"155.780729"
"$GPGGA,184412,2507.0553,N,08011.9367,W,1,10,1.6,14"
"##MN-00 00 47 0248 02410 5460 456853 353366 201"
"155.780775"
"$GPGGA,184416,2507.0551,N,08011.9343,W,1,10,1.6,14"
"##MN-00 00 48 0248 02405 5459 456901 353379 201"
"155.780822"
"$GPGGA,184420,2507.0550,N,08011.9319,W,1,10,1.6,14"
"##MN-00 00 51 0249 02404 5457 456890 353376 201"
"155.780868"
"$GPGGA,184424,2507.0549,N,08011.9297,W,1,10,1.6,14"
"##MN-00 00 52 0250 02406 5456 456882 353361 201"
"155.780914"
"$GPGGA,184428,2507.0548,N,08011.9277,W,1,10,1.6,14"
"##MN+00 00 48 0251 02408 5455 456916 353377 201"
"155.780961"
"$GPGGA,184432,2507.0547,N,08011.9258,W,1,10,1.6,14"
"##MN+00 00 48 0251 02411 5453 456900 353374 201"
"155.781007"
"$GPGGA,184436,2507.0547,N,08011.9239,W,1,10,1.6,14"
"##MN+00 00 48 0252 02408 5452 456945 353387 201"
"155.781053"
"$GPGGA,184440,2507.0546,N,08011.9217,W,1,10,1.6,14"
"##MN-00 00 49 0253 02409 5450 456906 353371 201"
"155.7811"
"$GPGGA,184444,2507.0546,N,08011.9197,W,1,10,1.6,14"
"##MN-00 00 46 0254 02412 5449 456870 353353 201"
"155.781146"
"$GPGGA,184448,2507.0546,N,08011.9178,W,1,10,1.6,14"
"##MN-00 00 47 0254 02411 5447 456877 353364 201"
"155.781192"
"$GPGGA,184452,2507.0546,N,08011.9156,W,1,10,1.6,14"
"##MN-00 00 48 0255 02413 5445 456911 353375 201"
"155.781238"
"$GPGGA,184456,2507.0546,N,08011.9134,W,1,10,1.6,14"
"##MN-00 00 48 0256 02413 5444 456917 353376 201"
"155.781285"
"$GPGGA,184500,2507.0546,N,08011.9112,W,1,10,1.6,13"
"##MN+00 00 48 0257 02414 5443 456917 353374 201"
"155.781331"
"$GPGGA,184504,2507.0550,N,08011.9090,W,1,11,1.4,13"
"##MN+00 00 47 0258 02414 5441 456931 353377 201"
"155.781377"
"$GPGGA,184508,2507.0551,N,08011.9066,W,1,11,1.4,14"
"##MN+00 00 56 0258 02416 5440 456952 353385 201"
"155.781424"
"$GPGGA,184512,2507.0553,N,08011.9044,W,1,11,1.4,14"
"##MN-00 00 53 0259 02414 5439 456960 353387 201"
"155.78147"
"#increment_net"
"$GPGGA,184516,2507.0551,N,08011.9021,W,1,11,1.4,14"
"##MN-00 00 48 0260 02412 5437 456920 353372 201"
"155.781516"
"$GPGGA,184520,2507.0551,N,08011.8998,W,1,11,1.6,15"
"##MN-00 00 47 0261 02413 5436 456910 353372 201"
"155.781562"
"$GPGGA,184524,2507.0551,N,08011.8976,W,1,10,1.4,15"
"##MN-00 00 46 0261 02414 5434 456924 353375 201"
"155.781609"
"$GPGGA,184528,2507.0546,N,08011.8951,W,1,10,1.6,15"
"##MN-00 00 46 0262 02410 5433 456927 353376 201"
"155.781655"
"$GPGGA,184532,2507.0549,N,08011.8930,W,1,11,1.4,15"
"##MN-00 00 44 0263 02409 5432 456924 353376 201"
"155.781701"
"$GPGGA,184536,2507.0548,N,08011.8907,W,1,11,1.4,16"
"##MN-00 00 46 0264 02410 5430 456799 353325 201"
"155.781748"
"$GPGGA,184540,2507.0546,N,08011.8882,W,1,10,1.4,16"
"##MN-00 00 45 0265 02406 5429 456775 353328 201"
"155.781794"
"$GPGGA,184544,2507.0544,N,08011.8858,W,1,11,1.4,17"
"##MN-00 00 46 0266 02407 5427 456745 353320 201"
"155.78184"
"$GPGGA,184548,2507.0542,N,08011.8834,W,1,11,1.4,17"
"##MN-00 00 45 0267 02404 5426 456853 353343 201"
"155.781887"
"$GPGGA,184552,2507.0538,N,08011.8809,W,1,10,1.4,17"
"##MN-00 00 46 0268 02402 5425 456921 353372 201"
"155.781933"
"$GPGGA,184556,2507.0538,N,08011.8784,W,1,11,1.4,17"
"##MN-00 00 53 0268 02398 5423 456740 353307 201"
"155.781979"
"$GPGGA,184600,2507.0535,N,08011.8761,W,1,11,1.4,17"
"##MN-00 00 46 0269 02401 5422 456736 353316 201"
"155.782025"
"$GPGGA,184604,2507.0531,N,08011.8738,W,1,10,1.4,18"
"##MN-00 00 46 0270 02396 5420 456776 353327 201"
"155.782072"
"$GPGGA,184608,2507.0526,N,08011.8714,W,1,10,1.4,18"
"##MN-00 00 50 0271 02395 5419 456766 353317 201"
"155.782118"
"$GPGGA,184612,2507.0527,N,08011.8691,W,1,11,1.4,18"
"##MN-00 00 45 0272 02395 5418 456703 353291 201"
"155.782164"
"$GPGGA,184616,2507.0524,N,08011.8674,W,1,11,1.4,18"
"##MN-00 00 46 0273 02391 5416 456706 353289 201"
"155.782211"
"$GPGGA,184620,2507.0518,N,08011.8642,W,1,10,1.6,17"
"##MN-00 00 55 0274 02391 5415 456668 353276 201"
"155.782257"
"$GPGGA,184624,2507.0519,N,08011.8621,W,1,11,1.4,17"
"##MN-00 00 46 0274 02391 5414 456593 353243 201"
"155.782303"
"$GPGGA,184628,2507.0519,N,08011.8601,W,1,11,1.4,17"
"##MN-00 00 45 0275 02391 5412 456625 353258 201"
"155.78235"
"$GPGGA,184632,2507.0517,N,08011.8580,W,1,11,1.4,17"
"##MN-00 00 49 0276 02392 5411 456701 353292 201"
"155.782396"
"$GPGGA,184636,2507.0516,N,08011.8559,W,1,11,1.6,17"
"##MN-00 00 48 0277 02390 5409 456725 353305 201"
"155.782442"
"$GPGGA,184640,2507.0516,N,08011.8538,W,1,11,1.4,17"
"##MN-00 00 47 0278 02391 5408 456626 353268 201"
"155.782488"
"$GPGGA,184644,2507.0513,N,08011.8518,W,1,11,1.4,17"
"##MN-00 00 46 0279 02390 5407 456603 353248 201"
"155.782535"
"$GPGGA,184648,2507.0510,N,08011.8496,W,1,11,1.4,17"
"##MN-00 00 45 0280 02389 5405 456557 353231 201"
"155.782581"
"$GPGGA,184652,2507.0507,N,08011.8474,W,1,11,1.4,17"
"##MN+00 00 47 0281 02388 5404 456547 353224 201"
"155.782627"
"$GPGGA,184656,2507.0506,N,08011.8451,W,1,11,1.4,17"
"##MN+00 00 54 0282 02381 5403 456552 353226 201"
"155.782674"
"$GPGGA,184700,2507.0506,N,08011.8427,W,1,11,1.4,17"
"##MN+00 00 48 0283 02386 5402 456544 353222 201"
"155.78272"
"$GPGGA,184704,2507.0501,N,08011.8407,W,1,11,1.4,17"
"##MN-00 00 47 0283 02385 5400 456534 353217 201"
"155.782766"
"$GPGGA,184708,2507.0502,N,08011.8386,W,1,11,1.4,17"
"##MN-00 00 49 0284 02386 5399 456547 353222 201"
"155.782813"
"$GPGGA,184712,2507.0498,N,08011.8366,W,1,11,1.4,17"
"##MN-00 00 49 0285 02385 5398 456561 353234 201"
"155.782859"
"$GPGGA,184716,2507.0495,N,08011.8345,W,1,11,1.4,17"
"##MN-00 00 49 0286 02385 5396 456573 353238 201"
"155.782905"
"$GPGGA,184720,2507.0492,N,08011.8325,W,1,11,1.4,17"
"##MN+00 00 48 0287 02386 5395 456596 353239 201"
"155.782951"
"$GPGGA,184724,2507.0490,N,08011.8305,W,1,11,1.4,17"
"##MN+00 00 49 0288 02385 5394 456625 353243 201"
"155.782998"
"$GPGGA,184728,2507.0486,N,08011.8287,W,1,11,1.4,17"
"##MN+00 00 57 0289 02390 5393 456691 353260 201"
"155.783044"
"#increment_net"
"$GPGGA,184732,2507.0484,N,08011.8266,W,1,11,1.4,17"
"##MN-00 00 57 0290 02390 5392 456690 353269 201"
"155.78309"
"$GPGGA,184736,2507.0481,N,08011.8245,W,1,11,1.4,17"
"##MN-00 00 51 0291 02394 5391 456659 353255 201"
"155.783137"
"$GPGGA,184740,2507.0479,N,08011.8225,W,1,11,1.4,17"
"##MN-00 00 50 0292 02399 5389 456745 353275 201"
"155.783183"
"$GPGGA,184744,2507.0477,N,08011.8204,W,1,11,1.4,17"
"##MN-00 00 53 0293 02404 5387 456765 353303 201"
"155.783241"
"$GPGGA,184748,2507.0476,N,08011.8184,W,1,11,1.4,17"
"##MN-00 00 54 0295 02410 5385 456836 353334 201"
"155.783287"
"$GPGGA,184752,2507.0471,N,08011.8164,W,1,11,1.4,17"
"##MN-00 00 51 0296 02416 5384 456886 353334 201"
"155.783333"
"$GPGGA,184756,2507.0468,N,08011.8143,W,1,11,1.4,17"
"##MN-00 00 51 0297 02415 5383 456985 353379 201"
"155.78338"
"$GPGGA,184800,2507.0469,N,08011.8126,W,1,11,1.4,17"
"##MN-00 00 49 0298 02413 5382 456991 353380 201"
"155.783426"
"$GPGGA,184804,2507.0470,N,08011.8109,W,1,11,1.4,17"
"##MN-00 00 50 0300 02412 5381 456816 353330 201"
"155.783472"
"$GPGGA,184808,2507.0466,N,08011.8089,W,1,11,1.4,17"
"##MN-00 00 51 0301 02406 5380 456826 353320 201"
"155.783519"
"$GPGGA,184812,2507.0466,N,08011.8069,W,1,11,1.4,17"
"##MN-00 00 48 0302 02401 5378 456757 353297 201"
"155.783565"
"$GPGGA,184817,2507.0461,N,08011.8043,W,1,11,1.3,17"
"##MN-00 00 47 0303 02399 5377 456638 353259 201"
"155.783611"
"$GPGGA,184820,2507.0459,N,08011.8026,W,1,11,1.3,17"
"##MN-00 00 47 0304 02393 5376 456570 353232 201"
"155.783657"
"$GPGGA,184825,2507.0457,N,08011.7999,W,1,11,1.3,17"
"##MN-00 00 52 0306 02387 5375 456447 353198 201"
"155.783704"
"$GPGGA,184828,2507.0455,N,08011.7982,W,1,11,1.3,17"
"##MN-00 00 52 0307 02381 5373 456347 353160 201"
"155.78375"
"$GPGGA,184833,2507.0454,N,08011.7956,W,1,11,1.3,17"
"##MN-00 00 49 0308 02376 5372 456228 353133 201"
"155.783796"
"$GPGGA,184836,2507.0451,N,08011.7939,W,1,11,1.5,17"
"##MN-00 00 51 0309 02369 5371 455946 353035 201"
"155.783843"
"$GPGGA,184841,2507.0450,N,08011.7910,W,1,11,1.3,17"
"##MN-00 00 52 0311 02363 5370 455817 353010 201"
"155.783889"
"$GPGGA,184845,2507.0446,N,08011.7891,W,1,11,1.3,17"
"##MN-00 00 48 0312 02361 5369 455732 352964 201"
"155.783935"
"$GPGGA,184849,2507.0447,N,08011.7870,W,1,12,1.3,17"
"##MN-00 00 53 0313 02354 5368 455693 352948 201"
"155.783981"
"$GPGGA,184853,2507.0441,N,08011.7848,W,1,12,1.3,17"
"##MN-00 00 51 0314 02348 5367 455649 352934 201"
"155.784028"
"$GPGGA,184857,2507.0441,N,08011.7830,W,1,12,1.3,17"
"##MN-00 00 50 0316 02345 5365 455607 352926 201"
"155.784074"
"$GPGGA,184901,2507.0438,N,08011.7812,W,1,12,1.3,17"
"##MN-00 00 48 0317 02339 5364 455583 352913 201"
"155.78412"
"$GPGGA,184905,2507.0437,N,08011.7793,W,1,11,1.5,17"
"##MN-00 00 55 0318 02330 5363 455551 352899 201"
"155.784167"
"$GPGGA,184909,2507.0434,N,08011.7771,W,1,11,1.3,17"
"##MN-00 00 48 0319 02327 5362 455486 352881 201"
"155.784213"
"$GPGGA,184913,2507.0431,N,08011.7752,W,1,12,1.4,17"
"##MN-00 00 49 0321 02317 5361 455416 352875 201"
"155.784259"
"$GPGGA,184917,2507.0430,N,08011.7730,W,1,12,1.3,17"
"##MN-00 00 44 0322 02313 5360 455372 352863 201"
"155.784306"
"$GPGGA,184921,2507.0426,N,08011.7710,W,1,12,1.3,17"
"##MN-00 00 52 0323 02304 5359 455308 352836 201"
"155.784352"
"$GPGGA,184925,2507.0424,N,08011.7688,W,1,12,1.3,17"
"##MN-00 00 47 0324 02296 5357 455239 352818 201"
"155.784398"
"$GPGGA,184929,2507.0423,N,08011.7667,W,1,12,1.3,18"
"##MN-00 00 46 0325 02292 5356 455152 352802 201"
"155.784444"
"$GPGGA,184933,2507.0416,N,08011.7645,W,1,12,1.5,18"
"##MN-00 00 47 0327 02285 5355 455084 352774 201"
"155.784491"
"$GPGGA,184937,2507.0415,N,08011.7624,W,1,12,1.3,18"
"##MN-00 00 48 0328 02282 5354 455026 352753 201"
"155.784537"
"$GPGGA,184941,2507.0409,N,08011.7605,W,1,12,1.3,18"
"##MN-00 00 49 0329 02274 5353 454938 352737 201"
"155.784583"
"$GPGGA,184945,2507.0401,N,08011.7582,W,1,11,1.9,17"
"##MN-00 00 48 0330 02269 5352 454880 352729 201"
"155.78463"
"$GPGGA,184949,2507.0394,N,08011.7568,W,1,11,1.6,17"
"##MN-00 00 46 0332 02262 5351 454813 352697 201"
"155.784676"
"$GPGGA,184953,2507.0385,N,08011.7551,W,1,11,1.4,18"
"##MN-00 00 46 0333 02254 5350 454661 352645 201"
"155.784722"
"$GPGGA,184957,2507.0379,N,08011.7535,W,1,12,1.3,18"
"##MN-00 00 53 0334 02249 5349 454423 352597 201"
"155.784769"
"$GPGGA,185001,2507.0376,N,08011.7513,W,1,11,1.3,18"
"##MN-00 00 48 0335 02243 5348 454242 352525 201"
"155.784815"
"$GPGGA,185005,2507.0372,N,08011.7494,W,1,12,1.3,18"
"##MN-00 00 46 0337 02237 5346 453985 352439 201"
"155.784861"
"$GPGGA,185009,2507.0369,N,08011.7474,W,1,12,1.3,19"
"##MN-00 00 44 0338 02228 5346 453682 352327 201"
"155.784907"
"$GPGGA,185013,2507.0365,N,08011.7452,W,1,12,1.3,19"
"##MN-00 00 47 0339 02221 5344 452878 352221 201"
"155.784954"
"$GPGGA,185017,2507.0361,N,08011.7431,W,1,12,1.3,19"
"##MN-00 00 46 0340 02217 5343 452370 351983 201"
"155.785"
"$GPGGA,185021,2507.0359,N,08011.7411,W,1,12,1.3,19"
"##MN-00 00 47 0342 02209 5342 452123 351872 201"
"155.785046"
"$GPGGA,185025,2507.0355,N,08011.7391,W,1,12,1.3,20"
"##MN-00 00 48 0343 02200 5341 451941 351835 201"
"155.785093"
"$GPGGA,185029,2507.0350,N,08011.7371,W,1,12,1.3,20"
"##MN-00 00 48 0344 02195 5340 451819 351774 201"
"155.785139"
"$GPGGA,185033,2507.0345,N,08011.7347,W,1,12,1.3,20"
"##MN-00 00 46 0345 02187 5339 451716 351735 201"
"155.785185"
"$GPGGA,185037,2507.0340,N,08011.7323,W,1,12,1.3,20"
"##MN-00 00 47 0347 02179 5338 451465 351690 201"
"155.785232"
"$GPGGA,185041,2507.0334,N,08011.7302,W,1,12,1.3,20"
"##MN-00 00 50 0348 02169 5337 450915 351560 201"
"155.785278"
"$GPGGA,185045,2507.0330,N,08011.7280,W,1,12,1.3,20"
"##MN-00 00 50 0349 02162 5336 450555 351390 201"
"155.785324"
"$GPGGA,185049,2507.0325,N,08011.7259,W,1,11,1.5,20"
"##MN-00 00 48 0351 02157 5335 450301 351335 201"
"155.78537"
"$GPGGA,185053,2507.0319,N,08011.7240,W,1,12,1.3,20"
"##MN-00 00 48 0352 02150 5334 450055 351250 201"
"155.785417"
"$GPGGA,185057,2507.0314,N,08011.7220,W,1,11,1.6,20"
"##MN-00 00 52 0353 02141 5333 449633 351124 201"
"155.785463"
"$GPGGA,185101,2507.0307,N,08011.7202,W,1,11,1.4,20"
"##MN-00 00 48 0355 02136 5332 449127 350951 201"
"155.785509"
"$GPGGA,185105,2507.0301,N,08011.7181,W,1,11,1.5,20"
"##MN-00 00 49 0356 02125 5331 448718 350830 201"
"155.785556"
"$GPGGA,185109,2507.0300,N,08011.7161,W,1,12,1.3,20"
"##MN-00 00 51 0357 02118 5330 448289 350751 201"
"155.785602"
"$GPGGA,185113,2507.0293,N,08011.7144,W,1,12,1.3,20"
"##MN-00 00 55 0359 02111 5329 447079 350394 201"
"155.785648"
"$GPGGA,185117,2507.0289,N,08011.7126,W,1,12,1.3,20"
"##MN-00 00 49 0360 02105 5328 444417 349642 201"
"155.785694"
"$GPGGA,185121,2507.0282,N,08011.7109,W,1,11,1.5,20"
"##MN-00 00 48 0361 02098 5327 442320 349057 201"
"155.785741"
"$GPGGA,185125,2507.0277,N,08011.7090,W,1,12,1.3,20"
"##MN-00 00 51 0363 02085 5326 441691 348822 201"
"155.785787"
"$GPGGA,185129,2507.0275,N,08011.7073,W,1,12,1.3,20"
"##MN-00 00 48 0364 02079 5326 441444 348723 201"
"155.785833"
"$GPGGA,185133,2507.0274,N,08011.7056,W,1,12,1.3,20"
"##MN-00 00 49 0365 02072 5325 441287 348704 201"
"155.78588"
"$GPGGA,185137,2507.0271,N,08011.7032,W,1,12,1.3,20"
"##MN-00 00 55 0367 02062 5324 441161 348734 201"
"155.785926"
"$GPGGA,185141,2507.0266,N,08011.7012,W,1,12,1.3,20"
"##MN-00 00 55 0368 02053 5323 441061 348595 201"
"155.785972"
"$GPGGA,185145,2507.0261,N,08011.6992,W,1,12,1.3,21"
"##MN-00 00 49 0369 02049 5322 440982 348544 201"
"155.786019"
"$GPGGA,185149,2507.0258,N,08011.6970,W,1,12,1.3,20"
"##MN-00 00 50 0370 02042 5321 440967 348534 201"
"155.786065"
"$GPGGA,185153,2507.0253,N,08011.6950,W,1,12,1.3,20"
"##MN-00 00 49 0372 02036 5321 440969 348520 201"
"155.786111"
"$GPGGA,185157,2507.0249,N,08011.6931,W,1,11,1.5,20"
"##MN-00 00 52 0373 02026 5320 440977 348529 201"
"155.786157"
"$GPGGA,185201,2507.0246,N,08011.6912,W,1,12,1.3,20"
"##MN-00 00 56 0374 02021 5319 440981 348527 201"
"155.786204"
"$GPGGA,185205,2507.0240,N,08011.6897,W,1,11,1.5,20"
"##MN-00 00 55 0376 02012 5319 440989 348533 201"
"155.78625"
"$GPGGA,185209,2507.0235,N,08011.6885,W,1,12,1.3,19"
"##MN-00 00 53 0377 02004 5318 441000 348533 201"
"155.786296"
"$GPGGA,185213,2507.0234,N,08011.6868,W,1,12,1.3,19"
"##MN-00 00 58 0378 01996 5317 441004 348539 201"
"155.786343"
"$GPGGA,185217,2507.0225,N,08011.6860,W,1,11,1.3,19"
"##MN-00 00 50 0379 01991 5317 441010 348546 201"
"155.786389"
"$GPGGA,185221,2507.0224,N,08011.6845,W,1,12,1.3,19"
"##MN-00 00 50 0381 01982 5316 441013 348553 201"
"155.786435"
"$GPGGA,185225,2507.0221,N,08011.6827,W,1,12,1.3,19"
"##MN-00 00 51 0382 01975 5316 441022 348559 201"
"155.786493"
"$GPGGA,185229,2507.0220,N,08011.6806,W,1,12,1.3,19"
"##MN-00 00 51 0383 01971 5315 441022 348566 201"
"155.786539"
"$GPGGA,185233,2507.0217,N,08011.6788,W,1,11,1.5,19"
"##MN-00 00 49 0385 01963 5314 441021 348570 201"
"155.786586"
"$GPGGA,185237,2507.0212,N,08011.6767,W,1,11,1.6,19"
"##MN-00 00 49 0386 01956 5313 441013 348570 201"
"155.786632"
"$GPGGA,185241,2507.0207,N,08011.6751,W,1,12,1.5,19"
"##MN-00 00 49 0387 01946 5313 441003 348571 201"
"155.786678"
"$GPGGA,185245,2507.0204,N,08011.6730,W,1,11,1.3,19"
"##MN-00 00 54 0389 01936 5312 440948 348556 201"
"155.786725"
"$GPGGA,185249,2507.0201,N,08011.6712,W,1,12,1.3,19"
"##MN-00 00 51 0390 01930 5312 440716 348498 201"
"155.786771"
"$GPGGA,185253,2507.0195,N,08011.6694,W,1,12,1.3,19"
"##MN-00 00 49 0392 01919 5311 440717 348490 201"
"155.786817"
"$GPGGA,185258,2507.0190,N,08011.6665,W,1,12,1.3,19"
"##MN-00 00 57 0393 01911 5311 440722 348490 201"
"155.786863"
"$GPGGA,185301,2507.0186,N,08011.6651,W,1,12,1.3,19"
"##MN-00 00 52 0394 01903 5310 440644 348469 201"
"155.78691"
"$GPGGA,185306,2507.0182,N,08011.6630,W,1,12,1.4,18"
"##MN-00 00 56 0396 01894 5310 440586 348446 201"
"155.786956"
"$GPGGA,185310,2507.0175,N,08011.6614,W,1,12,1.3,18"
"##MN-00 00 54 0397 01887 5310 440579 348442 201"
"155.787002"
"$GPGGA,185314,2507.0170,N,08011.6599,W,1,11,1.3,18"
"##MN-00 00 51 0399 01879 5309 440607 348449 201"
"155.787049"
"$GPGGA,185318,2507.0170,N,08011.6582,W,1,12,1.4,19"
"##MN-00 00 59 0400 01869 5309 440635 348466 201"
"155.787095"
"$GPGGA,185322,2507.0166,N,08011.6566,W,1,12,1.3,19"
"##MN-00 00 54 0401 01865 5309 440612 348449 201"
"155.787141"
"$GPGGA,185326,2507.0163,N,08011.6548,W,1,12,1.3,19"
"##MN-00 00 52 0403 01864 5308 440601 348448 201"
"155.787187"
"$GPGGA,185330,2507.0157,N,08011.6528,W,1,12,1.3,20"
"##MN-00 00 54 0404 01859 5308 440611 348452 201"
"155.787234"
"$GPGGA,185334,2507.0154,N,08011.6509,W,1,12,1.3,20"
"##MN-00 00 74 0405 01860 5307 440669 361963 201"
"155.78728"
"$GPGGA,185338,2507.0150,N,08011.6494,W,1,12,1.3,20"
"##MN-00 00 64 0406 01861 5308 440662 358973 201"
"155.787326"
"$GPGGA,185342,2507.0148,N,08011.6476,W,1,12,1.3,20"
"##MN-00 00 54 0407 01860 5308 440874 371465 201"
"155.787373"
"$GPGGA,185346,2507.0145,N,08011.6451,W,1,12,1.3,20"
"##MN-00 00 55 0408 01860 5308 441324 439010 201"
"155.787419"
"$GPGGA,185350,2507.0142,N,08011.6434,W,1,12,1.3,20"
"##MN-00 00 70 0409 01860 5307 441551 390598 201"
"155.787465"
"$GPGGA,185354,2507.0143,N,08011.6419,W,1,12,1.3,20"
"##MN-00 00 42 0410 01862 5307 441156 407249 201"
"155.787512"
"$GPGGA,185358,2507.0142,N,08011.6402,W,1,11,1.3,21"
"##MN-00 00 45 0410 01860 5306 442908 394286 201"
