" Tow: 3Wm-A   RVWS/WS1406"
" Date: 06/04/2014"
" Temperature Probe #  2597    Conductivity Probe #  2870"
" Pressure Probe #  150"
" Flow Meter Calibration  4.71 (m/count)  "
"155.604491"
"$GPGGA,143021,2501.8895,N,08016.5897,W,1,9,1.5,22,"
"##MN-00 00 90 0000 02199 5180 426663 924662 200"
"155.604537"
"$GPGGA,143029,2501.8894,N,08016.5905,W,1,9,1.5,22,"
"##MN-00 00 90 0000 02201 5183 426125 925356 200"
"155.604583"
"$GPGGA,143033,2501.8895,N,08016.5908,W,1,9,1.5,21,"
"##MN-00 00 90 0000 02199 5187 426201 925356 200"
"155.60463"
"$GPGGA,143037,2501.8895,N,08016.5911,W,1,9,1.5,21,"
"##MN-00 00 90 0000 02199 5190 426084 925356 200"
"155.604676"
"$GPGGA,143041,2501.8895,N,08016.5913,W,1,9,1.5,21,"
"##MN-00 00 90 0000 02200 5193 426682 925356 200"
"155.604722"
"$GPGGA,143045,2501.8895,N,08016.5914,W,1,9,1.5,20,"
"##MN-00 00 90 0000 02198 5196 426572 925356 200"
"155.604769"
"$GPGGA,143049,2501.8895,N,08016.5916,W,1,8,1.6,20,"
"##MN-00 00 90 0000 02200 5199 425964 925356 200"
"155.604815"
"$GPGGA,143053,2501.8898,N,08016.5918,W,1,9,1.5,20,"
"##MN-00 00 90 0000 02199 5202 425782 925356 200"
"155.604861"
"$GPGGA,143057,2501.8898,N,08016.5918,W,1,8,1.6,20,"
"##MN-00 00 90 0000 02200 5206 425396 925355 200"
"155.604907"
"$GPGGA,143101,2501.8898,N,08016.5919,W,1,9,1.5,21,"
"##MN-00 00 90 0000 02195 5209 425653 925355 200"
"155.604954"
"$GPGGA,143105,2501.8897,N,08016.5925,W,1,9,1.5,21,"
"##MN-00 00 90 0000 02197 5212 424989 925356 200"
"155.605"
"$GPGGA,143109,2501.8895,N,08016.5928,W,1,9,1.5,21,"
"##MN-00 00 90 0000 02199 5215 424359 925355 200"
"155.605046"
"$GPGGA,143113,2501.8892,N,08016.5930,W,1,9,1.5,21,"
"##MN-00 00 90 0000 02199 5218 424102 925356 200"
"155.605093"
"$GPGGA,143117,2501.8891,N,08016.5933,W,1,9,1.5,21,"
"##MN-00 00 90 0000 02198 5221 423642 925356 200"
"155.605139"
"$GPGGA,143121,2501.8888,N,08016.5936,W,1,9,1.5,21,"
"##MN-00 00 90 0000 02200 5224 423033 925356 200"
"155.605185"
"$GPGGA,143125,2501.8887,N,08016.5940,W,1,9,1.5,21,"
"##MN-00 00 90 0000 02199 5227 422856 925356 200"
"155.605231"
"$GPGGA,143129,2501.8881,N,08016.5944,W,1,9,1.5,21,"
"##MN-00 00 90 0000 02198 5230 422153 925356 200"
"155.605278"
"$GPGGA,143133,2501.8880,N,08016.5947,W,1,9,1.5,21,"
"##MN-00 00 90 0000 02201 5233 422904 925356 200"
"155.605324"
"$GPGGA,143137,2501.8876,N,08016.5952,W,1,9,1.5,21,"
"##MN-00 00 90 0000 02196 5236 423129 925356 200"
"155.60537"
"$GPGGA,143141,2501.8873,N,08016.5955,W,1,9,1.5,21,"
"##MN-00 00 85 0000 02197 5239 422540 925356 200"
"155.605417"
"$GPGGA,143145,2501.8873,N,08016.5957,W,1,9,1.5,20,"
"##MN-00 00 85 0000 02196 5243 423099 925356 200"
"155.605463"
"$GPGGA,143149,2501.8871,N,08016.5959,W,1,9,1.5,20,"
"##MN-00 00 89 0000 02198 5245 423240 925356 200"
"155.605509"
"$GPGGA,143153,2501.8870,N,08016.5964,W,1,9,1.5,20,"
"##MN-00 00 87 0000 02199 5248 422373 925355 200"
"155.605556"
"$GPGGA,143157,2501.8871,N,08016.5965,W,1,9,1.5,20,"
"##MN-00 00 89 0000 02201 5251 421456 925356 200"
"155.605602"
"$GPGGA,143201,2501.8870,N,08016.5968,W,1,9,1.5,19,"
"##MN-00 00 90 0000 02199 5254 420588 925355 200"
"155.605648"
"$GPGGA,143205,2501.8869,N,08016.5967,W,1,9,1.5,19,"
"##MN-00 00 89 0000 02199 5256 419233 925356 200"
"155.605694"
"$GPGGA,143209,2501.8873,N,08016.5968,W,1,9,1.5,19,"
"##MN-00 00 89 0000 02200 5259 418677 925356 200"
"155.605741"
"$GPGGA,143213,2501.8876,N,08016.5966,W,1,9,1.5,19,"
"##MN-00 00 90 0000 02197 5262 419410 925356 200"
"155.605787"
"$GPGGA,143217,2501.8873,N,08016.5964,W,1,8,1.6,18,"
"##MN-00 00 90 0000 02199 5265 419816 925356 200"
"155.605833"
"$GPGGA,143221,2501.8870,N,08016.5965,W,1,8,1.6,19,"
"##MN-00 00 89 0000 02200 5268 419913 925356 200"
"155.60588"
"$GPGGA,143225,2501.8867,N,08016.5968,W,1,8,1.6,19,"
"##MN-00 00 89 0000 02198 5271 419609 925356 200"
"155.605926"
"$GPGGA,143229,2501.8867,N,08016.5973,W,1,8,1.7,19,"
"##MN-00 00 89 0000 02197 5274 419199 925355 200"
"155.605972"
"$GPGGA,143233,2501.8866,N,08016.5979,W,1,8,1.6,19,"
"##MN-00 00 89 0000 02198 5276 418568 925356 200"
"155.606019"
"$GPGGA,143237,2501.8865,N,08016.5983,W,1,9,1.5,19,"
"##MN-00 00 89 0000 02200 5279 418181 925356 200"
"155.606065"
"$GPGGA,143241,2501.8862,N,08016.5987,W,1,9,1.5,20,"
"##MN-00 00 90 0000 02198 5283 418338 925355 200"
"155.606111"
"$GPGGA,143245,2501.8862,N,08016.5992,W,1,9,1.5,20,"
"##MN-00 00 90 0000 02199 5285 418111 925356 200"
"155.606157"
"$GPGGA,143249,2501.8860,N,08016.5997,W,1,9,1.5,20,"
"##MN-00 00 90 0000 02200 5288 417317 925356 200"
"155.606412"
"$GPGGA,143307,2501.8858,N,08016.6022,W,1,9,1.5,19,"
"##MN-00 00 90 0000 02198 5303 415748 925356 200"
"155.606458"
"$GPGGA,143315,2501.8857,N,08016.6031,W,1,9,1.5,19,"
"##MN-00 00 90 0000 02199 5306 414362 925355 200"
"155.606505"
"$GPGGA,143319,2501.8857,N,08016.6035,W,1,9,1.5,19,"
"##MN-00 00 89 0000 02198 5309 414481 925356 200"
"155.606551"
"$GPGGA,143323,2501.8857,N,08016.6040,W,1,9,1.5,19,"
"##MN-00 00 90 0000 02200 5312 414282 925355 200"
"155.606597"
"$GPGGA,143327,2501.8855,N,08016.6044,W,1,9,1.5,19,"
"##MN-00 00 90 0000 02201 5315 414629 925355 200"
"155.606644"
"$GPGGA,143331,2501.8855,N,08016.6048,W,1,9,1.7,19,"
"##MN-00 00 90 0000 02198 5318 414871 925356 200"
"155.60669"
"$GPGGA,143335,2501.8853,N,08016.6055,W,1,9,1.5,19,"
"##MN-00 00 90 0000 02200 5321 415812 925355 200"
"155.606736"
"$GPGGA,143339,2501.8852,N,08016.6060,W,1,9,1.5,18,"
"##MN-00 00 90 0000 02199 5323 416051 925355 200"
"155.606782"
"$GPGGA,143343,2501.8849,N,08016.6066,W,1,9,1.5,18,"
"##MN-00 00 90 0000 02201 5326 416374 925354 200"
"155.606829"
"$GPGGA,143347,2501.8848,N,08016.6072,W,1,9,1.5,18,"
"##MN-00 00 90 0000 02201 5329 415960 925353 200"
"155.606875"
"$GPGGA,143351,2501.8845,N,08016.6078,W,1,9,1.5,18,"
"##MN-00 00 90 0000 02200 5332 415366 925354 200"
"155.606921"
"$GPGGA,143355,2501.8842,N,08016.6085,W,1,9,1.5,18,"
"##MN-00 00 90 0000 02201 5335 415441 925353 200"
"155.606968"
"$GPGGA,143359,2501.8840,N,08016.6092,W,1,9,1.5,18,"
"##MN-00 00 90 0000 02199 5338 415518 925354 200"
"155.607014"
"$GPGGA,143403,2501.8838,N,08016.6097,W,1,9,1.5,18,"
"##MN-00 00 90 0000 02201 5341 415209 925354 200"
"155.60706"
"$GPGGA,143407,2501.8837,N,08016.6103,W,1,9,1.5,18,"
"##MN-00 00 90 0000 02201 5344 417011 925353 200"
"155.607106"
"$GPGGA,143411,2501.8834,N,08016.6110,W,1,9,1.5,18,"
"##MN-00 00 90 0000 02197 5346 418676 925353 200"
"155.607153"
"$GPGGA,143415,2501.8833,N,08016.6116,W,1,9,1.5,17,"
"##MN-00 00 90 0000 02201 5349 418737 925353 200"
"155.607199"
"$GPGGA,143419,2501.8832,N,08016.6123,W,1,9,1.5,17,"
"##MN-00 00 90 0000 02202 5352 417927 925353 200"
"155.607245"
"$GPGGA,143423,2501.8830,N,08016.6128,W,1,9,1.5,17,"
"##MN-00 00 90 0000 02200 5355 416833 925353 200"
"155.607292"
"$GPGGA,143427,2501.8829,N,08016.6134,W,1,9,1.5,17,"
"##MN-00 00 90 0000 02201 5357 416370 925353 200"
"155.607338"
"$GPGGA,143431,2501.8828,N,08016.6141,W,1,9,1.5,17,"
"##MN-00 00 89 0000 02202 5361 416392 925353 200"
"155.607384"
"$GPGGA,143435,2501.8828,N,08016.6145,W,1,9,1.5,17,"
"##MN-00 00 89 0000 02201 5364 416131 925353 200"
"155.607431"
"$GPGGA,143439,2501.8826,N,08016.6150,W,1,9,1.5,17,"
"##MN-00 00 89 0000 02203 5367 415492 925353 200"
"155.607477"
"$GPGGA,143443,2501.8826,N,08016.6156,W,1,9,1.5,17,"
"##MN-00 00 89 0000 02201 5369 414622 925352 200"
"155.607523"
"$GPGGA,143447,2501.8825,N,08016.6161,W,1,9,1.5,17,"
"##MN-00 00 90 0000 02200 5372 414079 925352 200"
"155.607569"
"$GPGGA,143451,2501.8822,N,08016.6167,W,1,9,1.5,17,"
"##MN-00 00 90 0000 02200 5375 413334 925352 200"
"155.607616"
"$GPGGA,143455,2501.8820,N,08016.6171,W,1,9,1.5,17,"
"##MN-00 00 89 0000 02204 5378 412707 925351 200"
"155.607662"
"$GPGGA,143500,2501.8819,N,08016.6179,W,1,9,1.5,17,"
"##MN-00 00 89 0000 02202 5381 414256 925351 200"
"155.607708"
"$GPGGA,143504,2501.8818,N,08016.6183,W,1,9,1.5,17,"
"##MN-00 00 89 0000 02201 5384 414828 925351 200"
"155.607755"
"$GPGGA,143507,2501.8817,N,08016.6187,W,1,9,1.5,17,"
"##MN-00 00 90 0000 02201 5387 414077 925351 200"
"155.607801"
"$GPGGA,143511,2501.8815,N,08016.6194,W,1,9,1.5,17,"
"##MN-00 00 89 0000 02202 5390 414271 925351 200"
"155.607847"
"$GPGGA,143516,2501.8811,N,08016.6203,W,1,9,1.5,17,"
"##MN-00 00 90 0000 02202 5393 415115 925351 200"
"155.607905"
"$GPGGA,143520,2501.8811,N,08016.6208,W,1,9,1.5,17,"
"##MN-00 00 90 0000 02200 5396 415379 925351 200"
"155.607951"
"$GPGGA,143524,2501.8808,N,08016.6215,W,1,7,1.5,17,"
"##MN-00 00 90 0000 02200 5399 416004 925351 200"
"155.607998"
"$GPGGA,143528,2501.8803,N,08016.6220,W,1,8,1.5,17,"
"##MN-00 00 90 0000 02202 5402 416949 925351 200"
"155.608044"
"$GPGGA,143532,2501.8801,N,08016.6225,W,1,8,1.6,17,"
"##MN-00 00 90 0000 02201 5405 417976 925348 200"
"155.60809"
"$GPGGA,143536,2501.8800,N,08016.6232,W,1,8,1.5,17,"
"##MN-00 00 90 0000 02201 5408 418597 925348 200"
"155.608137"
"$GPGGA,143540,2501.8804,N,08016.6237,W,1,9,1.5,17,"
"##MN-00 00 90 0000 02201 5411 418946 925347 200"
"155.608183"
"$GPGGA,143544,2501.8806,N,08016.6241,W,1,9,1.5,17,"
"##MN-00 00 90 0000 02201 5414 418659 925347 200"
"155.608229"
"$GPGGA,143548,2501.8805,N,08016.6244,W,1,9,1.7,17,"
"##MN-00 00 90 0000 02202 5416 418394 925346 200"
"155.608275"
"$GPGGA,143552,2501.8801,N,08016.6250,W,1,9,1.5,18,"
"##MN-00 00 90 0000 02204 5419 418311 925346 200"
"155.608322"
"$GPGGA,143556,2501.8798,N,08016.6254,W,1,9,1.5,18,"
"##MN-00 00 89 0000 02202 5422 418109 925346 200"
"155.608368"
"$GPGGA,143600,2501.8797,N,08016.6257,W,1,9,1.6,18,"
"##MN-00 00 89 0000 02202 5426 418690 925346 200"
"155.608414"
"$GPGGA,143604,2501.8792,N,08016.6261,W,1,9,1.5,18,"
"##MN-00 00 89 0000 02203 5428 420030 925345 200"
"155.608461"
"$GPGGA,143608,2501.8788,N,08016.6258,W,1,8,1.5,18,"
"##MN-00 00 89 0000 02201 5431 420939 925345 200"
"155.608507"
"$GPGGA,143612,2501.8784,N,08016.6258,W,1,9,1.5,19,"
"##MN-00 00 89 0000 02203 5435 421403 925345 200"
"155.608553"
"$GPGGA,143616,2501.8781,N,08016.6258,W,1,8,1.5,19,"
"##MN-00 00 90 0000 02202 5438 422325 925344 200"
"155.6086"
"$GPGGA,143620,2501.8779,N,08016.6258,W,1,9,1.5,19,"
"##MN-00 00 90 0000 02201 5441 423021 925344 200"
"155.608646"
"$GPGGA,143624,2501.8777,N,08016.6262,W,1,9,1.5,20,"
"##MN-00 00 89 0000 02203 5443 423971 925343 200"
"155.608692"
"$GPGGA,143628,2501.8775,N,08016.6265,W,1,9,1.5,20,"
"##MN-00 00 89 0000 02202 5446 424853 925343 200"
"155.608738"
"$GPGGA,143632,2501.8773,N,08016.6269,W,1,9,1.5,21,"
"##MN-00 00 89 0000 02203 5450 425506 925344 200"
"155.608785"
"$GPGGA,143636,2501.8772,N,08016.6275,W,1,8,1.5,21,"
"##MN-00 00 89 0000 02205 5453 425429 925344 200"
"155.608831"
"$GPGGA,143640,2501.8772,N,08016.6277,W,1,9,1.5,21,"
"##MN-00 00 89 0000 02201 5456 425642 925343 200"
"155.608877"
"$GPGGA,143644,2501.8770,N,08016.6279,W,1,9,1.5,21,"
"##MN-00 00 89 0000 02204 5459 425885 925344 200"
"155.608924"
"$GPGGA,143648,2501.8768,N,08016.6283,W,1,9,1.5,22,"
"##MN-00 00 89 0000 02203 5462 425639 925343 200"
"155.60897"
"$GPGGA,143652,2501.8767,N,08016.6284,W,1,9,1.5,22,"
"##MN-00 00 90 0000 02202 5465 426079 925344 200"
"155.609016"
"$GPGGA,143656,2501.8764,N,08016.6288,W,1,9,1.5,22,"
"##MN-00 00 90 0000 02203 5468 425997 925343 200"
"155.609063"
"$GPGGA,143700,2501.8759,N,08016.6293,W,1,9,1.5,22,"
"##MN-00 00 90 0000 02203 5471 426650 925343 200"
"155.609109"
"$GPGGA,143704,2501.8759,N,08016.6297,W,1,9,1.7,22,"
"##MN-00 00 90 0000 02203 5474 426518 925343 200"
"155.609155"
"$GPGGA,143708,2501.8757,N,08016.6297,W,1,9,1.7,22,"
"##MN-00 00 90 0000 02203 5477 426337 925342 200"
"155.609201"
"$GPGGA,143712,2501.8754,N,08016.6299,W,1,9,1.5,22,"
"##MN-00 00 90 0000 02203 5480 425849 925342 200"
"155.609248"
"$GPGGA,143716,2501.8752,N,08016.6302,W,1,8,2.0,21,"
"##MN-00 00 90 0000 02201 5483 425844 925343 200"
"155.609294"
"$GPGGA,143720,2501.8750,N,08016.6305,W,1,8,1.5,21,"
"##MN-00 00 90 0000 02203 5486 425784 925342 200"
"155.60934"
"$GPGGA,143724,2501.8750,N,08016.6308,W,1,9,1.6,21,"
"##MN-00 00 89 0000 02206 5489 425394 925342 200"
"155.609387"
"$GPGGA,143728,2501.8748,N,08016.6309,W,1,9,1.5,21,"
"##MN-00 00 90 0000 02204 5492 424715 925342 200"
"155.609433"
"$GPGGA,143732,2501.8747,N,08016.6310,W,1,7,2.2,21,"
"##MN-00 00 89 0000 02204 5495 423720 925342 200"
"155.609479"
"$GPGGA,143736,2501.8747,N,08016.6312,W,1,8,2.0,20,"
"##MN-00 00 90 0000 02204 5498 422922 925342 200"
"155.609525"
"$GPGGA,143740,2501.8747,N,08016.6313,W,1,7,2.2,20,"
"##MN-00 00 90 0000 02204 5502 421659 925342 200"
"155.609572"
"$GPGGA,143744,2501.8747,N,08016.6311,W,1,8,1.5,20,"
"##MN-00 00 90 0000 02204 5504 421359 925342 200"
"155.609618"
"$GPGGA,143748,2501.8745,N,08016.6311,W,1,9,1.5,20,"
"##MN-00 00 90 0000 02206 5507 421519 925342 200"
"155.609664"
"$GPGGA,143752,2501.8743,N,08016.6313,W,1,9,1.5,20,"
"##MN-00 00 90 0000 02203 5511 420993 925342 200"
" Tow: 3Wm-A   RVWS/WS1406"
" Date: 06/04/2014"
" Temperature Probe #  2597    Conductivity Probe #  2870"
" Pressure Probe #  150"
" Flow Meter Calibration  4.71 (m/count)  "
"155.618229"
"$GPGGA,145008,2501.7608,N,08016.0886,W,1,8,1.8,22,"
"##MN-00 00 49 0002 02211 6012 428339 925293 200"
"155.618275"
"$GPGGA,145016,2501.7591,N,08016.0825,W,1,8,1.7,22,"
"##MN-00 00 41 0003 02209 6014 440596 356329 200"
"155.618322"
"$GPGGA,145020,2501.7584,N,08016.0802,W,1,7,1.6,22,"
"##MN-00 00 48 0003 02209 6016 441170 348484 200"
"155.618368"
"$GPGGA,145024,2501.7577,N,08016.0777,W,1,7,2.0,22,"
"##MN-00 00 52 0004 02212 6019 441326 348533 200"
"155.618414"
"$GPGGA,145028,2501.7569,N,08016.0756,W,1,7,1.6,21,"
"##MN-00 00 56 0005 02213 6022 441371 348444 200"
"155.618461"
"$GPGGA,145032,2501.7562,N,08016.0733,W,1,7,1.6,21,"
"##MN-00 00 54 0006 02212 6025 441362 348326 200"
"155.618507"
"$GPGGA,145036,2501.7554,N,08016.0707,W,1,8,2.0,21,"
"##MN-00 00 57 0006 02212 6027 441376 348395 200"
"155.618553"
"$GPGGA,145040,2501.7547,N,08016.0686,W,1,8,1.8,21,"
"##MN-00 00 56 0007 02212 6027 441430 348537 200"
"155.6186"
"$GPGGA,145044,2501.7542,N,08016.0656,W,1,7,1.8,21,"
"##MN-00 00 54 0007 02214 6029 441410 348540 200"
"155.618646"
"$GPGGA,145048,2501.7538,N,08016.0637,W,1,7,2.0,21,"
"##MN-00 00 56 0008 02218 6031 441490 348564 200"
"155.618692"
"$GPGGA,145052,2501.7533,N,08016.0612,W,1,7,2.0,20,"
"##MN-00 00 55 0009 02220 6032 441487 348540 200"
"155.618738"
"$GPGGA,145056,2501.7523,N,08016.0598,W,1,8,1.7,20,"
"##MN-00 00 51 0010 02222 6032 441509 348578 200"
"155.618785"
"$GPGGA,145100,2501.7518,N,08016.0575,W,1,8,2.0,20,"
"##MN-00 00 52 0011 02226 6033 441498 348564 200"
"155.618831"
"$GPGGA,145104,2501.7511,N,08016.0555,W,1,8,1.8,20,"
"##MN-00 00 54 0011 02229 6035 441481 348529 200"
"155.618877"
"$GPGGA,145108,2501.7505,N,08016.0534,W,1,7,2.0,20,"
"##MN-00 00 52 0012 02234 6036 441483 348554 200"
"155.618924"
"$GPGGA,145112,2501.7497,N,08016.0518,W,1,7,1.7,20,"
"##MN-00 00 52 0013 02238 6037 441463 348557 200"
"155.61897"
"$GPGGA,145116,2501.7491,N,08016.0498,W,1,8,2.0,20,"
"##MN-00 00 52 0014 02240 6039 441398 348539 200"
"155.619016"
"$GPGGA,145120,2501.7487,N,08016.0480,W,1,8,1.8,20,"
"##MN-00 00 54 0015 02245 6041 441384 348540 200"
"155.619063"
"$GPGGA,145124,2501.7482,N,08016.0461,W,1,7,1.6,20,"
"##MN-00 00 53 0016 02245 6042 441415 348545 200"
"155.619109"
"$GPGGA,145128,2501.7476,N,08016.0442,W,1,8,1.6,20,"
"##MN-00 00 53 0016 02245 6043 441421 348537 200"
"155.619155"
"$GPGGA,145132,2501.7473,N,08016.0421,W,1,8,1.6,20,"
"##MN-00 00 50 0017 02247 6044 441430 348551 200"
"155.619201"
"$GPGGA,145136,2501.7470,N,08016.0394,W,1,8,1.6,20,"
"##MN-00 00 52 0018 02245 6045 441441 348551 200"
"155.619248"
"$GPGGA,145140,2501.7462,N,08016.0382,W,1,8,1.6,20,"
"##MN-00 00 53 0019 02245 6047 441437 348545 200"
"155.619294"
"$GPGGA,145144,2501.7458,N,08016.0358,W,1,8,1.6,20,"
"##MN-00 00 54 0020 02244 6047 441448 348554 200"
"155.61934"
"$GPGGA,145148,2501.7460,N,08016.0332,W,1,8,1.5,20,"
"##MN-00 00 52 0020 02247 6049 441480 348562 200"
"155.619387"
"$GPGGA,145152,2501.7453,N,08016.0310,W,1,8,1.7,20,"
"##MN-00 00 51 0021 02245 6049 441504 348568 200"
"155.619433"
"$GPGGA,145156,2501.7448,N,08016.0293,W,1,8,1.9,20,"
"##MN-00 00 50 0022 02243 6051 441506 348566 200"
"155.619479"
"$GPGGA,145200,2501.7444,N,08016.0275,W,1,8,1.5,20,"
"##MN-00 00 49 0022 02242 6052 441504 348565 200"
"155.619525"
"$GPGGA,145204,2501.7441,N,08016.0253,W,1,6,1.6,21,"
"##MN-00 00 53 0023 02242 6052 441513 348567 200"
"155.619572"
"$GPGGA,145208,2501.7435,N,08016.0230,W,1,7,1.5,21,"
"##MN-00 00 52 0024 02242 6053 441529 348571 200"
"155.619618"
"$GPGGA,145212,2501.7428,N,08016.0213,W,1,8,1.7,21,"
"##MN-00 00 47 0025 02241 6054 441543 348575 200"
"155.619664"
"$GPGGA,145216,2501.7427,N,08016.0188,W,1,7,1.6,21,"
"##MN-00 00 50 0025 02245 6055 441544 348574 200"
"155.619711"
"$GPGGA,145220,2501.7421,N,08016.0168,W,1,8,1.5,22,"
"##MN-00 00 54 0026 02244 6056 441568 348582 200"
"155.619757"
"$GPGGA,145224,2501.7420,N,08016.0143,W,1,8,1.7,22,"
"##MN-00 00 51 0027 02242 6056 441610 348588 200"
"155.619803"
"$GPGGA,145228,2501.7414,N,08016.0120,W,1,8,1.5,22,"
"##MN-00 00 51 0028 02244 6056 441609 348585 200"
"155.619919"
"$GPGGA,145234,2501.7406,N,08016.0088,W,1,8,1.5,22,"
"##MN-00 00 49 0030 02245 6059 441609 348586 200"
"155.619965"
"$GPGGA,145242,2501.7394,N,08016.0050,W,1,8,1.9,21,"
"##MN-00 00 48 0030 02243 6059 441625 348591 200"
"155.620012"
"$GPGGA,145246,2501.7388,N,08016.0029,W,1,7,1.5,21,"
"##MN-00 00 52 0031 02241 6059 441637 348594 200"
"155.620058"
"$GPGGA,145250,2501.7384,N,08016.0009,W,1,9,1.6,21,"
"##MN-00 00 53 0032 02245 6060 441624 348591 200"
"155.620104"
"$GPGGA,145254,2501.7382,N,08015.9982,W,1,8,1.9,21,"
"##MN-00 00 51 0032 02243 6060 441617 348585 200"
"155.62015"
"$GPGGA,145258,2501.7381,N,08015.9963,W,1,9,1.9,21,"
"##MN-00 00 51 0033 02243 6061 441619 348585 200"
"155.620197"
"$GPGGA,145302,2501.7374,N,08015.9941,W,1,9,1.5,21,"
"##MN-00 00 54 0034 02243 6061 441619 348584 200"
"155.620243"
"$GPGGA,145306,2501.7363,N,08015.9916,W,1,9,1.5,22,"
"##MN-00 00 49 0034 02241 6061 441627 348585 200"
"155.620289"
"$GPGGA,145310,2501.7359,N,08015.9896,W,1,8,1.5,22,"
"##MN-00 00 50 0035 02241 6062 441642 348591 200"
"155.620336"
"$GPGGA,145314,2501.7354,N,08015.9874,W,1,8,1.5,23,"
"##MN-00 00 52 0036 02243 6062 441652 348593 200"
"155.620382"
"$GPGGA,145318,2501.7353,N,08015.9848,W,1,7,1.5,23,"
"##MN-00 00 51 0036 02242 6063 441660 348593 200"
"155.620428"
"$GPGGA,145322,2501.7352,N,08015.9829,W,1,8,1.7,23,"
"##MN-00 00 50 0037 02244 6063 441666 348593 200"
"155.620475"
"$GPGGA,145326,2501.7345,N,08015.9815,W,1,8,1.8,23,"
"##MN-00 00 50 0038 02241 6063 441667 348594 200"
"155.620521"
"$GPGGA,145330,2501.7337,N,08015.9796,W,1,9,1.5,23,"
"##MN-00 00 50 0039 02242 6063 441658 348590 200"
"155.620567"
"$GPGGA,145334,2501.7332,N,08015.9773,W,1,8,1.5,23,"
"##MN-00 00 49 0040 02242 6063 441657 348589 200"
"155.620613"
"$GPGGA,145338,2501.7327,N,08015.9751,W,1,9,1.7,23,"
"##MN-00 00 50 0040 02243 6064 441663 348591 200"
"155.62066"
"$GPGGA,145342,2501.7325,N,08015.9728,W,1,8,1.5,22,"
"##MN-00 00 51 0041 02242 6064 441674 348595 200"
"155.620706"
"$GPGGA,145346,2501.7323,N,08015.9709,W,1,9,1.5,22,"
"##MN-00 00 50 0042 02243 6064 441685 348595 200"
"155.620752"
"$GPGGA,145350,2501.7314,N,08015.9693,W,1,7,1.5,22,"
"##MN-00 00 49 0042 02242 6064 441717 348609 200"
"155.620799"
"$GPGGA,145354,2501.7312,N,08015.9674,W,1,9,1.5,21,"
"##MN-00 00 51 0043 02243 6064 441753 348616 200"
"155.620845"
"$GPGGA,145358,2501.7307,N,08015.9653,W,1,9,1.7,21,"
"##MN-00 00 49 0044 02243 6064 441737 348608 200"
"155.620891"
"$GPGGA,145402,2501.7304,N,08015.9632,W,1,8,1.5,21,"
"##MN-00 00 51 0045 02241 6064 441727 348605 200"
"155.620938"
"$GPGGA,145406,2501.7298,N,08015.9610,W,1,8,1.5,21,"
"##MN-00 00 52 0045 02242 6065 441740 348609 200"
"155.620984"
"$GPGGA,145410,2501.7292,N,08015.9588,W,1,9,1.5,21,"
"##MN-00 00 49 0046 02241 6065 441750 348611 200"
"155.62103"
"$GPGGA,145414,2501.7287,N,08015.9569,W,1,9,1.5,21,"
"##MN-00 00 49 0047 02240 6064 441753 348611 200"
"155.621076"
"$GPGGA,145418,2501.7280,N,08015.9547,W,1,9,1.5,21,"
"##MN-00 00 49 0048 02243 6064 441759 348614 200"
"155.621123"
"$GPGGA,145422,2501.7273,N,08015.9524,W,1,9,1.5,21,"
"##MN-00 00 51 0049 02241 6065 441774 348616 200"
"155.621169"
"$GPGGA,145426,2501.7266,N,08015.9501,W,1,9,1.5,21,"
"##MN-00 00 50 0049 02241 6064 441775 348615 200"
"155.621215"
"$GPGGA,145430,2501.7259,N,08015.9481,W,1,9,1.5,21,"
"##MN-00 00 52 0050 02241 6065 441781 348615 200"
"155.621262"
"$GPGGA,145434,2501.7253,N,08015.9464,W,1,9,1.5,20,"
"##MN-00 00 50 0051 02242 6064 441779 348616 200"
"155.621308"
"$GPGGA,145438,2501.7249,N,08015.9439,W,1,9,1.5,20,"
"##MN-00 00 49 0052 02242 6064 441799 348627 200"
"155.621354"
"$GPGGA,145442,2501.7243,N,08015.9421,W,1,9,1.5,20,"
"##MN-00 00 50 0052 02243 6064 441843 348644 200"
"155.6214"
"$GPGGA,145446,2501.7231,N,08015.9396,W,1,8,1.5,20,"
"##MN-00 00 50 0053 02239 6064 442109 348776 200"
"155.621447"
"$GPGGA,145450,2501.7223,N,08015.9374,W,1,8,1.7,20,"
"##MN-00 00 49 0054 02243 6064 444110 349336 200"
"155.621493"
"$GPGGA,145454,2501.7219,N,08015.9352,W,1,8,1.7,20,"
"##MN-00 00 50 0055 02241 6063 444821 349505 200"
"155.621539"
"$GPGGA,145458,2501.7215,N,08015.9329,W,1,8,1.5,20,"
"##MN-00 00 52 0055 02241 6064 445838 349826 200"
"155.621586"
"$GPGGA,145502,2501.7209,N,08015.9304,W,1,8,1.5,21,"
"##MN-00 00 48 0056 02240 6064 448043 350378 200"
"155.621632"
"$GPGGA,145507,2501.7204,N,08015.9278,W,1,9,1.5,21,"
"##MN-00 00 50 0056 02240 6063 448638 350567 200"
"155.621678"
"$GPGGA,145511,2501.7197,N,08015.9254,W,1,8,1.7,21,"
"##MN-00 00 52 0057 02241 6064 448711 350670 200"
"155.621725"
"$GPGGA,145515,2501.7195,N,08015.9230,W,1,9,1.5,21,"
"##MN-00 00 49 0058 02240 6063 449274 350819 200"
"155.621771"
"$GPGGA,145518,2501.7189,N,08015.9213,W,1,8,1.5,22,"
"##MN-00 00 51 0058 02241 6063 449444 350873 200"
"155.621817"
"$GPGGA,145523,2501.7184,N,08015.9182,W,1,9,1.5,22,"
"##MN-00 00 51 0059 02239 6062 449542 350903 200"
"155.621863"
"$GPGGA,145527,2501.7180,N,08015.9158,W,1,9,1.5,22,"
"##MN-00 00 49 0060 02242 6063 449636 350957 200"
"155.621921"
"$GPGGA,145531,2501.7175,N,08015.9135,W,1,9,1.5,22,"
"##MN-00 00 50 0061 02242 6062 449676 350974 200"
"155.621968"
"$GPGGA,145534,2501.7168,N,08015.9119,W,1,9,1.5,22,"
"##MN-00 00 51 0061 02240 6062 449689 350965 200"
"155.622014"
"$GPGGA,145539,2501.7160,N,08015.9093,W,1,8,1.7,22,"
"##MN-00 00 51 0062 02241 6062 449708 350985 200"
"155.62206"
"$GPGGA,145543,2501.7155,N,08015.9072,W,1,9,1.5,22,"
"##MN-00 00 49 0063 02240 6061 449721 350988 200"
"155.622106"
"$GPGGA,145547,2501.7150,N,08015.9050,W,1,9,1.5,22,"
"##MN-00 00 51 0064 02240 6061 449753 351007 200"
"155.622153"
"$GPGGA,145551,2501.7146,N,08015.9030,W,1,9,1.5,22,"
"##MN-00 00 49 0065 02240 6061 449805 351014 200"
"155.622199"
"$GPGGA,145555,2501.7135,N,08015.9006,W,1,8,1.7,22,"
"##MN-00 00 50 0065 02241 6060 449889 351027 200"
"155.622245"
"$GPGGA,145559,2501.7125,N,08015.8982,W,1,9,1.5,22,"
"##MN-00 00 49 0066 02240 6060 450073 351124 200"
"155.622292"
"$GPGGA,145603,2501.7118,N,08015.8957,W,1,8,1.7,22,"
"##MN-00 00 50 0067 02241 6059 450484 351231 200"
"155.622338"
"$GPGGA,145607,2501.7112,N,08015.8933,W,1,8,1.7,23,"
"##MN-00 00 50 0068 02241 6059 450762 351332 200"
"155.622384"
"$GPGGA,145611,2501.7103,N,08015.8913,W,1,9,1.5,23,"
"##MN-00 00 51 0069 02242 6058 451130 351446 200"
"155.622431"
"$GPGGA,145615,2501.7096,N,08015.8891,W,1,9,1.5,23,"
"##MN-00 00 53 0069 02240 6057 451362 351533 200"
"155.622477"
"$GPGGA,145619,2501.7093,N,08015.8867,W,1,9,1.7,23,"
"##MN-00 00 50 0070 02242 6058 451679 351661 200"
"155.622523"
"$GPGGA,145623,2501.7087,N,08015.8849,W,1,9,1.5,23,"
"##MN-00 00 51 0071 02242 6057 451843 351718 200"
"155.622569"
"$GPGGA,145627,2501.7081,N,08015.8829,W,1,9,1.5,23,"
"##MN-00 00 52 0072 02241 6056 451956 351758 200"
"155.622616"
"$GPGGA,145631,2501.7074,N,08015.8811,W,1,9,1.6,23,"
"##MN-00 00 51 0072 02239 6056 452083 351810 200"
"155.622662"
"$GPGGA,145635,2501.7067,N,08015.8793,W,1,9,1.5,23,"
"##MN-00 00 49 0073 02240 6055 452172 351841 200"
"155.622708"
"$GPGGA,145639,2501.7063,N,08015.8772,W,1,9,1.5,23,"
"##MN-00 00 49 0074 02240 6055 452242 351856 200"
"155.622755"
"$GPGGA,145643,2501.7056,N,08015.8752,W,1,9,1.5,23,"
"##MN-00 00 50 0075 02240 6054 452297 351892 200"
"155.622801"
"$GPGGA,145647,2501.7053,N,08015.8732,W,1,7,1.5,22,"
"##MN-00 00 52 0075 02240 6053 452527 351971 200"
"155.622847"
"$GPGGA,145651,2501.7045,N,08015.8709,W,1,9,1.5,22,"
"##MN-00 00 51 0076 02240 6052 452665 352005 200"
"155.622894"
"$GPGGA,145655,2501.7039,N,08015.8686,W,1,9,1.5,22,"
"##MN-00 00 51 0077 02240 6052 452765 352032 200"
"155.62294"
"$GPGGA,145659,2501.7034,N,08015.8665,W,1,9,1.5,22,"
"##MN-00 00 52 0078 02241 6051 452936 352096 200"
"155.622986"
"$GPGGA,145703,2501.7029,N,08015.8644,W,1,9,1.5,22,"
"##MN-00 00 51 0078 02241 6050 453087 352152 200"
"155.623032"
"$GPGGA,145707,2501.7024,N,08015.8624,W,1,9,1.5,22,"
"##MN-00 00 52 0079 02239 6049 453136 352165 200"
"155.623079"
"$GPGGA,145711,2501.7020,N,08015.8606,W,1,8,1.7,22,"
"##MN-00 00 48 0080 02241 6049 453133 352166 200"
"155.623125"
"$GPGGA,145715,2501.7014,N,08015.8590,W,1,7,1.6,22,"
"##MN-00 00 48 0081 02240 6048 453120 352159 200"
"155.623171"
"$GPGGA,145719,2501.7006,N,08015.8576,W,1,8,1.7,22,"
"##MN-00 00 49 0081 02240 6047 453111 352158 200"
"155.623218"
"$GPGGA,145723,2501.6999,N,08015.8561,W,1,7,1.6,22,"
"##MN-00 00 48 0082 02239 6047 453112 352159 200"
"155.623264"
"$GPGGA,145727,2501.6992,N,08015.8542,W,1,8,1.6,22,"
"##MN-00 00 47 0083 02240 6046 453101 352155 200"
"155.62331"
"$GPGGA,145731,2501.6987,N,08015.8526,W,1,9,1.5,22,"
"##MN-00 00 49 0084 02240 6045 453058 352144 200"
"155.623357"
"$GPGGA,145735,2501.6982,N,08015.8501,W,1,9,1.5,22,"
"##MN-00 00 49 0085 02240 6044 452947 352120 200"
"155.623403"
"$GPGGA,145739,2501.6975,N,08015.8484,W,1,9,1.5,22,"
"##MN-00 00 47 0085 02238 6044 452756 352050 200"
"155.623449"
"$GPGGA,145743,2501.6969,N,08015.8469,W,1,9,1.5,22,"
"##MN-00 00 49 0086 02239 6043 452801 352062 200"
"155.623495"
"$GPGGA,145747,2501.6963,N,08015.8452,W,1,8,1.6,22,"
"##MN-00 00 49 0087 02238 6042 452890 352088 200"
"155.623542"
"$GPGGA,145751,2501.6956,N,08015.8432,W,1,9,1.5,21,"
"##MN-00 00 52 0088 02238 6041 452939 352098 200"
"155.623588"
"$GPGGA,145755,2501.6949,N,08015.8413,W,1,9,1.5,21,"
"##MN-00 00 48 0089 02240 6040 452839 352076 200"
"155.623634"
"$GPGGA,145759,2501.6944,N,08015.8395,W,1,9,1.5,21,"
"##MN-00 00 48 0090 02240 6039 452759 352059 200"
"155.623681"
"$GPGGA,145803,2501.6936,N,08015.8376,W,1,9,1.5,21,"
"##MN-00 00 49 0091 02241 6038 452417 351935 200"
"155.623727"
"$GPGGA,145807,2501.6929,N,08015.8361,W,1,9,1.5,20,"
"##MN-00 00 48 0092 02239 6037 452144 351850 200"
"155.623773"
"$GPGGA,145811,2501.6926,N,08015.8344,W,1,9,1.5,20,"
"##MN-00 00 48 0093 02239 6036 452007 351820 200"
"155.623819"
"$GPGGA,145815,2501.6923,N,08015.8326,W,1,9,1.5,20,"
"##MN-00 00 48 0094 02241 6035 451821 351792 200"
"155.623866"
"$GPGGA,145819,2501.6920,N,08015.8306,W,1,9,1.5,21,"
"##MN-00 00 47 0095 02239 6034 451765 351763 200"
"155.623912"
"$GPGGA,145823,2501.6918,N,08015.8287,W,1,9,1.5,21,"
"##MN-00 00 46 0096 02240 6033 451725 351710 200"
"155.623958"
"$GPGGA,145827,2501.6915,N,08015.8268,W,1,9,1.5,21,"
"##MN-00 00 46 0097 02239 6032 451684 351695 200"
"155.624005"
"$GPGGA,145831,2501.6911,N,08015.8248,W,1,9,1.5,21,"
"##MN-00 00 49 0097 02239 6031 451696 351685 200"
"155.624051"
"$GPGGA,145835,2501.6906,N,08015.8228,W,1,9,1.5,21,"
"##MN-00 00 51 0098 02240 6030 451697 351681 200"
"155.624097"
"$GPGGA,145839,2501.6901,N,08015.8212,W,1,9,1.5,21,"
"##MN-00 00 50 0099 02238 6029 451639 351657 200"
"155.624144"
"$GPGGA,145843,2501.6897,N,08015.8195,W,1,9,1.5,21,"
"##MN-00 00 48 0100 02239 6028 451419 351583 200"
"155.62419"
"$GPGGA,145847,2501.6890,N,08015.8183,W,1,9,1.5,21,"
"##MN-00 00 48 0101 02240 6027 451130 351518 200"
"155.624236"
"$GPGGA,145851,2501.6883,N,08015.8170,W,1,9,1.5,21,"
"##MN-00 00 51 0102 02238 6026 450968 351466 200"
"155.624282"
"$GPGGA,145855,2501.6879,N,08015.8150,W,1,9,1.5,21,"
"##MN-00 00 51 0103 02238 6026 450763 351373 200"
"155.624329"
"$GPGGA,145859,2501.6875,N,08015.8133,W,1,8,1.7,21,"
"##MN-00 00 47 0104 02239 6024 450669 351355 200"
"155.624375"
"$GPGGA,145903,2501.6868,N,08015.8123,W,1,9,1.5,21,"
"##MN-00 00 49 0105 02240 6023 450572 351334 200"
"155.624421"
"$GPGGA,145907,2501.6863,N,08015.8110,W,1,9,1.5,20,"
"##MN-00 00 49 0106 02239 6022 450456 351285 200"
"155.624468"
"$GPGGA,145911,2501.6857,N,08015.8094,W,1,9,1.5,20,"
"##MN-00 00 48 0107 02240 6021 450273 351240 200"
"155.624514"
"$GPGGA,145915,2501.6850,N,08015.8078,W,1,9,1.5,20,"
"##MN-00 00 49 0108 02239 6020 450071 351164 200"
"155.62456"
"$GPGGA,145919,2501.6839,N,08015.8059,W,1,8,1.7,20,"
"##MN-00 00 49 0109 02238 6019 449887 351099 200"
"155.624606"
"$GPGGA,145923,2501.6833,N,08015.8040,W,1,9,1.5,20,"
"##MN-00 00 48 0110 02238 6018 449699 351036 200"
"155.624653"
"$GPGGA,145927,2501.6828,N,08015.8021,W,1,9,1.7,20,"
"##MN-00 00 48 0111 02239 6016 449489 350987 200"
"155.624699"
"$GPGGA,145931,2501.6826,N,08015.8000,W,1,8,1.7,19,"
"##MN-00 00 48 0112 02239 6015 449214 350901 200"
"155.624745"
"$GPGGA,145935,2501.6821,N,08015.7983,W,1,8,1.7,19,"
"##MN-00 00 48 0113 02239 6014 448905 350859 200"
"155.624792"
"$GPGGA,145939,2501.6820,N,08015.7963,W,1,8,1.7,19,"
"##MN-00 00 46 0114 02239 6013 448589 350852 200"
"155.624838"
"$GPGGA,145943,2501.6814,N,08015.7946,W,1,8,1.7,19,"
"##MN-00 00 48 0115 02238 6012 447242 350448 200"
"155.624884"
"$GPGGA,145947,2501.6810,N,08015.7927,W,1,9,1.5,19,"
"##MN-00 00 47 0116 02239 6011 445022 349805 200"
"155.624931"
"$GPGGA,145951,2501.6803,N,08015.7912,W,1,9,1.5,19,"
"##MN-00 00 48 0117 02240 6010 443262 349614 200"
"155.624977"
"$GPGGA,145955,2501.6796,N,08015.7898,W,1,9,1.5,19,"
"##MN-00 00 50 0118 02238 6008 442039 349193 200"
"155.625023"
"$GPGGA,150000,2501.6791,N,08015.7876,W,1,8,1.6,19,"
"##MN-00 00 45 0119 02237 6008 441728 348782 200"
"155.625081"
"$GPGGA,150004,2501.6785,N,08015.7863,W,1,9,1.5,19,"
"##MN-00 00 44 0120 02238 6007 441596 348704 200"
"155.625127"
"$GPGGA,150008,2501.6781,N,08015.7846,W,1,9,1.7,19,"
"##MN-00 00 46 0121 02238 6006 441525 348641 200"
"155.625174"
"$GPGGA,150012,2501.6776,N,08015.7828,W,1,9,1.7,19,"
"##MN-00 00 44 0122 02239 6005 441502 348668 200"
"155.62522"
"$GPGGA,150016,2501.6771,N,08015.7813,W,1,8,1.5,19,"
"##MN-00 00 44 0123 02238 6004 441488 348620 200"
"155.625266"
"$GPGGA,150020,2501.6767,N,08015.7795,W,1,8,1.5,19,"
"##MN-00 00 46 0124 02239 6003 441449 348615 200"
"155.625312"
"$GPGGA,150024,2501.6759,N,08015.7786,W,1,9,1.5,19,"
"##MN-00 00 47 0125 02237 6002 441432 348633 200"
"155.625359"
"$GPGGA,150028,2501.6756,N,08015.7769,W,1,8,1.5,18,"
"##MN-00 00 46 0127 02239 6000 441421 348619 200"
"155.625405"
"$GPGGA,150032,2501.6752,N,08015.7751,W,1,8,1.5,18,"
"##MN-00 00 46 0128 02239 6000 441410 348591 200"
"155.625451"
"$GPGGA,150036,2501.6749,N,08015.7734,W,1,9,1.7,18,"
"##MN-00 00 46 0129 02238 5999 441382 348606 200"
"155.625498"
"$GPGGA,150040,2501.6745,N,08015.7721,W,1,9,1.7,19,"
"##MN-00 00 46 0130 02240 5998 441346 348604 200"
"155.625544"
"$GPGGA,150044,2501.6738,N,08015.7703,W,1,9,1.5,19,"
"##MN-00 00 46 0131 02238 5996 441330 348585 200"
"155.62559"
"$GPGGA,150048,2501.6734,N,08015.7684,W,1,8,1.5,19,"
"##MN-00 00 49 0132 02239 5996 441296 348546 200"
"155.625637"
"$GPGGA,150052,2501.6729,N,08015.7666,W,1,9,1.5,19,"
"##MN-00 00 46 0133 02239 5994 441242 348535 200"
"155.625683"
"$GPGGA,150056,2501.6727,N,08015.7652,W,1,9,1.5,19,"
"##MN-00 00 49 0134 02238 5994 441130 348490 200"
"155.625729"
"$GPGGA,150100,2501.6723,N,08015.7631,W,1,9,1.5,19,"
"##MN-00 00 50 0135 02239 5993 441074 348490 200"
"155.625775"
"$GPGGA,150104,2501.6716,N,08015.7613,W,1,9,1.5,19,"
"##MN-00 00 49 0136 02238 5992 441019 348490 200"
"155.625822"
"$GPGGA,150108,2501.6709,N,08015.7597,W,1,9,1.5,18,"
"##MN-00 00 48 0137 02237 5991 440974 348487 200"
"155.625868"
"$GPGGA,150112,2501.6705,N,08015.7578,W,1,9,1.7,18,"
"##MN-00 00 49 0138 02238 5990 440898 348437 200"
"155.625914"
"$GPGGA,150116,2501.6702,N,08015.7563,W,1,9,1.7,18,"
"##MN-00 00 50 0140 02239 5989 440872 348428 200"
"155.625961"
"$GPGGA,150120,2501.6698,N,08015.7548,W,1,9,1.7,18,"
"##MN-00 00 50 0141 02238 5988 440785 348418 200"
"155.626007"
"$GPGGA,150124,2501.6692,N,08015.7533,W,1,9,1.5,18,"
"##MN-00 00 49 0142 02238 5987 440787 348410 200"
"155.626053"
"$GPGGA,150128,2501.6689,N,08015.7517,W,1,8,1.5,18,"
"##MN-00 00 46 0143 02238 5986 440742 348408 200"
"155.6261"
"$GPGGA,150132,2501.6684,N,08015.7501,W,1,9,1.6,18,"
"##MN-00 00 48 0144 02237 5985 440675 348381 200"
"155.626146"
"$GPGGA,150136,2501.6676,N,08015.7487,W,1,9,1.5,18,"
"##MN-00 00 52 0145 02237 5985 440673 348386 200"
"155.626192"
"$GPGGA,150140,2501.6673,N,08015.7470,W,1,9,1.5,18,"
"##MN-00 00 56 0146 02239 5984 440721 348391 200"
"155.626238"
"$GPGGA,150144,2501.6671,N,08015.7452,W,1,9,1.6,18,"
"##MN-00 00 60 0147 02239 5983 441497 407708 200"
"155.626285"
"$GPGGA,150148,2501.6666,N,08015.7435,W,1,9,1.5,18,"
"##MN-00 00 52 0147 02239 5982 444506 409981 200"
"155.626331"
"$GPGGA,150152,2501.6665,N,08015.7419,W,1,8,1.5,18,"
"##MN-00 00 45 0148 02238 5981 453805 427835 200"
"155.626377"
"$GPGGA,150156,2501.6663,N,08015.7404,W,1,8,1.5,19,"
"##MN-00 00 35 0149 02235 5981 460159 659899 200"
"155.626424"
"$GPGGA,150200,2501.6662,N,08015.7383,W,1,9,1.6,19,"
"##MN-00 00 33 0150 02238 5980 462371 915230 200"
" Tow: 3Wm-A   RVWS/WS1406"
" Date: 06/04/2014"
" Temperature Probe #  2597    Conductivity Probe #  2870"
" Pressure Probe #  109"
" Flow Meter Calibration  4.71 (m/count)  "
"155.633021"
"$GPGGA,151125,2501.6790,N,08015.5531,W,1,8,1.7,18,"
"##MN-00 00 00 0084 01860 5093 440660 924947 201"
"155.633067"
"$GPGGA,151134,2501.6823,N,08015.5529,W,1,7,2.5,17,"
"##MN-00 00 00 0084 01859 5094 438442 925366 201"
"155.633113"
"$GPGGA,151138,2501.6839,N,08015.5529,W,1,8,2.5,17,"
"##MN-00 00 00 0084 01859 5096 438883 925367 202"
"155.63316"
"$GPGGA,151142,2501.6857,N,08015.5530,W,1,8,1.7,17,"
"##MN-00 00 00 0084 01860 5098 438953 925367 201"
"155.633206"
"$GPGGA,151146,2501.6874,N,08015.5530,W,1,8,1.7,17,"
"##MN-00 00 00 0084 01858 5100 438922 925367 202"
"155.633252"
"$GPGGA,151150,2501.6889,N,08015.5530,W,1,8,1.7,17,"
"##MN-00 00 00 0084 01858 5101 438762 925367 201"
"155.633299"
"$GPGGA,151154,2501.6907,N,08015.5531,W,1,8,1.7,17,"
"##MN-00 00 00 0084 01861 5103 438615 925367 202"
"155.633345"
"$GPGGA,151158,2501.6921,N,08015.5533,W,1,7,2.5,17,"
"##MN-00 00 00 0084 01860 5105 438031 925368 201"
"155.633391"
"$GPGGA,151202,2501.6940,N,08015.5533,W,1,8,1.7,18,"
"##MN-00 00 00 0084 01860 5106 437606 925367 202"
"155.633438"
"$GPGGA,151206,2501.6957,N,08015.5533,W,1,8,1.8,18,"
"##MN-00 00 64 0084 01861 5108 437395 925367 202"
"155.633484"
"$GPGGA,151210,2501.6978,N,08015.5540,W,1,8,1.7,18,"
"##MN-00 00 65 0084 01861 5109 437594 925367 202"
"155.63353"
"$GPGGA,151214,2501.6993,N,08015.5544,W,1,8,1.7,19,"
"##MN-00 00 90 0084 01862 5110 437517 925368 202"
"155.633576"
"$GPGGA,151218,2501.7005,N,08015.5545,W,1,8,1.7,20,"
"##MN-00 00 90 0084 01860 5111 437296 925367 202"
"155.633623"
"$GPGGA,151222,2501.7019,N,08015.5548,W,1,7,1.7,20,"
"##MN-00 00 81 0084 01862 5113 436963 925368 202"
"155.633669"
"$GPGGA,151226,2501.7033,N,08015.5548,W,1,8,1.7,20,"
"##MN-00 00 86 0084 01861 5115 437273 925368 202"
"155.633715"
"$GPGGA,151230,2501.7048,N,08015.5549,W,1,8,1.7,20,"
"##MN-00 00 90 0084 01861 5115 436913 925368 202"
"155.633762"
"$GPGGA,151234,2501.7063,N,08015.5551,W,1,8,1.7,20,"
"##MN-00 00 90 0084 01862 5117 436600 925367 202"
"155.633808"
"$GPGGA,151238,2501.7077,N,08015.5551,W,1,8,1.7,20,"
"##MN-00 00 90 0084 01861 5118 436950 925367 202"
"155.633854"
"$GPGGA,151242,2501.7094,N,08015.5553,W,1,8,1.7,19,"
"##MN-00 00 90 0084 01862 5120 436841 925367 202"
"155.6339"
"$GPGGA,151246,2501.7109,N,08015.5553,W,1,8,1.7,19,"
"##MN-00 00 90 0084 01858 5121 435922 925368 202"
"155.633947"
"$GPGGA,151250,2501.7124,N,08015.5553,W,1,8,1.7,19,"
"##MN-00 00 90 0084 01862 5122 435556 925368 202"
"155.633993"
"$GPGGA,151254,2501.7141,N,08015.5554,W,1,8,1.7,19,"
"##MN-00 00 90 0084 01861 5124 435347 925368 202"
"155.634039"
"$GPGGA,151258,2501.7157,N,08015.5554,W,1,8,1.7,18,"
"##MN-00 00 90 0084 01861 5125 435387 925368 202"
"155.634086"
"$GPGGA,151302,2501.7175,N,08015.5557,W,1,8,1.7,18,"
"##MN-00 00 90 0084 01860 5126 435181 925368 202"
"155.634132"
"$GPGGA,151306,2501.7189,N,08015.5557,W,1,8,1.7,18,"
"##MN-00 00 90 0084 01860 5127 434777 925368 202"
" Tow: 3Wm-A   RVWS/WS1406"
" Date: 06/04/2014"
" Temperature Probe #  2597    Conductivity Probe #  2870"
" Pressure Probe #  109"
" Flow Meter Calibration  4.71 (m/count)  "
"155.640613"
"$GPGGA,152222,2501.7247,N,08015.4250,W,1,9,1.6,20,"
"##MN-00 00 57 0088 01862 5306 433568 925323 202"
"155.64066"
"$GPGGA,152230,2501.7219,N,08015.4197,W,1,9,1.6,20,"
"##MN-00 00 49 0088 01863 5307 453407 724469 202"
"155.640706"
"$GPGGA,152234,2501.7207,N,08015.4173,W,1,9,1.6,20,"
"##MN-00 00 57 0089 01863 5308 440548 382751 202"
"155.640752"
"$GPGGA,152238,2501.7195,N,08015.4149,W,1,9,1.6,20,"
"##MN-00 00 63 0089 01863 5310 440504 349051 202"
"155.640799"
"$GPGGA,152242,2501.7183,N,08015.4126,W,1,9,1.6,20,"
"##MN-00 00 61 0090 01862 5312 440576 348446 202"
"155.640845"
"$GPGGA,152246,2501.7172,N,08015.4104,W,1,9,1.6,20,"
"##MN-00 00 58 0091 01863 5313 440587 348479 202"
"155.640891"
"$GPGGA,152250,2501.7160,N,08015.4082,W,1,9,1.6,20,"
"##MN-00 00 59 0092 01862 5315 440627 348443 202"
"155.640937"
"$GPGGA,152254,2501.7148,N,08015.4060,W,1,9,1.6,20,"
"##MN-00 00 59 0093 01866 5316 440642 348445 202"
"155.640984"
"$GPGGA,152258,2501.7137,N,08015.4039,W,1,9,1.6,20,"
"##MN-00 00 62 0094 01872 5317 440642 348421 202"
"155.64103"
"$GPGGA,152302,2501.7128,N,08015.4018,W,1,8,1.6,20,"
"##MN-00 00 61 0095 01877 5318 440607 348400 202"
"155.641076"
"$GPGGA,152306,2501.7118,N,08015.3998,W,1,9,1.6,20,"
"##MN-00 00 60 0096 01881 5320 440586 348407 202"
"155.641123"
"$GPGGA,152310,2501.7110,N,08015.3975,W,1,9,1.6,20,"
"##MN-00 00 63 0097 01887 5321 440577 348410 202"
"155.641169"
"$GPGGA,152314,2501.7097,N,08015.3954,W,1,9,1.6,20,"
"##MN-00 00 59 0098 01895 5322 440588 348401 202"
"155.641215"
"$GPGGA,152318,2501.7087,N,08015.3934,W,1,9,1.6,20,"
"##MN-00 00 60 0098 01901 5324 440616 348385 202"
"155.641262"
"$GPGGA,152322,2501.7075,N,08015.3911,W,1,9,1.6,20,"
"##MN-00 00 61 0099 01908 5325 440667 348396 202"
"155.641308"
"$GPGGA,152326,2501.7064,N,08015.3888,W,1,9,1.6,19,"
"##MN-00 00 61 0100 01916 5326 440722 348408 202"
"155.641354"
"$GPGGA,152330,2501.7053,N,08015.3869,W,1,9,1.6,19,"
"##MN-00 00 62 0101 01927 5328 440737 348411 202"
"155.6414"
"$GPGGA,152334,2501.7041,N,08015.3847,W,1,9,1.6,19,"
"##MN-00 00 64 0102 01934 5329 440728 348395 202"
"155.641447"
"$GPGGA,152338,2501.7030,N,08015.3825,W,1,9,1.6,19,"
"##MN-00 00 61 0103 01938 5330 440724 348403 202"
"155.641493"
"$GPGGA,152342,2501.7021,N,08015.3806,W,1,9,1.6,19,"
"##MN-00 00 60 0104 01950 5331 440769 348412 202"
"155.641539"
"$GPGGA,152346,2501.7012,N,08015.3786,W,1,9,1.6,19,"
"##MN-00 00 63 0105 01960 5332 440803 348418 202"
"155.641586"
"$GPGGA,152350,2501.7003,N,08015.3768,W,1,9,1.6,19,"
"##MN-00 00 64 0105 01966 5334 440824 348421 202"
"155.641632"
"$GPGGA,152354,2501.6995,N,08015.3747,W,1,9,1.6,19,"
"##MN-00 00 66 0106 01974 5335 440834 348435 202"
"155.641678"
"$GPGGA,152358,2501.6987,N,08015.3726,W,1,9,1.6,19,"
"##MN-00 00 60 0107 01985 5336 440894 348431 202"
"155.641725"
"$GPGGA,152402,2501.6981,N,08015.3705,W,1,9,1.6,19,"
"##MN-00 00 57 0107 01993 5337 440931 348441 202"
"155.641771"
"$GPGGA,152406,2501.6974,N,08015.3683,W,1,9,1.6,19,"
"##MN-00 00 59 0108 01997 5338 440963 348444 202"
"155.641817"
"$GPGGA,152410,2501.6967,N,08015.3661,W,1,9,1.6,19,"
"##MN-00 00 57 0109 02005 5339 440986 348445 202"
"155.641863"
"$GPGGA,152414,2501.6959,N,08015.3640,W,1,9,1.6,18,"
"##MN-00 00 61 0110 02008 5340 441011 348447 202"
"155.64191"
"$GPGGA,152418,2501.6951,N,08015.3619,W,1,9,1.6,18,"
"##MN-00 00 60 0111 02009 5341 441045 348458 202"
"155.641956"
"$GPGGA,152422,2501.6941,N,08015.3598,W,1,9,1.6,18,"
"##MN-00 00 56 0112 02013 5342 441086 348469 202"
"155.642002"
"$GPGGA,152426,2501.6933,N,08015.3578,W,1,9,1.6,18,"
"##MN-00 00 56 0112 02018 5343 441115 348472 202"
"155.642049"
"$GPGGA,152430,2501.6924,N,08015.3559,W,1,9,1.6,19,"
"##MN-00 00 60 0113 02023 5344 441176 348486 202"
"155.642095"
"$GPGGA,152434,2501.6916,N,08015.3539,W,1,9,1.6,19,"
"##MN-00 00 60 0114 02028 5345 441253 348500 202"
"155.642141"
"$GPGGA,152438,2501.6908,N,08015.3520,W,1,9,1.6,19,"
"##MN-00 00 57 0115 02032 5345 441279 348504 202"
"155.642188"
"$GPGGA,152442,2501.6899,N,08015.3500,W,1,9,1.6,18,"
"##MN-00 00 58 0116 02036 5346 441293 348504 202"
"155.642234"
"$GPGGA,152446,2501.6889,N,08015.3481,W,1,9,1.6,18,"
"##MN-00 00 58 0117 02040 5347 441330 348506 202"
"155.64228"
"$GPGGA,152451,2501.6877,N,08015.3458,W,1,8,1.7,18,"
"##MN-00 00 56 0118 02048 5348 441363 348515 202"
"155.642326"
"$GPGGA,152454,2501.6868,N,08015.3443,W,1,9,1.6,18,"
"##MN-00 00 58 0119 02050 5349 441385 348514 202"
"155.642373"
"$GPGGA,152459,2501.6855,N,08015.3415,W,1,9,1.6,18,"
"##MN-00 00 58 0120 02054 5349 441399 348514 202"
"155.642419"
"$GPGGA,152502,2501.6848,N,08015.3399,W,1,9,1.6,18,"
"##MN-00 00 58 0120 02059 5350 441423 348516 202"
"155.642465"
"$GPGGA,152506,2501.6839,N,08015.3376,W,1,9,1.6,18,"
"##MN-00 00 54 0121 02059 5351 441453 348527 202"
"155.642512"
"$GPGGA,152510,2501.6829,N,08015.3353,W,1,9,1.6,18,"
"##MN-00 00 58 0122 02064 5351 441565 348551 202"
"155.642558"
"$GPGGA,152514,2501.6821,N,08015.3330,W,1,9,1.6,17,"
"##MN-00 00 60 0123 02067 5352 442356 348887 202"
"155.642616"
"$GPGGA,152519,2501.6808,N,08015.3302,W,1,9,1.6,17,"
"##MN-00 00 58 0124 02070 5353 444342 349310 202"
"155.642662"
"$GPGGA,152523,2501.6800,N,08015.3280,W,1,9,1.6,17,"
"##MN-00 00 57 0125 02072 5354 445293 349327 202"
"155.642708"
"$GPGGA,152527,2501.6790,N,08015.3258,W,1,9,1.6,17,"
"##MN-00 00 62 0126 02077 5355 446375 349861 202"
"155.642755"
"$GPGGA,152531,2501.6782,N,08015.3240,W,1,9,1.6,17,"
"##MN-00 00 55 0126 02079 5355 447276 350193 202"
"155.642801"
"$GPGGA,152535,2501.6772,N,08015.3222,W,1,7,2.6,17,"
"##MN-00 00 55 0127 02085 5356 447629 350316 202"
"155.642847"
"$GPGGA,152539,2501.6763,N,08015.3200,W,1,9,1.6,17,"
"##MN-00 00 58 0128 02088 5356 448046 350431 202"
"155.642894"
"$GPGGA,152543,2501.6752,N,08015.3178,W,1,9,1.6,18,"
"##MN-00 00 56 0129 02089 5357 448434 350514 202"
"155.64294"
"$GPGGA,152547,2501.6742,N,08015.3155,W,1,9,1.6,18,"
"##MN-00 00 59 0130 02093 5357 448769 350611 202"
"155.642986"
"$GPGGA,152551,2501.6734,N,08015.3132,W,1,9,1.6,18,"
"##MN-00 00 57 0130 02094 5358 449138 350793 202"
"155.643032"
"$GPGGA,152555,2501.6725,N,08015.3110,W,1,9,1.6,18,"
"##MN-00 00 56 0132 02096 5358 449298 350816 202"
"155.643079"
"$GPGGA,152559,2501.6716,N,08015.3087,W,1,9,1.6,18,"
"##MN-00 00 58 0132 02098 5359 449330 350815 202"
"155.643125"
"$GPGGA,152603,2501.6706,N,08015.3065,W,1,9,1.6,19,"
"##MN-00 00 58 0133 02100 5359 449454 350912 202"
"155.643171"
"$GPGGA,152607,2501.6700,N,08015.3044,W,1,9,1.6,19,"
"##MN-00 00 56 0134 02101 5360 449551 350923 202"
"155.643218"
"$GPGGA,152611,2501.6689,N,08015.3023,W,1,9,1.6,19,"
"##MN-00 00 60 0135 02104 5360 449598 350943 202"
"155.643264"
"$GPGGA,152615,2501.6681,N,08015.3003,W,1,8,1.7,19,"
"##MN-00 00 58 0136 02107 5361 449703 350994 202"
"155.64331"
"$GPGGA,152619,2501.6671,N,08015.2984,W,1,8,1.7,20,"
"##MN-00 00 57 0137 02113 5361 449840 351052 202"
"155.643356"
"$GPGGA,152623,2501.6662,N,08015.2962,W,1,9,1.6,20,"
"##MN-00 00 57 0138 02114 5362 449921 351062 202"
"155.643403"
"$GPGGA,152627,2501.6651,N,08015.2939,W,1,9,1.6,20,"
"##MN-00 00 59 0139 02112 5362 450059 351073 202"
"155.643449"
"$GPGGA,152631,2501.6644,N,08015.2917,W,1,9,1.6,20,"
"##MN-00 00 54 0140 02115 5363 450076 351110 202"
"155.643495"
"$GPGGA,152635,2501.6633,N,08015.2895,W,1,9,1.6,20,"
"##MN-00 00 58 0141 02115 5363 449956 351091 202"
"155.643542"
"$GPGGA,152639,2501.6624,N,08015.2874,W,1,9,1.6,20,"
"##MN-00 00 56 0142 02114 5363 449924 351080 202"
"155.643588"
"$GPGGA,152643,2501.6615,N,08015.2855,W,1,9,1.6,20,"
"##MN-00 00 55 0143 02110 5363 449860 351068 202"
"155.643634"
"$GPGGA,152647,2501.6606,N,08015.2835,W,1,9,1.6,20,"
"##MN-00 00 58 0144 02113 5364 449796 351049 202"
"155.643681"
"$GPGGA,152651,2501.6598,N,08015.2815,W,1,9,1.6,20,"
"##MN-00 00 57 0145 02111 5364 449743 351033 202"
"155.643727"
"$GPGGA,152655,2501.6590,N,08015.2795,W,1,9,1.6,20,"
"##MN-00 00 59 0146 02113 5364 449716 351029 202"
"155.643773"
"$GPGGA,152659,2501.6582,N,08015.2775,W,1,9,1.6,20,"
"##MN-00 00 57 0147 02118 5364 449692 351010 202"
"155.643819"
"$GPGGA,152703,2501.6575,N,08015.2754,W,1,9,1.6,20,"
"##MN-00 00 57 0148 02119 5365 449748 351022 202"
"155.643866"
"$GPGGA,152707,2501.6564,N,08015.2734,W,1,9,1.6,20,"
"##MN-00 00 58 0149 02119 5365 449798 351035 202"
"155.643912"
"$GPGGA,152711,2501.6557,N,08015.2713,W,1,8,1.7,20,"
"##MN+00 00 56 0150 02118 5365 449831 351047 202"
"155.643958"
"$GPGGA,152715,2501.6551,N,08015.2692,W,1,9,1.6,20,"
"##MN+00 00 58 0151 02116 5365 449769 351041 202"
"155.644005"
"$GPGGA,152719,2501.6541,N,08015.2671,W,1,9,1.7,19,"
"##MN+00 00 58 0152 02117 5365 449715 351023 202"
"155.644051"
"$GPGGA,152723,2501.6533,N,08015.2650,W,1,7,1.6,19,"
"##MN+00 00 56 0153 02117 5365 449703 351022 202"
"155.644097"
"$GPGGA,152727,2501.6526,N,08015.2628,W,1,8,1.7,19,"
"##MN+00 00 57 0154 02116 5365 449686 351019 202"
"155.644144"
"$GPGGA,152731,2501.6517,N,08015.2607,W,1,9,1.7,19,"
"##MN+00 00 67 0155 02118 5365 449753 351022 202"
"155.64419"
"$GPGGA,152735,2501.6503,N,08015.2588,W,1,9,1.6,19,"
"##MN-00 00 63 0156 02117 5365 449880 351040 202"
"155.644236"
"#increment_net"
"$GPGGA,152739,2501.6494,N,08015.2567,W,1,9,1.6,19,"
"##MN-00 00 62 0157 02117 5365 450001 351073 202"
"155.644282"
"$GPGGA,152743,2501.6485,N,08015.2546,W,1,8,1.6,20,"
"##MN-00 00 59 0158 02117 5366 450017 351105 202"
"155.644329"
"$GPGGA,152747,2501.6476,N,08015.2523,W,1,8,1.7,20,"
"##MN-00 00 57 0159 02114 5365 449996 351099 202"
"155.644375"
"$GPGGA,152751,2501.6464,N,08015.2500,W,1,9,1.7,20,"
"##MN-00 00 57 0160 02112 5365 449930 351089 202"
"155.644421"
"$GPGGA,152755,2501.6453,N,08015.2477,W,1,9,1.6,20,"
"##MN-00 00 58 0161 02116 5365 449848 351081 202"
"155.644468"
"$GPGGA,152759,2501.6446,N,08015.2454,W,1,8,1.7,20,"
"##MN-00 00 59 0162 02113 5365 449774 351070 202"
"155.644514"
"$GPGGA,152803,2501.6439,N,08015.2431,W,1,8,1.6,20,"
"##MN-00 00 60 0164 02113 5365 449719 351043 202"
"155.64456"
"$GPGGA,152807,2501.6432,N,08015.2408,W,1,9,1.6,20,"
"##MN-00 00 56 0165 02112 5365 449687 351025 202"
"155.644606"
"$GPGGA,152811,2501.6424,N,08015.2386,W,1,8,1.7,20,"
"##MN-00 00 59 0166 02112 5365 449661 351017 202"
"155.644653"
"$GPGGA,152815,2501.6415,N,08015.2364,W,1,8,1.7,20,"
"##MN-00 00 57 0167 02113 5365 449632 351016 202"
"155.644699"
"$GPGGA,152819,2501.6406,N,08015.2343,W,1,8,1.7,20,"
"##MN-00 00 60 0168 02111 5365 449568 351001 202"
"155.644745"
"$GPGGA,152823,2501.6399,N,08015.2322,W,1,9,1.6,20,"
"##MN-00 00 62 0169 02111 5365 449481 350961 202"
"155.644792"
"$GPGGA,152827,2501.6392,N,08015.2301,W,1,9,1.6,20,"
"##MN-00 00 59 0170 02112 5365 449428 350945 202"
"155.644838"
"$GPGGA,152831,2501.6382,N,08015.2282,W,1,9,1.6,20,"
"##MN-00 00 57 0171 02111 5365 449391 350935 202"
"155.644884"
"$GPGGA,152835,2501.6371,N,08015.2263,W,1,9,1.6,20,"
"##MN-00 00 57 0172 02115 5365 449357 350921 202"
"155.644931"
"$GPGGA,152839,2501.6362,N,08015.2242,W,1,9,1.6,20,"
"##MN-00 00 58 0173 02113 5365 449375 350926 202"
"155.644977"
"$GPGGA,152843,2501.6350,N,08015.2221,W,1,8,1.7,20,"
"##MN-00 00 57 0174 02115 5364 449385 350927 202"
"155.645023"
"$GPGGA,152847,2501.6341,N,08015.2202,W,1,8,1.9,20,"
"##MN-00 00 60 0175 02114 5364 449406 350932 202"
"155.645069"
"$GPGGA,152851,2501.6334,N,08015.2181,W,1,9,1.6,20,"
"##MN-00 00 61 0175 02117 5364 449446 350945 202"
"155.645116"
"$GPGGA,152855,2501.6328,N,08015.2160,W,1,8,1.9,20,"
"##MN-00 00 58 0176 02115 5364 449491 350952 202"
"155.645162"
"$GPGGA,152859,2501.6321,N,08015.2140,W,1,9,1.6,20,"
"##MN-00 00 58 0177 02117 5363 449510 350959 202"
"155.645208"
"$GPGGA,152903,2501.6315,N,08015.2118,W,1,9,1.6,20,"
"##MN-00 00 59 0178 02114 5364 449563 350975 202"
"155.645255"
"$GPGGA,152907,2501.6305,N,08015.2098,W,1,8,1.7,20,"
"##MN-00 00 59 0180 02114 5363 449633 350994 202"
"155.645301"
"$GPGGA,152911,2501.6295,N,08015.2077,W,1,9,1.6,20,"
"##MN-00 00 57 0180 02115 5363 449675 351009 202"
"155.645347"
"$GPGGA,152915,2501.6287,N,08015.2056,W,1,9,1.6,20,"
"##MN-00 00 59 0181 02114 5363 449695 351012 202"
"155.645394"
"$GPGGA,152919,2501.6277,N,08015.2034,W,1,9,1.6,20,"
"##MN-00 00 57 0182 02116 5363 449708 351018 202"
"155.64544"
"$GPGGA,152923,2501.6268,N,08015.2014,W,1,9,1.6,20,"
"##MN+00 00 61 0183 02116 5362 449719 351020 202"
"155.645486"
"$GPGGA,152927,2501.6261,N,08015.1993,W,1,8,1.7,20,"
"##MN+00 00 60 0184 02114 5363 449767 351038 201"
"155.645532"
"$GPGGA,152931,2501.6252,N,08015.1971,W,1,9,1.6,20,"
"##MN+00 00 58 0185 02111 5362 449803 351050 202"
"155.645579"
"$GPGGA,152935,2501.6243,N,08015.1951,W,1,8,1.7,20,"
"##MN-00 00 56 0186 02114 5362 449791 351047 202"
"155.645625"
"$GPGGA,152940,2501.6232,N,08015.1924,W,1,9,1.6,20,"
"##MN-00 00 58 0187 02114 5361 449793 351049 202"
"155.645671"
"$GPGGA,152943,2501.6226,N,08015.1910,W,1,8,1.9,20,"
"##MN-00 00 60 0188 02114 5361 449786 351050 202"
"155.645729"
"$GPGGA,152947,2501.6214,N,08015.1887,W,1,9,1.6,20,"
"##MN-00 00 60 0189 02110 5361 449773 351047 202"
"155.645775"
"$GPGGA,152951,2501.6204,N,08015.1865,W,1,9,1.6,19,"
"##MN-00 00 57 0190 02113 5361 449748 351040 202"
"155.645822"
"$GPGGA,152955,2501.6196,N,08015.1844,W,1,9,1.6,19,"
"##MN+00 00 58 0191 02112 5361 449712 351031 202"
"155.645868"
"$GPGGA,153000,2501.6189,N,08015.1818,W,1,9,1.7,19,"
"##MN+00 00 59 0192 02116 5361 449694 351026 202"
"155.645914"
"$GPGGA,153004,2501.6179,N,08015.1798,W,1,9,1.6,19,"
"##MN+00 00 67 0193 02119 5360 449686 351023 201"
"155.645961"
"$GPGGA,153008,2501.6169,N,08015.1777,W,1,9,1.6,19,"
"##MN-00 00 60 0194 02117 5360 449687 351024 201"
"155.646007"
"#increment_net"
"$GPGGA,153012,2501.6161,N,08015.1755,W,1,9,1.6,19,"
"##MN-00 00 61 0195 02116 5359 449689 351023 202"
"155.646053"
"$GPGGA,153016,2501.6153,N,08015.1734,W,1,9,1.6,18,"
"##MN-00 00 58 0196 02116 5359 449685 351023 201"
"155.6461"
"$GPGGA,153019,2501.6145,N,08015.1720,W,1,9,1.6,18,"
"##MN-00 00 61 0197 02117 5359 449673 351020 201"
"155.646146"
"$GPGGA,153024,2501.6135,N,08015.1694,W,1,9,1.7,18,"
"##MN-00 00 56 0198 02113 5359 449671 351019 201"
"155.646192"
"$GPGGA,153028,2501.6125,N,08015.1675,W,1,9,1.7,18,"
"##MN-00 00 56 0199 02117 5358 449641 351015 201"
"155.646238"
"$GPGGA,153032,2501.6117,N,08015.1653,W,1,9,1.7,18,"
"##MN-00 00 55 0200 02115 5358 449642 351015 201"
"155.646285"
"$GPGGA,153036,2501.6106,N,08015.1632,W,1,9,1.7,18,"
"##MN-00 00 58 0201 02114 5357 449597 351003 201"
"155.646331"
"$GPGGA,153040,2501.6098,N,08015.1612,W,1,9,1.7,18,"
"##MN-00 00 57 0203 02112 5357 449557 350993 201"
"155.646377"
"$GPGGA,153044,2501.6088,N,08015.1591,W,1,9,2.0,18,"
"##MN-00 00 56 0204 02111 5357 449555 350991 201"
"155.646424"
"$GPGGA,153048,2501.6082,N,08015.1568,W,1,9,1.7,18,"
"##MN-00 00 56 0205 02110 5357 449611 350999 201"
"155.64647"
"$GPGGA,153052,2501.6075,N,08015.1545,W,1,9,1.7,18,"
"##MN-00 00 57 0206 02112 5356 449582 350998 201"
"155.646516"
"$GPGGA,153056,2501.6067,N,08015.1523,W,1,9,1.7,19,"
"##MN-00 00 57 0207 02110 5356 449585 350996 201"
"155.646562"
"$GPGGA,153100,2501.6060,N,08015.1502,W,1,8,1.7,19,"
"##MN-00 00 55 0208 02111 5355 449600 351000 201"
"155.646609"
"$GPGGA,153104,2501.6055,N,08015.1485,W,1,9,1.7,19,"
"##MN-00 00 55 0209 02110 5355 449631 351010 201"
"155.646655"
"$GPGGA,153108,2501.6048,N,08015.1463,W,1,9,1.7,19,"
"##MN-00 00 60 0210 02112 5355 449706 351033 201"
"155.646701"
"$GPGGA,153112,2501.6040,N,08015.1439,W,1,9,1.7,19,"
"##MN-00 00 58 0210 02111 5355 449737 351042 201"
"155.646748"
"$GPGGA,153116,2501.6034,N,08015.1417,W,1,9,1.7,19,"
"##MN-00 00 56 0212 02113 5354 449761 351046 201"
"155.646794"
"$GPGGA,153120,2501.6026,N,08015.1396,W,1,9,1.7,19,"
"##MN-00 00 56 0213 02114 5354 449776 351052 201"
"155.64684"
"$GPGGA,153124,2501.6019,N,08015.1374,W,1,9,1.7,19,"
"##MN-00 00 57 0214 02113 5354 449791 351056 201"
"155.646887"
"$GPGGA,153128,2501.6010,N,08015.1354,W,1,9,1.7,19,"
"##MN-00 00 57 0215 02113 5354 449797 351058 201"
"155.646933"
"$GPGGA,153132,2501.6003,N,08015.1333,W,1,9,1.7,19,"
"##MN-00 00 56 0216 02112 5353 449810 351061 201"
"155.646979"
"$GPGGA,153136,2501.5995,N,08015.1310,W,1,9,1.7,19,"
"##MN-00 00 57 0217 02115 5353 449801 351061 201"
"155.647025"
"$GPGGA,153140,2501.5987,N,08015.1286,W,1,9,1.7,19,"
"##MN-00 00 56 0218 02116 5352 449795 351061 201"
"155.647072"
"$GPGGA,153144,2501.5983,N,08015.1267,W,1,9,1.7,19,"
"##MN-00 00 55 0219 02116 5352 449796 351056 201"
"155.647118"
"$GPGGA,153148,2501.5972,N,08015.1237,W,1,9,1.7,19,"
"##MN+00 00 57 0220 02113 5352 449719 351044 201"
"155.647164"
"$GPGGA,153152,2501.5965,N,08015.1215,W,1,9,1.7,18,"
"##MN+00 00 57 0221 02112 5351 449616 351035 201"
"155.647211"
"$GPGGA,153156,2501.5959,N,08015.1196,W,1,9,1.7,18,"
"##MN+00 00 60 0222 02112 5351 449545 351001 201"
"155.647257"
"$GPGGA,153200,2501.5949,N,08015.1160,W,1,8,1.7,18,"
"##MN-00 00 57 0223 02115 5350 449508 350984 201"
"155.647303"
"$GPGGA,153204,2501.5943,N,08015.1130,W,1,8,1.7,18,"
"##MN-00 00 56 0224 02112 5350 449460 350983 201"
"155.64735"
"$GPGGA,153208,2501.5936,N,08015.1101,W,1,8,1.7,18,"
"##MN-00 00 60 0225 02111 5349 449381 350969 201"
"155.647396"
"$GPGGA,153212,2501.5928,N,08015.1073,W,1,8,1.7,18,"
"##MN-00 00 57 0226 02112 5349 449314 350929 201"
"155.647442"
"$GPGGA,153216,2501.5921,N,08015.1046,W,1,8,1.7,18,"
"##MN+00 00 56 0227 02111 5349 449252 350923 201"
"155.647488"
"$GPGGA,153220,2501.5914,N,08015.1019,W,1,8,1.7,18,"
"##MN+00 00 59 0228 02111 5348 449182 350889 202"
"155.647535"
"$GPGGA,153224,2501.5909,N,08015.0993,W,1,9,1.7,18,"
"##MN+00 00 68 0229 02115 5348 449092 350855 202"
"155.647581"
"$GPGGA,153228,2501.5905,N,08015.0969,W,1,9,1.7,18,"
"##MN-00 00 62 0231 02114 5348 449054 350840 202"
"155.647627"
"#increment_net"
"$GPGGA,153232,2501.5903,N,08015.0942,W,1,9,1.7,18,"
"##MN-00 00 56 0232 02113 5347 449037 350835 202"
"155.647674"
"$GPGGA,153236,2501.5898,N,08015.0916,W,1,9,1.7,18,"
"##MN-00 00 56 0233 02112 5347 448970 350805 202"
"155.64772"
"$GPGGA,153240,2501.5889,N,08015.0890,W,1,9,1.7,18,"
"##MN-00 00 57 0234 02110 5347 448967 350810 202"
"155.647766"
"$GPGGA,153244,2501.5885,N,08015.0861,W,1,9,1.7,18,"
"##MN-00 00 54 0235 02110 5346 448963 350807 202"
"155.647812"
"$GPGGA,153248,2501.5881,N,08015.0831,W,1,9,1.7,18,"
"##MN-00 00 54 0236 02107 5346 449007 350814 202"
"155.647859"
"$GPGGA,153252,2501.5878,N,08015.0799,W,1,9,1.7,18,"
"##MN-00 00 55 0237 02109 5345 449058 350828 202"
"155.647905"
"$GPGGA,153256,2501.5877,N,08015.0767,W,1,9,1.7,18,"
"##MN-00 00 56 0238 02108 5345 449087 350836 202"
"155.647951"
"$GPGGA,153300,2501.5874,N,08015.0735,W,1,9,1.7,18,"
"##MN-00 00 55 0239 02108 5344 449092 350838 202"
"155.647998"
"$GPGGA,153304,2501.5873,N,08015.0702,W,1,9,1.7,18,"
"##MN-00 00 60 0240 02106 5344 449183 350870 202"
"155.648044"
"$GPGGA,153308,2501.5872,N,08015.0669,W,1,9,1.7,18,"
"##MN-00 00 56 0241 02106 5343 449313 350906 202"
"155.64809"
"$GPGGA,153312,2501.5872,N,08015.0638,W,1,9,1.8,18,"
"##MN-00 00 54 0242 02109 5343 449330 350906 202"
"155.648137"
"$GPGGA,153316,2501.5872,N,08015.0605,W,1,9,1.7,18,"
"##MN-00 00 55 0243 02108 5343 449350 350915 202"
"155.648183"
"$GPGGA,153320,2501.5873,N,08015.0572,W,1,9,1.7,18,"
"##MN-00 00 55 0244 02110 5342 449347 350917 202"
"155.648229"
"$GPGGA,153324,2501.5876,N,08015.0539,W,1,9,1.7,18,"
"##MN-00 00 55 0245 02111 5342 449331 350915 202"
"155.648275"
"$GPGGA,153328,2501.5878,N,08015.0507,W,1,9,1.7,18,"
"##MN-00 00 56 0246 02115 5342 449312 350912 202"
"155.648322"
"$GPGGA,153332,2501.5879,N,08015.0475,W,1,9,1.7,18,"
"##MN-00 00 56 0247 02115 5341 449331 350912 202"
"155.648368"
"$GPGGA,153336,2501.5884,N,08015.0443,W,1,9,1.7,17,"
"##MN-00 00 57 0248 02119 5341 449358 350920 202"
"155.648414"
"$GPGGA,153340,2501.5888,N,08015.0409,W,1,9,1.7,17,"
"##MN-00 00 60 0249 02119 5340 449383 350930 202"
"155.648461"
"$GPGGA,153344,2501.5892,N,08015.0375,W,1,9,1.7,17,"
"##MN-00 00 54 0250 02121 5340 449393 350933 202"
"155.648507"
"$GPGGA,153348,2501.5900,N,08015.0343,W,1,9,1.7,17,"
"##MN-00 00 54 0251 02124 5340 449410 350941 202"
"155.648553"
"$GPGGA,153352,2501.5907,N,08015.0312,W,1,7,1.7,17,"
"##MN-00 00 55 0252 02126 5339 449448 350948 202"
"155.6486"
"$GPGGA,153356,2501.5916,N,08015.0278,W,1,9,1.7,17,"
"##MN-00 00 54 0253 02133 5339 449485 350956 202"
"155.648646"
"$GPGGA,153400,2501.5925,N,08015.0245,W,1,9,1.7,17,"
"##MN-00 00 55 0254 02133 5339 449527 350962 202"
"155.648692"
"$GPGGA,153404,2501.5932,N,08015.0212,W,1,9,1.7,17,"
"##MN-00 00 53 0255 02139 5338 449654 350999 202"
"155.648738"
"$GPGGA,153408,2501.5941,N,08015.0179,W,1,9,1.7,18,"
"##MN-00 00 51 0256 02141 5338 449941 351104 202"
"155.648785"
"$GPGGA,153412,2501.5950,N,08015.0148,W,1,9,1.7,18,"
"##MN+00 00 52 0257 02143 5337 450001 351117 201"
"155.648831"
"$GPGGA,153416,2501.5961,N,08015.0118,W,1,9,1.7,18,"
"##MN+00 00 53 0258 02142 5337 450014 351109 201"
"155.648877"
"$GPGGA,153421,2501.5972,N,08015.0080,W,1,9,1.7,18,"
"##MN+00 00 54 0259 02144 5337 450048 351124 201"
"155.648935"
"$GPGGA,153424,2501.5979,N,08015.0057,W,1,9,1.7,18,"
"##MN-00 00 54 0260 02146 5336 450079 351144 201"
"155.648981"
"$GPGGA,153428,2501.5990,N,08015.0029,W,1,9,1.7,18,"
"##MN-00 00 49 0260 02147 5336 450088 351150 202"
"155.649028"
"$GPGGA,153433,2501.6004,N,08014.9993,W,1,9,1.7,18,"
"##MN-00 00 51 0261 02149 5336 450106 351158 202"
"155.649074"
"$GPGGA,153437,2501.6015,N,08014.9964,W,1,9,1.7,18,"
"##MN-00 00 51 0262 02150 5335 450108 351158 201"
"155.64912"
"$GPGGA,153441,2501.6025,N,08014.9936,W,1,9,1.7,18,"
"##MN-00 00 49 0263 02150 5335 450142 351169 202"
"155.649167"
"$GPGGA,153445,2501.6037,N,08014.9908,W,1,9,1.7,18,"
"##MN+00 00 49 0264 02151 5334 450156 351174 202"
"155.649213"
"$GPGGA,153449,2501.6051,N,08014.9879,W,1,9,1.7,18,"
"##MN+00 00 49 0265 02151 5334 450167 351179 201"
"155.649259"
"$GPGGA,153452,2501.6061,N,08014.9859,W,1,9,1.7,18,"
"##MN+00 00 59 0265 02154 5334 450179 351184 201"
"155.649306"
"$GPGGA,153457,2501.6076,N,08014.9823,W,1,9,1.7,18,"
"##MN-00 00 55 0266 02152 5333 450201 351188 201"
"155.649352"
"#increment_net"
"$GPGGA,153500,2501.6087,N,08014.9803,W,1,9,1.7,18,"
"##MN-00 00 51 0267 02152 5333 450183 351185 202"
"155.649398"
"$GPGGA,153505,2501.6102,N,08014.9769,W,1,9,1.7,18,"
"##MN-00 00 48 0268 02153 5333 450164 351182 202"
"155.649444"
"$GPGGA,153509,2501.6115,N,08014.9741,W,1,9,1.7,18,"
"##MN-00 00 46 0269 02148 5332 450170 351182 202"
"155.649491"
"$GPGGA,153513,2501.6129,N,08014.9715,W,1,9,1.7,18,"
"##MN-00 00 46 0269 02148 5332 450146 351176 201"
"155.649537"
"$GPGGA,153517,2501.6142,N,08014.9687,W,1,9,1.7,18,"
"##MN-00 00 47 0270 02147 5332 450155 351178 202"
"155.649583"
"$GPGGA,153521,2501.6155,N,08014.9663,W,1,9,1.7,17,"
"##MN-00 00 46 0271 02144 5331 450165 351179 201"
"155.64963"
"$GPGGA,153525,2501.6167,N,08014.9636,W,1,9,1.7,17,"
"##MN-00 00 45 0272 02140 5331 450161 351180 201"
"155.649676"
"$GPGGA,153529,2501.6181,N,08014.9610,W,1,9,1.7,16,"
"##MN-00 00 44 0273 02138 5330 450139 351178 201"
"155.649722"
"$GPGGA,153533,2501.6195,N,08014.9582,W,1,9,1.7,16,"
"##MN-00 00 44 0274 02137 5330 450078 351158 201"
"155.649769"
"$GPGGA,153537,2501.6209,N,08014.9555,W,1,9,1.7,16,"
"##MN-00 00 44 0275 02135 5329 450031 351147 201"
"155.649815"
"$GPGGA,153541,2501.6223,N,08014.9527,W,1,9,1.7,15,"
"##MN-00 00 42 0276 02127 5329 449990 351137 201"
"155.649861"
"$GPGGA,153545,2501.6236,N,08014.9499,W,1,9,1.7,15,"
"##MN-00 00 43 0276 02120 5329 449860 351100 201"
"155.649907"
"$GPGGA,153549,2501.6249,N,08014.9473,W,1,9,1.7,15,"
"##MN-00 00 45 0277 02125 5328 449737 351053 201"
"155.649954"
"$GPGGA,153553,2501.6263,N,08014.9446,W,1,9,1.7,14,"
"##MN-00 00 44 0278 02126 5328 449740 351055 201"
"155.65"
