" Tow: 3Wm-B   RVWS/WS1406"
" Date: 06/04/2014"
" Temperature Probe #  2597    Conductivity Probe #  2870"
" Pressure Probe #  109"
" Flow Meter Calibration  4.71 (m/count)  "
"155.671123"
"$GPGGA,160618,2502.5408,N,08013.2780,W,1,9,1.5,22,"
"##MN-00 00 49 0086 01859 5376 434974 910488 201"
" Tow: 3Wm-B   RVWS/WS1406"
" Date: 06/04/2014"
" Temperature Probe #  2597    Conductivity Probe #  2870"
" Pressure Probe #  109"
" Flow Meter Calibration  4.71 (m/count)  "
"155.672338"
"$GPGGA,160805,2502.5638,N,08013.1999,W,1,9,2.0,22,"
"##MN-00 00 52 0106 01860 5391 440589 348568 201"
"155.672384"
"$GPGGA,160811,2502.5652,N,08013.1961,W,1,10,1.5,22"
"##MN-00 00 48 0107 01865 5392 440571 348448 201"
"155.672431"
"$GPGGA,160815,2502.5658,N,08013.1931,W,1,10,1.5,22"
"##MN-00 00 52 0108 01862 5393 440586 348452 201"
"155.672477"
"$GPGGA,160819,2502.5665,N,08013.1903,W,1,10,1.5,22"
"##MN-00 00 50 0109 01863 5393 440590 348452 201"
"155.672523"
"$GPGGA,160823,2502.5672,N,08013.1876,W,1,9,2.0,22,"
"##MN-00 00 55 0109 01864 5393 440613 348460 201"
"155.672569"
"$GPGGA,160827,2502.5676,N,08013.1848,W,1,9,2.0,22,"
"##MN-00 00 53 0110 01863 5394 440608 348459 201"
"155.672616"
"$GPGGA,160831,2502.5683,N,08013.1822,W,1,10,1.5,22"
"##MN-00 00 52 0111 01863 5394 440609 348460 201"
"155.672662"
"$GPGGA,160835,2502.5694,N,08013.1793,W,1,9,1.6,22,"
"##MN-00 00 50 0112 01863 5395 440615 348461 201"
"155.672708"
"$GPGGA,160839,2502.5697,N,08013.1760,W,1,10,1.5,22"
"##MN-00 00 54 0113 01864 5395 440623 348462 201"
"155.672755"
"$GPGGA,160843,2502.5704,N,08013.1735,W,1,10,1.5,23"
"##MN-00 00 54 0113 01867 5395 440619 348461 201"
"155.672801"
"$GPGGA,160847,2502.5712,N,08013.1712,W,1,10,1.5,23"
"##MN-00 00 51 0114 01868 5395 440636 348466 201"
"155.672847"
"$GPGGA,160851,2502.5715,N,08013.1687,W,1,10,1.5,23"
"##MN-00 00 50 0115 01873 5396 440657 348475 201"
"155.672894"
"$GPGGA,160855,2502.5722,N,08013.1657,W,1,10,1.5,23"
"##MN-00 00 54 0115 01876 5396 440607 348451 201"
"155.67294"
"$GPGGA,160859,2502.5725,N,08013.1623,W,1,10,1.5,23"
"##MN-00 00 53 0116 01879 5397 440612 348457 201"
"155.672986"
"$GPGGA,160903,2502.5729,N,08013.1591,W,1,9,1.6,23,"
"##MN-00 00 55 0117 01882 5397 440603 348451 201"
"155.673032"
"$GPGGA,160907,2502.5734,N,08013.1564,W,1,10,1.5,23"
"##MN-00 00 55 0118 01888 5397 440605 348450 201"
"155.673079"
"$GPGGA,160911,2502.5741,N,08013.1535,W,1,9,1.6,24,"
"##MN-00 00 56 0118 01892 5397 440601 348446 201"
"155.673125"
"$GPGGA,160915,2502.5748,N,08013.1508,W,1,8,2.2,24,"
"##MN-00 00 54 0119 01897 5397 440588 348440 201"
"155.673171"
"$GPGGA,160919,2502.5752,N,08013.1480,W,1,10,1.6,24"
"##MN-00 00 56 0120 01899 5398 440579 348435 201"
"155.673218"
"$GPGGA,160923,2502.5759,N,08013.1453,W,1,9,1.6,24,"
"##MN-00 00 55 0120 01905 5398 440587 348439 201"
"155.673264"
"$GPGGA,160927,2502.5768,N,08013.1433,W,1,10,1.5,24"
"##MN-00 00 54 0121 01908 5398 440630 348452 201"
"155.67331"
"$GPGGA,160931,2502.5777,N,08013.1403,W,1,8,2.2,24,"
"##MN-00 00 53 0122 01912 5398 440664 348465 201"
"155.673356"
"$GPGGA,160935,2502.5784,N,08013.1378,W,1,9,1.6,24,"
"##MN-00 00 55 0122 01922 5399 440672 348468 201"
"155.673403"
"$GPGGA,160939,2502.5791,N,08013.1350,W,1,9,1.6,24,"
"##MN-00 00 55 0123 01923 5399 440676 348466 201"
"155.673449"
"$GPGGA,160943,2502.5796,N,08013.1324,W,1,10,1.5,24"
"##MN-00 00 54 0124 01927 5399 440678 348467 201"
"155.673495"
"$GPGGA,160947,2502.5804,N,08013.1295,W,1,10,1.5,24"
"##MN-00 00 53 0125 01936 5399 440609 348430 201"
"155.673542"
"$GPGGA,160951,2502.5812,N,08013.1266,W,1,9,1.7,24,"
"##MN-00 00 55 0125 01939 5399 440567 348424 201"
"155.673588"
"$GPGGA,160955,2502.5819,N,08013.1244,W,1,10,1.5,24"
"##MN-00 00 49 0126 01940 5400 440563 348426 201"
"155.673634"
"$GPGGA,160959,2502.5827,N,08013.1214,W,1,10,1.5,24"
"##MN-00 00 47 0126 01948 5400 440551 348416 201"
"155.673681"
"$GPGGA,161003,2502.5835,N,08013.1187,W,1,10,1.7,24"
"##MN-00 00 52 0127 01953 5400 440564 348416 201"
"155.673727"
"$GPGGA,161007,2502.5842,N,08013.1160,W,1,9,1.7,23,"
"##MN-00 00 53 0128 01957 5400 440553 348414 201"
"155.673773"
"$GPGGA,161011,2502.5847,N,08013.1134,W,1,8,1.5,23,"
"##MN-00 00 53 0129 01959 5401 440619 348435 201"
"155.673819"
"$GPGGA,161015,2502.5856,N,08013.1112,W,1,10,2.1,24"
"##MN-00 00 51 0129 01967 5401 440614 348422 201"
"155.673866"
"$GPGGA,161019,2502.5866,N,08013.1083,W,1,9,1.5,24,"
"##MN-00 00 51 0130 01971 5401 440631 348433 201"
"155.673912"
"$GPGGA,161023,2502.5873,N,08013.1055,W,1,9,2.2,24,"
"##MN-00 00 54 0131 01972 5401 440601 348420 201"
"155.673958"
"$GPGGA,161027,2502.5882,N,08013.1025,W,1,8,2.2,23,"
"##MN-00 00 53 0131 01977 5401 440645 348444 201"
"155.674005"
"$GPGGA,161031,2502.5889,N,08013.0995,W,1,9,1.5,23,"
"##MN-00 00 52 0132 01982 5401 440659 348446 201"
"155.674051"
"$GPGGA,161036,2502.5891,N,08013.0960,W,1,9,1.7,23,"
"##MN-00 00 46 0132 01987 5402 440651 348445 201"
"155.674097"
"$GPGGA,161040,2502.5898,N,08013.0933,W,1,9,1.7,22,"
"##MN-00 00 51 0133 01992 5402 440644 348442 201"
"155.674144"
"$GPGGA,161044,2502.5907,N,08013.0911,W,1,10,1.5,22"
"##MN-00 00 51 0134 01999 5402 440649 348444 201"
"155.67419"
"$GPGGA,161048,2502.5914,N,08013.0886,W,1,8,2.2,22,"
"##MN-00 00 54 0134 02001 5402 440655 348446 201"
"155.674236"
"$GPGGA,161052,2502.5921,N,08013.0865,W,1,8,2.1,22,"
"##MN-00 00 51 0135 02005 5402 440666 348448 201"
"155.674282"
"$GPGGA,161056,2502.5928,N,08013.0841,W,1,9,2.2,22,"
"##MN-00 00 51 0136 02010 5402 440680 348451 201"
"155.674329"
"$GPGGA,161100,2502.5931,N,08013.0818,W,1,9,1.5,22,"
"##MN-00 00 51 0136 02015 5402 440703 348462 201"
"155.674387"
"$GPGGA,161104,2502.5941,N,08013.0788,W,1,10,1.5,21"
"##MN-00 00 53 0137 02017 5402 440724 348465 201"
"155.674433"
"$GPGGA,161108,2502.5941,N,08013.0760,W,1,10,1.7,21"
"##MN-00 00 49 0138 02022 5402 440702 348458 201"
"155.674479"
"$GPGGA,161112,2502.5947,N,08013.0731,W,1,9,1.7,21,"
"##MN-00 00 52 0138 02028 5403 440741 348472 201"
"155.674525"
"$GPGGA,161116,2502.5952,N,08013.0703,W,1,9,1.7,21,"
"##MN-00 00 50 0139 02030 5403 440746 348473 201"
"155.674572"
"$GPGGA,161120,2502.5958,N,08013.0676,W,1,9,1.7,21,"
"##MN-00 00 51 0140 02036 5403 440767 348476 201"
"155.674618"
"$GPGGA,161124,2502.5970,N,08013.0650,W,1,10,1.7,21"
"##MN-00 00 51 0140 02041 5403 440798 348487 201"
"155.674664"
"$GPGGA,161128,2502.5979,N,08013.0624,W,1,9,1.7,21,"
"##MN-00 00 52 0141 02047 5403 440823 348496 201"
"155.674711"
"$GPGGA,161132,2502.5986,N,08013.0602,W,1,9,1.7,22,"
"##MN-00 00 51 0142 02053 5403 440847 348502 201"
"155.674757"
"$GPGGA,161136,2502.5993,N,08013.0575,W,1,10,1.5,22"
"##MN-00 00 52 0142 02059 5403 440867 348504 201"
"155.674803"
"$GPGGA,161140,2502.6001,N,08013.0550,W,1,8,1.7,22,"
"##MN-00 00 50 0143 02063 5403 440869 348508 201"
"155.67485"
"$GPGGA,161144,2502.6008,N,08013.0527,W,1,9,2.2,22,"
"##MN-00 00 54 0144 02065 5403 440904 348520 201"
"155.674896"
"$GPGGA,161148,2502.6012,N,08013.0503,W,1,10,2.2,22"
"##MN-00 00 50 0144 02070 5404 440911 348519 201"
"155.674942"
"$GPGGA,161152,2502.6014,N,08013.0478,W,1,9,2.2,22,"
"##MN-00 00 51 0145 02076 5403 440940 348529 201"
"155.674988"
"$GPGGA,161156,2502.6019,N,08013.0455,W,1,10,2.1,22"
"##MN-00 00 51 0146 02077 5403 440976 348534 201"
"155.675035"
"$GPGGA,161200,2502.6023,N,08013.0427,W,1,10,1.5,22"
"##MN-00 00 50 0146 02085 5403 441018 348549 201"
"155.675081"
"$GPGGA,161204,2502.6030,N,08013.0403,W,1,10,1.5,23"
"##MN-00 00 52 0147 02089 5403 441094 348574 201"
"155.675127"
"$GPGGA,161208,2502.6034,N,08013.0376,W,1,9,1.7,22,"
"##MN-00 00 51 0147 02095 5404 441210 348589 201"
"155.675174"
"$GPGGA,161212,2502.6037,N,08013.0352,W,1,8,1.7,22,"
"##MN-00 00 50 0148 02097 5404 441375 348630 201"
"155.67522"
"$GPGGA,161216,2502.6042,N,08013.0327,W,1,9,1.7,22,"
"##MN-00 00 49 0149 02103 5404 441682 348708 201"
"155.675266"
"$GPGGA,161220,2502.6050,N,08013.0301,W,1,9,1.7,22,"
"##MN-00 00 49 0150 02106 5404 442109 348841 201"
"155.675313"
"$GPGGA,161224,2502.6054,N,08013.0274,W,1,9,1.7,22,"
"##MN-00 00 51 0150 02114 5404 443199 349231 201"
"155.675359"
"$GPGGA,161228,2502.6057,N,08013.0246,W,1,9,1.7,22,"
"##MN-00 00 52 0151 02115 5404 445296 349745 201"
"155.675405"
"$GPGGA,161232,2502.6062,N,08013.0218,W,1,9,1.7,22,"
"##MN-00 00 49 0151 02121 5404 446536 350128 201"
"155.675451"
"$GPGGA,161236,2502.6067,N,08013.0190,W,1,9,1.7,21,"
"##MN-00 00 50 0152 02116 5404 446796 350219 201"
"155.675498"
"$GPGGA,161240,2502.6073,N,08013.0163,W,1,9,1.7,21,"
"##MN-00 00 44 0153 02119 5404 447374 350394 201"
"155.675544"
"$GPGGA,161244,2502.6082,N,08013.0139,W,1,9,1.7,21,"
"##MN-00 00 48 0153 02124 5404 447599 350488 201"
"155.67559"
"$GPGGA,161248,2502.6090,N,08013.0113,W,1,9,1.7,21,"
"##MN-00 00 51 0154 02122 5404 447878 350555 201"
"155.675637"
"$GPGGA,161252,2502.6095,N,08013.0091,W,1,10,2.1,20"
"##MN-00 00 47 0154 02126 5404 448412 350736 201"
"155.675683"
"$GPGGA,161256,2502.6102,N,08013.0071,W,1,9,1.7,20,"
"##MN-00 00 48 0155 02129 5404 448971 350904 201"
"155.675729"
"$GPGGA,161300,2502.6108,N,08013.0047,W,1,9,1.7,20,"
"##MN-00 00 46 0155 02126 5404 449279 351020 201"
"155.675775"
"$GPGGA,161304,2502.6115,N,08013.0021,W,1,9,1.7,20,"
"##MN-00 00 46 0156 02131 5404 449510 351120 201"
"155.675822"
"$GPGGA,161308,2502.6124,N,08012.9994,W,1,9,1.7,20,"
"##MN-00 00 45 0157 02129 5404 449659 351156 201"
"155.675868"
"$GPGGA,161312,2502.6129,N,08012.9967,W,1,9,1.7,20,"
"##MN-00 00 46 0157 02121 5404 449611 351149 201"
"155.675914"
"$GPGGA,161316,2502.6135,N,08012.9938,W,1,9,1.7,20,"
"##MN-00 00 45 0158 02120 5404 448849 350950 201"
"155.675961"
"$GPGGA,161320,2502.6140,N,08012.9913,W,1,9,1.7,20,"
"##MN-00 00 47 0159 02122 5404 448585 350882 201"
"155.676007"
"$GPGGA,161324,2502.6149,N,08012.9886,W,1,9,1.7,19,"
"##MN-00 00 48 0159 02120 5403 448398 350748 201"
"155.676053"
"$GPGGA,161328,2502.6156,N,08012.9858,W,1,9,1.7,19,"
"##MN-00 00 46 0160 02122 5403 448175 350695 201"
"155.6761"
"$GPGGA,161332,2502.6165,N,08012.9832,W,1,9,1.7,19,"
"##MN+00 00 46 0161 02124 5403 448136 350681 201"
"155.676146"
"$GPGGA,161336,2502.6171,N,08012.9803,W,1,9,2.3,19,"
"##MN+00 00 45 0162 02122 5403 448114 350688 201"
"155.676192"
"$GPGGA,161340,2502.6177,N,08012.9774,W,1,9,1.7,18,"
"##MN+00 00 45 0162 02123 5403 448034 350664 201"
"155.676238"
"$GPGGA,161344,2502.6182,N,08012.9749,W,1,8,1.7,18,"
"##MN+00 00 46 0163 02121 5403 447694 350507 201"
"155.676285"
"$GPGGA,161348,2502.6188,N,08012.9721,W,1,9,1.7,19,"
"##MN+00 00 45 0164 02120 5403 447428 350464 201"
"155.676331"
"$GPGGA,161352,2502.6196,N,08012.9693,W,1,9,1.7,19,"
"##MN+00 00 52 0164 02122 5403 446945 350307 201"
"155.676377"
"#increment_net"
"$GPGGA,161356,2502.6203,N,08012.9666,W,1,9,1.7,19,"
"##MN-00 00 51 0165 02122 5402 446900 350302 201"
"155.676424"
"$GPGGA,161400,2502.6205,N,08012.9637,W,1,9,1.7,19,"
"##MN-00 00 46 0166 02121 5402 446946 350298 201"
"155.67647"
"$GPGGA,161404,2502.6210,N,08012.9612,W,1,9,1.7,20,"
"##MN-00 00 46 0167 02123 5402 446988 350303 201"
"155.676516"
"$GPGGA,161408,2502.6216,N,08012.9588,W,1,9,1.7,20,"
"##MN-00 00 48 0167 02123 5402 446913 350292 201"
"155.676562"
"$GPGGA,161412,2502.6224,N,08012.9563,W,1,8,2.3,20,"
"##MN-00 00 44 0168 02123 5402 446935 350285 201"
"155.676609"
"$GPGGA,161416,2502.6231,N,08012.9538,W,1,8,1.7,20,"
"##MN-00 00 46 0169 02124 5402 446806 350249 201"
"155.676655"
"$GPGGA,161420,2502.6234,N,08012.9510,W,1,8,1.7,20,"
"##MN-00 00 48 0169 02123 5401 446854 350279 201"
"155.676701"
"$GPGGA,161424,2502.6239,N,08012.9481,W,1,9,1.7,20,"
"##MN-00 00 48 0170 02122 5401 446874 350278 201"
"155.676748"
"$GPGGA,161428,2502.6244,N,08012.9453,W,1,9,1.7,20,"
"##MN-00 00 45 0170 02126 5401 446879 350311 201"
"155.676794"
"$GPGGA,161432,2502.6250,N,08012.9425,W,1,9,1.7,20,"
"##MN-00 00 44 0171 02126 5401 447453 350506 201"
"155.67684"
"$GPGGA,161436,2502.6261,N,08012.9397,W,1,8,2.9,21,"
"##MN-00 00 46 0172 02122 5401 447920 350633 201"
"155.676887"
"$GPGGA,161440,2502.6261,N,08012.9373,W,1,8,1.7,21,"
"##MN-00 00 47 0172 02123 5400 448137 350693 201"
"155.676933"
"$GPGGA,161444,2502.6268,N,08012.9348,W,1,9,1.7,21,"
"##MN-00 00 47 0173 02121 5400 448433 350791 201"
"155.676979"
"$GPGGA,161448,2502.6273,N,08012.9325,W,1,8,1.7,22,"
"##MN-00 00 45 0174 02126 5399 448445 350767 201"
"155.677025"
"$GPGGA,161452,2502.6281,N,08012.9302,W,1,9,2.3,22,"
"##MN-00 00 45 0174 02126 5400 448409 350768 201"
"155.677072"
"$GPGGA,161456,2502.6289,N,08012.9272,W,1,9,1.7,22,"
"##MN-00 00 46 0175 02121 5399 448397 350772 201"
"155.677118"
"$GPGGA,161500,2502.6297,N,08012.9244,W,1,9,1.7,22,"
"##MN-00 00 45 0175 02123 5399 448414 350782 201"
"155.677164"
"$GPGGA,161504,2502.6304,N,08012.9216,W,1,8,1.7,22,"
"##MN-00 00 42 0176 02124 5398 448471 350785 201"
"155.677211"
"$GPGGA,161509,2502.6311,N,08012.9182,W,1,9,1.7,22,"
"##MN-00 00 46 0177 02125 5398 448711 350907 201"
"155.677257"
"$GPGGA,161513,2502.6322,N,08012.9154,W,1,9,1.7,22,"
"##MN-00 00 46 0177 02120 5398 449071 351016 201"
"155.677303"
"$GPGGA,161517,2502.6332,N,08012.9125,W,1,9,1.7,22,"
"##MN-00 00 45 0178 02128 5398 449286 351072 201"
"155.67735"
"$GPGGA,161521,2502.6339,N,08012.9096,W,1,9,1.7,21,"
"##MN-00 00 44 0179 02124 5397 449666 351185 201"
"155.677396"
"$GPGGA,161525,2502.6346,N,08012.9068,W,1,9,1.7,21,"
"##MN-00 00 48 0179 02122 5397 449826 351255 201"
"155.677442"
"$GPGGA,161529,2502.6354,N,08012.9040,W,1,9,1.7,21,"
"##MN-00 00 45 0180 02123 5397 449452 351168 201"
"155.677488"
"$GPGGA,161533,2502.6361,N,08012.9013,W,1,9,1.7,20,"
"##MN-00 00 46 0180 02125 5396 449262 351085 201"
"155.677535"
"$GPGGA,161537,2502.6366,N,08012.8992,W,1,8,2.1,20,"
"##MN-00 00 45 0181 02125 5396 449212 351056 201"
"155.677581"
"$GPGGA,161541,2502.6373,N,08012.8968,W,1,9,1.7,20,"
"##MN-00 00 46 0182 02129 5395 449172 351047 201"
"155.677639"
"$GPGGA,161545,2502.6382,N,08012.8940,W,1,9,1.7,21,"
"##MN-00 00 45 0182 02128 5395 449083 351010 201"
"155.677685"
"$GPGGA,161549,2502.6387,N,08012.8916,W,1,9,1.7,21,"
"##MN-00 00 41 0183 02130 5395 449037 351036 201"
"155.677732"
"$GPGGA,161553,2502.6397,N,08012.8889,W,1,9,1.7,21,"
"##MN-00 00 46 0183 02131 5394 448955 350996 201"
"155.677778"
"$GPGGA,161557,2502.6405,N,08012.8864,W,1,8,2.3,21,"
"##MN-00 00 46 0184 02133 5394 448983 350991 201"
"155.677824"
"$GPGGA,161601,2502.6411,N,08012.8836,W,1,9,1.7,21,"
"##MN+00 00 40 0184 02133 5394 449017 351019 201"
"155.67787"
"$GPGGA,161605,2502.6420,N,08012.8810,W,1,9,1.7,21,"
"##MN+00 00 41 0185 02136 5393 449235 351088 200"
"155.677917"
"$GPGGA,161609,2502.6431,N,08012.8784,W,1,8,2.3,21,"
"##MN+00 00 45 0185 02135 5393 449438 351117 200"
"155.677963"
"$GPGGA,161613,2502.6440,N,08012.8758,W,1,9,1.7,21,"
"##MN-00 00 46 0186 02134 5392 449470 351164 200"
"155.678009"
"$GPGGA,161617,2502.6447,N,08012.8729,W,1,9,1.7,21,"
"##MN-00 00 43 0186 02134 5392 449323 351127 200"
"155.678056"
"$GPGGA,161621,2502.6454,N,08012.8701,W,1,9,1.7,21,"
"##MN-00 00 45 0187 02133 5391 449014 351024 200"
"155.678102"
"$GPGGA,161625,2502.6460,N,08012.8676,W,1,9,1.7,21,"
"##MN-00 00 44 0188 02136 5391 448817 350949 200"
"155.678148"
"$GPGGA,161629,2502.6467,N,08012.8649,W,1,9,1.7,21,"
"##MN-00 00 44 0188 02137 5391 448699 350891 200"
"155.678194"
"$GPGGA,161633,2502.6474,N,08012.8622,W,1,9,1.7,21,"
"##MN-00 00 43 0189 02135 5390 448776 350917 200"
"155.678241"
"$GPGGA,161637,2502.6485,N,08012.8596,W,1,9,1.7,20,"
"##MN+00 00 44 0189 02135 5390 448750 350933 200"
"155.678287"
"$GPGGA,161641,2502.6494,N,08012.8569,W,1,8,2.3,20,"
"##MN+00 00 39 0190 02136 5390 448836 350943 200"
"155.678333"
"$GPGGA,161645,2502.6503,N,08012.8542,W,1,9,1.7,20,"
"##MN+00 00 48 0191 02137 5389 448833 350931 199"
"155.67838"
"$GPGGA,161649,2502.6510,N,08012.8514,W,1,9,1.7,20,"
"##MN-00 00 47 0191 02133 5389 448449 350798 201"
"155.678426"
"$GPGGA,161653,2502.6518,N,08012.8488,W,1,9,1.7,20,"
"##MN-00 00 43 0192 02127 5388 447428 350483 201"
"155.678472"
"#increment_net"
"$GPGGA,161657,2502.6527,N,08012.8462,W,1,9,1.7,20,"
"##MN-00 00 41 0192 02122 5388 446966 350341 201"
"155.678519"
"$GPGGA,161701,2502.6534,N,08012.8436,W,1,9,1.7,20,"
"##MN-00 00 39 0193 02124 5387 445991 350007 201"
"155.678565"
"$GPGGA,161705,2502.6543,N,08012.8409,W,1,9,1.7,20,"
"##MN-00 00 42 0194 02122 5387 446660 350217 201"
"155.678611"
"$GPGGA,161709,2502.6548,N,08012.8380,W,1,9,1.7,20,"
"##MN-00 00 44 0194 02125 5387 446755 350346 201"
"155.678657"
"$GPGGA,161713,2502.6554,N,08012.8353,W,1,9,1.7,21,"
"##MN-00 00 41 0195 02122 5386 447188 350431 201"
"155.678704"
"$GPGGA,161717,2502.6563,N,08012.8327,W,1,9,1.7,21,"
"##MN-00 00 41 0196 02124 5386 447420 350496 201"
"155.67875"
"$GPGGA,161721,2502.6572,N,08012.8301,W,1,9,1.7,21,"
"##MN-00 00 34 0196 02123 5385 448070 350715 201"
"155.678796"
"$GPGGA,161725,2502.6582,N,08012.8274,W,1,9,1.7,21,"
"##MN-00 00 42 0197 02122 5385 448134 350623 201"
"155.678843"
"$GPGGA,161729,2502.6592,N,08012.8249,W,1,9,1.7,21,"
"##MN-00 00 44 0197 02122 5384 447802 350585 201"
"155.678889"
"$GPGGA,161733,2502.6599,N,08012.8226,W,1,9,1.7,20,"
"##MN-00 00 43 0198 02121 5384 448248 350731 201"
"155.678935"
"$GPGGA,161737,2502.6604,N,08012.8205,W,1,9,1.7,20,"
"##MN-00 00 45 0198 02125 5384 448426 350772 201"
"155.678981"
"$GPGGA,161741,2502.6614,N,08012.8181,W,1,9,1.7,20,"
"##MN-00 00 43 0199 02122 5383 448263 350760 201"
"155.679028"
"$GPGGA,161745,2502.6621,N,08012.8158,W,1,8,1.7,20,"
"##MN-00 00 44 0199 02123 5383 448526 350869 201"
"155.679074"
"$GPGGA,161749,2502.6630,N,08012.8130,W,1,8,2.3,20,"
"##MN-00 00 45 0200 02123 5382 448852 350969 201"
"155.67912"
"$GPGGA,161753,2502.6644,N,08012.8100,W,1,9,2.2,20,"
"##MN-00 00 39 0200 02123 5382 449101 351000 201"
"155.679167"
"$GPGGA,161757,2502.6653,N,08012.8074,W,1,9,1.7,20,"
"##MN-00 00 44 0201 02130 5382 449395 351120 201"
"155.679213"
"$GPGGA,161801,2502.6661,N,08012.8050,W,1,9,1.7,20,"
"##MN-00 00 44 0201 02128 5381 449553 351150 201"
"155.679259"
"$GPGGA,161805,2502.6671,N,08012.8021,W,1,9,1.7,20,"
"##MN-00 00 45 0202 02124 5381 449494 351161 201"
"155.679306"
"$GPGGA,161809,2502.6680,N,08012.7994,W,1,9,2.3,20,"
"##MN-00 00 40 0202 02127 5380 449561 351177 201"
"155.679352"
"$GPGGA,161813,2502.6693,N,08012.7970,W,1,9,1.7,20,"
"##MN-00 00 38 0203 02129 5380 449505 351168 201"
"155.679398"
"$GPGGA,161817,2502.6701,N,08012.7943,W,1,8,1.7,20,"
"##MN-00 00 42 0203 02132 5379 449482 351150 201"
"155.679444"
"$GPGGA,161821,2502.6711,N,08012.7916,W,1,9,1.7,20,"
"##MN-00 00 41 0204 02128 5379 449441 351141 201"
"155.679491"
"$GPGGA,161825,2502.6719,N,08012.7889,W,1,9,1.7,20,"
"##MN-00 00 38 0204 02134 5378 448152 350936 201"
"155.679537"
"$GPGGA,161829,2502.6726,N,08012.7861,W,1,9,1.7,20,"
"##MN-00 00 38 0205 02129 5378 447225 350447 201"
"155.679583"
"$GPGGA,161833,2502.6734,N,08012.7831,W,1,9,2.2,20,"
"##MN-00 00 40 0206 02129 5377 446340 350404 201"
"155.67963"
"$GPGGA,161837,2502.6738,N,08012.7815,W,1,9,1.7,20,"
"##MN-00 00 43 0206 02128 5377 447035 350442 201"
"155.679676"
"$GPGGA,161841,2502.6748,N,08012.7786,W,1,9,1.7,20,"
"##MN-00 00 39 0206 02128 5376 446442 350455 201"
"155.679722"
"$GPGGA,161845,2502.6758,N,08012.7759,W,1,9,1.7,20,"
"##MN-00 00 39 0207 02132 5376 443464 349454 201"
"155.679768"
"$GPGGA,161849,2502.6767,N,08012.7731,W,1,9,1.7,20,"
"##MN-00 00 38 0207 02128 5375 443304 349251 201"
"155.679815"
"$GPGGA,161853,2502.6777,N,08012.7704,W,1,9,1.7,20,"
"##MN-00 00 39 0208 02128 5375 444305 349469 201"
"155.679861"
"$GPGGA,161857,2502.6788,N,08012.7676,W,1,9,1.7,20,"
"##MN-00 00 41 0209 02124 5374 445395 349953 201"
"155.679907"
"$GPGGA,161901,2502.6796,N,08012.7646,W,1,9,1.7,20,"
"##MN-00 00 40 0209 02120 5374 447319 350533 201"
"155.679954"
"$GPGGA,161905,2502.6806,N,08012.7618,W,1,9,1.8,20,"
"##MN-00 00 42 0210 02123 5374 445649 349896 201"
"155.68"
"$GPGGA,161909,2502.6814,N,08012.7591,W,1,9,1.8,19,"
"##MN+00 00 46 0211 02117 5373 442926 349159 201"
"155.680046"
"$GPGGA,161913,2502.6820,N,08012.7559,W,1,9,1.8,19,"
"##MN+00 00 40 0211 02117 5372 443202 349183 201"
"155.680093"
"$GPGGA,161917,2502.6821,N,08012.7530,W,1,9,1.8,20,"
"##MN+00 00 42 0212 02120 5372 443063 349170 201"
"155.680139"
"$GPGGA,161921,2502.6832,N,08012.7502,W,1,9,1.8,20,"
"##MN-00 00 39 0213 02115 5372 443492 349234 200"
"155.680185"
"$GPGGA,161925,2502.6841,N,08012.7475,W,1,8,2.2,20,"
"##MN-00 00 41 0213 02120 5371 444258 349533 200"
"155.680231"
"$GPGGA,161929,2502.6848,N,08012.7451,W,1,9,1.8,20,"
"##MN-00 00 42 0214 02111 5371 444591 349683 200"
"155.680278"
"$GPGGA,161934,2502.6860,N,08012.7416,W,1,9,1.8,20,"
"##MN-00 00 41 0215 02113 5370 443064 349189 200"
"155.680324"
"$GPGGA,161938,2502.6866,N,08012.7391,W,1,8,1.8,20,"
"##MN-00 00 41 0215 02113 5370 442706 349057 200"
"155.68037"
"$GPGGA,161942,2502.6875,N,08012.7359,W,1,8,1.8,20,"
"##MN-00 00 43 0216 02109 5370 442412 348956 200"
"155.680417"
"$GPGGA,161945,2502.6879,N,08012.7338,W,1,8,2.2,21,"
"##MN+00 00 42 0217 02110 5369 442160 348867 200"
"155.680463"
"$GPGGA,161949,2502.6886,N,08012.7305,W,1,9,1.8,21,"
"##MN+00 00 43 0217 02105 5369 441615 348743 201"
"155.680509"
"$GPGGA,161953,2502.6897,N,08012.7276,W,1,9,1.8,21,"
"##MN+00 00 50 0218 02107 5368 441333 348627 201"
"155.680556"
"#increment_net"
"$GPGGA,161958,2502.6902,N,08012.7253,W,1,9,1.8,21,"
"##MN-00 00 48 0219 02104 5368 441468 348680 201"
"155.680602"
"$GPGGA,162002,2502.6908,N,08012.7229,W,1,9,1.8,21,"
"##MN-00 00 46 0219 02104 5368 441568 348688 201"
"155.680648"
"$GPGGA,162006,2502.6917,N,08012.7196,W,1,9,1.8,21,"
"##MN-00 00 45 0220 02100 5367 441804 348747 201"
"155.680694"
"$GPGGA,162010,2502.6926,N,08012.7164,W,1,9,1.8,21,"
"##MN-00 00 45 0221 02100 5367 442073 348817 201"
"155.680741"
"$GPGGA,162014,2502.6933,N,08012.7140,W,1,8,2.4,21,"
"##MN-00 00 44 0221 02101 5366 442285 348862 201"
"155.680799"
"$GPGGA,162018,2502.6939,N,08012.7110,W,1,9,1.8,21,"
"##MN-00 00 44 0222 02103 5366 442339 348868 201"
"155.680845"
"$GPGGA,162022,2502.6947,N,08012.7082,W,1,8,2.2,22,"
"##MN-00 00 44 0223 02103 5365 442421 348892 201"
"155.680891"
"$GPGGA,162026,2502.6955,N,08012.7053,W,1,9,1.8,22,"
"##MN-00 00 44 0224 02103 5366 442362 348886 201"
"155.680938"
"$GPGGA,162030,2502.6965,N,08012.7024,W,1,8,1.8,21,"
"##MN-00 00 45 0225 02104 5365 441954 348805 201"
"155.680984"
"$GPGGA,162034,2502.6969,N,08012.6997,W,1,9,2.2,21,"
"##MN-00 00 45 0225 02103 5365 441708 348715 201"
"155.68103"
"$GPGGA,162038,2502.6978,N,08012.6969,W,1,9,1.8,21,"
"##MN-00 00 45 0226 02103 5364 441691 348713 201"
"155.681076"
"$GPGGA,162042,2502.6987,N,08012.6940,W,1,9,2.2,21,"
"##MN-00 00 42 0227 02103 5364 441562 348684 201"
"155.681123"
"$GPGGA,162046,2502.6997,N,08012.6912,W,1,9,2.4,21,"
"##MN-00 00 45 0228 02103 5364 441365 348628 201"
"155.681169"
"$GPGGA,162050,2502.7005,N,08012.6883,W,1,8,1.8,21,"
"##MN-00 00 45 0228 02102 5363 441283 348593 201"
"155.681215"
"$GPGGA,162054,2502.7014,N,08012.6855,W,1,9,1.8,21,"
"##MN-00 00 44 0229 02100 5363 441355 348617 201"
"155.681262"
"$GPGGA,162058,2502.7020,N,08012.6828,W,1,9,1.8,21,"
"##MN-00 00 45 0230 02100 5363 441401 348634 201"
"155.681308"
"$GPGGA,162102,2502.7029,N,08012.6799,W,1,9,1.8,20,"
"##MN-00 00 46 0231 02099 5363 441339 348603 201"
"155.681354"
"$GPGGA,162106,2502.7036,N,08012.6770,W,1,9,1.8,21,"
"##MN-00 00 46 0231 02099 5363 441235 348574 201"
"155.6814"
"$GPGGA,162110,2502.7045,N,08012.6742,W,1,9,1.8,21,"
"##MN-00 00 44 0232 02101 5362 441241 348588 201"
"155.681447"
"$GPGGA,162114,2502.7056,N,08012.6713,W,1,9,1.8,21,"
"##MN-00 00 46 0233 02101 5362 441208 348595 201"
"155.681493"
"$GPGGA,162118,2502.7065,N,08012.6686,W,1,9,1.8,21,"
"##MN-00 00 47 0233 02106 5362 441393 348617 201"
"155.681539"
"$GPGGA,162122,2502.7074,N,08012.6659,W,1,9,1.8,21,"
"##MN-00 00 44 0234 02104 5362 441704 348715 201"
"155.681586"
"$GPGGA,162126,2502.7083,N,08012.6633,W,1,9,1.8,21,"
"##MN-00 00 42 0234 02105 5361 441878 348757 201"
"155.681632"
"$GPGGA,162130,2502.7092,N,08012.6603,W,1,9,1.8,20,"
"##MN-00 00 45 0235 02112 5361 442107 348796 201"
"155.681678"
"$GPGGA,162134,2502.7099,N,08012.6575,W,1,9,2.2,20,"
"##MN-00 00 46 0236 02113 5361 442174 348908 201"
"155.681725"
"$GPGGA,162138,2502.7106,N,08012.6553,W,1,9,2.2,20,"
"##MN-00 00 43 0236 02113 5361 442372 348944 201"
"155.681771"
"$GPGGA,162142,2502.7113,N,08012.6524,W,1,9,1.8,20,"
"##MN-00 00 44 0237 02118 5360 442292 348891 201"
"155.681817"
"$GPGGA,162146,2502.7124,N,08012.6492,W,1,9,1.8,20,"
"##MN-00 00 45 0238 02118 5360 442235 348888 201"
"155.681863"
"$GPGGA,162150,2502.7132,N,08012.6466,W,1,9,2.2,20,"
"##MN-00 00 46 0239 02113 5360 442340 348904 201"
"155.68191"
"$GPGGA,162154,2502.7140,N,08012.6434,W,1,9,2.4,19,"
"##MN+00 00 43 0239 02117 5360 442716 348970 201"
"155.681956"
"$GPGGA,162158,2502.7148,N,08012.6412,W,1,9,1.8,20,"
"##MN+00 00 39 0240 02119 5360 442554 348991 201"
"155.682002"
"$GPGGA,162202,2502.7157,N,08012.6383,W,1,9,2.2,20,"
"##MN+00 00 44 0240 02121 5360 442905 349046 201"
"155.682049"
"$GPGGA,162206,2502.7161,N,08012.6365,W,1,9,1.8,20,"
"##MN-00 00 43 0241 02121 5360 442986 349111 201"
"155.682095"
"$GPGGA,162210,2502.7170,N,08012.6339,W,1,9,1.8,20,"
"##MN-00 00 43 0242 02125 5359 442981 349039 201"
"155.682141"
"$GPGGA,162214,2502.7176,N,08012.6316,W,1,9,1.8,20,"
"##MN-00 00 42 0242 02123 5359 442986 349067 201"
"155.682187"
"$GPGGA,162218,2502.7191,N,08012.6275,W,1,9,1.8,20,"
"##MN-00 00 43 0243 02124 5359 442933 349038 201"
"155.682234"
"$GPGGA,162222,2502.7204,N,08012.6245,W,1,9,2.4,20,"
"##MN+00 00 42 0244 02126 5359 442895 349041 201"
"155.68228"
"$GPGGA,162226,2502.7211,N,08012.6216,W,1,9,1.8,20,"
"##MN+00 00 42 0245 02123 5358 443323 349189 201"
"155.682326"
"$GPGGA,162230,2502.7218,N,08012.6191,W,1,8,1.8,20,"
"##MN+00 00 50 0246 02128 5358 443707 349185 201"
"155.682373"
"#increment_net"
"$GPGGA,162234,2502.7228,N,08012.6164,W,1,9,1.8,20,"
"##MN-00 00 49 0246 02132 5358 444486 349330 200"
"155.682419"
"$GPGGA,162238,2502.7235,N,08012.6140,W,1,9,1.8,20,"
"##MN-00 00 41 0247 02128 5358 445935 349825 200"
"155.682465"
"$GPGGA,162242,2502.7246,N,08012.6112,W,1,9,1.8,20,"
"##MN-00 00 44 0248 02133 5358 446952 350418 200"
"155.682512"
"$GPGGA,162246,2502.7254,N,08012.6086,W,1,9,1.8,20,"
"##MN-00 00 45 0248 02132 5358 446846 350410 200"
"155.682558"
"$GPGGA,162250,2502.7262,N,08012.6065,W,1,9,1.8,20,"
"##MN-00 00 41 0249 02132 5358 447038 350540 200"
"155.682604"
"$GPGGA,162254,2502.7271,N,08012.6042,W,1,9,1.8,20,"
"##MN-00 00 42 0249 02133 5358 447979 350684 200"
"155.68265"
"$GPGGA,162258,2502.7280,N,08012.6016,W,1,9,1.8,20,"
"##MN-00 00 42 0250 02133 5357 446196 349889 200"
"155.682697"
"$GPGGA,162302,2502.7289,N,08012.5988,W,1,9,1.8,19,"
"##MN-00 00 37 0251 02132 5358 443277 349266 200"
"155.682743"
"$GPGGA,162306,2502.7297,N,08012.5962,W,1,8,2.2,19,"
"##MN-00 00 38 0251 02134 5357 442277 348923 200"
"155.682789"
"$GPGGA,162310,2502.7301,N,08012.5939,W,1,9,2.2,20,"
"##MN-00 00 41 0252 02131 5357 442683 349020 200"
"155.682836"
"$GPGGA,162314,2502.7309,N,08012.5912,W,1,9,1.8,20,"
"##MN-00 00 41 0253 02129 5357 443167 349130 200"
"155.682882"
"$GPGGA,162318,2502.7316,N,08012.5884,W,1,9,1.8,20,"
"##MN-00 00 43 0254 02123 5357 443751 349288 200"
"155.682928"
"$GPGGA,162322,2502.7323,N,08012.5855,W,1,9,1.8,20,"
"##MN-00 00 42 0254 02125 5357 443642 349277 200"
"155.682974"
"$GPGGA,162326,2502.7330,N,08012.5826,W,1,9,1.8,20,"
"##MN-00 00 39 0255 02123 5357 442694 349012 200"
"155.683021"
"$GPGGA,162330,2502.7337,N,08012.5799,W,1,9,1.8,20,"
"##MN-00 00 42 0256 02124 5357 442293 348920 200"
"155.683067"
"$GPGGA,162334,2502.7347,N,08012.5770,W,1,9,1.8,20,"
"##MN-00 00 42 0257 02123 5356 442365 348929 200"
"155.683113"
"$GPGGA,162338,2502.7354,N,08012.5746,W,1,9,1.8,20,"
"##MN-00 00 43 0257 02121 5356 442316 348909 200"
"155.68316"
"$GPGGA,162342,2502.7362,N,08012.5722,W,1,9,1.8,20,"
"##MN-00 00 42 0258 02124 5356 442334 348901 200"
"155.683206"
"$GPGGA,162346,2502.7370,N,08012.5694,W,1,9,1.8,20,"
"##MN-00 00 42 0259 02125 5356 442428 348910 200"
"155.683252"
"$GPGGA,162350,2502.7381,N,08012.5664,W,1,9,1.8,20,"
"##MN-00 00 41 0260 02123 5356 442626 348936 200"
"155.683299"
"$GPGGA,162354,2502.7392,N,08012.5636,W,1,9,1.8,19,"
"##MN-00 00 42 0260 02127 5355 442648 348990 200"
"155.683345"
"$GPGGA,162358,2502.7405,N,08012.5606,W,1,9,1.8,19,"
"##MN-00 00 41 0261 02125 5355 442987 349080 200"
"155.683391"
"$GPGGA,162402,2502.7414,N,08012.5578,W,1,8,1.8,19,"
"##MN-00 00 42 0262 02124 5355 443283 349175 200"
"155.683438"
"$GPGGA,162407,2502.7426,N,08012.5547,W,1,9,1.8,19,"
"##MN-00 00 42 0263 02122 5355 443606 349220 200"
"155.683484"
"$GPGGA,162411,2502.7435,N,08012.5523,W,1,9,1.8,19,"
"##MN-00 00 40 0263 02123 5355 443872 349378 200"
"155.68353"
"$GPGGA,162415,2502.7446,N,08012.5490,W,1,9,1.8,19,"
"##MN-00 00 42 0264 02121 5355 444069 349451 200"
"155.683576"
"$GPGGA,162419,2502.7455,N,08012.5460,W,1,9,1.8,19,"
"##MN+00 00 43 0265 02119 5355 444245 349448 200"
"155.683623"
"$GPGGA,162422,2502.7463,N,08012.5438,W,1,9,1.8,19,"
"##MN+00 00 40 0266 02122 5355 443563 349277 201"
"155.683669"
"$GPGGA,162426,2502.7470,N,08012.5413,W,1,9,1.8,19,"
"##MN+00 00 40 0266 02125 5355 443088 349177 200"
"155.683715"
"$GPGGA,162431,2502.7480,N,08012.5380,W,1,9,1.8,19,"
"##MN-00 00 40 0267 02128 5354 442462 348974 201"
"155.683762"
"$GPGGA,162435,2502.7489,N,08012.5354,W,1,9,1.8,19,"
"##MN-00 00 40 0268 02127 5354 442959 349079 201"
"155.683808"
"$GPGGA,162439,2502.7496,N,08012.5326,W,1,9,1.8,19,"
"##MN-00 00 40 0268 02125 5354 442851 349064 201"
"155.683854"
"$GPGGA,162443,2502.7502,N,08012.5298,W,1,9,1.8,19,"
"##MN-00 00 40 0269 02126 5354 442672 349004 201"
"155.683912"
"$GPGGA,162447,2502.7513,N,08012.5269,W,1,9,1.8,19,"
"##MN+00 00 39 0270 02130 5354 442172 348833 201"
"155.683958"
"$GPGGA,162451,2502.7522,N,08012.5240,W,1,9,1.8,19,"
"##MN+00 00 41 0271 02128 5354 442069 348807 201"
"155.684005"
"$GPGGA,162455,2502.7533,N,08012.5213,W,1,9,1.8,19,"
"##MN+00 00 49 0271 02128 5354 442011 348800 200"
"155.684051"
"#increment_net"
"$GPGGA,162459,2502.7542,N,08012.5187,W,1,9,1.8,19,"
"##MN-00 00 45 0272 02131 5353 441875 348757 199"
"155.684097"
"$GPGGA,162503,2502.7553,N,08012.5162,W,1,9,1.8,19,"
"##MN-00 00 42 0273 02133 5354 441855 348741 199"
"155.684144"
"$GPGGA,162507,2502.7561,N,08012.5137,W,1,9,1.8,19,"
"##MN-00 00 40 0274 02133 5354 441972 348786 199"
"155.68419"
"$GPGGA,162511,2502.7571,N,08012.5112,W,1,8,2.5,19,"
"##MN-00 00 39 0275 02137 5353 442113 348811 199"
"155.684236"
"$GPGGA,162515,2502.7579,N,08012.5087,W,1,9,1.8,19,"
"##MN-00 00 40 0276 02130 5353 442265 348845 199"
"155.684282"
"$GPGGA,162519,2502.7587,N,08012.5060,W,1,9,2.5,20,"
"##MN-00 00 39 0277 02127 5353 442252 348853 199"
"155.684329"
"$GPGGA,162523,2502.7598,N,08012.5035,W,1,9,1.8,20,"
"##MN-00 00 38 0278 02123 5352 442323 348871 199"
"155.684375"
"$GPGGA,162527,2502.7605,N,08012.5008,W,1,8,2.5,20,"
"##MN-00 00 37 0279 02120 5352 442126 348815 199"
"155.684421"
"$GPGGA,162531,2502.7609,N,08012.4980,W,1,9,1.8,20,"
"##MN-00 00 38 0280 02113 5352 441661 348724 199"
"155.684468"
"$GPGGA,162535,2502.7617,N,08012.4953,W,1,8,1.8,21,"
"##MN-00 00 37 0281 02110 5352 441284 348612 199"
"155.684514"
"$GPGGA,162539,2502.7626,N,08012.4924,W,1,8,2.5,21,"
"##MN-00 00 38 0282 02102 5352 440944 348506 199"
"155.68456"
"$GPGGA,162543,2502.7636,N,08012.4897,W,1,8,2.5,21,"
"##MN-00 00 40 0283 02096 5352 440691 348413 199"
"155.684606"
"$GPGGA,162547,2502.7644,N,08012.4869,W,1,8,2.5,21,"
"##MN-00 00 38 0284 02092 5352 440602 348391 199"
"155.684653"
"$GPGGA,162551,2502.7647,N,08012.4848,W,1,9,2.3,21,"
"##MN-00 00 38 0285 02081 5352 440571 348390 199"
"155.684699"
"$GPGGA,162555,2502.7652,N,08012.4823,W,1,9,2.3,21,"
"##MN-00 00 44 0286 02073 5352 440543 348370 199"
"155.684745"
"$GPGGA,162559,2502.7663,N,08012.4792,W,1,9,1.8,21,"
"##MN-00 00 38 0287 02071 5352 440488 348352 199"
"155.684792"
"$GPGGA,162603,2502.7673,N,08012.4765,W,1,9,1.8,21,"
"##MN-00 00 39 0288 02061 5352 440445 348343 199"
"155.684838"
"$GPGGA,162607,2502.7683,N,08012.4736,W,1,8,1.8,21,"
"##MN-00 00 39 0289 02055 5352 440451 348345 199"
"155.684884"
"$GPGGA,162611,2502.7689,N,08012.4710,W,1,8,1.8,21,"
"##MN-00 00 39 0291 02049 5352 440457 348348 199"
"155.684931"
"$GPGGA,162615,2502.7699,N,08012.4685,W,1,8,1.8,21,"
"##MN-00 00 39 0292 02039 5352 440459 348344 199"
"155.684977"
"$GPGGA,162619,2502.7706,N,08012.4659,W,1,8,2.5,21,"
"##MN-00 00 39 0293 02036 5352 440438 348334 199"
"155.685023"
"$GPGGA,162623,2502.7719,N,08012.4629,W,1,8,2.5,21,"
"##MN-00 00 39 0294 02026 5351 440424 348331 199"
"155.685069"
"$GPGGA,162627,2502.7726,N,08012.4601,W,1,8,2.5,20,"
"##MN-00 00 40 0295 02020 5351 440394 348324 199"
"155.685116"
"$GPGGA,162631,2502.7733,N,08012.4572,W,1,9,1.8,20,"
"##MN-00 00 40 0296 02010 5351 440381 348322 199"
"155.685162"
"$GPGGA,162635,2502.7738,N,08012.4551,W,1,8,2.5,20,"
"##MN-00 00 44 0297 02004 5351 440363 348320 199"
"155.685208"
"$GPGGA,162639,2502.7744,N,08012.4523,W,1,9,1.8,20,"
"##MN-00 00 42 0298 01997 5351 440345 348317 199"
"155.685255"
"$GPGGA,162643,2502.7756,N,08012.4497,W,1,8,2.5,20,"
"##MN-00 00 41 0299 01991 5351 440290 348306 199"
"155.685301"
"$GPGGA,162647,2502.7761,N,08012.4463,W,1,9,1.8,20,"
"##MN-00 00 41 0300 01982 5351 440242 348296 199"
"155.685347"
"$GPGGA,162651,2502.7767,N,08012.4438,W,1,9,1.8,20,"
"##MN-00 00 43 0302 01974 5351 440250 348297 199"
"155.685393"
"$GPGGA,162655,2502.7775,N,08012.4413,W,1,9,1.8,21,"
"##MN-00 00 41 0303 01970 5351 440235 348282 199"
"155.68544"
"$GPGGA,162659,2502.7782,N,08012.4388,W,1,9,1.8,21,"
"##MN-00 00 42 0304 01960 5351 440114 348269 199"
"155.685486"
"$GPGGA,162703,2502.7792,N,08012.4361,W,1,9,1.8,21,"
"##MN-00 00 42 0305 01955 5351 440133 348277 199"
"155.685532"
"$GPGGA,162707,2502.7798,N,08012.4334,W,1,9,1.8,22,"
"##MN-00 00 40 0306 01950 5351 440185 348280 199"
"155.685579"
"$GPGGA,162711,2502.7806,N,08012.4307,W,1,9,1.8,22,"
"##MN-00 00 42 0307 01939 5351 440149 348277 199"
"155.685625"
"$GPGGA,162715,2502.7814,N,08012.4281,W,1,8,2.5,22,"
"##MN-00 00 46 0308 01934 5351 440100 348267 199"
"155.685671"
"$GPGGA,162719,2502.7824,N,08012.4252,W,1,8,2.5,22,"
"##MN-00 00 45 0310 01929 5351 440058 348264 199"
"155.685718"
"$GPGGA,162723,2502.7829,N,08012.4224,W,1,9,1.8,22,"
"##MN-00 00 44 0311 01923 5351 440058 348263 199"
"155.685764"
"$GPGGA,162727,2502.7838,N,08012.4198,W,1,8,2.5,22,"
"##MN-00 00 44 0312 01913 5351 440063 348264 199"
"155.68581"
"$GPGGA,162731,2502.7845,N,08012.4171,W,1,8,2.5,22,"
"##MN-00 00 44 0313 01907 5351 440023 348262 199"
"155.685857"
"$GPGGA,162735,2502.7854,N,08012.4144,W,1,8,2.5,22,"
"##MN-00 00 44 0314 01902 5351 439994 348254 199"
"155.685903"
"$GPGGA,162739,2502.7861,N,08012.4115,W,1,8,2.5,22,"
"##MN-00 00 46 0315 01890 5351 439987 348251 199"
"155.685949"
"$GPGGA,162743,2502.7872,N,08012.4087,W,1,8,2.5,21,"
"##MN-00 00 48 0317 01883 5351 439976 348248 199"
"155.685995"
"$GPGGA,162747,2502.7878,N,08012.4056,W,1,9,1.8,21,"
"##MN-00 00 44 0318 01880 5351 439982 348251 199"
"155.686042"
"$GPGGA,162751,2502.7887,N,08012.4029,W,1,9,1.8,21,"
"##MN-00 00 47 0319 01872 5351 439992 348255 199"
"155.686088"
"$GPGGA,162755,2502.7897,N,08012.4001,W,1,9,1.8,21,"
"##MN-00 00 51 0320 01864 5351 439989 348256 199"
