" Tow: 3Ws-B   RVWS/WS1406"
" Date: 06/04/2014"
" Temperature Probe #  2597    Conductivity Probe #  2870"
" Pressure Probe #  109"
" Flow Meter Calibration  4.71 (m/count)  "
"156.010347"
"$GPGGA,001447,2514.6094,N,08007.6558,W,1,10,1.4,20"
"##MN-00 00 41 0322 01863 5234 453862 923191 200"
"156.010394"
"$GPGGA,001455,2514.6087,N,08007.6608,W,1,10,1.4,20"
"##MN-00 00 43 0322 01865 5233 452501 925377 200"
"156.01044"
"$GPGGA,001459,2514.6084,N,08007.6633,W,1,10,1.4,20"
"##MN-00 00 62 0322 01864 5233 450349 925377 200"
"156.010486"
"$GPGGA,001503,2514.6081,N,08007.6654,W,1,10,1.4,20"
"##MN-00 00 63 0322 01863 5233 449660 925376 200"
"156.010532"
"$GPGGA,001507,2514.6077,N,08007.6676,W,1,10,1.4,20"
"##MN-00 00 67 0322 01865 5232 450224 925376 200"
"156.010579"
"$GPGGA,001511,2514.6078,N,08007.6696,W,1,10,1.4,20"
"##MN-00 00 68 0323 01862 5230 449715 925371 200"
"156.010625"
"$GPGGA,001515,2514.6077,N,08007.6717,W,1,10,1.4,20"
"##MN-00 00 70 0323 01864 5230 447185 515583 200"
"156.010671"
"$GPGGA,001519,2514.6075,N,08007.6738,W,1,10,1.4,20"
"##MN-00 00 66 0324 01865 5229 440837 350675 200"
"156.010718"
"$GPGGA,001523,2514.6079,N,08007.6761,W,1,10,1.5,21"
"##MN-00 00 66 0325 01864 5228 440855 349831 200"
"156.010764"
"$GPGGA,001527,2514.6082,N,08007.6781,W,1,10,1.4,21"
"##MN-00 00 67 0326 01865 5227 440721 351806 200"
"156.01081"
"$GPGGA,001531,2514.6088,N,08007.6796,W,1,10,1.4,22"
"##MN-00 00 66 0327 01864 5227 440600 350271 200"
"156.010856"
"$GPGGA,001535,2514.6095,N,08007.6811,W,1,10,1.4,22"
"##MN-00 00 60 0328 01865 5226 440584 348932 200"
"156.010903"
"$GPGGA,001539,2514.6100,N,08007.6825,W,1,10,1.4,22"
"##MN-00 00 60 0329 01864 5225 440553 348797 200"
"156.010949"
"$GPGGA,001543,2514.6109,N,08007.6836,W,1,10,1.4,22"
"##MN-00 00 58 0330 01866 5225 440518 348820 200"
"156.010995"
"$GPGGA,001547,2514.6116,N,08007.6850,W,1,9,1.5,22,"
"##MN-00 00 59 0331 01868 5225 440509 348842 200"
"156.011042"
"$GPGGA,001551,2514.6124,N,08007.6860,W,1,10,1.4,22"
"##MN-00 00 58 0332 01867 5224 440535 348815 200"
"156.011088"
"$GPGGA,001555,2514.6134,N,08007.6869,W,1,9,1.5,22,"
"##MN-00 00 57 0333 01868 5224 440528 348786 200"
"156.011134"
"$GPGGA,001559,2514.6142,N,08007.6882,W,1,10,1.4,22"
"##MN-00 00 56 0334 01873 5224 440515 348732 200"
"156.011181"
"$GPGGA,001603,2514.6155,N,08007.6889,W,1,9,1.7,22,"
"##MN-00 00 54 0334 01877 5224 440499 348742 200"
"156.011227"
"$GPGGA,001607,2514.6167,N,08007.6900,W,1,9,1.7,22,"
"##MN-00 00 58 0335 01878 5223 440510 348685 200"
"156.011273"
"$GPGGA,001611,2514.6174,N,08007.6911,W,1,10,1.4,22"
"##MN-00 00 57 0336 01883 5223 440510 348662 200"
"156.011319"
"$GPGGA,001615,2514.6185,N,08007.6918,W,1,10,1.4,22"
"##MN-00 00 51 0337 01883 5223 440502 348658 200"
"156.011366"
"$GPGGA,001620,2514.6196,N,08007.6930,W,1,10,1.4,22"
"##MN-00 00 55 0338 01886 5223 440514 348629 200"
"156.011412"
"$GPGGA,001624,2514.6210,N,08007.6938,W,1,10,1.5,22"
"##MN-00 00 57 0339 01887 5223 440530 348620 200"
"156.011458"
"$GPGGA,001627,2514.6220,N,08007.6945,W,1,10,1.4,22"
"##MN-00 00 56 0340 01892 5222 440520 348624 200"
"156.011505"
"$GPGGA,001631,2514.6228,N,08007.6954,W,1,9,1.5,21,"
"##MN-00 00 56 0341 01897 5222 440537 348618 200"
"156.011551"
"$GPGGA,001635,2514.6239,N,08007.6960,W,1,10,1.4,21"
"##MN-00 00 53 0341 01902 5222 440521 348612 200"
"156.011597"
"$GPGGA,001639,2514.6250,N,08007.6969,W,1,10,1.4,21"
"##MN-00 00 52 0342 01905 5222 440510 348609 200"
"156.011644"
"$GPGGA,001644,2514.6264,N,08007.6978,W,1,10,1.4,21"
"##MN-00 00 53 0343 01908 5222 440526 348604 200"
"156.01169"
"$GPGGA,001648,2514.6275,N,08007.6987,W,1,10,1.4,21"
"##MN-00 00 52 0344 01913 5222 440531 348594 200"
"156.011736"
"$GPGGA,001652,2514.6285,N,08007.6995,W,1,10,1.4,21"
"##MN-00 00 50 0345 01917 5222 440524 348586 200"
"156.011782"
"$GPGGA,001656,2514.6296,N,08007.7003,W,1,10,1.4,21"
"##MN-00 00 49 0346 01917 5221 440529 348580 200"
"156.011829"
"$GPGGA,001700,2514.6307,N,08007.7013,W,1,10,1.4,21"
"##MN-00 00 50 0347 01919 5222 440541 348577 200"
"156.011887"
"$GPGGA,001704,2514.6315,N,08007.7023,W,1,10,1.4,21"
"##MN-00 00 52 0348 01920 5222 440551 348577 200"
"156.011933"
"$GPGGA,001708,2514.6328,N,08007.7034,W,1,10,1.4,21"
"##MN-00 00 51 0349 01925 5221 440549 348570 200"
"156.011979"
"$GPGGA,001712,2514.6339,N,08007.7045,W,1,10,1.4,21"
"##MN-00 00 50 0349 01926 5222 440549 348569 200"
"156.012025"
"$GPGGA,001716,2514.6348,N,08007.7056,W,1,9,1.4,21,"
"##MN-00 00 51 0350 01926 5222 440551 348567 200"
"156.012072"
"$GPGGA,001720,2514.6359,N,08007.7066,W,1,9,1.5,21,"
"##MN-00 00 51 0351 01929 5222 440562 348569 200"
"156.012118"
"$GPGGA,001724,2514.6369,N,08007.7072,W,1,10,1.5,21"
"##MN-00 00 51 0352 01933 5222 440565 348570 200"
"156.012164"
"$GPGGA,001728,2514.6380,N,08007.7079,W,1,9,1.5,21,"
"##MN-00 00 52 0353 01935 5222 440567 348570 200"
"156.012211"
"$GPGGA,001732,2514.6391,N,08007.7089,W,1,10,1.4,21"
"##MN-00 00 53 0354 01938 5222 440577 348571 200"
"156.012257"
"$GPGGA,001736,2514.6402,N,08007.7096,W,1,10,1.4,21"
"##MN-00 00 51 0355 01944 5222 440575 348569 200"
"156.012303"
"$GPGGA,001740,2514.6411,N,08007.7104,W,1,10,1.4,21"
"##MN-00 00 52 0356 01944 5222 440576 348568 200"
"156.01235"
"$GPGGA,001744,2514.6420,N,08007.7111,W,1,9,1.7,21,"
"##MN-00 00 50 0357 01951 5222 440578 348564 200"
"156.012396"
"$GPGGA,001748,2514.6427,N,08007.7121,W,1,10,1.4,21"
"##MN-00 00 49 0358 01951 5222 440593 348562 200"
"156.012442"
"$GPGGA,001752,2514.6437,N,08007.7129,W,1,10,1.7,22"
"##MN-00 00 51 0358 01957 5222 440609 348559 200"
"156.012488"
"$GPGGA,001756,2514.6445,N,08007.7135,W,1,10,1.4,22"
"##MN-00 00 49 0359 01961 5222 440619 348557 200"
"156.012535"
"$GPGGA,001800,2514.6452,N,08007.7142,W,1,10,1.4,22"
"##MN-00 00 51 0360 01964 5222 440649 348556 200"
"156.012581"
"$GPGGA,001804,2514.6463,N,08007.7149,W,1,10,1.4,22"
"##MN-00 00 50 0361 01971 5222 440672 348558 200"
"156.012627"
"$GPGGA,001808,2514.6469,N,08007.7154,W,1,10,1.5,22"
"##MN-00 00 50 0362 01977 5223 440709 348562 200"
"156.012674"
"$GPGGA,001812,2514.6478,N,08007.7160,W,1,10,1.4,22"
"##MN-00 00 46 0363 01978 5223 440734 348565 200"
"156.01272"
"$GPGGA,001816,2514.6485,N,08007.7168,W,1,10,1.4,22"
"##MN-00 00 48 0363 01980 5223 440782 348571 200"
"156.012766"
"$GPGGA,001820,2514.6496,N,08007.7177,W,1,10,1.4,22"
"##MN-00 00 50 0364 01979 5223 440771 348569 200"
"156.012813"
"$GPGGA,001824,2514.6505,N,08007.7185,W,1,10,1.4,22"
"##MN-00 00 50 0365 01981 5223 440745 348566 200"
"156.012859"
"$GPGGA,001828,2514.6516,N,08007.7190,W,1,10,1.4,22"
"##MN-00 00 51 0366 01984 5223 440771 348568 200"
"156.012905"
"$GPGGA,001832,2514.6525,N,08007.7196,W,1,10,1.4,22"
"##MN-00 00 49 0367 01990 5224 440804 348570 200"
"156.012951"
"$GPGGA,001836,2514.6535,N,08007.7200,W,1,10,1.4,22"
"##MN-00 00 48 0368 01993 5224 440836 348575 200"
"156.012998"
"$GPGGA,001840,2514.6542,N,08007.7202,W,1,10,1.4,22"
"##MN-00 00 46 0368 01996 5224 440887 348579 200"
"156.013044"
"$GPGGA,001844,2514.6552,N,08007.7204,W,1,10,1.4,21"
"##MN-00 00 43 0369 02000 5224 440948 348587 200"
"156.01309"
"$GPGGA,001848,2514.6559,N,08007.7207,W,1,10,1.4,21"
"##MN-00 00 43 0370 02002 5225 441007 348599 200"
"156.013137"
"$GPGGA,001852,2514.6567,N,08007.7209,W,1,10,1.4,21"
"##MN-00 00 39 0371 02001 5225 441024 348601 200"
"156.013183"
"$GPGGA,001856,2514.6575,N,08007.7212,W,1,10,1.4,21"
"##MN-00 00 39 0372 01998 5225 441017 348604 200"
"156.013229"
"$GPGGA,001900,2514.6583,N,08007.7218,W,1,10,1.4,21"
"##MN-00 00 39 0373 01997 5225 440988 348602 200"
"156.013275"
"$GPGGA,001904,2514.6593,N,08007.7222,W,1,10,1.4,21"
"##MN-00 00 39 0373 01995 5225 440922 348599 200"
"156.013322"
"$GPGGA,001908,2514.6600,N,08007.7225,W,1,10,1.4,21"
"##MN-00 00 39 0374 01993 5226 440873 348589 200"
"156.013368"
"$GPGGA,001912,2514.6610,N,08007.7229,W,1,10,1.4,21"
"##MN-00 00 39 0375 01993 5226 440909 348591 200"
"156.013414"
"$GPGGA,001916,2514.6615,N,08007.7232,W,1,10,1.4,21"
"##MN-00 00 35 0376 01990 5226 440894 348590 200"
"156.013461"
"$GPGGA,001920,2514.6628,N,08007.7239,W,1,9,1.4,21,"
"##MN-00 00 38 0377 01986 5226 440876 348588 200"
"156.013507"
"$GPGGA,001924,2514.6636,N,08007.7245,W,1,9,1.4,21,"
"##MN-00 00 43 0378 01980 5227 440870 348588 200"
"156.013553"
"$GPGGA,001928,2514.6644,N,08007.7252,W,1,10,1.5,21"
"##MN-00 00 42 0379 01981 5227 440857 348586 200"
"156.0136"
"$GPGGA,001932,2514.6657,N,08007.7262,W,1,10,1.7,21"
"##MN-00 00 42 0380 01984 5227 440840 348582 200"
"156.013646"
"$GPGGA,001936,2514.6668,N,08007.7267,W,1,9,1.4,21,"
"##MN-00 00 41 0380 01981 5228 440825 348581 200"
"156.013692"
"$GPGGA,001940,2514.6673,N,08007.7274,W,1,10,1.4,21"
"##MN-00 00 44 0381 01983 5228 440817 348581 200"
"156.013738"
"$GPGGA,001944,2514.6683,N,08007.7280,W,1,10,1.4,21"
"##MN-00 00 41 0382 01976 5228 440801 348580 200"
"156.013785"
"$GPGGA,001948,2514.6691,N,08007.7287,W,1,9,1.6,21,"
"##MN-00 00 43 0383 01980 5228 440827 348580 200"
"156.013831"
"$GPGGA,001952,2514.6698,N,08007.7294,W,1,9,1.4,21,"
"##MN-00 00 44 0384 01978 5229 440847 348579 200"
"156.013877"
"$GPGGA,001956,2514.6708,N,08007.7299,W,1,9,1.4,21,"
"##MN-00 00 44 0385 01976 5229 440798 348576 200"
"156.013924"
"$GPGGA,002000,2514.6716,N,08007.7305,W,1,10,1.4,21"
"##MN-00 00 44 0386 01978 5229 440738 348572 200"
"156.01397"
"$GPGGA,002004,2514.6727,N,08007.7309,W,1,9,1.4,21,"
"##MN-00 00 42 0386 01977 5230 440756 348572 200"
"156.014016"
"$GPGGA,002008,2514.6734,N,08007.7313,W,1,10,1.4,21"
"##MN-00 00 41 0387 01976 5230 440798 348572 200"
"156.014063"
"$GPGGA,002012,2514.6741,N,08007.7320,W,1,10,1.4,21"
"##MN-00 00 42 0388 01976 5230 440796 348572 200"
"156.014109"
"$GPGGA,002016,2514.6749,N,08007.7327,W,1,10,1.4,21"
"##MN+00 00 44 0389 01972 5231 440799 348575 200"
"156.014155"
"$GPGGA,002020,2514.6756,N,08007.7334,W,1,10,1.4,21"
"##MN+00 00 43 0390 01972 5231 440791 348575 200"
"156.014201"
"$GPGGA,002024,2514.6763,N,08007.7342,W,1,10,1.4,21"
"##MN+00 00 46 0391 01973 5231 440804 348573 201"
"156.014248"
"$GPGGA,002028,2514.6770,N,08007.7348,W,1,10,1.4,21"
"##MN-00 00 46 0392 01971 5232 440778 348573 201"
"156.014294"
"$GPGGA,002032,2514.6777,N,08007.7357,W,1,10,1.4,21"
"##MN+00 00 46 0393 01971 5232 440776 348572 201"
"156.01434"
"$GPGGA,002036,2514.6784,N,08007.7366,W,1,10,1.4,21"
"##MN+00 00 48 0394 01970 5232 440794 348572 201"
"156.014387"
"$GPGGA,002040,2514.6790,N,08007.7374,W,1,10,1.4,21"
"##MN+00 00 49 0395 01967 5233 440745 348571 201"
"156.014433"
"$GPGGA,002044,2514.6798,N,08007.7382,W,1,10,1.4,21"
"##MN-00 00 51 0396 01965 5233 440743 348570 201"
"156.014479"
"$GPGGA,002048,2514.6803,N,08007.7392,W,1,10,1.4,21"
"##MN-00 00 50 0397 01962 5233 440752 348573 201"
"156.014525"
"#increment_net"
"$GPGGA,002052,2514.6806,N,08007.7402,W,1,10,1.4,21"
"##MN-00 00 52 0398 01960 5234 440748 348572 201"
"156.014572"
"$GPGGA,002057,2514.6817,N,08007.7413,W,1,10,1.4,21"
"##MN-00 00 51 0399 01952 5234 440738 348572 201"
"156.014618"
"$GPGGA,002100,2514.6820,N,08007.7421,W,1,10,1.4,21"
"##MN-00 00 55 0400 01952 5235 440733 348571 201"
"156.014664"
"$GPGGA,002105,2514.6825,N,08007.7435,W,1,10,1.4,21"
"##MN-00 00 53 0401 01946 5235 440741 348571 201"
"156.014711"
"$GPGGA,002108,2514.6828,N,08007.7443,W,1,9,1.4,21,"
"##MN-00 00 55 0402 01944 5236 440795 348576 201"
"156.014757"
"$GPGGA,002112,2514.6832,N,08007.7454,W,1,10,1.4,21"
"##MN-00 00 56 0403 01943 5236 440799 348577 201"
"156.014803"
"$GPGGA,002116,2514.6835,N,08007.7464,W,1,10,1.4,21"
"##MN-00 00 54 0404 01938 5237 440763 348577 201"
"156.01485"
"$GPGGA,002121,2514.6841,N,08007.7478,W,1,10,1.4,21"
"##MN-00 00 54 0405 01936 5237 440724 348579 201"
"156.014896"
"$GPGGA,002125,2514.6846,N,08007.7489,W,1,10,1.4,22"
"##MN-00 00 58 0406 01939 5237 440732 348580 201"
"156.014942"
"$GPGGA,002129,2514.6850,N,08007.7500,W,1,9,1.4,22,"
"##MN-00 00 57 0407 01937 5238 440741 348581 201"
"156.014988"
"$GPGGA,002133,2514.6853,N,08007.7509,W,1,10,1.4,22"
"##MN-00 00 58 0408 01936 5238 440740 348580 201"
"156.015035"
"$GPGGA,002137,2514.6856,N,08007.7518,W,1,10,1.4,22"
"##MN-00 00 57 0409 01939 5238 440735 348581 201"
"156.015081"
"$GPGGA,002141,2514.6859,N,08007.7527,W,1,10,1.4,22"
"##MN-00 00 61 0410 01933 5239 440714 348581 201"
"156.015139"
"$GPGGA,002145,2514.6861,N,08007.7540,W,1,10,1.4,22"
"##MN-00 00 59 0411 01936 5239 440710 348583 201"
"156.015185"
"$GPGGA,002149,2514.6866,N,08007.7550,W,1,10,1.4,22"
"##MN-00 00 61 0412 01938 5240 440713 348584 201"
"156.015231"
"$GPGGA,002153,2514.6872,N,08007.7562,W,1,10,1.4,22"
"##MN-00 00 58 0413 01941 5240 440719 348585 200"
"156.015278"
"$GPGGA,002157,2514.6877,N,08007.7572,W,1,10,1.4,23"
"##MN-00 00 60 0414 01944 5240 440727 348583 201"
"156.015324"
"$GPGGA,002201,2514.6882,N,08007.7580,W,1,10,1.4,23"
"##MN-00 00 58 0415 01943 5241 440738 348579 201"
"156.01537"
"$GPGGA,002205,2514.6884,N,08007.7590,W,1,9,1.4,23,"
"##MN-00 00 59 0416 01943 5241 440763 348577 200"
"156.015417"
"$GPGGA,002209,2514.6888,N,08007.7598,W,1,10,1.4,23"
"##MN-00 00 60 0417 01948 5241 440776 348574 200"
"156.015463"
"$GPGGA,002213,2514.6893,N,08007.7608,W,1,10,1.4,23"
"##MN-00 00 58 0419 01947 5242 440771 348574 201"
"156.015509"
"$GPGGA,002217,2514.6895,N,08007.7619,W,1,9,1.4,22,"
"##MN-00 00 59 0420 01949 5243 440756 348578 200"
"156.015556"
"$GPGGA,002221,2514.6900,N,08007.7630,W,1,10,1.4,22"
"##MN-00 00 61 0421 01953 5243 440777 348579 200"
"156.015602"
"$GPGGA,002225,2514.6906,N,08007.7638,W,1,10,1.4,22"
"##MN-00 00 57 0422 01955 5243 440785 348578 201"
"156.015648"
"$GPGGA,002229,2514.6910,N,08007.7648,W,1,10,1.4,22"
"##MN-00 00 60 0423 01954 5244 440797 348579 200"
"156.015694"
"$GPGGA,002233,2514.6914,N,08007.7657,W,1,10,1.4,21"
"##MN-00 00 59 0424 01957 5244 440814 348579 200"
"156.015741"
"$GPGGA,002237,2514.6918,N,08007.7667,W,1,10,1.4,21"
"##MN-00 00 61 0425 01959 5244 440798 348580 201"
"156.015787"
"$GPGGA,002241,2514.6919,N,08007.7678,W,1,9,1.4,21,"
"##MN-00 00 61 0426 01961 5245 440785 348579 200"
"156.015833"
"$GPGGA,002245,2514.6924,N,08007.7691,W,1,10,1.4,21"
"##MN-00 00 59 0427 01962 5245 440800 348579 201"
"156.01588"
"$GPGGA,002249,2514.6929,N,08007.7702,W,1,10,1.4,21"
"##MN-00 00 60 0428 01963 5245 440787 348578 200"
"156.015926"
"$GPGGA,002253,2514.6935,N,08007.7715,W,1,10,1.4,21"
"##MN+00 00 61 0429 01968 5246 440804 348577 200"
"156.015972"
"$GPGGA,002257,2514.6940,N,08007.7728,W,1,10,1.4,21"
"##MN+00 00 61 0430 01975 5246 440798 348578 200"
"156.016019"
"$GPGGA,002301,2514.6944,N,08007.7740,W,1,10,1.4,21"
"##MN+00 00 59 0431 01978 5247 440823 348579 197"
"156.016065"
"$GPGGA,002305,2514.6947,N,08007.7753,W,1,10,1.4,21"
"##MN-00 00 72 0432 01984 5247 440865 348577 198"
"156.016111"
"$GPGGA,002309,2514.6953,N,08007.7767,W,1,10,1.4,21"
"##MN+00 00 66 0433 01981 5248 440873 348576 199"
"156.016157"
"$GPGGA,002313,2514.6958,N,08007.7782,W,1,10,1.6,21"
"##MN+00 00 60 0434 01985 5248 440921 348578 200"
"156.016204"
"$GPGGA,002317,2514.6962,N,08007.7796,W,1,10,2.3,20"
"##MN+00 00 59 0435 01983 5248 440903 348577 200"
"156.01625"
"$GPGGA,002321,2514.6969,N,08007.7809,W,1,10,1.4,20"
"##MN-00 00 57 0436 01985 5248 440890 348577 200"
"156.016296"
"$GPGGA,002325,2514.6978,N,08007.7823,W,1,10,1.6,20"
"##MN-00 00 58 0437 01982 5249 440904 348578 200"
"156.016343"
"#increment_net"
"$GPGGA,002329,2514.6983,N,08007.7833,W,1,10,1.6,20"
"##MN-00 00 58 0438 01984 5250 440916 348580 200"
"156.016389"
"$GPGGA,002333,2514.6989,N,08007.7844,W,1,10,1.4,21"
"##MN-00 00 56 0439 01985 5250 440893 348579 200"
"156.016435"
"$GPGGA,002337,2514.6998,N,08007.7858,W,1,9,1.6,21,"
"##MN-00 00 58 0441 01986 5251 440905 348580 200"
"156.016481"
"$GPGGA,002341,2514.7004,N,08007.7874,W,1,10,1.4,21"
"##MN-00 00 57 0442 01990 5251 440911 348580 200"
"156.016528"
"$GPGGA,002345,2514.7016,N,08007.7883,W,1,10,1.4,21"
"##MN-00 00 56 0443 01989 5251 440911 348580 200"
"156.016574"
"$GPGGA,002349,2514.7025,N,08007.7894,W,1,10,1.4,21"
"##MN-00 00 57 0444 01989 5252 440938 348582 200"
"156.01662"
"$GPGGA,002353,2514.7033,N,08007.7902,W,1,10,1.4,21"
"##MN-00 00 55 0445 01995 5252 440967 348584 200"
"156.016667"
"$GPGGA,002357,2514.7041,N,08007.7915,W,1,9,1.6,22,"
"##MN-00 00 54 0446 01995 5253 440958 348585 200"
"156.016713"
"$GPGGA,002401,2514.7051,N,08007.7923,W,1,10,1.4,22"
"##MN-00 00 54 0447 01997 5253 440951 348584 200"
"156.016759"
"$GPGGA,002405,2514.7059,N,08007.7934,W,1,10,1.4,22"
"##MN-00 00 57 0448 01997 5253 440959 348584 200"
"156.016806"
"$GPGGA,002409,2514.7070,N,08007.7944,W,1,9,1.6,22,"
"##MN-00 00 56 0449 02002 5254 440967 348585 200"
"156.016852"
"$GPGGA,002413,2514.7081,N,08007.7952,W,1,10,1.4,22"
"##MN-00 00 56 0450 02006 5254 440983 348585 200"
"156.016898"
"$GPGGA,002417,2514.7094,N,08007.7960,W,1,10,1.4,22"
"##MN-00 00 54 0450 02009 5254 441012 348589 200"
"156.016944"
"$GPGGA,002421,2514.7103,N,08007.7969,W,1,9,1.6,22,"
"##MN-00 00 54 0451 02009 5255 441017 348589 200"
"156.016991"
"$GPGGA,002425,2514.7117,N,08007.7975,W,1,9,1.6,22,"
"##MN-00 00 54 0452 02011 5256 441005 348588 200"
"156.017037"
"$GPGGA,002429,2514.7130,N,08007.7982,W,1,9,1.6,22,"
"##MN-00 00 54 0453 02015 5256 441031 348591 200"
"156.017083"
"$GPGGA,002433,2514.7142,N,08007.7989,W,1,10,1.4,21"
"##MN-00 00 53 0454 02020 5256 441045 348592 200"
"156.01713"
"$GPGGA,002437,2514.7153,N,08007.7999,W,1,10,1.4,21"
"##MN-00 00 54 0455 02018 5257 441047 348591 200"
"156.017176"
"$GPGGA,002441,2514.7163,N,08007.8009,W,1,9,1.6,21,"
"##MN-00 00 51 0456 02013 5257 441042 348591 200"
"156.017222"
"$GPGGA,002445,2514.7166,N,08007.8017,W,1,10,1.4,21"
"##MN-00 00 54 0457 02019 5257 441054 348593 200"
"156.017269"
"$GPGGA,002449,2514.7175,N,08007.8027,W,1,10,1.4,22"
"##MN-00 00 53 0458 02021 5258 441070 348594 200"
"156.017315"
"$GPGGA,002453,2514.7189,N,08007.8035,W,1,10,1.4,22"
"##MN-00 00 51 0458 02024 5258 441076 348594 200"
"156.017361"
"$GPGGA,002457,2514.7199,N,08007.8046,W,1,10,1.4,23"
"##MN-00 00 51 0459 02023 5259 441098 348597 200"
"156.017407"
"$GPGGA,002501,2514.7211,N,08007.8053,W,1,9,1.6,23,"
"##MN-00 00 51 0460 02026 5259 441144 348598 200"
"156.017454"
"$GPGGA,002505,2514.7224,N,08007.8060,W,1,9,1.6,23,"
"##MN-00 00 52 0461 02028 5260 441164 348602 200"
"156.0175"
"$GPGGA,002509,2514.7231,N,08007.8063,W,1,9,1.6,23,"
"##MN-00 00 50 0462 02028 5260 441181 348605 200"
"156.017546"
"$GPGGA,002513,2514.7242,N,08007.8071,W,1,10,1.4,24"
"##MN+00 00 51 0463 02029 5260 441181 348606 200"
"156.017593"
"$GPGGA,002517,2514.7254,N,08007.8081,W,1,10,1.4,24"
"##MN+00 00 51 0464 02029 5260 441179 348606 200"
"156.017639"
"$GPGGA,002521,2514.7264,N,08007.8092,W,1,9,1.6,24,"
"##MN+00 00 52 0464 02031 5261 441180 348608 198"
"156.017685"
"$GPGGA,002525,2514.7276,N,08007.8100,W,1,10,1.4,24"
"##MN-00 00 57 0465 02035 5261 441192 348607 200"
"156.017731"
"$GPGGA,002529,2514.7287,N,08007.8110,W,1,10,1.4,24"
"##MN-00 00 55 0466 02031 5261 441182 348606 200"
"156.017778"
"$GPGGA,002533,2514.7301,N,08007.8121,W,1,9,1.6,24,"
"##MN+00 00 54 0467 02030 5262 441169 348604 200"
"156.017824"
"$GPGGA,002537,2514.7314,N,08007.8132,W,1,9,1.6,24,"
"##MN+00 00 52 0468 02030 5262 441151 348603 197"
"156.01787"
"$GPGGA,002541,2514.7325,N,08007.8143,W,1,9,1.6,23,"
"##MN+00 00 53 0469 02030 5262 441181 348605 196"
"156.017917"
"$GPGGA,002545,2514.7337,N,08007.8152,W,1,10,1.6,23"
"##MN-00 00 51 0470 02033 5263 441208 348609 198"
"156.017963"
"$GPGGA,002549,2514.7348,N,08007.8163,W,1,9,1.4,22,"
"##MN-00 00 50 0471 02032 5263 441212 348609 198"
"156.018009"
"$GPGGA,002553,2514.7361,N,08007.8173,W,1,10,1.4,22"
"##MN-00 00 51 0472 02033 5264 441214 348610 197"
"156.018056"
"#increment_net"
"$GPGGA,002557,2514.7369,N,08007.8186,W,1,10,1.6,22"
"##MN-00 00 49 0473 02033 5264 441237 348611 197"
"156.018102"
"$GPGGA,002601,2514.7383,N,08007.8191,W,1,10,1.4,22"
"##MN-00 00 48 0474 02030 5264 441257 348615 197"
"156.018148"
"$GPGGA,002605,2514.7392,N,08007.8201,W,1,9,1.6,22,"
"##MN-00 00 48 0475 02023 5265 441205 348611 197"
"156.018194"
"$GPGGA,002610,2514.7403,N,08007.8215,W,1,9,1.4,21,"
"##MN-00 00 51 0476 02018 5265 441151 348609 197"
"156.018241"
"$GPGGA,002614,2514.7412,N,08007.8226,W,1,10,1.4,21"
"##MN-00 00 48 0477 02012 5266 441139 348605 199"
"156.018287"
"$GPGGA,002618,2514.7421,N,08007.8234,W,1,10,1.4,21"
"##MN-00 00 49 0478 02008 5266 441129 348605 199"
"156.018333"
"$GPGGA,002622,2514.7434,N,08007.8242,W,1,9,1.4,21,"
"##MN-00 00 52 0479 02002 5266 441086 348604 199"
"156.018391"
"$GPGGA,002626,2514.7442,N,08007.8252,W,1,9,1.4,22,"
"##MN-00 00 49 0480 01998 5266 441095 348604 199"
"156.018437"
"$GPGGA,002630,2514.7457,N,08007.8259,W,1,9,1.4,21,"
"##MN-00 00 51 0481 01993 5267 441099 348603 199"
"156.018484"
"$GPGGA,002634,2514.7468,N,08007.8270,W,1,9,1.4,21,"
"##MN-00 00 50 0482 01989 5268 441081 348601 199"
"156.01853"
"$GPGGA,002638,2514.7481,N,08007.8278,W,1,9,1.6,21,"
"##MN-00 00 50 0483 01987 5268 441061 348602 199"
"156.018576"
"$GPGGA,002642,2514.7492,N,08007.8285,W,1,9,2.2,21,"
"##MN-00 00 51 0484 01990 5268 441054 348601 199"
"156.018623"
"$GPGGA,002646,2514.7506,N,08007.8298,W,1,10,1.6,20"
"##MN-00 00 49 0485 01989 5269 441042 348601 199"
"156.018669"
"$GPGGA,002650,2514.7517,N,08007.8307,W,1,10,1.6,20"
"##MN-00 00 49 0486 01991 5269 441057 348599 199"
"156.018715"
"$GPGGA,002654,2514.7525,N,08007.8315,W,1,10,1.4,20"
"##MN-00 00 49 0487 01986 5269 441032 348600 199"
"156.018762"
"$GPGGA,002658,2514.7536,N,08007.8329,W,1,10,1.4,20"
"##MN-00 00 49 0488 01988 5270 441008 348598 199"
"156.018808"
"$GPGGA,002702,2514.7544,N,08007.8338,W,1,10,1.4,20"
"##MN-00 00 51 0489 01987 5270 441005 348598 199"
"156.018854"
"$GPGGA,002706,2514.7553,N,08007.8345,W,1,10,1.4,20"
"##MN-00 00 51 0489 01987 5271 441023 348599 199"
"156.0189"
"$GPGGA,002710,2514.7560,N,08007.8356,W,1,10,1.4,21"
"##MN-00 00 51 0490 01990 5271 441033 348598 199"
"156.018947"
"$GPGGA,002714,2514.7571,N,08007.8363,W,1,10,1.4,21"
"##MN-00 00 52 0491 01987 5271 441030 348598 199"
"156.018993"
"$GPGGA,002718,2514.7579,N,08007.8371,W,1,9,1.4,21,"
"##MN-00 00 51 0492 01989 5272 441028 348598 199"
"156.019039"
"$GPGGA,002722,2514.7594,N,08007.8382,W,1,10,1.4,21"
"##MN-00 00 50 0493 01987 5272 441034 348599 199"
"156.019086"
"$GPGGA,002726,2514.7601,N,08007.8390,W,1,9,1.4,21,"
"##MN-00 00 50 0494 01987 5273 441043 348599 199"
"156.019132"
"$GPGGA,002730,2514.7611,N,08007.8401,W,1,9,1.4,21,"
"##MN-00 00 50 0495 01989 5273 441050 348599 198"
"156.019178"
"$GPGGA,002734,2514.7623,N,08007.8410,W,1,9,1.6,21,"
"##MN+00 00 50 0496 01985 5273 441053 348599 197"
"156.019225"
"$GPGGA,002738,2514.7630,N,08007.8421,W,1,9,1.4,21,"
"##MN+00 00 51 0497 01986 5273 441040 348601 196"
"156.019271"
"$GPGGA,002742,2514.7640,N,08007.8434,W,1,10,1.4,21"
"##MN+00 00 51 0498 01985 5274 441016 348603 198"
"156.019317"
"$GPGGA,002746,2514.7652,N,08007.8444,W,1,9,1.4,21,"
"##MN-00 00 58 0499 01984 5274 441006 348603 200"
"156.019363"
"$GPGGA,002750,2514.7665,N,08007.8455,W,1,9,1.6,21,"
"##MN-00 00 52 0500 01986 5275 441027 348602 200"
"156.01941"
"$GPGGA,002754,2514.7679,N,08007.8465,W,1,9,1.6,21,"
"##MN-00 00 51 0501 01981 5275 441046 348602 200"
"156.019456"
"$GPGGA,002758,2514.7688,N,08007.8475,W,1,9,1.6,21,"
"##MN+00 00 50 0502 01976 5275 441061 348604 200"
"156.019502"
"$GPGGA,002802,2514.7699,N,08007.8486,W,1,9,1.6,20,"
"##MN+00 00 54 0503 01977 5276 441054 348605 196"
"156.019549"
"$GPGGA,002806,2514.7710,N,08007.8497,W,1,9,1.6,20,"
"##MN+00 00 51 0504 01977 5276 441010 348609 198"
"156.019595"
"$GPGGA,002810,2514.7721,N,08007.8506,W,1,9,1.6,20,"
"##MN-00 00 50 0505 01981 5276 441001 348611 197"
"156.019641"
"$GPGGA,002814,2514.7731,N,08007.8515,W,1,9,1.6,19,"
"##MN-00 00 50 0506 01980 5277 441033 348609 196"
"156.019687"
"$GPGGA,002818,2514.7742,N,08007.8522,W,1,9,1.6,19,"
"##MN-00 00 49 0507 01978 5277 441008 348613 195"
"156.019734"
"$GPGGA,002822,2514.7753,N,08007.8531,W,1,9,1.6,19,"
"##MN-00 00 50 0508 01976 5277 441009 348611 196"
"156.01978"
"#increment_net"
"$GPGGA,002826,2514.7764,N,08007.8538,W,1,9,2.2,19,"
"##MN-00 00 51 0509 01978 5278 441012 348609 198"
"156.019826"
"$GPGGA,002830,2514.7774,N,08007.8548,W,1,9,1.6,19,"
"##MN-00 00 50 0510 01980 5278 441017 348608 199"
"156.019873"
"$GPGGA,002834,2514.7784,N,08007.8555,W,1,9,1.6,19,"
"##MN-00 00 50 0511 01982 5278 441059 348606 198"
"156.019919"
"$GPGGA,002838,2514.7795,N,08007.8563,W,1,9,1.6,18,"
"##MN-00 00 50 0512 01979 5279 441065 348605 198"
"156.019965"
"$GPGGA,002842,2514.7804,N,08007.8573,W,1,8,1.6,18,"
"##MN-00 00 51 0513 01978 5279 441061 348606 198"
"156.020012"
"$GPGGA,002846,2514.7816,N,08007.8582,W,1,9,1.6,18,"
"##MN-00 00 52 0514 01977 5280 441039 348609 199"
"156.020058"
"$GPGGA,002850,2514.7827,N,08007.8591,W,1,9,1.6,18,"
"##MN-00 00 50 0515 01977 5280 441030 348609 199"
"156.020104"
"$GPGGA,002854,2514.7838,N,08007.8602,W,1,9,1.6,18,"
"##MN-00 00 50 0516 01976 5280 441027 348610 198"
"156.02015"
"$GPGGA,002858,2514.7847,N,08007.8613,W,1,9,1.6,18,"
"##MN-00 00 51 0517 01975 5281 441030 348610 199"
"156.020197"
"$GPGGA,002902,2514.7858,N,08007.8621,W,1,9,1.6,18,"
"##MN-00 00 51 0518 01973 5281 441043 348608 199"
"156.020243"
"$GPGGA,002906,2514.7868,N,08007.8632,W,1,9,1.6,18,"
"##MN-00 00 52 0519 01976 5281 441052 348607 199"
"156.020289"
"$GPGGA,002910,2514.7879,N,08007.8642,W,1,9,1.6,18,"
"##MN-00 00 51 0520 01975 5282 441047 348608 198"
"156.020336"
"$GPGGA,002914,2514.7892,N,08007.8652,W,1,9,1.6,18,"
"##MN-00 00 51 0521 01975 5282 441043 348608 199"
"156.020382"
"$GPGGA,002918,2514.7901,N,08007.8663,W,1,9,1.6,18,"
"##MN-00 00 51 0521 01976 5282 441040 348610 198"
"156.020428"
"$GPGGA,002922,2514.7914,N,08007.8674,W,1,9,1.6,18,"
"##MN-00 00 52 0522 01974 5283 441061 348610 199"
"156.020475"
"$GPGGA,002926,2514.7923,N,08007.8685,W,1,9,1.6,18,"
"##MN-00 00 52 0523 01976 5283 441080 348608 199"
"156.020521"
"$GPGGA,002930,2514.7933,N,08007.8693,W,1,9,1.6,18,"
"##MN-00 00 51 0524 01976 5284 441088 348610 198"
"156.020567"
"$GPGGA,002934,2514.7939,N,08007.8697,W,1,9,1.6,18,"
"##MN-00 00 49 0525 01977 5284 441073 348611 198"
"156.020613"
"$GPGGA,002938,2514.7948,N,08007.8707,W,1,9,1.6,18,"
"##MN-00 00 51 0526 01975 5284 441093 348609 198"
"156.02066"
"$GPGGA,002942,2514.7961,N,08007.8715,W,1,9,1.6,18,"
"##MN-00 00 51 0527 01976 5284 441086 348612 198"
"156.020706"
"$GPGGA,002946,2514.7973,N,08007.8725,W,1,9,1.6,18,"
"##MN-00 00 52 0528 01977 5285 441079 348613 198"
"156.020752"
"$GPGGA,002950,2514.7981,N,08007.8735,W,1,9,1.6,19,"
"##MN-00 00 51 0529 01979 5285 441084 348611 198"
"156.020799"
"$GPGGA,002954,2514.7992,N,08007.8743,W,1,9,1.6,19,"
"##MN-00 00 49 0530 01975 5285 441096 348609 198"
"156.020845"
"$GPGGA,002958,2514.8002,N,08007.8754,W,1,9,1.6,19,"
"##MN-00 00 53 0531 01972 5286 441089 348612 198"
"156.020891"
"$GPGGA,003002,2514.8012,N,08007.8764,W,1,9,1.6,19,"
"##MN-00 00 53 0532 01974 5286 441096 348611 198"
"156.020937"
"$GPGGA,003006,2514.8022,N,08007.8773,W,1,9,1.6,19,"
"##MN-00 00 52 0533 01973 5286 441101 348610 198"
"156.020984"
"$GPGGA,003010,2514.8031,N,08007.8782,W,1,8,1.6,19,"
"##MN+00 00 51 0534 01976 5287 441100 348613 199"
"156.02103"
"$GPGGA,003014,2514.8042,N,08007.8790,W,1,9,1.6,19,"
"##MN+00 00 51 0535 01976 5287 441080 348618 199"
"156.021076"
"$GPGGA,003019,2514.8053,N,08007.8801,W,1,9,1.6,19,"
"##MN+00 00 51 0536 01974 5288 441063 348622 200"
"156.021123"
"$GPGGA,003022,2514.8063,N,08007.8808,W,1,8,1.6,19,"
"##MN-00 00 61 0537 01977 5288 441091 348618 200"
"156.021169"
"$GPGGA,003027,2514.8078,N,08007.8822,W,1,9,1.6,19,"
"##MN-00 00 62 0538 01974 5288 441099 348616 200"
"156.021215"
"$GPGGA,003031,2514.8089,N,08007.8833,W,1,9,1.6,19,"
"##MN-00 00 57 0539 01978 5288 441096 348618 200"
"156.021262"
"#increment_net"
"$GPGGA,003034,2514.8098,N,08007.8840,W,1,9,1.6,19,"
"##MN+00 00 54 0540 01987 5289 441104 348613 200"
"156.021308"
"$GPGGA,003039,2514.8109,N,08007.8851,W,1,9,1.6,19,"
"##MN+00 00 52 0541 01991 5289 441117 348611 199"
"156.021354"
"$GPGGA,003042,2514.8116,N,08007.8858,W,1,9,1.6,19,"
"##MN+00 00 50 0543 01998 5289 441131 348608 198"
"156.0214"
"$GPGGA,003047,2514.8128,N,08007.8870,W,1,9,1.6,18,"
"##MN-00 00 49 0544 02000 5290 441120 348611 200"
"156.021447"
"$GPGGA,003051,2514.8136,N,08007.8880,W,1,9,1.6,18,"
"##MN-00 00 48 0545 02004 5290 441119 348609 200"
"156.021493"
"$GPGGA,003055,2514.8143,N,08007.8889,W,1,9,1.6,18,"
"##MN-00 00 51 0546 02004 5291 441129 348602 200"
"156.021551"
"$GPGGA,003059,2514.8147,N,08007.8895,W,1,9,1.6,18,"
"##MN-00 00 49 0547 02008 5291 441122 348609 200"
"156.021597"
"$GPGGA,003103,2514.8154,N,08007.8905,W,1,9,1.6,18,"
"##MN-00 00 49 0549 02003 5291 441128 348607 200"
"156.021644"
"$GPGGA,003107,2514.8165,N,08007.8916,W,1,9,1.6,18,"
"##MN-00 00 47 0550 01998 5291 441141 348602 200"
"156.02169"
"$GPGGA,003111,2514.8178,N,08007.8930,W,1,9,1.6,18,"
"##MN-00 00 49 0551 01988 5292 441146 348603 200"
"156.021736"
"$GPGGA,003115,2514.8186,N,08007.8941,W,1,9,1.6,18,"
"##MN-00 00 49 0552 01984 5292 441148 348604 200"
"156.021782"
"$GPGGA,003119,2514.8197,N,08007.8952,W,1,9,1.6,18,"
"##MN-00 00 52 0554 01972 5292 441145 348608 200"
"156.021829"
"$GPGGA,003123,2514.8207,N,08007.8963,W,1,9,1.6,18,"
"##MN-00 00 49 0555 01970 5292 441146 348611 200"
"156.021875"
"$GPGGA,003127,2514.8215,N,08007.8974,W,1,9,1.6,18,"
"##MN-00 00 48 0556 01960 5292 441144 348614 200"
"156.021921"
"$GPGGA,003131,2514.8225,N,08007.8983,W,1,9,1.6,18,"
"##MN-00 00 46 0558 01957 5293 441139 348623 200"
"156.021968"
"$GPGGA,003135,2514.8232,N,08007.8993,W,1,9,1.6,18,"
"##MN-00 00 49 0559 01947 5293 441144 348631 200"
"156.022014"
"$GPGGA,003139,2514.8241,N,08007.9004,W,1,9,1.6,17,"
"##MN-00 00 49 0560 01941 5293 441161 348642 200"
"156.02206"
"$GPGGA,003143,2514.8248,N,08007.9017,W,1,9,1.6,17,"
"##MN-00 00 52 0562 01931 5294 441157 348760 200"
"156.022106"
"$GPGGA,003147,2514.8257,N,08007.9028,W,1,9,1.6,17,"
"##MN-00 00 50 0563 01926 5294 441166 348887 200"
"156.022153"
"$GPGGA,003151,2514.8262,N,08007.9039,W,1,8,1.6,17,"
"##MN-00 00 50 0564 01914 5294 441175 348729 200"
"156.022199"
"$GPGGA,003155,2514.8266,N,08007.9050,W,1,9,1.6,17,"
"##MN-00 00 53 0566 01906 5295 441191 348743 200"
"156.022245"
"$GPGGA,003159,2514.8272,N,08007.9061,W,1,9,1.6,18,"
"##MN-00 00 49 0567 01900 5295 441214 348776 200"
"156.022292"
"$GPGGA,003203,2514.8279,N,08007.9075,W,1,9,1.6,18,"
"##MN-00 00 51 0569 01895 5295 441199 348781 200"
"156.022338"
"$GPGGA,003207,2514.8284,N,08007.9087,W,1,9,1.6,18,"
"##MN-00 00 51 0570 01887 5296 441195 348784 200"
"156.022384"
"$GPGGA,003211,2514.8290,N,08007.9104,W,1,9,1.6,18,"
"##MN-00 00 54 0571 01880 5296 441228 348876 200"
"156.022431"
"$GPGGA,003215,2514.8295,N,08007.9120,W,1,9,1.6,18,"
"##MN-00 00 54 0573 01872 5296 441246 348715 200"
"156.022477"
"$GPGGA,003219,2514.8298,N,08007.9138,W,1,9,1.6,18,"
"##MN-00 00 59 0574 01867 5296 441227 348707 200"
"156.022523"
"$GPGGA,003223,2514.8301,N,08007.9156,W,1,9,1.6,18,"
"##MN-00 00 63 0576 01863 5297 441246 348714 200"
"156.022569"
"$GPGGA,003227,2514.8304,N,08007.9174,W,1,9,1.6,18,"
"##MN-00 00 63 0578 01864 5297 441272 348723 200"
"156.022616"
"$GPGGA,003231,2514.8308,N,08007.9192,W,1,9,1.6,18,"
"##MN-00 00 61 0579 01863 5297 441283 348967 200"
"156.022662"
"$GPGGA,003235,2514.8308,N,08007.9212,W,1,9,1.6,18,"
"##MN-00 00 60 0580 01863 5298 441354 440146 200"
"156.022708"
"$GPGGA,003239,2514.8311,N,08007.9230,W,1,9,1.6,18,"
"##MN-00 00 78 0580 01862 5299 442504 487148 200"
"156.022755"
"$GPGGA,003243,2514.8312,N,08007.9249,W,1,9,1.6,18,"
"##MN-00 00 73 0580 01863 5299 452271 875942 200"
"156.022801"
"$GPGGA,003247,2514.8313,N,08007.9267,W,1,9,1.6,18,"
"##MN-00 00 62 0580 01863 5299 461912 925177 200"
"156.022847"
"$GPGGA,003251,2514.8313,N,08007.9286,W,1,9,1.6,18,"
"##MN-00 00 58 0580 01863 5299 467151 925295 200"
"156.022894"
"$GPGGA,003255,2514.8315,N,08007.9306,W,1,9,1.6,18,"
"##MN-00 00 42 0580 01863 5299 473445 925338 200"
"156.02294"
"$GPGGA,003259,2514.8314,N,08007.9324,W,1,9,1.6,18,"
"##MN-00 00 48 0580 01863 5299 475525 925345 200"
"156.022986"
"$GPGGA,003303,2514.8317,N,08007.9346,W,1,9,1.6,18,"
"##MN-00 00 42 0580 01862 5299 477503 925347 200"
"156.023032"
"$GPGGA,003307,2514.8315,N,08007.9365,W,1,9,1.6,18,"
"##MN-00 00 44 0581 01862 5299 478074 925349 200"
"156.023079"
"$GPGGA,003311,2514.8313,N,08007.9384,W,1,9,1.6,18,"
"##MN-00 00 53 0581 01863 5299 478348 925351 200"
"156.023125"
"$GPGGA,003315,2514.8313,N,08007.9404,W,1,9,1.6,18,"
"##MN-00 00 56 0581 01863 5300 477331 925353 200"
"156.023171"
"$GPGGA,003319,2514.8313,N,08007.9426,W,1,9,1.6,18,"
"##MN-00 00 37 0581 01862 5300 475336 925354 200"
"156.023218"
"$GPGGA,003323,2514.8311,N,08007.9444,W,1,9,1.6,18,"
"##MN-00 00 49 0582 01861 5300 475476 925356 200"
"156.023264"
"$GPGGA,003327,2514.8313,N,08007.9462,W,1,9,1.6,18,"
"##MN-00 00 48 0582 01863 5301 477363 925350 200"
"156.02331"
"$GPGGA,003331,2514.8311,N,08007.9480,W,1,8,1.6,18,"
"##MN-00 00 40 0582 01862 5301 478414 925351 200"
"156.023356"
"$GPGGA,003335,2514.8312,N,08007.9498,W,1,9,1.6,19,"
"##MN-00 00 33 0582 01860 5301 478720 925353 200"
"156.023403"
"$GPGGA,003339,2514.8313,N,08007.9514,W,1,9,1.6,18,"
"##MN-00 00 38 0582 01861 5302 478038 925353 200"
"156.023449"
"$GPGGA,003343,2514.8313,N,08007.9532,W,1,9,1.6,18,"
"##MN-00 00 40 0583 01862 5302 476880 925356 200"
"156.023495"
"$GPGGA,003347,2514.8313,N,08007.9550,W,1,9,1.6,18,"
"##MN-00 00 47 0584 01862 5302 479520 925356 200"
"156.023542"
"$GPGGA,003351,2514.8315,N,08007.9570,W,1,9,1.6,18,"
"##MN-00 00 48 0585 01861 5302 480434 925358 200"
"156.023588"
"$GPGGA,003355,2514.8314,N,08007.9590,W,1,9,1.6,18,"
"##MN-00 00 52 0585 01862 5303 479758 925359 200"
"156.023634"
"$GPGGA,003359,2514.8315,N,08007.9611,W,1,9,1.6,18,"
"##MN-00 00 54 0585 01863 5303 479021 925361 200"
"156.023681"
"$GPGGA,003403,2514.8316,N,08007.9632,W,1,9,1.6,17,"
"##MN-00 00 53 0585 01861 5303 477408 925362 200"
"156.023727"
"$GPGGA,003407,2514.8316,N,08007.9651,W,1,9,1.6,17,"
"##MN-00 00 53 0586 01862 5303 478587 925362 200"
"156.023773"
"$GPGGA,003411,2514.8315,N,08007.9671,W,1,9,1.6,17,"
"##MN-00 00 55 0586 01862 5304 478046 925363 200"
"156.023819"
"$GPGGA,003415,2514.8316,N,08007.9693,W,1,8,1.6,17,"
"##MN-00 00 57 0586 01862 5304 477724 925364 200"
"156.023866"
"$GPGGA,003419,2514.8317,N,08007.9714,W,1,9,1.6,17,"
"##MN-00 00 75 0586 01862 5304 477307 925366 200"
"156.023912"
"$GPGGA,003423,2514.8320,N,08007.9734,W,1,9,1.6,16,"
"##MN-00 00 86 0586 01864 5304 476581 925368 200"
"156.023958"
"$GPGGA,003427,2514.8320,N,08007.9754,W,1,8,1.6,16,"
"##MN-00 00 90 0586 01862 5304 475806 925371 200"
"156.024005"
"$GPGGA,003431,2514.8317,N,08007.9770,W,1,9,1.6,16,"
"##MN-00 00 90 0586 01860 5305 474274 925371 200"
"156.024051"
"$GPGGA,003435,2514.8315,N,08007.9790,W,1,9,1.6,16,"
"##MN-00 00 90 0586 01860 5305 474092 925372 200"
"156.024097"
"$GPGGA,003439,2514.8313,N,08007.9806,W,1,8,1.6,17,"
"##MN-00 00 90 0586 01861 5306 473843 925372 200"
"156.024144"
"$GPGGA,003443,2514.8313,N,08007.9826,W,1,9,1.6,17,"
"##MN-00 00 90 0586 01864 5305 474331 925374 200"
"156.02419"
"$GPGGA,003448,2514.8309,N,08007.9849,W,1,9,1.6,17,"
"##MN-00 00 90 0586 01863 5305 475457 925374 200"
"156.024236"
"$GPGGA,003451,2514.8307,N,08007.9863,W,1,9,1.6,17,"
"##MN-00 00 90 0586 01862 5306 476008 925374 200"
"156.024282"
"$GPGGA,003455,2514.8306,N,08007.9884,W,1,9,1.6,17,"
"##MN-00 00 90 0586 01862 5306 476828 925375 200"
"156.024329"
"$GPGGA,003459,2514.8302,N,08007.9902,W,1,8,1.6,17,"
"##MN-00 00 90 0586 01860 5306 477068 925375 200"
"156.024375"
"$GPGGA,003503,2514.8302,N,08007.9921,W,1,9,1.6,18,"
"##MN-00 00 90 0586 01862 5306 477017 925375 200"
"156.024421"
"$GPGGA,003508,2514.8300,N,08007.9944,W,1,9,1.6,18,"
"##MN-00 00 90 0586 01863 5306 476600 925377 200"
"156.024468"
"$GPGGA,003511,2514.8300,N,08007.9960,W,1,9,1.6,18,"
"##MN-00 00 90 0586 01863 5307 476127 925377 200"
"156.024514"
"$GPGGA,003516,2514.8302,N,08007.9989,W,1,9,1.6,18,"
"##MN-00 00 90 0586 01862 5307 475354 925378 200"
"156.02456"
"$GPGGA,003519,2514.8300,N,08008.0004,W,1,9,1.6,18,"
"##MN-00 00 90 0586 01862 5307 474554 925378 200"
"156.024606"
"$GPGGA,003524,2514.8297,N,08008.0030,W,1,9,1.6,17,"
"##MN-00 00 90 0586 01862 5307 474408 925378 200"
"156.024653"
"$GPGGA,003528,2514.8296,N,08008.0047,W,1,9,1.6,17,"
"##MN-00 00 90 0586 01863 5307 474333 925378 200"
"156.024711"
"$GPGGA,003532,2514.8295,N,08008.0072,W,1,9,1.6,17,"
"##MN-00 00 90 0586 01862 5307 474141 925379 200"
"156.024757"
"$GPGGA,003536,2514.8291,N,08008.0094,W,1,9,1.6,17,"
"##MN-00 00 90 0586 01861 5307 473793 925379 200"
"156.024803"
"$GPGGA,003540,2514.8291,N,08008.0116,W,1,9,1.6,17,"
"##MN-00 00 90 0586 01862 5307 473494 925380 200"
"156.02485"
"$GPGGA,003544,2514.8288,N,08008.0137,W,1,9,1.6,17,"
"##MN-00 00 90 0586 01862 5307 472906 925379 200"
"156.024896"
"$GPGGA,003548,2514.8287,N,08008.0159,W,1,8,1.6,17,"
"##MN-00 00 90 0586 01862 5307 472185 925380 200"
"156.024942"
"$GPGGA,003552,2514.8286,N,08008.0178,W,1,9,1.6,17,"
"##MN-00 00 90 0586 01863 5307 471752 925379 200"
"156.024988"
"$GPGGA,003556,2514.8284,N,08008.0199,W,1,9,1.6,17,"
"##MN-00 00 88 0586 01862 5308 473252 925378 200"
"156.025035"
"$GPGGA,003600,2514.8279,N,08008.0220,W,1,9,1.6,17,"
"##MN-00 00 82 0586 01865 5308 474566 925378 200"
"156.025081"
"$GPGGA,003604,2514.8278,N,08008.0242,W,1,9,1.6,17,"
"##MN-00 00 82 0586 01862 5308 474712 925379 200"
"156.025127"
"$GPGGA,003608,2514.8275,N,08008.0261,W,1,9,1.6,16,"
"##MN-00 00 90 0586 01863 5308 474371 925379 200"
"156.025174"
"$GPGGA,003612,2514.8273,N,08008.0282,W,1,9,1.6,16,"
"##MN-00 00 90 0586 01863 5308 473916 925378 200"
"156.02522"
"$GPGGA,003616,2514.8268,N,08008.0303,W,1,9,1.6,16,"
"##MN-00 00 90 0586 01862 5308 473705 925379 200"
"156.025266"
"$GPGGA,003620,2514.8266,N,08008.0323,W,1,9,1.6,16,"
"##MN-00 00 90 0586 01862 5308 474305 925378 200"
"156.025313"
"$GPGGA,003624,2514.8262,N,08008.0343,W,1,9,1.6,16,"
"##MN-00 00 90 0586 01864 5308 474696 925378 200"
"156.025359"
"$GPGGA,003628,2514.8259,N,08008.0362,W,1,9,1.6,16,"
"##MN-00 00 90 0586 01863 5307 474814 925379 200"
"156.025405"
"$GPGGA,003632,2514.8257,N,08008.0383,W,1,9,1.6,16,"
"##MN-00 00 90 0586 01861 5308 474327 925380 200"
"156.025451"
"$GPGGA,003636,2514.8255,N,08008.0405,W,1,9,1.6,16,"
"##MN-00 00 90 0586 01862 5308 474076 925380 200"
"156.025498"
"$GPGGA,003640,2514.8255,N,08008.0426,W,1,9,1.6,16,"
"##MN-00 00 90 0586 01863 5308 473562 925380 200"
"156.025544"
"$GPGGA,003644,2514.8251,N,08008.0448,W,1,9,1.6,16,"
"##MN-00 00 90 0586 01862 5308 472797 925379 200"
"156.02559"
"$GPGGA,003648,2514.8248,N,08008.0466,W,1,9,2.1,16,"
"##MN-00 00 90 0586 01861 5308 471300 925380 200"
"156.025637"
"$GPGGA,003652,2514.8243,N,08008.0484,W,1,9,1.6,16,"
"##MN-00 00 90 0586 01863 5307 471307 925380 200"
"156.025683"
"$GPGGA,003656,2514.8238,N,08008.0502,W,1,9,1.6,16,"
"##MN-00 00 90 0586 01861 5308 471188 925381 200"
"156.025729"
"$GPGGA,003700,2514.8236,N,08008.0520,W,1,9,1.6,17,"
"##MN-00 00 90 0586 01860 5308 471590 925381 200"
"156.025775"
"$GPGGA,003704,2514.8233,N,08008.0539,W,1,9,1.6,17,"
"##MN-00 00 90 0586 01861 5308 471243 925381 200"
"156.025822"
"$GPGGA,003708,2514.8233,N,08008.0560,W,1,9,1.6,17,"
"##MN-00 00 90 0586 01863 5308 470592 925381 200"
"156.025868"
"$GPGGA,003712,2514.8228,N,08008.0579,W,1,9,1.6,18,"
"##MN-00 00 90 0586 01862 5307 470413 925381 200"
"156.025914"
"$GPGGA,003716,2514.8226,N,08008.0600,W,1,9,1.6,18,"
"##MN-00 00 90 0586 01862 5307 470445 925381 200"
"156.025961"
"$GPGGA,003720,2514.8225,N,08008.0619,W,1,9,1.6,18,"
"##MN-00 00 90 0586 01863 5307 470269 925381 200"
"156.026007"
"$GPGGA,003724,2514.8220,N,08008.0639,W,1,9,1.6,18,"
"##MN-00 00 90 0586 01860 5307 469840 925381 200"
"156.026053"
"$GPGGA,003728,2514.8219,N,08008.0659,W,1,9,1.6,18,"
"##MN-00 00 90 0586 01861 5307 470075 925381 200"
"156.0261"
"$GPGGA,003732,2514.8215,N,08008.0680,W,1,9,1.6,18,"
"##MN-00 00 90 0586 01862 5307 470379 925381 200"
"156.026146"
"$GPGGA,003736,2514.8213,N,08008.0702,W,1,9,1.6,18,"
"##MN-00 00 90 0586 01863 5307 471384 925382 200"
"156.026192"
"$GPGGA,003740,2514.8210,N,08008.0724,W,1,9,1.6,18,"
"##MN-00 00 90 0586 01860 5307 471878 925382 200"
"156.026238"
"$GPGGA,003744,2514.8206,N,08008.0745,W,1,9,1.6,19,"
"##MN-00 00 90 0586 01862 5307 472231 925382 200"
"156.026285"
"$GPGGA,003748,2514.8203,N,08008.0766,W,1,9,1.6,19,"
"##MN-00 00 90 0586 01862 5307 472575 925382 200"
"156.026331"
"$GPGGA,003752,2514.8201,N,08008.0788,W,1,9,1.6,19,"
"##MN-00 00 90 0586 01861 5307 473102 925382 200"
"156.026377"
"$GPGGA,003756,2514.8201,N,08008.0809,W,1,9,1.6,19,"
"##MN-00 00 90 0586 01861 5306 473387 925382 200"
"156.026424"
"$GPGGA,003800,2514.8204,N,08008.0824,W,1,9,1.6,19,"
"##MN-00 00 90 0586 01860 5306 473065 925382 200"
"156.02647"
"$GPGGA,003804,2514.8204,N,08008.0838,W,1,9,1.6,19,"
"##MN-00 00 90 0586 01864 5306 472354 925382 200"
"156.026516"
"$GPGGA,003808,2514.8208,N,08008.0849,W,1,8,1.6,19,"
"##MN-00 00 90 0586 01861 5306 472131 925382 200"
"156.026562"
"$GPGGA,003812,2514.8215,N,08008.0860,W,1,9,1.6,19,"
"##MN-00 00 90 0586 01864 5306 471912 925382 200"
"156.026609"
"$GPGGA,003816,2514.8222,N,08008.0871,W,1,8,1.6,19,"
"##MN-00 00 90 0586 01864 5306 471583 925382 200"
"156.026655"
"$GPGGA,003820,2514.8230,N,08008.0881,W,1,9,1.6,19,"
"##MN-00 00 90 0586 01861 5306 471758 925382 200"
"156.026701"
"$GPGGA,003824,2514.8239,N,08008.0887,W,1,9,1.6,19,"
"##MN-00 00 90 0586 01861 5306 471962 925382 200"
"156.026748"
"$GPGGA,003828,2514.8247,N,08008.0894,W,1,9,1.6,20,"
"##MN-00 00 90 0586 01861 5305 472446 925383 200"
"156.026794"
"$GPGGA,003832,2514.8255,N,08008.0900,W,1,9,1.6,20,"
"##MN-00 00 90 0586 01862 5305 473152 925383 200"
"156.02684"
"$GPGGA,003836,2514.8265,N,08008.0904,W,1,9,1.6,21,"
"##MN-00 00 90 0586 01862 5305 474027 925383 200"
"156.026887"
"$GPGGA,003840,2514.8275,N,08008.0910,W,1,9,1.7,21,"
"##MN-00 00 90 0586 01862 5305 474266 925383 200"
"156.026933"
"$GPGGA,003844,2514.8284,N,08008.0912,W,1,9,1.6,21,"
"##MN-00 00 90 0586 01864 5305 474308 925383 200"
"156.026979"
"$GPGGA,003848,2514.8295,N,08008.0914,W,1,8,1.7,22,"
"##MN-00 00 90 0586 01863 5304 473442 925383 200"
"156.027025"
"$GPGGA,003852,2514.8302,N,08008.0911,W,1,8,1.7,22,"
"##MN-00 00 90 0586 01863 5304 472904 925383 200"
"156.027072"
"$GPGGA,003856,2514.8311,N,08008.0911,W,1,7,2.0,22,"
"##MN-00 00 90 0586 01862 5304 472344 925383 200"
"156.027118"
"$GPGGA,003900,2514.8323,N,08008.0910,W,1,8,1.7,22,"
"##MN-00 00 90 0586 01862 5304 471983 925383 200"
"156.027164"
"$GPGGA,003904,2514.8334,N,08008.0910,W,1,8,2.0,22,"
"##MN-00 00 90 0586 01862 5304 471729 925384 200"
"156.027211"
"$GPGGA,003908,2514.8349,N,08008.0910,W,1,8,1.7,22,"
"##MN-00 00 90 0586 01862 5304 471416 925384 200"
"156.027257"
"$GPGGA,003912,2514.8360,N,08008.0906,W,1,8,1.7,22,"
"##MN-00 00 90 0586 01862 5303 471500 925384 200"
"156.027303"
"$GPGGA,003916,2514.8371,N,08008.0901,W,1,7,1.7,22,"
"##MN-00 00 90 0586 01863 5303 471237 925383 200"
"156.02735"
"$GPGGA,003920,2514.8382,N,08008.0895,W,1,7,1.7,22,"
"##MN-00 00 90 0586 01862 5303 470775 925384 200"
"156.027396"
"$GPGGA,003925,2514.8405,N,08008.0893,W,1,8,1.7,22,"
"##MN-00 00 90 0586 01863 5303 470141 925384 200"
"156.027442"
"$GPGGA,003928,2514.8414,N,08008.0889,W,1,8,2.0,22,"
"##MN-00 00 90 0586 01862 5303 469464 925384 200"
"156.027488"
"$GPGGA,003933,2514.8428,N,08008.0883,W,1,8,1.7,22,"
"##MN-00 00 90 0586 01861 5302 469345 925384 200"
"156.027535"
"$GPGGA,003936,2514.8439,N,08008.0878,W,1,8,1.7,22,"
"##MN-00 00 90 0586 01862 5302 469157 925384 200"
"156.027581"
"$GPGGA,003941,2514.8457,N,08008.0872,W,1,8,1.7,22,"
"##MN-00 00 90 0586 01863 5302 469098 925384 200"
"156.027627"
"$GPGGA,003944,2514.8468,N,08008.0867,W,1,8,1.7,22,"
"##MN-00 00 90 0586 01863 5302 469314 925383 200"
"156.027674"
"$GPGGA,003948,2514.8485,N,08008.0863,W,1,8,1.7,21,"
"##MN-00 00 90 0586 01863 5301 469429 925384 200"
"156.02772"
"$GPGGA,003953,2514.8504,N,08008.0861,W,1,8,1.7,21,"
"##MN-00 00 90 0586 01861 5301 469635 925384 200"
"156.027766"
"$GPGGA,003957,2514.8522,N,08008.0858,W,1,8,1.7,21,"
"##MN-00 00 90 0586 01860 5301 469585 925384 200"
"156.027813"
"$GPGGA,004000,2514.8533,N,08008.0856,W,1,8,1.7,21,"
"##MN-00 00 90 0586 01866 5301 469102 925384 200"
"156.027859"
"$GPGGA,004005,2514.8555,N,08008.0854,W,1,8,1.7,21,"
"##MN-00 00 90 0586 01862 5300 468990 925383 200"
"156.027917"
"$GPGGA,004009,2514.8573,N,08008.0852,W,1,8,1.7,20,"
"##MN-00 00 90 0586 01862 5300 469208 925383 200"
"156.027963"
"$GPGGA,004013,2514.8588,N,08008.0851,W,1,8,1.7,20,"
"##MN-00 00 90 0586 01861 5300 469506 925384 200"
"156.028009"
"$GPGGA,004017,2514.8608,N,08008.0852,W,1,8,1.7,20,"
"##MN-00 00 90 0586 01862 5299 469536 925384 200"
"156.028056"
"$GPGGA,004021,2514.8627,N,08008.0854,W,1,8,1.7,20,"
"##MN-00 00 90 0586 01863 5299 469717 925384 200"
"156.028102"
"$GPGGA,004025,2514.8645,N,08008.0855,W,1,8,1.7,20,"
"##MN-00 00 90 0586 01862 5299 469854 925384 200"
"156.028148"
"$GPGGA,004029,2514.8665,N,08008.0856,W,1,8,1.7,20,"
"##MN-00 00 90 0586 01863 5298 469731 925384 200"
"156.028194"
"$GPGGA,004033,2514.8684,N,08008.0854,W,1,8,1.7,20,"
"##MN-00 00 90 0586 01862 5298 469382 925383 200"
"156.028241"
"$GPGGA,004037,2514.8700,N,08008.0854,W,1,8,1.7,20,"
"##MN-00 00 90 0586 01862 5298 469133 925384 200"
"156.028287"
"$GPGGA,004041,2514.8714,N,08008.0850,W,1,8,1.7,20,"
"##MN-00 00 90 0586 01862 5298 469169 925384 200"
"156.028333"
"$GPGGA,004045,2514.8724,N,08008.0841,W,1,8,1.7,20,"
"##MN-00 00 90 0586 01864 5297 469218 925385 200"
"156.02838"
"$GPGGA,004049,2514.8728,N,08008.0831,W,1,8,1.7,20,"
"##MN-00 00 90 0586 01863 5297 469175 925383 200"
"156.028426"
"$GPGGA,004053,2514.8732,N,08008.0814,W,1,8,1.7,20,"
"##MN-00 00 90 0586 01861 5297 469069 925384 200"
"156.028472"
"$GPGGA,004057,2514.8736,N,08008.0792,W,1,8,1.7,20,"
"##MN-00 00 90 0586 01862 5296 468912 925384 200"
"156.028519"
"$GPGGA,004101,2514.8735,N,08008.0762,W,1,8,1.7,20,"
"##MN-00 00 90 0586 01863 5296 468503 925384 200"
"156.028565"
"$GPGGA,004105,2514.8738,N,08008.0729,W,1,8,1.7,20,"
"##MN-00 00 90 0586 01862 5296 468126 925384 200"
"156.028611"
"$GPGGA,004109,2514.8745,N,08008.0694,W,1,8,1.7,20,"
"##MN-00 00 90 0586 01862 5295 467927 925384 200"
"156.028657"
"$GPGGA,004113,2514.8753,N,08008.0661,W,1,8,1.7,21,"
"##MN-00 00 90 0586 01863 5295 467642 925383 200"
"156.028704"
"$GPGGA,004117,2514.8770,N,08008.0626,W,1,8,1.7,22,"
"##MN-00 00 90 0586 01862 5295 467613 925384 200"
"156.02875"
"$GPGGA,004121,2514.8793,N,08008.0587,W,1,8,1.7,23,"
"##MN-00 00 90 0586 01865 5294 467683 925384 200"
"156.028796"
"$GPGGA,004125,2514.8825,N,08008.0549,W,1,8,1.7,23,"
"##MN-00 00 90 0586 01863 5294 468064 925384 200"
"156.028843"
"$GPGGA,004129,2514.8861,N,08008.0513,W,1,8,1.7,24,"
"##MN-00 00 90 0586 01862 5293 468365 925384 200"
"156.028889"
"$GPGGA,004133,2514.8902,N,08008.0478,W,1,8,1.7,25,"
"##MN-00 00 90 0586 01863 5293 468729 925384 200"
"156.028935"
"$GPGGA,004137,2514.8945,N,08008.0448,W,1,8,1.7,25,"
"##MN-00 00 90 0586 01863 5293 468764 925383 200"
"156.028981"
"$GPGGA,004141,2514.8998,N,08008.0422,W,1,8,1.7,25,"
"##MN-00 00 90 0586 01862 5293 468995 925384 200"
"156.029028"
"$GPGGA,004145,2514.9054,N,08008.0396,W,1,8,1.7,25,"
"##MN-00 00 90 0586 01862 5292 468963 925384 200"
"156.029074"
"$GPGGA,004149,2514.9117,N,08008.0369,W,1,7,2.1,25,"
"##MN-00 00 90 0586 01864 5292 468699 925383 200"
"156.02912"
"$GPGGA,004153,2514.9186,N,08008.0343,W,1,8,1.7,25,"
"##MN-00 00 90 0586 01862 5291 468422 925384 200"
"156.029167"
"$GPGGA,004157,2514.9259,N,08008.0320,W,1,7,2.1,26,"
"##MN-00 00 90 0586 01862 5291 468687 925384 200"
"156.029213"
"$GPGGA,004201,2514.9343,N,08008.0305,W,1,7,2.1,26,"
"##MN-00 00 90 0586 01860 5291 469137 925384 200"
"156.029259"
"$GPGGA,004205,2514.9433,N,08008.0291,W,1,7,2.1,26,"
"##MN-00 00 90 0586 01863 5290 468970 925384 200"
"156.029306"
"$GPGGA,004209,2514.9526,N,08008.0273,W,1,7,2.1,26,"
"##MN-00 00 90 0586 01862 5290 468881 925383 200"
"156.029352"
"$GPGGA,004213,2514.9621,N,08008.0246,W,1,8,1.7,26,"
"##MN-00 00 90 0586 01862 5290 468971 925383 200"
"156.029398"
"$GPGGA,004217,2514.9722,N,08008.0212,W,1,8,1.7,26,"
"##MN-00 00 90 0586 01862 5289 469034 925383 200"
"156.029444"
"$GPGGA,004221,2514.9830,N,08008.0178,W,1,8,1.7,26,"
"##MN-00 00 90 0586 01863 5289 469359 925384 200"
"156.029491"
"$GPGGA,004225,2514.9939,N,08008.0140,W,1,8,1.7,26,"
"##MN-00 00 90 0586 01862 5288 469521 925384 200"
"156.029537"
"$GPGGA,004229,2515.0047,N,08008.0105,W,1,8,1.7,26,"
"##MN-00 00 90 0586 01863 5288 469778 925384 200"
"156.029583"
"$GPGGA,004233,2515.0161,N,08008.0078,W,1,8,1.7,26,"
"##MN-00 00 90 0586 01863 5288 470138 925385 200"
"156.02963"
"$GPGGA,004237,2515.0275,N,08008.0057,W,1,7,2.1,26,"
"##MN-00 00 90 0586 01863 5287 470110 925384 200"
"156.029676"
"$GPGGA,004241,2515.0392,N,08008.0040,W,1,8,1.7,26,"
"##MN-00 00 90 0586 01863 5287 470173 925384 200"
"156.029722"
"$GPGGA,004245,2515.0506,N,08008.0030,W,1,8,1.7,26,"
"##MN-00 00 90 0586 01861 5287 470168 925384 200"
"156.029769"
"$GPGGA,004249,2515.0620,N,08008.0012,W,1,8,1.7,26,"
"##MN-00 00 90 0586 01863 5286 469945 925383 200"
"156.029815"
"$GPGGA,004253,2515.0733,N,08007.9992,W,1,7,1.7,25,"
"##MN-00 00 90 0586 01863 5286 469805 925384 200"
"156.029861"
"$GPGGA,004257,2515.0849,N,08007.9977,W,1,7,1.7,25,"
"##MN-00 00 90 0586 01864 5285 469735 925384 200"
"156.029907"
"$GPGGA,004301,2515.0961,N,08007.9972,W,1,8,1.7,25,"
"##MN-00 00 90 0586 01863 5285 469380 925384 200"
"156.029954"
"$GPGGA,004305,2515.1073,N,08007.9964,W,1,8,1.7,25,"
"##MN-00 00 90 0586 01863 5285 469295 925383 200"
"156.03"
"$GPGGA,004309,2515.1184,N,08007.9952,W,1,7,1.7,25,"
"##MN-00 00 90 0586 01864 5285 469000 925384 200"
"156.030046"
"$GPGGA,004313,2515.1294,N,08007.9935,W,1,7,2.1,25,"
"##MN-00 00 90 0586 01863 5284 468839 925384 200"
"156.030093"
"$GPGGA,004317,2515.1408,N,08007.9912,W,1,7,1.7,25,"
"##MN-00 00 90 0586 01861 5283 468733 925384 200"
"156.030139"
"$GPGGA,004321,2515.1514,N,08007.9884,W,1,8,1.7,25,"
"##MN-00 00 90 0586 01862 5283 468703 925383 200"
"156.030185"
"$GPGGA,004325,2515.1625,N,08007.9860,W,1,8,1.7,25,"
"##MN-00 00 90 0586 01862 5283 469199 925384 200"
"156.030231"
"$GPGGA,004329,2515.1736,N,08007.9833,W,1,8,1.7,26,"
"##MN-00 00 90 0586 01863 5282 469472 925383 200"
"156.030278"
"$GPGGA,004333,2515.1848,N,08007.9803,W,1,8,1.7,26,"
"##MN-00 00 90 0586 01863 5282 469560 925385 200"
"156.030324"
"$GPGGA,004337,2515.1932,N,08007.9780,W,1,7,2.1,26,"
"##MN-00 00 90 0586 01861 5282 469768 925384 200"
"156.03037"
"$GPGGA,004341,2515.2074,N,08007.9740,W,1,8,1.7,26,"
"##MN-00 00 90 0586 01863 5281 469535 925384 200"
"156.030417"
"$GPGGA,004345,2515.2186,N,08007.9711,W,1,8,1.7,26,"
"##MN-00 00 90 0586 01864 5281 469280 925384 200"
"156.030463"
"$GPGGA,004349,2515.2294,N,08007.9684,W,1,8,1.7,26,"
"##MN-00 00 90 0586 01862 5280 469116 925384 200"
"156.030509"
"$GPGGA,004353,2515.2406,N,08007.9660,W,1,8,1.7,25,"
"##MN-00 00 90 0586 01863 5280 469308 925384 200"
"156.030556"
"$GPGGA,004357,2515.2514,N,08007.9633,W,1,8,1.7,25,"
"##MN-00 00 90 0586 01862 5279 469121 925384 200"
"156.030602"
"$GPGGA,004401,2515.2627,N,08007.9611,W,1,7,2.1,25,"
"##MN-00 00 90 0586 01863 5279 469538 925384 200"
"156.030648"
"$GPGGA,004405,2515.2739,N,08007.9591,W,1,8,1.7,25,"
"##MN-00 00 90 0586 01863 5278 469848 925384 200"
"156.030694"
"$GPGGA,004410,2515.2878,N,08007.9560,W,1,8,2.1,25,"
"##MN-00 00 90 0586 01862 5278 469693 925384 200"
"156.030741"
"$GPGGA,004413,2515.2962,N,08007.9550,W,1,8,1.7,25,"
"##MN-00 00 90 0586 01863 5277 469043 925384 200"
"156.030787"
"$GPGGA,004417,2515.3074,N,08007.9526,W,1,8,1.7,25,"
"##MN-00 00 90 0586 01864 5277 468569 925384 200"
"156.030833"
"$GPGGA,004421,2515.3185,N,08007.9501,W,1,7,2.1,25,"
"##MN-00 00 90 0586 01862 5277 468263 925383 200"
"156.03088"
"$GPGGA,004425,2515.3294,N,08007.9475,W,1,8,1.7,25,"
"##MN-00 00 90 0586 01862 5276 468345 925384 200"
"156.030926"
"$GPGGA,004429,2515.3407,N,08007.9455,W,1,8,1.7,25,"
"##MN-00 00 90 0586 01864 5276 468234 925384 200"
"156.030972"
"$GPGGA,004434,2515.3550,N,08007.9428,W,1,8,1.7,25,"
"##MN-00 00 90 0586 01863 5275 467883 925384 200"
"156.031019"
"$GPGGA,004438,2515.3665,N,08007.9408,W,1,7,2.1,25,"
"##MN-00 00 90 0586 01863 5275 467612 925384 200"
"156.031065"
"$GPGGA,004442,2515.3781,N,08007.9389,W,1,7,2.1,25,"
"##MN-00 00 90 0586 01863 5274 467639 925384 200"
"156.031111"
"$GPGGA,004446,2515.3895,N,08007.9369,W,1,7,2.1,24,"
"##MN-00 00 90 0586 01862 5274 467662 925383 200"
"156.031169"
"$GPGGA,004450,2515.4009,N,08007.9348,W,1,7,2.1,24,"
"##MN-00 00 90 0586 01862 5273 467482 925384 200"
"156.031215"
"$GPGGA,004454,2515.4119,N,08007.9327,W,1,7,2.1,24,"
"##MN-00 00 90 0586 01863 5273 467265 925384 200"
"156.031262"
"$GPGGA,004458,2515.4230,N,08007.9305,W,1,7,2.1,24,"
"##MN-00 00 90 0586 01863 5273 467221 925384 200"
"156.031308"
"$GPGGA,004502,2515.4345,N,08007.9284,W,1,7,1.7,24,"
"##MN-00 00 90 0586 01862 5272 467175 925383 200"
"156.031354"
"$GPGGA,004506,2515.4458,N,08007.9266,W,1,8,1.7,24,"
"##MN-00 00 90 0586 01862 5272 467174 925383 200"
"156.0314"
"$GPGGA,004510,2515.4570,N,08007.9246,W,1,8,2.1,24,"
"##MN-00 00 90 0586 01862 5271 467247 925384 200"
"156.031447"
"$GPGGA,004514,2515.4682,N,08007.9227,W,1,8,1.7,24,"
"##MN-00 00 90 0586 01862 5271 467653 925383 200"
"156.031493"
"$GPGGA,004518,2515.4793,N,08007.9202,W,1,8,1.7,24,"
"##MN-00 00 90 0586 01862 5271 467986 925384 200"
"156.031539"
"$GPGGA,004522,2515.4905,N,08007.9183,W,1,7,2.1,24,"
"##MN-00 00 90 0586 01863 5270 468097 925383 200"
"156.031586"
"$GPGGA,004526,2515.5021,N,08007.9163,W,1,7,2.1,24,"
"##MN-00 00 90 0586 01862 5270 468236 925384 200"
"156.031632"
"$GPGGA,004530,2515.5132,N,08007.9141,W,1,8,2.1,24,"
"##MN-00 00 90 0586 01862 5269 468442 925384 200"
"156.031678"
"$GPGGA,004534,2515.5245,N,08007.9119,W,1,8,1.7,24,"
"##MN-00 00 90 0586 01864 5269 468277 925384 200"
"156.031725"
"$GPGGA,004538,2515.5360,N,08007.9099,W,1,8,2.1,24,"
"##MN-00 00 90 0586 01863 5268 468061 925384 200"
"156.031771"
"$GPGGA,004542,2515.5473,N,08007.9079,W,1,8,1.7,25,"
"##MN-00 00 90 0586 01863 5268 467946 925383 200"
"156.031817"
"$GPGGA,004546,2515.5589,N,08007.9063,W,1,8,1.7,24,"
"##MN-00 00 90 0586 01860 5267 467894 925384 200"
"156.031863"
"$GPGGA,004550,2515.5701,N,08007.9041,W,1,8,1.7,24,"
"##MN-00 00 90 0586 01862 5267 467464 925384 200"
"156.03191"
"$GPGGA,004554,2515.5813,N,08007.9024,W,1,7,1.7,24,"
"##MN-00 00 90 0586 01863 5266 466971 925384 200"
"156.031956"
"$GPGGA,004558,2515.5924,N,08007.9003,W,1,8,2.1,24,"
"##MN-00 00 90 0586 01863 5266 467942 925384 200"
"156.032002"
"$GPGGA,004602,2515.6035,N,08007.8982,W,1,8,2.1,24,"
"##MN-00 00 90 0586 01864 5265 468520 925383 200"
"156.032049"
"$GPGGA,004606,2515.6149,N,08007.8965,W,1,7,2.1,24,"
"##MN-00 00 90 0586 01863 5265 469046 925384 200"
