" Tow: 3Ws-A   RVWS/WS1406"
" Date: 06/04/2014"
" Temperature Probe #  2597    Conductivity Probe #  2870"
" Pressure Probe #  109"
" Flow Meter Calibration  4.71 (m/count)  "
"155.977396"
"$GPGGA,232720,2514.2549,N,08009.0877,W,1,9,2.0,26,"
"##MN-00 00 90 0084 01862 5284 443887 925261 202"
"155.977442"
"$GPGGA,232728,2514.2608,N,08009.0827,W,1,9,2.0,27,"
"##MN-00 00 90 0084 01863 5284 444962 925335 202"
"155.977488"
"$GPGGA,232732,2514.2644,N,08009.0804,W,1,9,2.1,27,"
"##MN-00 00 90 0084 01863 5284 444948 925335 202"
"155.977535"
"$GPGGA,232736,2514.2677,N,08009.0781,W,1,9,2.7,27,"
"##MN-00 00 90 0084 01864 5285 445065 925335 202"
"155.977581"
"$GPGGA,232740,2514.2708,N,08009.0756,W,1,9,2.2,27,"
"##MN-00 00 90 0084 01862 5284 445064 925334 202"
"155.977627"
"$GPGGA,232744,2514.2744,N,08009.0731,W,1,10,2.0,28"
"##MN-00 00 90 0084 01864 5284 444924 925335 202"
"155.977674"
"$GPGGA,232748,2514.2778,N,08009.0707,W,1,8,2.2,28,"
"##MN-00 00 90 0084 01865 5284 444652 925334 202"
"155.97772"
"$GPGGA,232752,2514.2817,N,08009.0684,W,1,8,2.7,28,"
"##MN-00 00 90 0084 01864 5285 444353 925334 202"
"155.977766"
"$GPGGA,232756,2514.2854,N,08009.0660,W,1,9,2.2,28,"
"##MN-00 00 90 0084 01864 5284 444343 925335 202"
"155.977813"
"$GPGGA,232800,2514.2887,N,08009.0630,W,1,9,2.0,28,"
"##MN-00 00 90 0084 01861 5285 444141 925334 202"
"155.977859"
"$GPGGA,232804,2514.2926,N,08009.0607,W,1,9,2.0,28,"
"##MN-00 00 90 0084 01862 5285 444021 925334 202"
"155.977905"
"$GPGGA,232808,2514.2966,N,08009.0584,W,1,9,2.0,27,"
"##MN-00 00 90 0084 01865 5285 443961 925334 202"
"155.977951"
"$GPGGA,232812,2514.3006,N,08009.0563,W,1,9,2.0,27,"
"##MN-00 00 90 0084 01864 5285 444019 925335 202"
"155.977998"
"$GPGGA,232817,2514.3053,N,08009.0536,W,1,9,2.0,27,"
"##MN-00 00 90 0084 01863 5285 443975 925334 202"
"155.978044"
"$GPGGA,232821,2514.3095,N,08009.0519,W,1,9,2.7,26,"
"##MN-00 00 90 0084 01865 5285 443789 925334 202"
"155.97809"
"$GPGGA,232824,2514.3125,N,08009.0508,W,1,8,2.0,26,"
"##MN-00 00 90 0084 01864 5285 443613 925334 202"
"155.978137"
"$GPGGA,232828,2514.3165,N,08009.0490,W,1,9,2.0,26,"
"##MN-00 00 90 0084 01863 5285 443243 925334 202"
"155.978183"
"$GPGGA,232833,2514.3217,N,08009.0470,W,1,9,2.0,26,"
"##MN-00 00 90 0084 01863 5285 442795 925334 202"
"155.978229"
"$GPGGA,232837,2514.3259,N,08009.0454,W,1,9,2.0,26,"
"##MN-00 00 90 0084 01864 5285 442507 925334 202"
"155.978275"
"$GPGGA,232841,2514.3299,N,08009.0437,W,1,9,2.0,26,"
"##MN-00 00 90 0084 01864 5285 442385 925334 202"
"155.978322"
"$GPGGA,232845,2514.3345,N,08009.0422,W,1,9,2.0,26,"
"##MN-00 00 90 0084 01864 5285 442301 925334 202"
"155.978368"
"$GPGGA,232849,2514.3388,N,08009.0410,W,1,9,2.0,26,"
"##MN-00 00 90 0084 01864 5286 442170 925334 202"
"155.978414"
"$GPGGA,232853,2514.3429,N,08009.0397,W,1,9,2.0,25,"
"##MN-00 00 90 0084 01863 5285 441986 925334 202"
"155.978461"
"$GPGGA,232857,2514.3472,N,08009.0384,W,1,9,2.0,25,"
"##MN-00 00 90 0084 01866 5285 441884 925334 202"
"155.978507"
"$GPGGA,232901,2514.3514,N,08009.0369,W,1,9,2.0,25,"
"##MN-00 00 90 0084 01864 5285 442312 925335 202"
"155.978553"
"$GPGGA,232905,2514.3555,N,08009.0354,W,1,9,2.0,25,"
"##MN-00 00 90 0084 01862 5285 442481 925334 202"
"155.9786"
"$GPGGA,232909,2514.3597,N,08009.0341,W,1,9,2.0,25,"
"##MN-00 00 90 0084 01862 5286 442397 925334 202"
"155.978657"
"$GPGGA,232913,2514.3640,N,08009.0330,W,1,9,2.0,25,"
"##MN-00 00 90 0084 01863 5286 442220 925333 202"
"155.978704"
"$GPGGA,232917,2514.3681,N,08009.0319,W,1,9,2.0,25,"
"##MN-00 00 90 0084 01864 5286 442164 925334 202"
"155.97875"
"$GPGGA,232921,2514.3724,N,08009.0309,W,1,9,2.0,25,"
"##MN-00 00 90 0084 01862 5286 442289 925334 202"
"155.978796"
"$GPGGA,232925,2514.3768,N,08009.0300,W,1,9,2.0,25,"
"##MN-00 00 90 0084 01862 5286 442256 925334 202"
"155.978843"
"$GPGGA,232929,2514.3810,N,08009.0290,W,1,9,2.0,24,"
"##MN-00 00 90 0084 01861 5286 442143 925334 202"
"155.978889"
"$GPGGA,232933,2514.3853,N,08009.0280,W,1,9,2.0,24,"
"##MN-00 00 90 0084 01864 5286 442037 925334 202"
"155.978935"
"$GPGGA,232937,2514.3894,N,08009.0267,W,1,9,2.0,24,"
"##MN-00 00 90 0084 01864 5286 441907 925334 202"
"155.979086"
"$GPGGA,232946,2514.3987,N,08009.0240,W,1,9,2.0,24,"
"##MN-00 00 90 0084 01863 5286 442093 925334 202"
"155.979132"
"$GPGGA,232955,2514.4083,N,08009.0212,W,1,9,2.0,25,"
"##MN-00 00 90 0084 01863 5286 441987 925333 202"
"155.979178"
"$GPGGA,232958,2514.4118,N,08009.0203,W,1,9,2.0,25,"
"##MN-00 00 90 0084 01864 5286 441830 925334 202"
"155.979282"
"$GPGGA,233005,2514.4194,N,08009.0187,W,1,9,2.0,25,"
"##MN-00 00 90 0084 01864 5286 441698 925334 202"
"155.97934"
"$GPGGA,233012,2514.4270,N,08009.0171,W,1,9,2.0,25,"
"##MN-00 00 90 0084 01864 5286 441829 925335 202"
"155.979387"
"$GPGGA,233016,2514.4316,N,08009.0162,W,1,9,2.0,25,"
"##MN-00 00 90 0084 01862 5287 442063 925335 202"
"155.979433"
"$GPGGA,233020,2514.4361,N,08009.0156,W,1,9,2.0,26,"
"##MN-00 00 90 0084 01863 5286 442129 925336 202"
"155.979479"
"$GPGGA,233024,2514.4407,N,08009.0147,W,1,9,2.0,26,"
"##MN-00 00 90 0084 01864 5287 442417 925336 202"
"155.979525"
"$GPGGA,233028,2514.4451,N,08009.0138,W,1,9,2.0,26,"
"##MN-00 00 90 0084 01863 5286 442636 925335 202"
"155.979572"
"$GPGGA,233032,2514.4497,N,08009.0128,W,1,9,2.0,26,"
"##MN-00 00 90 0084 01864 5287 442609 925335 202"
"155.979618"
"$GPGGA,233036,2514.4541,N,08009.0119,W,1,9,2.0,26,"
"##MN-00 00 90 0084 01864 5287 442488 925335 202"
"155.979664"
"$GPGGA,233040,2514.4587,N,08009.0110,W,1,9,2.0,26,"
"##MN-00 00 90 0084 01864 5287 442419 925334 202"
"155.979711"
"$GPGGA,233044,2514.4632,N,08009.0101,W,1,9,2.0,26,"
"##MN-00 00 90 0084 01864 5287 442549 925334 202"
"155.979757"
"$GPGGA,233048,2514.4678,N,08009.0094,W,1,9,2.0,25,"
"##MN-00 00 90 0084 01864 5287 442663 925334 202"
"155.979803"
"$GPGGA,233052,2514.4722,N,08009.0086,W,1,9,2.0,25,"
"##MN-00 00 90 0084 01864 5287 442854 925334 202"
"155.979849"
"$GPGGA,233056,2514.4767,N,08009.0078,W,1,9,2.0,25,"
"##MN-00 00 89 0084 01865 5287 442811 925334 202"
"155.979896"
"$GPGGA,233100,2514.4812,N,08009.0069,W,1,9,2.0,25,"
"##MN-00 00 84 0084 01864 5287 442873 925333 202"
"155.979942"
"$GPGGA,233104,2514.4855,N,08009.0059,W,1,9,2.0,25,"
"##MN-00 00 72 0084 01862 5287 443379 925334 202"
"155.979988"
"$GPGGA,233108,2514.4901,N,08009.0051,W,1,9,2.0,25,"
"##MN-00 00 73 0084 01864 5287 443824 925336 202"
"155.980035"
"$GPGGA,233112,2514.4945,N,08009.0043,W,1,9,2.0,25,"
"##MN-00 00 68 0084 01864 5287 444356 925336 202"
"155.980081"
"$GPGGA,233116,2514.4989,N,08009.0032,W,1,9,2.0,24,"
"##MN-00 00 61 0084 01865 5287 444826 925334 202"
"155.980127"
"$GPGGA,233120,2514.5033,N,08009.0022,W,1,9,2.0,24,"
"##MN-00 00 44 0085 01862 5287 445209 925337 202"
"155.980174"
"$GPGGA,233124,2514.5078,N,08009.0012,W,1,9,2.0,24,"
"##MN-00 00 34 0087 01865 5287 445451 925339 202"
"155.98022"
"$GPGGA,233128,2514.5122,N,08009.0005,W,1,9,2.0,24,"
"##MN-00 00 33 0088 01864 5288 444811 925339 202"
"155.980266"
"$GPGGA,233132,2514.5165,N,08008.9996,W,1,9,2.0,23,"
"##MN-00 00 39 0090 01863 5287 444310 925342 202"
"155.980313"
"$GPGGA,233136,2514.5208,N,08008.9987,W,1,9,2.0,23,"
"##MN-00 00 45 0090 01865 5288 444150 925339 202"
"155.980359"
"$GPGGA,233140,2514.5252,N,08008.9979,W,1,9,2.0,23,"
"##MN-00 00 44 0090 01865 5288 441330 548778 202"
"155.980405"
"$GPGGA,233144,2514.5293,N,08008.9970,W,1,9,2.0,23,"
"##MN-00 00 47 0091 01866 5287 440603 355883 202"
"155.980451"
"$GPGGA,233148,2514.5336,N,08008.9959,W,1,9,2.0,23,"
"##MN-00 00 51 0092 01865 5288 440592 349294 202"
"155.980498"
"$GPGGA,233152,2514.5375,N,08008.9948,W,1,9,2.0,23,"
"##MN-00 00 45 0092 01864 5288 440617 348704 202"
"155.980544"
"$GPGGA,233156,2514.5412,N,08008.9934,W,1,9,2.0,23,"
"##MN-00 00 50 0093 01864 5288 440590 348351 202"
"155.98059"
"$GPGGA,233200,2514.5443,N,08008.9928,W,1,8,2.0,23,"
"##MN-00 00 52 0094 01864 5288 440553 348345 202"
"155.980637"
"$GPGGA,233204,2514.5488,N,08008.9914,W,1,9,2.0,23,"
"##MN-00 00 49 0094 01865 5288 440559 348352 202"
"155.980683"
"$GPGGA,233208,2514.5527,N,08008.9908,W,1,9,2.0,24,"
"##MN-00 00 49 0095 01864 5288 440600 348355 202"
"155.980729"
"$GPGGA,233212,2514.5564,N,08008.9904,W,1,9,2.0,24,"
"##MN-00 00 51 0095 01864 5289 440606 348345 202"
"155.980775"
"$GPGGA,233216,2514.5593,N,08008.9902,W,1,9,2.0,23,"
"##MN-00 00 46 0096 01864 5288 440596 348350 202"
"155.980822"
"$GPGGA,233220,2514.5643,N,08008.9895,W,1,9,2.0,23,"
"##MN-00 00 49 0097 01865 5288 440590 348335 202"
"155.980868"
"$GPGGA,233224,2514.5682,N,08008.9894,W,1,9,2.0,23,"
"##MN-00 00 50 0097 01863 5289 440575 348328 202"
"155.980914"
"$GPGGA,233228,2514.5725,N,08008.9895,W,1,9,2.0,23,"
"##MN-00 00 53 0098 01864 5289 440576 348332 202"
"155.980961"
"$GPGGA,233232,2514.5766,N,08008.9896,W,1,7,2.2,24,"
"##MN-00 00 53 0099 01863 5289 440534 348320 202"
"155.981007"
"$GPGGA,233236,2514.5799,N,08008.9885,W,1,9,2.0,24,"
"##MN-00 00 51 0099 01866 5289 440533 348321 202"
"155.981053"
"$GPGGA,233240,2514.5838,N,08008.9873,W,1,9,2.2,24,"
"##MN-00 00 52 0100 01864 5289 440629 348705 202"
"155.9811"
"$GPGGA,233244,2514.5876,N,08008.9861,W,1,9,2.0,24,"
"##MN-00 00 48 0101 01863 5289 440623 348495 202"
"155.981146"
"$GPGGA,233248,2514.5914,N,08008.9849,W,1,9,2.0,24,"
"##MN-00 00 54 0101 01864 5289 440618 348372 202"
"155.981192"
"$GPGGA,233252,2514.5954,N,08008.9836,W,1,8,2.0,24,"
"##MN-00 00 58 0102 01864 5289 440614 348379 202"
"155.981238"
"$GPGGA,233256,2514.5992,N,08008.9821,W,1,9,2.0,25,"
"##MN-00 00 60 0103 01862 5289 440621 348380 202"
"155.981285"
"$GPGGA,233300,2514.6032,N,08008.9806,W,1,9,2.0,25,"
"##MN-00 00 55 0103 01865 5290 440635 348541 202"
"155.981331"
"$GPGGA,233304,2514.6075,N,08008.9792,W,1,9,2.1,25,"
"##MN-00 00 55 0104 01865 5290 440578 348646 202"
"155.981377"
"$GPGGA,233308,2514.6113,N,08008.9773,W,1,9,2.0,25,"
"##MN-00 00 57 0105 01862 5290 440563 348413 202"
"155.981424"
"$GPGGA,233312,2514.6152,N,08008.9752,W,1,8,2.2,26,"
"##MN-00 00 58 0106 01864 5290 440589 348472 202"
"155.98147"
"$GPGGA,233316,2514.6191,N,08008.9730,W,1,8,2.6,26,"
"##MN-00 00 52 0106 01861 5290 440598 348433 202"
"155.981516"
"$GPGGA,233320,2514.6227,N,08008.9703,W,1,9,2.1,26,"
"##MN-00 00 46 0107 01863 5290 440940 364713 202"
"155.981563"
"$GPGGA,233324,2514.6261,N,08008.9677,W,1,9,2.1,26,"
"##MN-00 00 49 0107 01863 5290 440654 349726 202"
"155.981609"
"$GPGGA,233328,2514.6294,N,08008.9648,W,1,9,1.6,26,"
"##MN-00 00 60 0108 01865 5291 440636 353289 202"
"155.981655"
"$GPGGA,233332,2514.6326,N,08008.9617,W,1,9,1.5,26,"
"##MN-00 00 59 0109 01863 5291 440686 348461 202"
"155.981701"
"$GPGGA,233336,2514.6361,N,08008.9588,W,1,9,1.6,27,"
"##MN-00 00 52 0109 01864 5291 440598 348417 202"
"155.981748"
"$GPGGA,233340,2514.6391,N,08008.9560,W,1,9,1.6,27,"
"##MN-00 00 57 0110 01865 5291 440605 348444 202"
"155.981794"
"$GPGGA,233344,2514.6420,N,08008.9532,W,1,10,1.6,27"
"##MN-00 00 54 0111 01864 5291 440592 348641 202"
"155.98184"
"$GPGGA,233348,2514.6445,N,08008.9504,W,1,10,2.3,28"
"##MN-00 00 61 0111 01866 5291 440608 348485 202"
"155.981887"
"$GPGGA,233352,2514.6474,N,08008.9475,W,1,10,1.5,28"
"##MN-00 00 58 0112 01865 5291 440579 348735 202"
"155.981933"
"$GPGGA,233356,2514.6499,N,08008.9444,W,1,9,1.6,28,"
"##MN-00 00 58 0113 01864 5291 440567 348462 202"
"155.981979"
"$GPGGA,233400,2514.6521,N,08008.9417,W,1,9,1.5,28,"
"##MN-00 00 49 0113 01863 5292 440551 348412 202"
"155.982025"
"$GPGGA,233429,2514.6651,N,08008.9218,W,1,10,1.5,26"
"##MN-00 00 52 0118 01863 5294 440645 350412 202"
"155.982072"
"$GPGGA,233436,2514.6665,N,08008.9169,W,1,9,1.5,25,"
"##MN-00 00 51 0118 01864 5293 440607 348482 202"
"155.982118"
"$GPGGA,233441,2514.6673,N,08008.9135,W,1,10,1.5,25"
"##MN-00 00 55 0119 01862 5294 440568 348378 202"
"155.982164"
"$GPGGA,233444,2514.6676,N,08008.9114,W,1,10,1.5,25"
"##MN-00 00 53 0119 01863 5293 440595 348395 202"
"155.982211"
"$GPGGA,233446,2514.6678,N,08008.9101,W,1,10,1.5,25"
"##MN-00 00 61 0119 01863 5294 440557 348370 202"
"155.982257"
"$GPGGA,233449,2514.6680,N,08008.9081,W,1,9,1.5,25,"
"##MN-00 00 57 0120 01863 5294 440553 348372 202"
"155.982303"
"$GPGGA,233451,2514.6684,N,08008.9069,W,1,9,1.5,25,"
"##MN-00 00 51 0120 01866 5294 440554 348363 202"
"155.98235"
"$GPGGA,233454,2514.6687,N,08008.9052,W,1,8,1.5,25,"
"##MN-00 00 54 0120 01866 5294 440560 348368 202"
"155.982396"
"$GPGGA,233456,2514.6691,N,08008.9040,W,1,9,1.5,25,"
"##MN-00 00 56 0121 01868 5294 440569 348352 202"
"155.982442"
"$GPGGA,233459,2514.6693,N,08008.9024,W,1,9,1.5,25,"
"##MN-00 00 55 0121 01872 5295 440551 348343 202"
"155.9825"
"$GPGGA,233501,2514.6697,N,08008.9010,W,1,8,1.7,25,"
"##MN-00 00 56 0121 01873 5295 440548 348338 202"
"155.982546"
"$GPGGA,233504,2514.6700,N,08008.8993,W,1,9,1.5,24,"
"##MN-00 00 58 0122 01879 5295 440540 348332 202"
"155.982593"
"$GPGGA,233507,2514.6702,N,08008.8975,W,1,9,1.5,24,"
"##MN-00 00 52 0122 01884 5295 440546 348331 202"
"155.982639"
"$GPGGA,233509,2514.6705,N,08008.8964,W,1,9,1.5,24,"
"##MN-00 00 54 0122 01885 5295 440544 348326 202"
"155.982685"
"$GPGGA,233512,2514.6709,N,08008.8941,W,1,8,1.8,24,"
"##MN-00 00 55 0123 01891 5296 440525 348319 202"
"155.982732"
"$GPGGA,233514,2514.6709,N,08008.8926,W,1,9,1.5,24,"
"##MN-00 00 54 0123 01893 5296 440528 348317 202"
"155.982778"
"$GPGGA,233517,2514.6712,N,08008.8904,W,1,8,1.5,23,"
"##MN-00 00 55 0124 01901 5296 440529 348316 202"
"155.982824"
"$GPGGA,233519,2514.6716,N,08008.8890,W,1,8,2.0,23,"
"##MN-00 00 52 0124 01909 5296 440533 348316 202"
"155.98287"
"$GPGGA,233522,2514.6719,N,08008.8865,W,1,9,1.6,23,"
"##MN-00 00 55 0125 01905 5296 440556 348319 202"
"155.982917"
"$GPGGA,233524,2514.6720,N,08008.8847,W,1,8,1.5,23,"
"##MN-00 00 55 0125 01914 5296 440563 348320 202"
"155.982963"
"$GPGGA,233527,2514.6723,N,08008.8826,W,1,10,1.5,24"
"##MN-00 00 46 0125 01920 5296 440552 348315 202"
"155.983009"
"$GPGGA,233529,2514.6727,N,08008.8813,W,1,8,1.5,24,"
"##MN-00 00 53 0126 01924 5297 440521 348302 202"
"155.983056"
"$GPGGA,233533,2514.6730,N,08008.8789,W,1,10,1.5,25"
"##MN-00 00 54 0126 01929 5297 440513 348297 202"
"155.983102"
"$GPGGA,233537,2514.6734,N,08008.8761,W,1,9,1.5,25,"
"##MN-00 00 52 0127 01940 5297 440511 348293 202"
"155.983148"
"$GPGGA,233541,2514.6738,N,08008.8738,W,1,10,1.5,25"
"##MN-00 00 56 0128 01947 5298 440506 348288 202"
"155.983194"
"$GPGGA,233545,2514.6740,N,08008.8713,W,1,10,1.5,26"
"##MN-00 00 54 0129 01954 5298 440522 348295 202"
"155.983241"
"$GPGGA,233549,2514.6744,N,08008.8685,W,1,9,1.5,26,"
"##MN-00 00 53 0129 01961 5298 440527 348294 202"
"155.983287"
"$GPGGA,233553,2514.6746,N,08008.8652,W,1,9,1.5,26,"
"##MN-00 00 53 0130 01966 5298 440529 348288 202"
"155.983333"
"$GPGGA,233557,2514.6747,N,08008.8623,W,1,9,1.5,27,"
"##MN-00 00 51 0131 01972 5299 440528 348284 202"
"155.98338"
"$GPGGA,233601,2514.6751,N,08008.8600,W,1,10,1.6,27"
"##MN-00 00 50 0131 01982 5299 440526 348284 202"
"155.983426"
"$GPGGA,233605,2514.6752,N,08008.8578,W,1,9,1.6,28,"
"##MN-00 00 50 0132 01987 5299 440553 348287 201"
"155.983472"
"$GPGGA,233609,2514.6759,N,08008.8553,W,1,10,1.6,28"
"##MN-00 00 49 0133 01980 5299 440597 348292 202"
"155.983519"
"$GPGGA,233613,2514.6763,N,08008.8528,W,1,9,1.6,28,"
"##MN-00 00 48 0134 01981 5299 440592 348294 201"
"155.983565"
"$GPGGA,233617,2514.6767,N,08008.8505,W,1,10,1.6,28"
"##MN-00 00 48 0134 01979 5300 440580 348292 202"
"155.983611"
"$GPGGA,233621,2514.6774,N,08008.8479,W,1,9,1.6,28,"
"##MN-00 00 50 0135 01981 5300 440531 348287 202"
"155.983657"
"$GPGGA,233625,2514.6780,N,08008.8454,W,1,8,1.7,28,"
"##MN-00 00 52 0136 01979 5300 440519 348281 201"
"155.983704"
"$GPGGA,233629,2514.6785,N,08008.8426,W,1,9,1.6,28,"
"##MN-00 00 50 0137 01984 5301 440502 348277 201"
"155.98375"
"$GPGGA,233633,2514.6792,N,08008.8400,W,1,9,1.6,27,"
"##MN-00 00 48 0137 01986 5301 440514 348279 201"
"155.983796"
"$GPGGA,233637,2514.6796,N,08008.8375,W,1,8,1.7,27,"
"##MN-00 00 51 0138 01984 5301 440579 348291 201"
"155.983843"
"$GPGGA,233641,2514.6803,N,08008.8353,W,1,9,1.6,27,"
"##MN-00 00 49 0139 01988 5301 440546 348280 201"
"155.983889"
"$GPGGA,233645,2514.6809,N,08008.8326,W,1,9,1.6,26,"
"##MN-00 00 50 0140 01987 5301 440542 348281 202"
"155.983935"
"$GPGGA,233649,2514.6814,N,08008.8295,W,1,10,1.6,26"
"##MN-00 00 52 0140 01989 5301 440511 348292 201"
"155.983981"
"$GPGGA,233653,2514.6818,N,08008.8269,W,1,9,1.9,26,"
"##MN-00 00 48 0141 01991 5302 440523 348274 201"
"155.984028"
"$GPGGA,233657,2514.6825,N,08008.8245,W,1,10,1.6,25"
"##MN-00 00 51 0142 01993 5302 440577 348282 201"
"155.984074"
"$GPGGA,233702,2514.6830,N,08008.8210,W,1,10,1.6,25"
"##MN-00 00 47 0142 01995 5302 440543 348279 201"
"155.98412"
"$GPGGA,233705,2514.6837,N,08008.8192,W,1,10,1.6,25"
"##MN-00 00 45 0143 01993 5303 440502 348273 201"
"155.984167"
"$GPGGA,233709,2514.6843,N,08008.8165,W,1,10,1.6,25"
"##MN-00 00 46 0144 01991 5303 440491 348272 201"
"155.984213"
"$GPGGA,233713,2514.6849,N,08008.8140,W,1,10,1.6,25"
"##MN-00 00 45 0144 01987 5303 440487 348273 201"
"155.984259"
"$GPGGA,233717,2514.6853,N,08008.8115,W,1,10,1.6,25"
"##MN-00 00 45 0145 01985 5303 440491 348271 201"
"155.984306"
"$GPGGA,233721,2514.6859,N,08008.8090,W,1,10,1.6,25"
"##MN-00 00 42 0146 01982 5303 440488 348270 201"
"155.984352"
"$GPGGA,233725,2514.6861,N,08008.8066,W,1,10,1.6,25"
"##MN-00 00 46 0146 01980 5304 440501 348272 201"
"155.984398"
"$GPGGA,233729,2514.6866,N,08008.8042,W,1,10,1.6,24"
"##MN-00 00 48 0147 01984 5304 440502 348273 201"
"155.984444"
"$GPGGA,233733,2514.6870,N,08008.8017,W,1,10,1.6,24"
"##MN-00 00 48 0148 01982 5305 440511 348274 201"
"155.984491"
"$GPGGA,233737,2514.6874,N,08008.7992,W,1,10,1.6,24"
"##MN-00 00 47 0149 01980 5305 440525 348277 201"
"155.984537"
"$GPGGA,233741,2514.6879,N,08008.7968,W,1,10,1.6,24"
"##MN-00 00 45 0149 01981 5305 440564 348286 201"
"155.984583"
"$GPGGA,233745,2514.6882,N,08008.7942,W,1,10,1.6,24"
"##MN-00 00 48 0150 01983 5305 440583 348288 201"
"155.98463"
"$GPGGA,233749,2514.6888,N,08008.7918,W,1,10,1.6,24"
"##MN-00 00 46 0151 01983 5305 440566 348288 201"
"155.984676"
"$GPGGA,233753,2514.6890,N,08008.7892,W,1,10,1.6,24"
"##MN-00 00 41 0151 01983 5305 440599 348293 201"
"155.984722"
"$GPGGA,233757,2514.6896,N,08008.7867,W,1,10,1.6,24"
"##MN-00 00 41 0152 01982 5306 440614 348293 201"
"155.984769"
"$GPGGA,233801,2514.6900,N,08008.7844,W,1,9,1.7,24,"
"##MN-00 00 45 0153 01986 5306 440613 348294 201"
"155.984815"
"$GPGGA,233805,2514.6907,N,08008.7824,W,1,10,1.6,24"
"##MN-00 00 46 0153 01986 5307 440560 348286 201"
"155.984861"
"$GPGGA,233809,2514.6911,N,08008.7802,W,1,10,1.6,24"
"##MN-00 00 47 0154 01987 5307 440625 348293 201"
"155.984907"
"$GPGGA,233813,2514.6915,N,08008.7778,W,1,10,1.6,24"
"##MN-00 00 45 0155 01983 5307 440597 348290 201"
"155.984954"
"$GPGGA,233817,2514.6918,N,08008.7754,W,1,9,1.7,24,"
"##MN-00 00 44 0156 01985 5307 440550 348285 201"
"155.985"
"$GPGGA,233821,2514.6921,N,08008.7730,W,1,9,1.7,24,"
"##MN+00 00 49 0156 01985 5307 440568 348287 201"
"155.985046"
"$GPGGA,233825,2514.6926,N,08008.7707,W,1,10,1.6,24"
"##MN+00 00 46 0157 01983 5307 440541 348286 201"
"155.985093"
"$GPGGA,233829,2514.6929,N,08008.7686,W,1,10,1.6,24"
"##MN+00 00 50 0158 01984 5308 440536 348285 201"
"155.985139"
"$GPGGA,233833,2514.6933,N,08008.7660,W,1,9,1.6,24,"
"##MN-00 00 49 0158 01983 5308 440594 348292 201"
"155.985185"
"$GPGGA,233837,2514.6937,N,08008.7635,W,1,10,1.6,23"
"##MN+00 00 48 0159 01984 5308 440567 348287 201"
"155.985231"
"$GPGGA,233841,2514.6943,N,08008.7616,W,1,10,1.6,23"
"##MN+00 00 52 0160 01991 5308 440556 348287 201"
"155.985278"
"$GPGGA,233845,2514.6947,N,08008.7594,W,1,10,1.6,23"
"##MN+00 00 49 0160 01990 5308 440583 348291 201"
"155.985324"
"$GPGGA,233849,2514.6953,N,08008.7573,W,1,10,1.6,23"
"##MN-00 00 46 0161 01989 5309 440623 348296 201"
"155.98537"
"$GPGGA,233854,2514.6955,N,08008.7546,W,1,10,1.6,23"
"##MN-00 00 49 0161 01987 5309 440545 348287 201"
"155.985417"
"#increment_net"
"$GPGGA,233857,2514.6958,N,08008.7531,W,1,10,1.6,23"
"##MN-00 00 47 0162 01985 5309 440530 348283 201"
"155.985463"
"$GPGGA,233901,2514.6962,N,08008.7509,W,1,10,1.6,23"
"##MN-00 00 47 0163 01986 5310 440548 348282 201"
"155.985509"
"$GPGGA,233906,2514.6968,N,08008.7478,W,1,10,1.6,23"
"##MN-00 00 49 0163 01984 5310 440523 348278 201"
"155.985556"
"$GPGGA,233910,2514.6971,N,08008.7454,W,1,10,1.6,22"
"##MN-00 00 49 0164 01983 5310 440528 348278 201"
"155.985602"
"$GPGGA,233914,2514.6975,N,08008.7432,W,1,10,1.6,22"
"##MN-00 00 46 0165 01983 5311 440559 348284 201"
"155.985648"
"$GPGGA,233918,2514.6975,N,08008.7414,W,1,10,1.6,22"
"##MN-00 00 48 0165 01984 5311 440548 348281 201"
"155.985706"
"$GPGGA,233922,2514.6980,N,08008.7389,W,1,10,1.7,23"
"##MN-00 00 48 0166 01981 5311 440537 348281 201"
"155.985752"
"$GPGGA,233926,2514.6980,N,08008.7367,W,1,10,1.7,23"
"##MN-00 00 49 0167 01982 5312 440542 348281 201"
"155.985799"
"$GPGGA,233930,2514.6983,N,08008.7342,W,1,10,1.7,23"
"##MN-00 00 49 0167 01980 5312 440517 348279 201"
"155.985845"
"$GPGGA,233934,2514.6987,N,08008.7314,W,1,9,1.7,23,"
"##MN-00 00 48 0168 01980 5312 440509 348278 201"
"155.985891"
"$GPGGA,233938,2514.6991,N,08008.7287,W,1,9,1.7,23,"
"##MN-00 00 48 0169 01979 5312 440502 348279 201"
"155.985938"
"$GPGGA,233942,2514.6991,N,08008.7274,W,1,10,1.8,23"
"##MN-00 00 49 0170 01978 5312 440503 348280 201"
"155.985984"
"$GPGGA,233946,2514.6994,N,08008.7244,W,1,10,1.6,23"
"##MN-00 00 47 0170 01980 5312 440509 348279 201"
"155.98603"
"$GPGGA,233950,2514.6998,N,08008.7225,W,1,10,1.6,23"
"##MN-00 00 51 0171 01979 5313 440503 348287 201"
"155.986076"
"$GPGGA,233954,2514.7002,N,08008.7205,W,1,10,1.6,23"
"##MN-00 00 50 0171 01979 5313 440511 348280 201"
"155.986123"
"$GPGGA,233958,2514.7007,N,08008.7184,W,1,10,1.6,23"
"##MN-00 00 49 0172 01979 5313 440518 348283 201"
"155.986169"
"$GPGGA,234002,2514.7008,N,08008.7163,W,1,10,1.6,22"
"##MN-00 00 50 0173 01976 5314 440521 348285 201"
"155.986215"
"$GPGGA,234006,2514.7010,N,08008.7143,W,1,10,1.6,21"
"##MN-00 00 44 0174 01978 5314 440519 348284 201"
"155.986262"
"$GPGGA,234010,2514.7012,N,08008.7121,W,1,10,1.6,21"
"##MN-00 00 51 0174 01977 5314 440535 348286 201"
"155.986308"
"$GPGGA,234014,2514.7014,N,08008.7098,W,1,10,1.6,21"
"##MN-00 00 53 0175 01974 5315 440543 348349 201"
"155.986354"
"$GPGGA,234018,2514.7015,N,08008.7076,W,1,10,1.6,20"
"##MN-00 00 52 0176 01975 5315 440558 348355 201"
"155.9864"
"$GPGGA,234022,2514.7016,N,08008.7057,W,1,10,1.6,20"
"##MN-00 00 49 0176 01977 5315 440575 348312 201"
"155.986447"
"$GPGGA,234026,2514.7022,N,08008.7037,W,1,10,1.6,19"
"##MN-00 00 49 0177 01976 5315 440571 348290 201"
"155.986493"
"$GPGGA,234030,2514.7023,N,08008.7018,W,1,10,1.6,19"
"##MN-00 00 49 0178 01978 5315 440573 348291 201"
"155.986539"
"$GPGGA,234034,2514.7027,N,08008.6997,W,1,10,1.6,19"
"##MN-00 00 52 0179 01975 5316 440585 348294 201"
"155.986586"
"$GPGGA,234038,2514.7029,N,08008.6975,W,1,10,1.6,19"
"##MN-00 00 55 0179 01974 5316 440591 348296 201"
"155.986632"
"$GPGGA,234042,2514.7030,N,08008.6955,W,1,10,1.6,19"
"##MN-00 00 51 0180 01978 5316 440592 348295 201"
"155.986678"
"$GPGGA,234046,2514.7034,N,08008.6937,W,1,9,1.6,19,"
"##MN-00 00 51 0180 01981 5316 440614 348298 201"
"155.986725"
"$GPGGA,234050,2514.7038,N,08008.6921,W,1,10,1.6,19"
"##MN-00 00 50 0181 01987 5316 440649 348305 201"
"155.986771"
"$GPGGA,234054,2514.7045,N,08008.6906,W,1,10,1.6,19"
"##MN-00 00 49 0181 01989 5317 440557 348291 201"
"155.986817"
"$GPGGA,234058,2514.7048,N,08008.6884,W,1,10,1.7,19"
"##MN-00 00 47 0182 01990 5317 440518 348284 201"
"155.986863"
"$GPGGA,234102,2514.7052,N,08008.6866,W,1,10,1.6,19"
"##MN-00 00 49 0182 01989 5317 440536 348289 201"
"155.98691"
"$GPGGA,234106,2514.7055,N,08008.6846,W,1,10,1.6,18"
"##MN-00 00 47 0183 01992 5317 440552 348292 201"
"155.986956"
"$GPGGA,234110,2514.7058,N,08008.6825,W,1,10,1.6,18"
"##MN-00 00 47 0184 01992 5318 440561 348296 201"
"155.987002"
"$GPGGA,234114,2514.7062,N,08008.6802,W,1,10,1.6,18"
"##MN+00 00 44 0184 01990 5318 440583 348302 201"
"155.987049"
"$GPGGA,234118,2514.7066,N,08008.6781,W,1,10,1.6,18"
"##MN+00 00 39 0185 01989 5318 440545 348294 201"
"155.987095"
"$GPGGA,234122,2514.7069,N,08008.6757,W,1,10,1.6,18"
"##MN+00 00 45 0185 01988 5319 440557 348290 201"
"155.987141"
"$GPGGA,234126,2514.7074,N,08008.6749,W,1,9,1.6,18,"
"##MN-00 00 46 0186 01989 5319 440545 348294 201"
"155.987187"
"$GPGGA,234130,2514.7077,N,08008.6733,W,1,10,1.6,18"
"##MN-00 00 44 0187 01990 5319 440533 348290 201"
"155.987234"
"$GPGGA,234134,2514.7077,N,08008.6710,W,1,10,1.6,18"
"##MN-00 00 44 0187 01990 5319 440529 348288 201"
"155.98728"
"$GPGGA,234138,2514.7080,N,08008.6687,W,1,10,1.6,18"
"##MN-00 00 44 0188 01989 5320 440519 348289 201"
"155.987326"
"$GPGGA,234142,2514.7082,N,08008.6664,W,1,10,1.6,18"
"##MN+00 00 46 0189 01991 5320 440520 348289 201"
"155.987373"
"$GPGGA,234146,2514.7083,N,08008.6640,W,1,10,1.6,18"
"##MN+00 00 54 0190 01990 5320 440544 348294 201"
"155.987419"
"#increment_net"
"$GPGGA,234150,2514.7085,N,08008.6616,W,1,10,1.6,18"
"##MN+00 00 49 0190 01985 5320 440608 348301 201"
"155.987465"
"$GPGGA,234154,2514.7088,N,08008.6592,W,1,10,1.6,18"
"##MN-00 00 46 0191 01984 5320 440559 348296 201"
"155.987512"
"$GPGGA,234158,2514.7088,N,08008.6568,W,1,10,1.6,18"
"##MN-00 00 45 0192 01982 5320 440578 348297 201"
"155.987558"
"$GPGGA,234202,2514.7090,N,08008.6547,W,1,10,1.6,18"
"##MN-00 00 46 0192 01986 5321 440548 348294 201"
"155.987604"
"$GPGGA,234206,2514.7094,N,08008.6526,W,1,10,1.6,19"
"##MN-00 00 47 0193 01979 5321 440563 348293 201"
"155.98765"
"$GPGGA,234211,2514.7092,N,08008.6499,W,1,10,1.6,19"
"##MN-00 00 44 0194 01982 5321 440542 348293 201"
"155.987697"
"$GPGGA,234214,2514.7095,N,08008.6483,W,1,9,1.6,19,"
"##MN-00 00 48 0194 01983 5321 440531 348292 201"
"155.987743"
"$GPGGA,234218,2514.7096,N,08008.6462,W,1,10,1.7,19"
"##MN-00 00 44 0195 01980 5322 440530 348291 201"
"155.987789"
"$GPGGA,234222,2514.7095,N,08008.6445,W,1,10,1.6,19"
"##MN-00 00 46 0196 01981 5322 440535 348290 201"
"155.987836"
"$GPGGA,234226,2514.7099,N,08008.6426,W,1,10,1.6,19"
"##MN-00 00 48 0196 01979 5322 440532 348290 201"
"155.987882"
"$GPGGA,234230,2514.7097,N,08008.6405,W,1,9,1.6,19,"
"##MN-00 00 47 0197 01977 5322 440538 348291 201"
"155.987928"
"$GPGGA,234234,2514.7096,N,08008.6382,W,1,10,1.7,19"
"##MN-00 00 52 0199 01975 5323 440537 348290 201"
"155.987975"
"$GPGGA,234242,2514.7099,N,08008.6343,W,1,10,1.6,19"
"##MN-00 00 49 0199 01976 5323 440559 348292 201"
"155.988021"
"$GPGGA,234245,2514.7099,N,08008.6330,W,1,10,1.6,19"
"##MN-00 00 50 0200 01973 5323 440575 348292 201"
"155.988067"
"$GPGGA,234247,2514.7102,N,08008.6319,W,1,9,1.7,19,"
"##MN-00 00 51 0200 01974 5323 440584 348295 201"
"155.988113"
"$GPGGA,234250,2514.7103,N,08008.6307,W,1,10,1.6,19"
"##MN-00 00 49 0201 01973 5323 440567 348298 201"
"155.98816"
"$GPGGA,234254,2514.7105,N,08008.6287,W,1,10,1.6,19"
"##MN-00 00 50 0202 01973 5324 440565 348300 201"
"155.988206"
"$GPGGA,234258,2514.7104,N,08008.6268,W,1,10,1.6,19"
"##MN-00 00 49 0202 01972 5324 440571 348301 201"
"155.988252"
"$GPGGA,234303,2514.7108,N,08008.6246,W,1,10,1.6,19"
"##MN-00 00 48 0203 01972 5324 440554 348300 201"
"155.988299"
"$GPGGA,234307,2514.7106,N,08008.6228,W,1,9,1.6,19,"
"##MN-00 00 49 0204 01971 5324 440554 348300 201"
"155.988345"
"$GPGGA,234311,2514.7108,N,08008.6212,W,1,10,1.6,19"
"##MN-00 00 50 0205 01969 5325 440552 348303 201"
"155.988391"
"$GPGGA,234315,2514.7107,N,08008.6190,W,1,10,1.6,19"
"##MN-00 00 47 0205 01970 5325 440557 348321 201"
"155.988437"
"$GPGGA,234318,2514.7106,N,08008.6171,W,1,10,1.7,19"
"##MN-00 00 44 0206 01975 5325 440581 348312 201"
"155.988484"
"$GPGGA,234322,2514.7109,N,08008.6150,W,1,10,1.6,19"
"##MN-00 00 49 0207 01973 5325 440571 348307 201"
"155.98853"
"$GPGGA,234327,2514.7110,N,08008.6128,W,1,9,1.6,19,"
"##MN-00 00 44 0207 01975 5325 440571 348306 201"
"155.988576"
"$GPGGA,234330,2514.7110,N,08008.6112,W,1,10,1.6,19"
"##MN-00 00 46 0208 01978 5326 440602 348325 201"
"155.988623"
"$GPGGA,234339,2514.7115,N,08008.6075,W,1,10,1.6,19"
"##MN-00 00 49 0210 01979 5326 440606 348321 201"
"155.988669"
"$GPGGA,234347,2514.7121,N,08008.6037,W,1,10,1.6,19"
"##MN-00 00 46 0210 01979 5326 440599 348312 201"
"155.988715"
"$GPGGA,234349,2514.7122,N,08008.6028,W,1,10,1.6,19"
"##MN-00 00 46 0211 01977 5327 440589 348315 201"
"155.988762"
"$GPGGA,234353,2514.7121,N,08008.6004,W,1,9,1.6,19,"
"##MN+00 00 46 0212 01983 5327 440582 348315 201"
"155.988808"
"$GPGGA,234356,2514.7122,N,08008.5991,W,1,10,1.6,19"
"##MN+00 00 46 0212 01974 5327 440579 348315 201"
"155.988854"
"$GPGGA,234358,2514.7124,N,08008.5979,W,1,10,1.6,19"
"##MN+00 00 50 0212 01979 5327 440581 348314 201"
"155.988901"
"$GPGGA,234400,2514.7124,N,08008.5973,W,1,10,1.6,19"
"##MN-00 00 46 0213 01973 5327 440582 348313 201"
"155.988958"
"$GPGGA,234403,2514.7124,N,08008.5957,W,1,10,1.6,19"
"##MN-00 00 49 0213 01976 5328 440579 348311 201"
"155.989005"
"$GPGGA,234407,2514.7124,N,08008.5935,W,1,10,1.6,19"
"##MN-00 00 48 0214 01977 5328 440584 348316 201"
"155.989051"
"$GPGGA,234411,2514.7126,N,08008.5915,W,1,9,1.6,19,"
"##MN-00 00 48 0215 01975 5328 440589 348318 201"
"155.989097"
"$GPGGA,234415,2514.7124,N,08008.5895,W,1,10,1.6,19"
"##MN-00 00 49 0216 01976 5328 440587 348315 201"
"155.989144"
"$GPGGA,234419,2514.7124,N,08008.5876,W,1,10,1.6,19"
"##MN+00 00 47 0216 01980 5328 440586 348314 201"
"155.98919"
"$GPGGA,234423,2514.7124,N,08008.5856,W,1,10,1.6,19"
"##MN+00 00 55 0217 01980 5328 440586 348312 201"
"155.989236"
"#increment_net"
"$GPGGA,234427,2514.7124,N,08008.5840,W,1,10,1.6,19"
"##MN+00 00 51 0218 01978 5329 440585 348314 201"
"155.989282"
"$GPGGA,234431,2514.7128,N,08008.5832,W,1,10,1.6,19"
"##MN-00 00 45 0219 01982 5329 440580 348316 201"
"155.989329"
"$GPGGA,234435,2514.7128,N,08008.5815,W,1,8,1.8,19,"
"##MN-00 00 43 0219 01981 5329 440583 348313 201"
"155.989375"
"$GPGGA,234439,2514.7128,N,08008.5798,W,1,9,1.6,19,"
"##MN-00 00 44 0220 01982 5329 440582 348311 201"
"155.989421"
"$GPGGA,234443,2514.7128,N,08008.5784,W,1,10,1.6,19"
"##MN-00 00 38 0221 01983 5330 440570 348308 201"
"155.989468"
"$GPGGA,234447,2514.7127,N,08008.5772,W,1,10,1.6,20"
"##MN-00 00 48 0221 01982 5330 440576 348307 201"
"155.989514"
"$GPGGA,234451,2514.7122,N,08008.5744,W,1,9,1.9,20,"
"##MN-00 00 45 0222 01984 5330 440590 348313 201"
"155.98956"
"$GPGGA,234455,2514.7124,N,08008.5727,W,1,8,2.0,21,"
"##MN-00 00 43 0222 01987 5330 440600 348318 201"
"155.989606"
"$GPGGA,234459,2514.7123,N,08008.5706,W,1,10,1.6,22"
"##MN-00 00 47 0223 01986 5331 440599 348319 201"
"155.989653"
"$GPGGA,234503,2514.7121,N,08008.5683,W,1,10,1.6,22"
"##MN-00 00 46 0224 01986 5331 440595 348320 201"
"155.989699"
"$GPGGA,234507,2514.7121,N,08008.5667,W,1,10,1.6,23"
"##MN-00 00 42 0225 01988 5331 440595 348315 201"
"155.989745"
"$GPGGA,234511,2514.7121,N,08008.5648,W,1,9,1.6,24,"
"##MN-00 00 44 0225 01983 5331 440619 348317 201"
"155.989792"
"$GPGGA,234515,2514.7124,N,08008.5633,W,1,10,1.6,24"
"##MN-00 00 45 0226 01984 5331 440597 348321 201"
"155.989838"
"$GPGGA,234519,2514.7122,N,08008.5616,W,1,9,1.6,24,"
"##MN-00 00 44 0227 01984 5331 440591 348319 201"
"155.989884"
"$GPGGA,234523,2514.7121,N,08008.5597,W,1,9,1.6,25,"
"##MN-00 00 47 0228 01984 5332 440594 348317 201"
"155.989931"
"$GPGGA,234527,2514.7124,N,08008.5584,W,1,10,1.6,25"
"##MN-00 00 46 0229 01983 5332 440586 348316 201"
"155.989977"
"$GPGGA,234531,2514.7123,N,08008.5563,W,1,9,1.6,25,"
"##MN-00 00 47 0229 01982 5332 440601 348320 201"
"155.990023"
"$GPGGA,234535,2514.7121,N,08008.5546,W,1,8,1.8,25,"
"##MN-00 00 46 0230 01983 5333 440616 348321 201"
"155.990069"
"$GPGGA,234539,2514.7123,N,08008.5538,W,1,10,1.6,25"
"##MN-00 00 46 0231 01983 5333 440606 348316 201"
"155.990116"
"$GPGGA,234543,2514.7123,N,08008.5520,W,1,10,1.6,25"
"##MN-00 00 44 0232 01983 5333 440604 348317 201"
"155.990162"
"$GPGGA,234547,2514.7124,N,08008.5499,W,1,10,1.6,25"
"##MN-00 00 48 0233 01980 5333 440643 348329 201"
"155.990208"
"$GPGGA,234551,2514.7126,N,08008.5481,W,1,10,1.6,25"
"##MN-00 00 47 0233 01978 5333 440683 348351 201"
"155.990255"
"$GPGGA,234555,2514.7128,N,08008.5464,W,1,10,1.6,25"
"##MN-00 00 46 0234 01979 5333 440700 348364 201"
"155.990301"
"$GPGGA,234559,2514.7128,N,08008.5444,W,1,10,1.6,25"
"##MN-00 00 49 0235 01975 5334 440677 348357 201"
"155.990347"
"$GPGGA,234603,2514.7125,N,08008.5421,W,1,10,1.6,25"
"##MN-00 00 51 0236 01976 5334 440648 348347 201"
"155.990393"
"$GPGGA,234607,2514.7124,N,08008.5400,W,1,9,1.7,25,"
"##MN-00 00 50 0237 01976 5334 440650 348346 201"
"155.99044"
"$GPGGA,234611,2514.7124,N,08008.5387,W,1,9,1.6,25,"
"##MN+00 00 51 0238 01973 5334 440662 348351 201"
"155.990486"
"$GPGGA,234615,2514.7126,N,08008.5373,W,1,9,1.6,25,"
"##MN+00 00 48 0238 01975 5334 440639 348338 201"
"155.990532"
"$GPGGA,234619,2514.7126,N,08008.5353,W,1,9,1.6,25,"
"##MN+00 00 49 0239 01976 5334 440630 348336 200"
"155.990579"
"$GPGGA,234623,2514.7123,N,08008.5333,W,1,9,1.6,24,"
"##MN-00 00 48 0240 01979 5334 440634 348334 201"
"155.990625"
"$GPGGA,234627,2514.7123,N,08008.5315,W,1,10,1.6,24"
"##MN-00 00 47 0241 01976 5335 440639 348334 201"
"155.990671"
"$GPGGA,234631,2514.7124,N,08008.5294,W,1,9,1.6,24,"
"##MN-00 00 50 0242 01973 5335 440653 348339 201"
"155.990718"
"$GPGGA,234635,2514.7121,N,08008.5270,W,1,10,1.6,24"
"##MN-00 00 52 0242 01973 5335 440665 348343 201"
"155.990764"
"$GPGGA,234639,2514.7119,N,08008.5250,W,1,9,1.6,23,"
"##MN-00 00 47 0243 01976 5335 440669 348351 201"
"155.99081"
"$GPGGA,234643,2514.7123,N,08008.5232,W,1,10,1.6,23"
"##MN+00 00 49 0244 01973 5336 440675 348354 201"
"155.990856"
"$GPGGA,234647,2514.7124,N,08008.5215,W,1,9,1.6,23,"
"##MN+00 00 59 0245 01975 5336 440664 348356 201"
"155.990903"
"$GPGGA,234651,2514.7126,N,08008.5197,W,1,10,1.6,23"
"##MN+00 00 55 0245 01974 5336 440647 348344 201"
"155.990949"
"#increment_net"
"$GPGGA,234655,2514.7127,N,08008.5177,W,1,10,1.7,23"
"##MN-00 00 52 0246 01976 5337 440642 348345 201"
"155.990995"
"$GPGGA,234659,2514.7128,N,08008.5159,W,1,9,1.6,23,"
"##MN-00 00 47 0247 01975 5336 440645 348348 201"
"155.991042"
"$GPGGA,234703,2514.7128,N,08008.5139,W,1,10,1.6,23"
"##MN-00 00 47 0248 01974 5337 440656 348353 201"
"155.991088"
"$GPGGA,234707,2514.7130,N,08008.5120,W,1,10,1.6,23"
"##MN-00 00 47 0249 01972 5337 440703 348363 201"
"155.991134"
"$GPGGA,234711,2514.7132,N,08008.5099,W,1,10,1.6,23"
"##MN-00 00 49 0249 01970 5337 440718 348381 201"
"155.991181"
"$GPGGA,234715,2514.7134,N,08008.5079,W,1,10,1.6,23"
"##MN-00 00 51 0250 01969 5337 440772 348402 201"
"155.991227"
"$GPGGA,234719,2514.7137,N,08008.5058,W,1,10,1.6,22"
"##MN-00 00 46 0251 01971 5338 440815 348416 201"
"155.991273"
"$GPGGA,234723,2514.7138,N,08008.5036,W,1,10,1.7,22"
"##MN-00 00 49 0252 01970 5338 440825 348426 201"
"155.991319"
"$GPGGA,234727,2514.7139,N,08008.5019,W,1,8,1.6,22,"
"##MN-00 00 44 0252 01972 5338 440761 348400 201"
"155.991366"
"$GPGGA,234731,2514.7142,N,08008.5009,W,1,10,1.6,22"
"##MN-00 00 48 0253 01975 5338 440681 348354 201"
"155.991412"
"$GPGGA,234735,2514.7146,N,08008.4994,W,1,9,1.6,22,"
"##MN-00 00 48 0254 01978 5338 440685 348358 201"
"155.991458"
"$GPGGA,234739,2514.7148,N,08008.4978,W,1,10,1.8,21"
"##MN-00 00 45 0255 01978 5339 440710 348375 201"
"155.991505"
"$GPGGA,234743,2514.7146,N,08008.4962,W,1,9,1.6,21,"
"##MN-00 00 46 0255 01980 5338 440727 348384 201"
"155.991551"
"$GPGGA,234747,2514.7146,N,08008.4949,W,1,9,1.6,22,"
"##MN-00 00 46 0256 01979 5339 440720 348375 201"
"155.991597"
"$GPGGA,234751,2514.7146,N,08008.4929,W,1,8,1.8,22,"
"##MN-00 00 48 0257 01978 5339 440712 348376 201"
"155.991644"
"$GPGGA,234755,2514.7148,N,08008.4915,W,1,9,1.6,22,"
"##MN-00 00 46 0258 01976 5339 440735 348384 201"
"155.99169"
"$GPGGA,234759,2514.7149,N,08008.4897,W,1,10,1.6,22"
"##MN-00 00 42 0258 01978 5339 440732 348388 201"
"155.991736"
"$GPGGA,234803,2514.7150,N,08008.4878,W,1,10,1.6,22"
"##MN-00 00 42 0259 01981 5339 440726 348386 201"
"155.991782"
"$GPGGA,234808,2514.7153,N,08008.4861,W,1,10,1.6,22"
"##MN-00 00 45 0260 01978 5340 440723 348386 201"
"155.991829"
"$GPGGA,234812,2514.7153,N,08008.4843,W,1,10,1.6,22"
"##MN-00 00 46 0260 01979 5340 440715 348382 201"
"155.991875"
"$GPGGA,234816,2514.7157,N,08008.4828,W,1,10,1.8,22"
"##MN-00 00 45 0261 01980 5340 440717 348383 201"
"155.991921"
"$GPGGA,234820,2514.7160,N,08008.4811,W,1,9,1.8,22,"
"##MN-00 00 44 0262 01980 5340 440729 348387 201"
"155.991968"
"$GPGGA,234824,2514.7163,N,08008.4796,W,1,10,1.9,22"
"##MN-00 00 44 0263 01978 5340 440708 348378 201"
"155.992014"
"$GPGGA,234828,2514.7162,N,08008.4776,W,1,9,1.7,22,"
"##MN-00 00 45 0264 01978 5341 440690 348368 201"
"155.99206"
"$GPGGA,234832,2514.7162,N,08008.4761,W,1,10,1.6,22"
"##MN-00 00 42 0264 01981 5341 440708 348373 201"
"155.992107"
"$GPGGA,234836,2514.7162,N,08008.4746,W,1,9,1.6,22,"
"##MN-00 00 44 0265 01980 5341 440718 348373 201"
"155.992153"
"$GPGGA,234840,2514.7164,N,08008.4732,W,1,10,1.6,22"
"##MN-00 00 44 0266 01982 5341 440758 348393 201"
"155.992211"
"$GPGGA,234844,2514.7165,N,08008.4717,W,1,7,1.6,22,"
"##MN+00 00 40 0266 01984 5341 440790 348408 201"
"155.992257"
"$GPGGA,234848,2514.7170,N,08008.4701,W,1,9,1.6,22,"
"##MN+00 00 40 0267 01985 5342 440766 348397 199"
"155.992303"
"$GPGGA,234852,2514.7173,N,08008.4690,W,1,10,1.8,22"
"##MN+00 00 45 0267 01990 5342 440727 348375 197"
"155.99235"
"$GPGGA,234856,2514.7175,N,08008.4676,W,1,9,1.6,22,"
"##MN-00 00 44 0268 01991 5342 440735 348382 197"
"155.992396"
"$GPGGA,234900,2514.7178,N,08008.4662,W,1,9,1.8,22,"
"##MN-00 00 43 0269 01991 5342 440755 348394 197"
"155.992442"
"$GPGGA,234904,2514.7182,N,08008.4650,W,1,10,1.7,22"
"##MN-00 00 42 0269 01991 5342 440736 348386 197"
"155.992488"
"$GPGGA,234908,2514.7182,N,08008.4634,W,1,9,1.6,22,"
"##MN-00 00 38 0270 01992 5343 440718 348374 197"
"155.992535"
"$GPGGA,234912,2514.7185,N,08008.4619,W,1,10,1.6,22"
"##MN+00 00 44 0270 01990 5343 440711 348371 197"
"155.992581"
"$GPGGA,234916,2514.7186,N,08008.4605,W,1,9,1.6,22,"
"##MN+00 00 51 0271 01993 5343 440728 348385 198"
"155.992627"
"$GPGGA,234920,2514.7184,N,08008.4591,W,1,10,1.6,22"
"##MN+00 00 49 0272 01995 5343 440735 348378 197"
"155.992674"
"$GPGGA,234924,2514.7186,N,08008.4573,W,1,10,1.6,22"
"##MN-00 00 47 0273 01995 5343 440731 348375 198"
"155.99272"
"$GPGGA,234928,2514.7184,N,08008.4557,W,1,10,1.6,22"
"##MN-00 00 45 0274 01996 5343 440720 348370 199"
"155.992766"
"$GPGGA,234932,2514.7184,N,08008.4539,W,1,10,1.6,22"
"##MN-00 00 43 0275 02004 5344 440715 348362 199"
"155.992812"
"$GPGGA,234936,2514.7185,N,08008.4524,W,1,10,1.6,22"
"##MN-00 00 42 0276 02006 5344 440715 348363 199"
"155.992859"
"$GPGGA,234940,2514.7183,N,08008.4511,W,1,10,1.6,22"
"##MN-00 00 39 0276 02010 5344 440712 348371 199"
"155.992905"
"$GPGGA,234944,2514.7185,N,08008.4498,W,1,10,1.6,22"
"##MN-00 00 38 0277 02012 5344 440709 348371 199"
"155.992951"
"#increment_net"
"$GPGGA,234948,2514.7184,N,08008.4484,W,1,10,1.6,22"
"##MN-00 00 37 0278 02012 5344 440702 348365 199"
"155.992998"
"$GPGGA,234952,2514.7182,N,08008.4470,W,1,10,1.6,22"
"##MN-00 00 38 0279 02011 5344 440698 348363 199"
"155.993044"
"$GPGGA,234956,2514.7182,N,08008.4455,W,1,10,1.6,22"
"##MN-00 00 38 0280 02013 5344 440703 348363 199"
"155.99309"
"$GPGGA,235000,2514.7180,N,08008.4439,W,1,10,1.6,22"
"##MN-00 00 40 0281 02009 5345 440704 348363 199"
"155.993137"
"$GPGGA,235004,2514.7181,N,08008.4423,W,1,10,1.6,22"
"##MN-00 00 38 0282 02012 5345 440707 348365 199"
"155.993183"
"$GPGGA,235008,2514.7179,N,08008.4404,W,1,10,1.6,22"
"##MN-00 00 40 0283 02008 5345 440719 348363 199"
"155.993229"
"$GPGGA,235012,2514.7177,N,08008.4385,W,1,10,1.6,22"
"##MN-00 00 38 0284 02012 5345 440730 348362 199"
"155.993275"
"$GPGGA,235016,2514.7177,N,08008.4367,W,1,10,1.6,22"
"##MN-00 00 39 0285 02012 5345 440704 348362 199"
"155.993322"
"$GPGGA,235020,2514.7175,N,08008.4349,W,1,10,1.6,22"
"##MN-00 00 39 0286 02008 5345 440694 348360 199"
"155.993368"
"$GPGGA,235024,2514.7172,N,08008.4330,W,1,10,1.6,22"
"##MN-00 00 43 0287 02005 5346 440689 348360 199"
"155.993414"
"$GPGGA,235028,2514.7171,N,08008.4313,W,1,10,1.6,22"
"##MN-00 00 39 0288 02007 5346 440698 348363 198"
"155.993461"
"$GPGGA,235032,2514.7171,N,08008.4299,W,1,10,1.6,22"
"##MN-00 00 39 0289 02010 5346 440699 348373 199"
"155.993507"
"$GPGGA,235036,2514.7171,N,08008.4282,W,1,10,1.6,22"
"##MN-00 00 42 0290 02007 5346 440684 348363 199"
"155.993553"
"$GPGGA,235040,2514.7171,N,08008.4267,W,1,10,1.6,22"
"##MN-00 00 40 0291 02008 5346 440691 348363 199"
"155.9936"
"$GPGGA,235044,2514.7170,N,08008.4250,W,1,10,1.6,22"
"##MN-00 00 43 0292 02007 5347 440694 348361 199"
"155.993646"
"$GPGGA,235048,2514.7168,N,08008.4234,W,1,10,1.6,22"
"##MN-00 00 44 0293 02003 5347 440697 348359 199"
"155.993692"
"$GPGGA,235052,2514.7164,N,08008.4215,W,1,10,1.6,22"
"##MN-00 00 44 0294 02003 5347 440753 348396 199"
"155.993738"
"$GPGGA,235056,2514.7163,N,08008.4197,W,1,10,1.6,22"
"##MN-00 00 44 0295 02002 5347 440761 348395 199"
"155.993785"
"$GPGGA,235100,2514.7160,N,08008.4181,W,1,10,1.8,22"
"##MN-00 00 42 0296 02004 5347 440754 348385 199"
"155.993831"
"$GPGGA,235104,2514.7158,N,08008.4162,W,1,10,1.6,22"
"##MN-00 00 43 0297 02005 5347 440753 348385 199"
"155.993877"
"$GPGGA,235108,2514.7155,N,08008.4144,W,1,10,1.6,22"
"##MN-00 00 43 0298 02001 5348 440771 348397 199"
"155.993924"
"$GPGGA,235112,2514.7152,N,08008.4127,W,1,10,1.6,22"
"##MN-00 00 46 0299 01990 5347 440762 348395 199"
"155.99397"
"$GPGGA,235116,2514.7147,N,08008.4111,W,1,10,1.6,22"
"##MN-00 00 48 0300 01978 5348 440766 348396 199"
"155.994016"
"$GPGGA,235120,2514.7144,N,08008.4097,W,1,10,1.6,22"
"##MN-00 00 52 0302 01963 5348 440787 348411 199"
"155.994063"
"$GPGGA,235124,2514.7137,N,08008.4084,W,1,9,1.6,22,"
"##MN-00 00 48 0303 01950 5348 440792 348418 199"
"155.994109"
"$GPGGA,235128,2514.7132,N,08008.4071,W,1,9,1.6,22,"
"##MN-00 00 55 0304 01935 5348 440810 348427 199"
"155.994155"
"$GPGGA,235132,2514.7126,N,08008.4060,W,1,9,1.6,22,"
"##MN-00 00 53 0305 01924 5348 440871 348476 199"
"155.994201"
"$GPGGA,235136,2514.7121,N,08008.4051,W,1,9,1.6,22,"
"##MN-00 00 52 0307 01910 5349 440877 348505 199"
"155.994248"
"$GPGGA,235140,2514.7117,N,08008.4042,W,1,9,1.6,22,"
"##MN-00 00 51 0308 01902 5348 440886 348508 199"
"155.994294"
"$GPGGA,235144,2514.7111,N,08008.4033,W,1,8,1.8,22,"
"##MN-00 00 50 0310 01887 5349 440879 348517 199"
"155.99434"
"$GPGGA,235148,2514.7108,N,08008.4024,W,1,8,1.6,22,"
"##MN-00 00 53 0311 01877 5349 440866 348516 200"
"155.994387"
"$GPGGA,235152,2514.7103,N,08008.4016,W,1,9,1.6,22,"
"##MN-00 00 51 0312 01868 5349 440861 348520 200"
"155.994433"
"$GPGGA,235156,2514.7097,N,08008.4006,W,1,8,1.6,23,"
"##MN-00 00 56 0314 01865 5349 440874 348514 200"
"155.994479"
"$GPGGA,235200,2514.7088,N,08008.4000,W,1,8,1.6,23,"
"##MN-00 00 63 0315 01864 5349 440924 348481 200"
"155.994525"
"$GPGGA,235204,2514.7081,N,08008.3993,W,1,8,1.6,23,"
"##MN-00 00 51 0316 01861 5349 441026 357284 200"
"155.994572"
"$GPGGA,235208,2514.7074,N,08008.3988,W,1,8,1.6,24,"
"##MN-00 00 55 0317 01862 5350 441719 418882 200"
