" Tow: 4Wd-A   RVWS/WS1406"
" Date: 06/0/2014"
" Temperature Probe #  2597    Conductivity Probe #  2870"
" Pressure Probe #  109"
" Flow Meter Calibration  4.71 (m/count)  "
"153.637558"
"$GPGGA,151805,2438.9308,N,08039.5558,W,1,8,1.7,18,"
"##MN-00 00 53 0088 01857 5622 000015 903051 203"
" Tow: 4Wd-A   RVWS/WS1406"
" Date: 06/0/2014"
" Temperature Probe #  2597    Conductivity Probe #  2870"
" Pressure Probe #  109"
" Flow Meter Calibration  4.71 (m/count)  "
"153.639062"
"$GPGGA,152012,2438.8955,N,08039.4960,W,1,8,1.7,18,"
"##MN-00 00 56 0120 01967 5629 435410 346685 203"
"153.639954"
"$GPGGA,152126,2438.8746,N,08039.4624,W,1,8,1.7,17,"
"##MN-00 00 54 0138 02069 5628 440630 348249 203"
"153.640127"
"$GPGGA,152140,2438.8701,N,08039.4562,W,1,8,1.7,16,"
"##MN-00 00 53 0141 02094 5627 450704 351374 203"
"153.640174"
"$GPGGA,152148,2438.8678,N,08039.4520,W,1,8,1.7,16,"
"##MN-00 00 52 0142 02096 5627 452631 351956 203"
"153.64022"
"$GPGGA,152152,2438.8665,N,08039.4498,W,1,8,1.7,16,"
"##MN-00 00 55 0143 02099 5627 453000 352079 203"
"153.640266"
"$GPGGA,152156,2438.8652,N,08039.4478,W,1,8,1.8,16,"
"##MN-00 00 53 0143 02105 5627 453106 352116 203"
"153.640313"
"$GPGGA,152200,2438.8641,N,08039.4458,W,1,8,1.7,16,"
"##MN-00 00 54 0144 02113 5627 453245 352148 203"
"153.640359"
"$GPGGA,152204,2438.8629,N,08039.4437,W,1,8,1.7,16,"
"##MN-00 00 54 0145 02114 5626 453347 352218 203"
"153.640405"
"$GPGGA,152208,2438.8616,N,08039.4418,W,1,8,1.7,16,"
"##MN-00 00 56 0146 02118 5626 453477 352270 203"
"153.640451"
"$GPGGA,152212,2438.8604,N,08039.4401,W,1,8,1.7,16,"
"##MN-00 00 55 0147 02125 5625 453633 352339 203"
"153.640498"
"$GPGGA,152216,2438.8591,N,08039.4382,W,1,8,1.7,16,"
"##MN-00 00 55 0148 02128 5625 453719 352373 203"
"153.640544"
"$GPGGA,152220,2438.8582,N,08039.4363,W,1,7,1.7,16,"
"##MN-00 00 54 0149 02135 5625 453764 352365 203"
"153.64059"
"$GPGGA,152224,2438.8572,N,08039.4342,W,1,8,1.7,16,"
"##MN-00 00 54 0149 02137 5624 453809 352357 203"
"153.640637"
"$GPGGA,152228,2438.8560,N,08039.4323,W,1,8,1.7,16,"
"##MN-00 00 54 0150 02143 5623 453883 352437 203"
"153.640683"
"$GPGGA,152232,2438.8550,N,08039.4303,W,1,8,1.7,17,"
"##MN-00 00 51 0151 02149 5623 453986 352484 203"
"153.640729"
"$GPGGA,152236,2438.8536,N,08039.4284,W,1,8,1.7,17,"
"##MN-00 00 53 0152 02154 5622 454258 352603 203"
"153.640775"
"$GPGGA,152240,2438.8523,N,08039.4265,W,1,8,1.8,17,"
"##MN-00 00 60 0153 02157 5622 454500 352669 203"
"153.640822"
"$GPGGA,152244,2438.8510,N,08039.4244,W,1,8,1.8,17,"
"##MN-00 00 56 0153 02165 5621 454597 352691 203"
"153.640868"
"$GPGGA,152248,2438.8499,N,08039.4224,W,1,8,1.8,17,"
"##MN-00 00 55 0154 02168 5621 454653 352699 203"
"153.640914"
"$GPGGA,152252,2438.8486,N,08039.4206,W,1,8,1.8,17,"
"##MN-00 00 55 0155 02176 5620 454932 352814 203"
"153.640961"
"$GPGGA,152256,2438.8474,N,08039.4185,W,1,8,1.8,17,"
"##MN-00 00 52 0156 02180 5620 455310 352958 203"
"153.641007"
"$GPGGA,152300,2438.8461,N,08039.4164,W,1,8,1.8,17,"
"##MN-00 00 53 0157 02184 5619 455773 353183 203"
"153.641053"
"$GPGGA,152304,2438.8448,N,08039.4144,W,1,8,1.8,17,"
"##MN-00 00 58 0157 02188 5618 457098 353623 203"
"153.6411"
"$GPGGA,152309,2438.8438,N,08039.4127,W,1,8,1.8,17,"
"##MN-00 00 54 0158 02198 5617 457691 353965 203"
"153.641146"
"$GPGGA,152312,2438.8427,N,08039.4109,W,1,8,1.8,17,"
"##MN-00 00 55 0159 02197 5616 457961 353978 203"
"153.641204"
"$GPGGA,152316,2438.8414,N,08039.4090,W,1,8,1.8,17,"
"##MN-00 00 53 0160 02207 5616 458384 354271 203"
"153.64125"
"$GPGGA,152320,2438.8403,N,08039.4071,W,1,7,1.8,17,"
"##MN-00 00 48 0161 02212 5615 458901 354472 203"
"153.641296"
"$GPGGA,152325,2438.8387,N,08039.4047,W,1,8,1.8,17,"
"##MN-00 00 49 0161 02214 5614 459702 354799 203"
"153.641343"
"$GPGGA,152329,2438.8374,N,08039.4026,W,1,8,1.8,17,"
"##MN-00 00 54 0162 02215 5613 460219 355053 203"
"153.641389"
"$GPGGA,152333,2438.8362,N,08039.4008,W,1,8,1.8,17,"
"##MN-00 00 52 0163 02226 5612 460293 355097 203"
"153.641435"
"$GPGGA,152337,2438.8351,N,08039.3990,W,1,8,1.8,17,"
"##MN-00 00 51 0164 02226 5611 460490 355158 203"
"153.641481"
"$GPGGA,152341,2438.8337,N,08039.3968,W,1,8,1.8,17,"
"##MN-00 00 54 0165 02228 5611 460998 355405 203"
"153.641528"
"$GPGGA,152345,2438.8326,N,08039.3945,W,1,8,1.8,17,"
"##MN-00 00 53 0166 02235 5610 461316 355531 203"
"153.641574"
"$GPGGA,152349,2438.8313,N,08039.3923,W,1,8,1.8,17,"
"##MN-00 00 52 0166 02235 5608 461542 355598 203"
"153.64162"
"$GPGGA,152353,2438.8297,N,08039.3899,W,1,8,1.8,16,"
"##MN-00 00 53 0167 02244 5608 461653 355637 203"
"153.641667"
"$GPGGA,152357,2438.8286,N,08039.3878,W,1,8,1.8,16,"
"##MN-00 00 50 0168 02247 5607 461815 355677 203"
"153.641713"
"$GPGGA,152401,2438.8272,N,08039.3859,W,1,8,1.8,16,"
"##MN-00 00 52 0169 02252 5606 462154 355798 203"
"153.641759"
"$GPGGA,152405,2438.8260,N,08039.3837,W,1,8,1.8,16,"
"##MN-00 00 55 0170 02259 5605 462443 355901 203"
"153.641806"
"$GPGGA,152409,2438.8250,N,08039.3817,W,1,8,1.8,16,"
"##MN-00 00 57 0170 02263 5604 462731 355970 203"
"153.641852"
"$GPGGA,152413,2438.8239,N,08039.3798,W,1,8,1.8,16,"
"##MN-00 00 51 0171 02271 5602 462909 356030 203"
"153.641898"
"$GPGGA,152417,2438.8228,N,08039.3776,W,1,8,1.8,16,"
"##MN-00 00 52 0172 02276 5601 463038 356091 203"
"153.641944"
"$GPGGA,152421,2438.8217,N,08039.3755,W,1,8,1.8,16,"
"##MN-00 00 55 0172 02281 5600 463229 356135 203"
"153.641991"
"$GPGGA,152425,2438.8204,N,08039.3735,W,1,8,1.8,15,"
"##MN-00 00 52 0173 02288 5599 463310 356189 203"
"153.642037"
"$GPGGA,152429,2438.8194,N,08039.3714,W,1,8,1.8,15,"
"##MN-00 00 49 0174 02292 5598 463504 356220 203"
"153.642083"
"$GPGGA,152433,2438.8182,N,08039.3692,W,1,8,1.8,15,"
"##MN-00 00 53 0175 02296 5596 463773 356314 203"
"153.64213"
"$GPGGA,152437,2438.8171,N,08039.3668,W,1,8,1.8,15,"
"##MN-00 00 53 0175 02300 5595 463780 356313 203"
"153.642176"
"$GPGGA,152441,2438.8158,N,08039.3645,W,1,8,1.8,15,"
"##MN-00 00 51 0176 02303 5594 463870 356344 203"
"153.642222"
"$GPGGA,152445,2438.8145,N,08039.3622,W,1,8,1.8,15,"
"##MN-00 00 51 0177 02304 5593 463940 356358 203"
"153.642268"
"$GPGGA,152449,2438.8134,N,08039.3598,W,1,8,1.8,15,"
"##MN-00 00 50 0178 02299 5591 463965 356376 203"
"153.642315"
"$GPGGA,152453,2438.8120,N,08039.3576,W,1,8,1.8,15,"
"##MN-00 00 51 0179 02298 5590 463941 356373 203"
"153.642361"
"$GPGGA,152457,2438.8109,N,08039.3555,W,1,8,1.8,15,"
"##MN-00 00 51 0180 02299 5589 463890 356358 203"
"153.642407"
"$GPGGA,152501,2438.8098,N,08039.3531,W,1,8,1.8,15,"
"##MN-00 00 48 0181 02297 5587 463830 356347 203"
"153.642454"
"$GPGGA,152505,2438.8084,N,08039.3510,W,1,8,1.8,15,"
"##MN-00 00 51 0182 02296 5586 463817 356347 203"
"153.6425"
"$GPGGA,152509,2438.8073,N,08039.3488,W,1,8,1.8,15,"
"##MN-00 00 51 0183 02302 5585 463812 356343 203"
"153.642546"
"$GPGGA,152513,2438.8062,N,08039.3465,W,1,8,1.8,15,"
"##MN-00 00 53 0184 02299 5584 463841 356352 203"
"153.642593"
"$GPGGA,152517,2438.8047,N,08039.3445,W,1,8,1.8,15,"
"##MN-00 00 54 0184 02301 5582 463940 356390 203"
"153.642639"
"$GPGGA,152521,2438.8036,N,08039.3426,W,1,8,1.8,15,"
"##MN-00 00 49 0185 02301 5581 463993 356394 203"
"153.642685"
"$GPGGA,152525,2438.8023,N,08039.3407,W,1,8,1.8,15,"
"##MN-00 00 49 0186 02298 5579 464005 356399 203"
"153.642731"
"$GPGGA,152529,2438.8015,N,08039.3383,W,1,8,1.5,15,"
"##MN-00 00 48 0187 02301 5577 464012 356404 203"
"153.642778"
"$GPGGA,152533,2438.8005,N,08039.3357,W,1,8,1.5,15,"
"##MN-00 00 51 0188 02300 5577 464008 356404 203"
"153.642824"
"$GPGGA,152537,2438.7994,N,08039.3335,W,1,8,1.5,15,"
"##MN-00 00 53 0189 02300 5575 464014 356408 203"
"153.64287"
"$GPGGA,152541,2438.7984,N,08039.3312,W,1,8,1.5,16,"
"##MN-00 00 53 0190 02302 5573 464043 356415 203"
"153.642917"
"$GPGGA,152545,2438.7973,N,08039.3289,W,1,8,1.5,16,"
"##MN-00 00 51 0191 02303 5572 464063 356418 203"
"153.642963"
"$GPGGA,152549,2438.7961,N,08039.3267,W,1,9,1.5,16,"
"##MN-00 00 53 0191 02300 5570 464087 356430 203"
"153.643009"
"$GPGGA,152553,2438.7948,N,08039.3246,W,1,9,1.5,16,"
"##MN-00 00 51 0192 02303 5569 464087 356428 203"
"153.643056"
"$GPGGA,152557,2438.7936,N,08039.3224,W,1,9,1.5,16,"
"##MN-00 00 51 0193 02302 5567 464079 356426 203"
"153.643102"
"$GPGGA,152601,2438.7925,N,08039.3202,W,1,9,1.5,16,"
"##MN-00 00 51 0194 02300 5565 464086 356427 203"
"153.643148"
"$GPGGA,152605,2438.7912,N,08039.3183,W,1,9,1.5,16,"
"##MN+00 00 51 0195 02304 5564 464123 356443 203"
"153.643194"
"$GPGGA,152609,2438.7900,N,08039.3160,W,1,9,1.5,16,"
"##MN+00 00 51 0196 02303 5562 464157 356444 202"
"153.643241"
"$GPGGA,152613,2438.7889,N,08039.3139,W,1,9,1.5,16,"
"##MN+00 00 54 0197 02296 5561 464127 356436 202"
"153.643287"
"$GPGGA,152617,2438.7875,N,08039.3118,W,1,9,1.5,16,"
"##MN+00 00 55 0198 02301 5559 464081 356424 203"
"153.643333"
"$GPGGA,152621,2438.7869,N,08039.3095,W,1,9,1.5,16,"
"##MN+00 00 52 0199 02301 5558 464085 356429 203"
"153.64338"
"$GPGGA,152625,2438.7863,N,08039.3074,W,1,9,1.5,17,"
"##MN+00 00 63 0200 02307 5556 464119 356435 203"
"153.643426"
"#increment_net"
"$GPGGA,152629,2438.7854,N,08039.3051,W,1,9,1.5,17,"
"##MN-00 00 57 0201 02310 5555 464191 356462 202"
"153.643472"
"$GPGGA,152633,2438.7845,N,08039.3026,W,1,9,1.5,17,"
"##MN-00 00 49 0202 02310 5553 464238 356479 203"
"153.643519"
"$GPGGA,152637,2438.7833,N,08039.3001,W,1,9,1.5,17,"
"##MN-00 00 51 0203 02309 5551 464248 356486 203"
"153.643565"
"$GPGGA,152641,2438.7822,N,08039.2977,W,1,8,1.5,17,"
"##MN-00 00 53 0204 02308 5549 464250 356486 203"
"153.643611"
"$GPGGA,152645,2438.7811,N,08039.2956,W,1,9,1.5,17,"
"##MN-00 00 50 0205 02308 5547 464258 356486 203"
"153.643657"
"$GPGGA,152649,2438.7800,N,08039.2935,W,1,9,1.5,17,"
"##MN-00 00 52 0206 02308 5546 464289 356503 203"
"153.643704"
"$GPGGA,152653,2438.7791,N,08039.2912,W,1,9,1.5,17,"
"##MN-00 00 56 0206 02307 5544 464296 356505 203"
"153.64375"
"$GPGGA,152657,2438.7780,N,08039.2891,W,1,9,1.5,17,"
"##MN-00 00 52 0207 02308 5542 464298 356504 202"
"153.643796"
"$GPGGA,152701,2438.7774,N,08039.2872,W,1,9,1.5,17,"
"##MN-00 00 53 0208 02308 5541 464289 356502 202"
"153.643843"
"$GPGGA,152705,2438.7762,N,08039.2854,W,1,9,1.5,18,"
"##MN-00 00 54 0209 02308 5539 464292 356504 202"
"153.643889"
"$GPGGA,152709,2438.7751,N,08039.2836,W,1,9,1.5,18,"
"##MN-00 00 48 0210 02308 5537 464307 356510 202"
"153.643935"
"$GPGGA,152713,2438.7739,N,08039.2814,W,1,9,1.5,18,"
"##MN-00 00 49 0211 02305 5535 464327 356515 202"
"153.643981"
"$GPGGA,152717,2438.7728,N,08039.2789,W,1,9,1.6,18,"
"##MN-00 00 53 0212 02305 5534 464329 356517 202"
"153.644028"
"$GPGGA,152721,2438.7716,N,08039.2765,W,1,9,1.5,18,"
"##MN-00 00 52 0213 02304 5532 464333 356519 202"
"153.644074"
"$GPGGA,152725,2438.7704,N,08039.2742,W,1,9,1.5,18,"
"##MN-00 00 55 0214 02305 5531 464344 356523 202"
"153.64412"
"$GPGGA,152729,2438.7691,N,08039.2720,W,1,9,1.5,18,"
"##MN-00 00 46 0215 02304 5529 464368 356534 202"
"153.644167"
"$GPGGA,152733,2438.7684,N,08039.2698,W,1,9,1.5,18,"
"##MN-00 00 53 0216 02302 5527 464382 356538 202"
"153.644213"
"$GPGGA,152737,2438.7673,N,08039.2679,W,1,9,1.5,18,"
"##MN-00 00 51 0216 02307 5525 464377 356536 202"
"153.644259"
"$GPGGA,152741,2438.7663,N,08039.2661,W,1,9,1.5,18,"
"##MN-00 00 51 0217 02307 5524 464378 356536 202"
"153.644306"
"$GPGGA,152745,2438.7651,N,08039.2641,W,1,9,1.5,18,"
"##MN-00 00 53 0218 02305 5522 464377 356535 202"
"153.644363"
"$GPGGA,152749,2438.7639,N,08039.2619,W,1,9,1.5,18,"
"##MN-00 00 50 0219 02311 5520 464376 356535 202"
"153.64441"
"$GPGGA,152753,2438.7627,N,08039.2595,W,1,9,1.5,18,"
"##MN-00 00 51 0220 02305 5518 464369 356534 202"
"153.644456"
"$GPGGA,152758,2438.7611,N,08039.2567,W,1,9,1.5,18,"
"##MN-00 00 55 0221 02301 5516 464374 356535 202"
"153.644502"
"$GPGGA,152802,2438.7599,N,08039.2543,W,1,9,1.5,18,"
"##MN-00 00 52 0222 02304 5515 464373 356533 202"
"153.644549"
"$GPGGA,152806,2438.7589,N,08039.2519,W,1,9,1.5,18,"
"##MN-00 00 52 0223 02304 5513 464383 356537 202"
"153.644595"
"$GPGGA,152810,2438.7578,N,08039.2495,W,1,9,1.5,18,"
"##MN+00 00 54 0224 02305 5511 464371 356533 202"
"153.644641"
"$GPGGA,152814,2438.7565,N,08039.2472,W,1,8,1.5,17,"
"##MN+00 00 54 0225 02305 5510 464374 356534 202"
"153.644687"
"$GPGGA,152818,2438.7557,N,08039.2451,W,1,9,1.6,17,"
"##MN+00 00 51 0226 02305 5508 464380 356535 202"
"153.644734"
"$GPGGA,152822,2438.7549,N,08039.2431,W,1,9,1.6,17,"
"##MN-00 00 51 0226 02308 5506 464389 356541 202"
"153.64478"
"$GPGGA,152826,2438.7539,N,08039.2407,W,1,9,1.6,17,"
"##MN-00 00 52 0227 02306 5504 464406 356545 202"
"153.644826"
"$GPGGA,152830,2438.7529,N,08039.2384,W,1,9,1.6,17,"
"##MN-00 00 50 0228 02307 5502 464419 356547 202"
"153.644873"
"$GPGGA,152834,2438.7521,N,08039.2362,W,1,9,1.6,17,"
"##MN-00 00 53 0229 02311 5501 464438 356556 202"
"153.644919"
"$GPGGA,152838,2438.7511,N,08039.2338,W,1,9,1.6,17,"
"##MN-00 00 49 0230 02311 5499 464464 356565 202"
"153.644965"
"$GPGGA,152842,2438.7502,N,08039.2315,W,1,9,1.6,17,"
"##MN-00 00 51 0231 02309 5497 464463 356565 202"
"153.645012"
"$GPGGA,152846,2438.7489,N,08039.2291,W,1,9,1.6,17,"
"##MN-00 00 51 0232 02306 5495 464462 356565 202"
"153.645058"
"$GPGGA,152850,2438.7477,N,08039.2268,W,1,9,1.6,18,"
"##MN+00 00 52 0232 02307 5494 464474 356572 202"
"153.645104"
"$GPGGA,152854,2438.7466,N,08039.2246,W,1,9,1.6,18,"
"##MN+00 00 52 0233 02313 5492 464482 356572 202"
"153.64515"
"$GPGGA,152858,2438.7453,N,08039.2222,W,1,9,1.6,18,"
"##MN+00 00 53 0234 02311 5490 464485 356574 202"
"153.645197"
"$GPGGA,152902,2438.7442,N,08039.2198,W,1,9,1.6,18,"
"##MN-00 00 61 0235 02312 5488 464491 356576 202"
"153.645243"
"#increment_net"
"$GPGGA,152906,2438.7430,N,08039.2173,W,1,9,1.6,18,"
"##MN-00 00 58 0236 02310 5486 464503 356579 202"
"153.645289"
"$GPGGA,152910,2438.7420,N,08039.2150,W,1,9,1.6,17,"
"##MN-00 00 48 0237 02316 5484 464501 356580 202"
"153.645336"
"$GPGGA,152914,2438.7413,N,08039.2130,W,1,9,1.6,17,"
"##MN-00 00 49 0237 02316 5483 464500 356579 202"
"153.645382"
"$GPGGA,152918,2438.7404,N,08039.2110,W,1,9,1.6,17,"
"##MN-00 00 53 0238 02311 5481 464510 356585 202"
"153.645428"
"$GPGGA,152922,2438.7398,N,08039.2090,W,1,9,1.6,17,"
"##MN-00 00 51 0239 02316 5480 464500 356576 202"
"153.645475"
"$GPGGA,152926,2438.7390,N,08039.2069,W,1,9,1.6,17,"
"##MN-00 00 51 0240 02319 5478 464503 356578 202"
"153.645521"
"$GPGGA,152930,2438.7383,N,08039.2047,W,1,9,1.6,17,"
"##MN-00 00 51 0241 02324 5476 464504 356579 202"
"153.645567"
"$GPGGA,152934,2438.7375,N,08039.2027,W,1,9,1.6,18,"
"##MN-00 00 51 0241 02322 5474 464520 356584 202"
"153.645613"
"$GPGGA,152938,2438.7365,N,08039.2009,W,1,9,1.6,18,"
"##MN-00 00 50 0242 02323 5473 464535 356590 202"
"153.64566"
"$GPGGA,152942,2438.7356,N,08039.1988,W,1,9,1.6,18,"
"##MN-00 00 49 0243 02320 5471 464547 356592 202"
"153.645706"
"$GPGGA,152946,2438.7345,N,08039.1968,W,1,9,1.6,18,"
"##MN-00 00 49 0244 02314 5469 464527 356588 202"
"153.645752"
"$GPGGA,152950,2438.7334,N,08039.1947,W,1,9,1.6,18,"
"##MN-00 00 49 0245 02315 5467 464508 356580 202"
"153.645799"
"$GPGGA,152954,2438.7322,N,08039.1925,W,1,9,1.6,18,"
"##MN-00 00 50 0246 02320 5465 464496 356574 202"
"153.645845"
"$GPGGA,152958,2438.7312,N,08039.1901,W,1,9,1.6,18,"
"##MN-00 00 48 0247 02316 5463 464496 356573 202"
"153.645891"
"$GPGGA,153002,2438.7303,N,08039.1877,W,1,9,1.6,18,"
"##MN-00 00 52 0248 02310 5462 464502 356576 202"
"153.645937"
"$GPGGA,153006,2438.7290,N,08039.1853,W,1,9,1.6,18,"
"##MN-00 00 49 0249 02316 5460 464500 356574 202"
"153.645984"
"$GPGGA,153010,2438.7279,N,08039.1831,W,1,9,1.6,18,"
"##MN-00 00 47 0250 02318 5458 464502 356576 202"
"153.64603"
"$GPGGA,153014,2438.7268,N,08039.1809,W,1,9,1.6,18,"
"##MN-00 00 51 0251 02311 5457 464511 356579 202"
"153.646076"
"$GPGGA,153018,2438.7256,N,08039.1785,W,1,9,1.6,17,"
"##MN-00 00 56 0252 02314 5455 464517 356579 202"
"153.646123"
"$GPGGA,153022,2438.7246,N,08039.1762,W,1,9,1.6,17,"
"##MN-00 00 58 0252 02313 5453 464519 356580 202"
"153.646169"
"$GPGGA,153026,2438.7238,N,08039.1743,W,1,9,1.6,17,"
"##MN-00 00 51 0253 02321 5451 464529 356585 202"
"153.646215"
"$GPGGA,153030,2438.7231,N,08039.1723,W,1,9,1.6,17,"
"##MN-00 00 46 0254 02321 5450 464551 356592 202"
"153.646262"
"$GPGGA,153034,2438.7221,N,08039.1700,W,1,9,1.6,17,"
"##MN-00 00 49 0255 02316 5448 464565 356595 202"
"153.646308"
"$GPGGA,153038,2438.7213,N,08039.1686,W,1,9,1.9,17,"
"##MN-00 00 54 0256 02316 5446 464567 356596 202"
"153.646354"
"$GPGGA,153042,2438.7202,N,08039.1658,W,1,9,1.6,17,"
"##MN+00 00 48 0257 02320 5444 464570 356598 202"
"153.6464"
"$GPGGA,153046,2438.7192,N,08039.1636,W,1,9,1.6,17,"
"##MN+00 00 49 0258 02320 5443 464578 356601 202"
"153.646447"
"$GPGGA,153050,2438.7186,N,08039.1619,W,1,9,1.6,17,"
"##MN+00 00 52 0258 02322 5441 464591 356606 202"
"153.646493"
"$GPGGA,153054,2438.7175,N,08039.1598,W,1,9,1.6,16,"
"##MN-00 00 49 0259 02322 5439 464595 356608 202"
"153.646539"
"$GPGGA,153058,2438.7162,N,08039.1571,W,1,9,1.6,16,"
"##MN-00 00 52 0260 02319 5437 464595 356608 202"
"153.646586"
"$GPGGA,153102,2438.7155,N,08039.1559,W,1,9,1.9,16,"
"##MN-00 00 49 0261 02321 5435 464594 356608 202"
"153.646632"
"$GPGGA,153106,2438.7141,N,08039.1529,W,1,9,1.6,16,"
"##MN-00 00 49 0262 02321 5434 464592 356606 202"
"153.646678"
"$GPGGA,153110,2438.7132,N,08039.1503,W,1,9,1.6,16,"
"##MN-00 00 54 0263 02316 5432 464590 356605 202"
"153.646725"
"$GPGGA,153114,2438.7126,N,08039.1482,W,1,9,1.6,16,"
"##MN-00 00 50 0264 02315 5431 464577 356599 202"
"153.646771"
"$GPGGA,153118,2438.7116,N,08039.1463,W,1,9,1.6,16,"
"##MN-00 00 50 0264 02315 5429 464566 356597 202"
"153.646817"
"$GPGGA,153122,2438.7106,N,08039.1441,W,1,8,1.6,16,"
"##MN+00 00 45 0265 02313 5427 464558 356597 202"
"153.646863"
"$GPGGA,153126,2438.7099,N,08039.1419,W,1,9,1.6,16,"
"##MN+00 00 49 0266 02317 5426 464590 356605 202"
"153.64691"
"$GPGGA,153130,2438.7090,N,08039.1399,W,1,9,1.6,16,"
"##MN+00 00 57 0267 02320 5424 464600 356609 202"
"153.646956"
"$GPGGA,153134,2438.7083,N,08039.1377,W,1,9,1.6,17,"
"##MN-00 00 51 0268 02321 5422 464635 356621 202"
"153.647002"
"#increment_net"
"$GPGGA,153138,2438.7072,N,08039.1355,W,1,9,1.6,17,"
"##MN-00 00 52 0269 02313 5420 464650 356629 202"
"153.647049"
"$GPGGA,153142,2438.7062,N,08039.1332,W,1,9,1.6,17,"
"##MN-00 00 51 0270 02316 5419 464648 356627 202"
"153.647095"
"$GPGGA,153146,2438.7052,N,08039.1310,W,1,9,1.6,18,"
"##MN-00 00 49 0271 02315 5417 464645 356626 202"
"153.647141"
"$GPGGA,153150,2438.7043,N,08039.1287,W,1,9,1.6,18,"
"##MN-00 00 48 0271 02314 5415 464635 356621 202"
"153.647188"
"$GPGGA,153154,2438.7036,N,08039.1263,W,1,9,1.7,18,"
"##MN-00 00 50 0272 02312 5413 464629 356620 202"
"153.647234"
"$GPGGA,153158,2438.7025,N,08039.1244,W,1,8,1.6,18,"
"##MN-00 00 54 0273 02311 5412 464657 356633 202"
"153.64728"
"$GPGGA,153202,2438.7015,N,08039.1228,W,1,9,1.6,19,"
"##MN-00 00 46 0274 02317 5410 464655 356629 202"
"153.647326"
"$GPGGA,153206,2438.7005,N,08039.1211,W,1,9,1.6,19,"
"##MN-00 00 47 0275 02311 5408 464629 356622 202"
"153.647373"
"$GPGGA,153210,2438.6994,N,08039.1189,W,1,9,1.6,19,"
"##MN-00 00 50 0276 02310 5407 464604 356609 202"
"153.647419"
"$GPGGA,153214,2438.6983,N,08039.1167,W,1,9,1.6,19,"
"##MN-00 00 46 0277 02309 5405 464671 356631 202"
"153.647465"
"$GPGGA,153218,2438.6974,N,08039.1148,W,1,9,1.6,19,"
"##MN-00 00 49 0278 02311 5403 464691 356643 202"
"153.647523"
"$GPGGA,153222,2438.6965,N,08039.1128,W,1,9,1.6,19,"
"##MN-00 00 49 0278 02312 5402 464698 356644 202"
"153.647569"
"$GPGGA,153227,2438.6953,N,08039.1100,W,1,9,1.6,19,"
"##MN-00 00 48 0279 02310 5400 464707 356645 202"
"153.647616"
"$GPGGA,153231,2438.6943,N,08039.1079,W,1,9,1.6,19,"
"##MN-00 00 50 0280 02313 5398 464722 356652 202"
"153.647662"
"$GPGGA,153234,2438.6935,N,08039.1067,W,1,9,1.9,19,"
"##MN-00 00 48 0281 02312 5397 464707 356646 202"
"153.647708"
"$GPGGA,153239,2438.6924,N,08039.1039,W,1,9,1.6,19,"
"##MN-00 00 47 0282 02311 5395 464682 356637 202"
"153.647755"
"$GPGGA,153242,2438.6914,N,08039.1022,W,1,9,1.6,19,"
"##MN-00 00 48 0283 02311 5394 464644 356626 202"
"153.647801"
"$GPGGA,153247,2438.6900,N,08039.0996,W,1,9,1.6,19,"
"##MN-00 00 46 0284 02312 5392 464626 356619 202"
"153.647847"
"$GPGGA,153251,2438.6890,N,08039.0973,W,1,9,1.6,19,"
"##MN-00 00 47 0285 02303 5390 464595 356609 202"
"153.647894"
"$GPGGA,153255,2438.6877,N,08039.0951,W,1,9,1.6,19,"
"##MN-00 00 48 0285 02309 5388 464496 356566 202"
"153.64794"
"$GPGGA,153259,2438.6866,N,08039.0930,W,1,9,1.6,19,"
"##MN-00 00 49 0286 02307 5387 464372 356527 202"
"153.647986"
"$GPGGA,153303,2438.6855,N,08039.0909,W,1,9,1.6,18,"
"##MN-00 00 48 0287 02309 5385 464331 356516 202"
"153.648032"
"$GPGGA,153307,2438.6846,N,08039.0886,W,1,9,1.6,18,"
"##MN-00 00 46 0288 02311 5384 464353 356523 202"
"153.648079"
"$GPGGA,153311,2438.6839,N,08039.0864,W,1,9,1.6,18,"
"##MN-00 00 48 0289 02312 5382 464357 356523 202"
"153.648125"
"$GPGGA,153315,2438.6830,N,08039.0842,W,1,8,1.9,18,"
"##MN-00 00 49 0290 02311 5381 464341 356523 202"
"153.648171"
"$GPGGA,153319,2438.6819,N,08039.0822,W,1,9,1.6,18,"
"##MN-00 00 49 0291 02312 5379 464371 356527 202"
"153.648218"
"$GPGGA,153323,2438.6807,N,08039.0802,W,1,9,1.6,18,"
"##MN-00 00 49 0291 02309 5377 464384 356528 202"
"153.648264"
"$GPGGA,153327,2438.6797,N,08039.0782,W,1,9,1.6,17,"
"##MN-00 00 45 0292 02313 5375 464399 356533 202"
"153.64831"
"$GPGGA,153331,2438.6787,N,08039.0762,W,1,9,1.6,17,"
"##MN+00 00 47 0293 02311 5374 464393 356530 202"
"153.648356"
"$GPGGA,153335,2438.6780,N,08039.0741,W,1,9,1.6,17,"
"##MN+00 00 55 0294 02308 5372 464338 356502 202"
"153.648403"
"$GPGGA,153339,2438.6772,N,08039.0721,W,1,9,1.6,17,"
"##MN+00 00 49 0295 02315 5371 464210 356470 202"
"153.648449"
"$GPGGA,153343,2438.6762,N,08039.0698,W,1,9,1.6,17,"
"##MN+00 00 51 0295 02316 5369 464233 356484 202"
"153.648495"
"$GPGGA,153347,2438.6755,N,08039.0676,W,1,9,1.6,17,"
"##MN+00 00 50 0296 02323 5368 464257 356490 202"
"153.648542"
"$GPGGA,153351,2438.6747,N,08039.0653,W,1,9,1.6,17,"
"##MN+00 00 55 0297 02326 5366 464311 356505 202"
"153.648588"
"$GPGGA,153355,2438.6740,N,08039.0629,W,1,9,1.6,17,"
"##MN-00 00 49 0298 02324 5365 464439 356548 202"
"153.648634"
"#increment_net"
"$GPGGA,153359,2438.6733,N,08039.0606,W,1,9,1.6,17,"
"##MN-00 00 49 0299 02328 5363 464480 356558 202"
"153.648681"
"$GPGGA,153403,2438.6725,N,08039.0583,W,1,9,1.6,17,"
"##MN-00 00 50 0300 02325 5362 464495 356560 202"
"153.648727"
"$GPGGA,153407,2438.6718,N,08039.0559,W,1,9,1.7,17,"
"##MN-00 00 52 0301 02321 5361 464501 356567 202"
"153.648773"
"$GPGGA,153411,2438.6705,N,08039.0537,W,1,9,1.6,17,"
"##MN-00 00 47 0301 02327 5359 464409 356531 202"
"153.648819"
"$GPGGA,153415,2438.6696,N,08039.0516,W,1,9,1.7,17,"
"##MN-00 00 47 0302 02324 5357 464356 356524 202"
"153.648866"
"$GPGGA,153419,2438.6685,N,08039.0495,W,1,9,1.6,17,"
"##MN-00 00 47 0304 02323 5356 464264 356498 202"
"153.648912"
"$GPGGA,153423,2438.6673,N,08039.0472,W,1,9,1.9,17,"
"##MN-00 00 43 0304 02325 5354 464175 356468 202"
"153.648958"
"$GPGGA,153427,2438.6664,N,08039.0450,W,1,9,1.6,17,"
"##MN-00 00 47 0305 02318 5353 464132 356457 202"
"153.649005"
"$GPGGA,153431,2438.6653,N,08039.0430,W,1,9,1.7,18,"
"##MN-00 00 48 0306 02320 5351 464024 356417 202"
"153.649051"
"$GPGGA,153435,2438.6642,N,08039.0411,W,1,8,1.6,18,"
"##MN-00 00 46 0307 02319 5349 463943 356375 202"
"153.649097"
"$GPGGA,153439,2438.6628,N,08039.0392,W,1,9,1.6,18,"
"##MN-00 00 47 0308 02316 5348 463856 356341 202"
"153.649144"
"$GPGGA,153443,2438.6618,N,08039.0371,W,1,9,1.6,18,"
"##MN-00 00 48 0309 02320 5347 463759 356303 202"
"153.64919"
"$GPGGA,153447,2438.6608,N,08039.0347,W,1,9,1.6,18,"
"##MN-00 00 46 0310 02321 5345 463742 356294 202"
"153.649236"
"$GPGGA,153451,2438.6597,N,08039.0323,W,1,9,1.6,18,"
"##MN-00 00 46 0311 02318 5343 463672 356261 202"
"153.649282"
"$GPGGA,153455,2438.6588,N,08039.0302,W,1,9,1.6,18,"
"##MN-00 00 46 0312 02318 5341 463602 356231 202"
"153.649329"
"$GPGGA,153459,2438.6577,N,08039.0279,W,1,9,1.6,18,"
"##MN-00 00 48 0313 02316 5340 463565 356217 202"
"153.649375"
"$GPGGA,153503,2438.6566,N,08039.0259,W,1,9,1.6,18,"
"##MN-00 00 44 0314 02317 5339 463535 356210 202"
"153.649421"
"$GPGGA,153507,2438.6554,N,08039.0239,W,1,9,1.6,18,"
"##MN-00 00 51 0315 02313 5337 463486 356193 202"
"153.649468"
"$GPGGA,153511,2438.6539,N,08039.0218,W,1,9,1.6,18,"
"##MN-00 00 47 0316 02313 5336 463386 356151 202"
"153.649514"
"$GPGGA,153515,2438.6528,N,08039.0201,W,1,9,1.6,18,"
"##MN-00 00 44 0317 02314 5334 463284 356114 202"
"153.64956"
"$GPGGA,153519,2438.6514,N,08039.0181,W,1,9,1.6,17,"
"##MN-00 00 48 0318 02309 5333 463212 356076 202"
"153.649606"
"$GPGGA,153523,2438.6503,N,08039.0161,W,1,9,1.6,17,"
"##MN-00 00 49 0319 02309 5331 463004 355973 202"
"153.649653"
"$GPGGA,153527,2438.6494,N,08039.0141,W,1,9,1.6,17,"
"##MN-00 00 46 0320 02312 5330 462916 355958 202"
"153.649699"
"$GPGGA,153531,2438.6483,N,08039.0120,W,1,9,1.6,17,"
"##MN-00 00 50 0321 02309 5329 462823 355914 202"
"153.649745"
"$GPGGA,153535,2438.6471,N,08039.0099,W,1,9,1.6,17,"
"##MN-00 00 45 0322 02310 5327 462714 355856 202"
"153.649792"
"$GPGGA,153539,2438.6459,N,08039.0076,W,1,9,1.6,17,"
"##MN+00 00 41 0323 02304 5325 462607 355801 202"
"153.649838"
"$GPGGA,153543,2438.6448,N,08039.0055,W,1,9,1.6,17,"
"##MN+00 00 53 0324 02301 5324 462373 355724 202"
"153.649884"
"$GPGGA,153547,2438.6437,N,08039.0034,W,1,9,1.6,17,"
"##MN+00 00 51 0325 02305 5323 462184 355657 202"
"153.649931"
"$GPGGA,153551,2438.6426,N,08039.0011,W,1,9,1.6,17,"
"##MN-00 00 50 0326 02309 5321 462185 355645 202"
"153.649977"
"$GPGGA,153555,2438.6418,N,08038.9985,W,1,9,1.6,17,"
"##MN+00 00 49 0326 02311 5320 462270 355668 202"
"153.650023"
"$GPGGA,153559,2438.6412,N,08038.9965,W,1,9,1.6,17,"
"##MN+00 00 50 0327 02316 5318 462696 355846 202"
"153.650069"
"$GPGGA,153603,2438.6405,N,08038.9947,W,1,8,1.7,17,"
"##MN+00 00 56 0328 02321 5317 462992 355985 202"
"153.650116"
"#increment_net"
"$GPGGA,153607,2438.6398,N,08038.9927,W,1,9,1.6,17,"
"##MN-00 00 54 0329 02321 5316 463092 355995 202"
"153.650162"
"$GPGGA,153611,2438.6389,N,08038.9906,W,1,9,1.6,18,"
"##MN-00 00 54 0331 02323 5315 463054 355955 202"
"153.650208"
"$GPGGA,153615,2438.6376,N,08038.9887,W,1,9,1.6,18,"
"##MN-00 00 49 0332 02330 5313 463066 355950 202"
"153.650255"
"$GPGGA,153619,2438.6365,N,08038.9868,W,1,8,1.9,18,"
"##MN-00 00 50 0333 02337 5310 463373 356073 202"
"153.650301"
"$GPGGA,153623,2438.6357,N,08038.9845,W,1,8,1.7,18,"
"##MN-00 00 51 0334 02340 5309 463540 356157 202"
"153.650347"
"$GPGGA,153627,2438.6346,N,08038.9822,W,1,9,1.6,18,"
"##MN-00 00 52 0335 02339 5308 463884 356306 202"
"153.650394"
"$GPGGA,153631,2438.6335,N,08038.9802,W,1,9,1.6,18,"
"##MN-00 00 53 0337 02344 5307 464022 356345 202"
"153.65044"
"$GPGGA,153635,2438.6321,N,08038.9785,W,1,9,1.6,18,"
"##MN-00 00 46 0338 02350 5305 464097 356376 202"
"153.650486"
"$GPGGA,153639,2438.6307,N,08038.9765,W,1,9,1.6,18,"
"##MN-00 00 49 0339 02352 5304 464145 356391 202"
"153.650532"
"$GPGGA,153643,2438.6295,N,08038.9743,W,1,9,1.6,18,"
"##MN-00 00 51 0340 02352 5302 464187 356404 202"
"153.650579"
"$GPGGA,153647,2438.6286,N,08038.9722,W,1,9,1.6,18,"
"##MN-00 00 51 0341 02348 5301 464186 356405 202"
"153.650625"
"$GPGGA,153651,2438.6278,N,08038.9702,W,1,9,1.6,17,"
"##MN-00 00 52 0343 02345 5300 464117 356378 202"
"153.650671"
"$GPGGA,153655,2438.6270,N,08038.9684,W,1,9,1.6,17,"
"##MN-00 00 48 0344 02345 5299 463969 356347 202"
"153.650729"
"$GPGGA,153659,2438.6260,N,08038.9665,W,1,9,1.6,17,"
"##MN-00 00 47 0345 02344 5298 463624 356123 202"
"153.650775"
"$GPGGA,153703,2438.6248,N,08038.9644,W,1,9,1.6,18,"
"##MN-00 00 48 0346 02339 5296 463496 356073 202"
"153.650822"
"$GPGGA,153708,2438.6232,N,08038.9614,W,1,9,1.6,18,"
"##MN-00 00 49 0348 02336 5295 463404 356053 202"
"153.650868"
"$GPGGA,153712,2438.6219,N,08038.9591,W,1,9,1.6,18,"
"##MN-00 00 54 0349 02334 5293 463303 356022 202"
"153.650914"
"$GPGGA,153716,2438.6205,N,08038.9568,W,1,8,1.9,18,"
"##MN-00 00 47 0350 02329 5292 463169 355952 202"
"153.650961"
"$GPGGA,153720,2438.6190,N,08038.9545,W,1,9,1.6,18,"
"##MN-00 00 48 0351 02325 5291 462982 355878 202"
"153.651007"
"$GPGGA,153723,2438.6181,N,08038.9529,W,1,9,1.6,18,"
"##MN-00 00 50 0352 02324 5289 462768 355807 202"
"153.651053"
"$GPGGA,153727,2438.6166,N,08038.9506,W,1,9,1.6,18,"
"##MN-00 00 48 0354 02318 5288 462542 355737 202"
"153.6511"
"$GPGGA,153731,2438.6152,N,08038.9483,W,1,9,1.6,18,"
"##MN-00 00 51 0355 02316 5287 462375 355638 202"
"153.651146"
"$GPGGA,153736,2438.6135,N,08038.9455,W,1,7,1.9,18,"
"##MN-00 00 49 0356 02312 5285 462351 355615 202"
"153.651192"
"$GPGGA,153740,2438.6123,N,08038.9433,W,1,9,1.6,18,"
"##MN-00 00 50 0358 02305 5284 462340 355627 202"
"153.651238"
"$GPGGA,153744,2438.6109,N,08038.9412,W,1,9,1.8,18,"
"##MN-00 00 49 0359 02301 5283 462422 355638 202"
"153.651285"
"$GPGGA,153748,2438.6093,N,08038.9393,W,1,8,1.6,19,"
"##MN-00 00 45 0360 02299 5282 462366 355629 202"
"153.651331"
"$GPGGA,153752,2438.6084,N,08038.9371,W,1,8,1.6,19,"
"##MN-00 00 50 0361 02297 5280 462187 355584 202"
"153.651377"
"$GPGGA,153756,2438.6069,N,08038.9345,W,1,9,1.6,19,"
"##MN-00 00 53 0363 02289 5279 462119 355566 202"
"153.651424"
"$GPGGA,153800,2438.6054,N,08038.9323,W,1,9,1.6,19,"
"##MN-00 00 45 0364 02291 5278 462037 355533 202"
"153.65147"
"$GPGGA,153804,2438.6041,N,08038.9303,W,1,9,1.6,19,"
"##MN-00 00 48 0365 02291 5277 461876 355459 202"
"153.651516"
"$GPGGA,153808,2438.6029,N,08038.9280,W,1,8,1.6,19,"
"##MN-00 00 52 0367 02283 5275 461793 355402 202"
"153.651562"
"$GPGGA,153812,2438.6017,N,08038.9258,W,1,9,1.6,20,"
"##MN-00 00 52 0368 02284 5274 461683 355373 202"
"153.651609"
"$GPGGA,153816,2438.6005,N,08038.9238,W,1,9,1.7,20,"
"##MN-00 00 47 0369 02283 5273 461566 355330 202"
"153.651655"
"$GPGGA,153820,2438.5993,N,08038.9219,W,1,8,1.7,20,"
"##MN-00 00 47 0370 02284 5272 461496 355310 202"
"153.651701"
"$GPGGA,153824,2438.5981,N,08038.9202,W,1,7,1.7,20,"
"##MN-00 00 48 0372 02280 5271 461280 355215 202"
"153.651748"
"$GPGGA,153828,2438.5967,N,08038.9181,W,1,9,2.0,20,"
"##MN-00 00 50 0373 02277 5269 461197 355212 202"
"153.651794"
"$GPGGA,153832,2438.5953,N,08038.9159,W,1,9,1.7,19,"
"##MN-00 00 48 0374 02273 5269 461193 355220 202"
"153.65184"
"$GPGGA,153836,2438.5941,N,08038.9136,W,1,8,1.7,19,"
"##MN-00 00 52 0375 02270 5267 461230 355245 202"
"153.651887"
"$GPGGA,153840,2438.5929,N,08038.9111,W,1,8,1.7,19,"
"##MN-00 00 52 0377 02266 5266 461240 355263 202"
"153.651933"
"$GPGGA,153844,2438.5917,N,08038.9092,W,1,9,1.7,19,"
"##MN-00 00 46 0378 02268 5265 461240 355274 202"
"153.651979"
"$GPGGA,153848,2438.5905,N,08038.9071,W,1,8,1.7,19,"
"##MN-00 00 43 0379 02266 5264 461246 355288 202"
"153.652025"
"$GPGGA,153852,2438.5893,N,08038.9048,W,1,8,1.7,19,"
"##MN-00 00 48 0380 02262 5262 461199 355291 202"
"153.652072"
"$GPGGA,153856,2438.5880,N,08038.9025,W,1,8,1.7,19,"
"##MN-00 00 48 0381 02257 5261 460914 355209 202"
"153.652118"
"$GPGGA,153900,2438.5865,N,08038.9001,W,1,9,1.7,19,"
"##MN-00 00 47 0383 02253 5260 460180 354950 202"
"153.652164"
"$GPGGA,153904,2438.5852,N,08038.8978,W,1,9,1.8,19,"
"##MN-00 00 46 0384 02252 5259 459742 354647 202"
"153.652211"
"$GPGGA,153908,2438.5837,N,08038.8961,W,1,9,1.7,19,"
"##MN-00 00 52 0385 02246 5258 459503 354585 202"
"153.652257"
"$GPGGA,153912,2438.5824,N,08038.8945,W,1,9,1.7,19,"
"##MN-00 00 50 0386 02246 5257 459453 354547 202"
"153.652303"
"$GPGGA,153916,2438.5813,N,08038.8925,W,1,9,1.7,19,"
"##MN-00 00 45 0388 02244 5256 459536 354571 202"
"153.65235"
"$GPGGA,153920,2438.5804,N,08038.8905,W,1,8,1.7,19,"
"##MN-00 00 52 0389 02238 5254 459586 354678 202"
"153.652396"
"$GPGGA,153924,2438.5794,N,08038.8882,W,1,9,1.7,19,"
"##MN-00 00 49 0390 02235 5253 459177 354511 202"
"153.652442"
"$GPGGA,153928,2438.5786,N,08038.8859,W,1,9,1.7,19,"
"##MN-00 00 45 0392 02235 5252 458793 354461 202"
"153.652488"
"$GPGGA,153932,2438.5775,N,08038.8835,W,1,9,2.0,19,"
"##MN-00 00 46 0393 02232 5251 458164 354202 202"
"153.652535"
"$GPGGA,153936,2438.5762,N,08038.8813,W,1,9,1.7,20,"
"##MN-00 00 44 0394 02230 5250 457432 353842 202"
"153.652581"
"$GPGGA,153940,2438.5751,N,08038.8791,W,1,9,1.7,20,"
"##MN-00 00 47 0395 02227 5249 456903 353605 202"
"153.652627"
"$GPGGA,153944,2438.5739,N,08038.8767,W,1,9,1.7,20,"
"##MN-00 00 49 0396 02227 5248 456540 353481 202"
"153.652674"
"$GPGGA,153948,2438.5728,N,08038.8744,W,1,9,1.7,20,"
"##MN-00 00 48 0398 02226 5247 456466 353441 202"
"153.65272"
"$GPGGA,153952,2438.5717,N,08038.8720,W,1,9,1.7,20,"
"##MN-00 00 51 0399 02218 5246 456463 353455 202"
"153.652766"
"$GPGGA,153956,2438.5706,N,08038.8700,W,1,9,1.7,20,"
"##MN-00 00 45 0400 02219 5244 456504 353420 202"
"153.652812"
"$GPGGA,154000,2438.5697,N,08038.8681,W,1,9,1.7,20,"
"##MN-00 00 44 0401 02218 5243 456578 353446 202"
"153.652859"
"$GPGGA,154004,2438.5685,N,08038.8660,W,1,9,1.7,20,"
"##MN-00 00 44 0402 02215 5243 456610 353467 202"
"153.652905"
"$GPGGA,154008,2438.5672,N,08038.8637,W,1,9,1.7,20,"
"##MN-00 00 49 0403 02210 5241 456676 353492 202"
"153.652951"
"$GPGGA,154012,2438.5659,N,08038.8615,W,1,9,1.7,20,"
"##MN-00 00 53 0405 02205 5241 456746 353531 202"
"153.652998"
"$GPGGA,154016,2438.5652,N,08038.8594,W,1,8,1.7,20,"
"##MN-00 00 45 0406 02202 5240 456828 353575 202"
"153.653044"
"$GPGGA,154020,2438.5638,N,08038.8573,W,1,8,1.7,20,"
"##MN-00 00 45 0407 02200 5239 456861 353582 202"
"153.65309"
"$GPGGA,154024,2438.5627,N,08038.8551,W,1,9,1.7,20,"
"##MN-00 00 47 0408 02195 5238 456868 353587 202"
"153.653137"
"$GPGGA,154028,2438.5618,N,08038.8533,W,1,8,2.5,20,"
"##MN-00 00 46 0410 02191 5237 456772 353582 202"
"153.653183"
"$GPGGA,154032,2438.5606,N,08038.8518,W,1,7,1.7,20,"
"##MN-00 00 46 0411 02187 5236 456622 353511 202"
"153.653229"
"$GPGGA,154036,2438.5593,N,08038.8500,W,1,7,2.0,20,"
"##MN-00 00 46 0412 02180 5235 456443 353469 202"
"153.653275"
"$GPGGA,154040,2438.5577,N,08038.8483,W,1,8,2.0,20,"
"##MN-00 00 45 0414 02178 5234 456343 353436 202"
"153.653322"
"$GPGGA,154044,2438.5565,N,08038.8463,W,1,8,2.0,20,"
"##MN-00 00 43 0415 02177 5233 456398 353459 202"
"153.653368"
"$GPGGA,154048,2438.5552,N,08038.8445,W,1,8,2.0,20,"
"##MN-00 00 46 0416 02171 5232 456435 353484 202"
"153.653414"
"$GPGGA,154052,2438.5540,N,08038.8427,W,1,9,1.7,20,"
"##MN-00 00 46 0417 02165 5231 456458 353505 202"
"153.653461"
"$GPGGA,154056,2438.5529,N,08038.8406,W,1,8,2.5,19,"
"##MN-00 00 49 0419 02159 5230 456409 353508 202"
"153.653507"
"$GPGGA,154100,2438.5517,N,08038.8388,W,1,8,1.7,20,"
"##MN-00 00 48 0420 02154 5229 456021 353378 202"
"153.653553"
"$GPGGA,154104,2438.5506,N,08038.8372,W,1,9,2.0,20,"
"##MN-00 00 50 0421 02149 5229 455540 353199 202"
"153.6536"
"$GPGGA,154108,2438.5490,N,08038.8359,W,1,7,1.7,20,"
"##MN-00 00 51 0423 02148 5228 455221 353025 202"
"153.653646"
"$GPGGA,154112,2438.5484,N,08038.8341,W,1,8,1.7,20,"
"##MN-00 00 44 0424 02150 5227 455092 352968 202"
"153.653692"
"$GPGGA,154116,2438.5475,N,08038.8325,W,1,8,1.7,20,"
"##MN-00 00 46 0425 02144 5226 455010 352931 202"
"153.653738"
"$GPGGA,154120,2438.5462,N,08038.8309,W,1,9,1.7,20,"
"##MN-00 00 55 0427 02135 5225 454941 352898 202"
"153.653785"
"$GPGGA,154124,2438.5452,N,08038.8294,W,1,9,2.5,20,"
"##MN-00 00 53 0428 02131 5224 454835 352876 202"
"153.653831"
"$GPGGA,154128,2438.5439,N,08038.8282,W,1,8,1.7,20,"
"##MN-00 00 52 0429 02129 5223 454615 352782 202"
"153.653877"
"$GPGGA,154132,2438.5429,N,08038.8269,W,1,9,1.7,20,"
"##MN-00 00 44 0430 02129 5223 454466 352831 202"
"153.653924"
"$GPGGA,154136,2438.5415,N,08038.8257,W,1,9,1.7,20,"
"##MN-00 00 49 0432 02120 5222 454414 352854 202"
"153.653981"
"$GPGGA,154140,2438.5401,N,08038.8248,W,1,9,1.7,20,"
"##MN-00 00 47 0433 02118 5221 454298 352842 202"
"153.654028"
"$GPGGA,154145,2438.5387,N,08038.8232,W,1,9,1.7,19,"
"##MN-00 00 45 0434 02115 5220 454135 352797 202"
"153.654074"
"$GPGGA,154148,2438.5376,N,08038.8224,W,1,9,1.7,19,"
"##MN-00 00 47 0436 02109 5220 453902 352704 202"
"153.65412"
"$GPGGA,154153,2438.5361,N,08038.8208,W,1,9,1.7,19,"
"##MN-00 00 48 0437 02103 5219 453556 352556 202"
"153.654167"
"$GPGGA,154157,2438.5349,N,08038.8197,W,1,9,1.7,18,"
"##MN-00 00 50 0438 02100 5218 453296 352439 202"
"153.654213"
"$GPGGA,154200,2438.5339,N,08038.8186,W,1,9,1.7,18,"
"##MN-00 00 50 0440 02095 5217 452827 352272 202"
"153.654259"
"$GPGGA,154204,2438.5327,N,08038.8176,W,1,9,1.7,18,"
"##MN-00 00 55 0441 02085 5216 451827 351928 202"
"153.654306"
"$GPGGA,154208,2438.5314,N,08038.8165,W,1,9,1.7,18,"
"##MN-00 00 54 0443 02084 5215 450550 351528 202"
"153.654352"
"$GPGGA,154213,2438.5299,N,08038.8149,W,1,9,1.7,17,"
"##MN-00 00 47 0444 02082 5215 450300 351291 202"
"153.654398"
"$GPGGA,154217,2438.5287,N,08038.8135,W,1,9,1.7,17,"
"##MN-00 00 53 0446 02073 5214 449062 350987 202"
"153.654444"
"$GPGGA,154221,2438.5274,N,08038.8121,W,1,9,1.7,17,"
"##MN-00 00 54 0447 02070 5214 447325 350603 202"
"153.654491"
"$GPGGA,154225,2438.5263,N,08038.8107,W,1,9,1.8,17,"
"##MN-00 00 52 0448 02066 5213 446348 350468 202"
"153.654537"
"$GPGGA,154229,2438.5252,N,08038.8099,W,1,9,1.7,17,"
"##MN-00 00 54 0450 02061 5212 445343 349893 202"
"153.654583"
"$GPGGA,154233,2438.5240,N,08038.8085,W,1,9,1.7,17,"
"##MN-00 00 53 0451 02056 5211 442510 349401 202"
"153.65463"
"$GPGGA,154237,2438.5227,N,08038.8073,W,1,9,1.7,17,"
"##MN-00 00 53 0453 02048 5211 439255 348526 202"
"153.654676"
"$GPGGA,154241,2438.5215,N,08038.8060,W,1,9,1.7,17,"
"##MN-00 00 54 0454 02045 5211 437518 347807 202"
"153.654722"
"$GPGGA,154245,2438.5204,N,08038.8046,W,1,9,1.7,17,"
"##MN-00 00 54 0455 02037 5210 436620 347351 202"
"153.654769"
"$GPGGA,154249,2438.5190,N,08038.8033,W,1,9,1.7,17,"
"##MN-00 00 54 0457 02032 5209 436334 347296 202"
"153.654815"
"$GPGGA,154253,2438.5175,N,08038.8019,W,1,9,1.7,17,"
"##MN-00 00 54 0458 02029 5209 436346 347181 202"
"153.654861"
"$GPGGA,154257,2438.5163,N,08038.8006,W,1,9,1.7,17,"
"##MN-00 00 54 0460 02025 5208 436374 347134 202"
"153.654907"
"$GPGGA,154301,2438.5151,N,08038.7992,W,1,9,1.9,17,"
"##MN-00 00 58 0461 02019 5207 436064 347125 202"
"153.654954"
"$GPGGA,154305,2438.5139,N,08038.7984,W,1,9,1.7,17,"
"##MN-00 00 52 0463 02017 5207 435690 347016 202"
"153.655"
"$GPGGA,154309,2438.5128,N,08038.7978,W,1,9,1.7,17,"
"##MN-00 00 54 0464 02011 5207 435450 346886 202"
"153.655046"
"$GPGGA,154313,2438.5115,N,08038.7966,W,1,9,1.7,17,"
"##MN-00 00 54 0466 02008 5206 435354 346773 202"
"153.655093"
"$GPGGA,154317,2438.5107,N,08038.7950,W,1,9,1.7,17,"
"##MN-00 00 55 0467 02004 5206 435354 346758 202"
"153.655139"
"$GPGGA,154321,2438.5096,N,08038.7938,W,1,9,1.7,17,"
"##MN-00 00 59 0469 02001 5205 435315 346729 202"
"153.655185"
"$GPGGA,154325,2438.5085,N,08038.7927,W,1,9,1.7,17,"
"##MN-00 00 55 0471 01997 5205 435303 346699 202"
"153.655231"
"$GPGGA,154329,2438.5074,N,08038.7915,W,1,9,1.7,17,"
"##MN-00 00 52 0472 01991 5205 435335 346700 202"
"153.655278"
"$GPGGA,154333,2438.5063,N,08038.7902,W,1,9,1.7,17,"
"##MN-00 00 58 0474 01988 5205 435356 346706 202"
"153.655324"
"$GPGGA,154337,2438.5053,N,08038.7892,W,1,9,1.7,17,"
"##MN-00 00 55 0475 01985 5204 435313 346686 202"
"153.65537"
"$GPGGA,154341,2438.5042,N,08038.7876,W,1,9,1.7,17,"
"##MN-00 00 56 0477 01982 5204 435338 346701 202"
"153.655417"
"$GPGGA,154345,2438.5028,N,08038.7862,W,1,9,1.7,17,"
"##MN-00 00 54 0478 01980 5204 435274 346688 202"
"153.655463"
"$GPGGA,154349,2438.5020,N,08038.7852,W,1,9,1.7,17,"
"##MN-00 00 57 0480 01973 5204 435225 346646 202"
"153.655509"
"$GPGGA,154353,2438.5006,N,08038.7838,W,1,9,1.7,17,"
"##MN-00 00 63 0482 01966 5204 435204 346639 202"
"153.655556"
"$GPGGA,154357,2438.4996,N,08038.7826,W,1,9,1.7,17,"
"##MN-00 00 57 0483 01969 5204 435187 346631 202"
"153.655602"
"$GPGGA,154401,2438.4984,N,08038.7814,W,1,9,1.7,17,"
"##MN-00 00 59 0485 01959 5204 435186 346632 202"
"153.655648"
"$GPGGA,154405,2438.4971,N,08038.7799,W,1,9,1.7,17,"
"##MN-00 00 62 0486 01954 5204 435253 346651 202"
"153.655694"
"$GPGGA,154409,2438.4960,N,08038.7785,W,1,9,1.7,16,"
"##MN-00 00 58 0488 01948 5204 435233 346644 202"
"153.655741"
"$GPGGA,154413,2438.4948,N,08038.7771,W,1,9,1.7,16,"
"##MN-00 00 61 0489 01946 5204 435209 346638 202"
"153.655787"
"$GPGGA,154417,2438.4937,N,08038.7757,W,1,9,1.7,16,"
"##MN-00 00 57 0491 01942 5204 435188 346629 202"
"153.655833"
"$GPGGA,154421,2438.4926,N,08038.7743,W,1,9,1.7,16,"
"##MN-00 00 53 0492 01939 5204 435192 346628 202"
"153.65588"
"$GPGGA,154425,2438.4915,N,08038.7729,W,1,9,1.7,16,"
"##MN-00 00 60 0494 01934 5204 435190 346626 202"
"153.655926"
"$GPGGA,154429,2438.4901,N,08038.7716,W,1,9,1.7,16,"
"##MN-00 00 63 0495 01927 5204 435209 346632 202"
"153.655972"
"$GPGGA,154433,2438.4890,N,08038.7704,W,1,9,1.7,16,"
"##MN-00 00 60 0497 01923 5204 435195 346628 202"
"153.656019"
"$GPGGA,154437,2438.4879,N,08038.7692,W,1,9,1.7,16,"
"##MN-00 00 60 0498 01918 5205 435159 346618 202"
"153.656065"
"$GPGGA,154441,2438.4867,N,08038.7682,W,1,9,1.7,16,"
"##MN-00 00 64 0500 01910 5205 435148 346614 202"
"153.656111"
"$GPGGA,154445,2438.4855,N,08038.7667,W,1,9,1.7,16,"
"##MN-00 00 58 0501 01908 5205 435146 346614 202"
"153.656157"
"$GPGGA,154449,2438.4843,N,08038.7648,W,1,8,1.8,16,"
"##MN-00 00 61 0503 01902 5206 435145 346612 202"
"153.656204"
"$GPGGA,154453,2438.4832,N,08038.7638,W,1,9,1.7,16,"
"##MN-00 00 65 0504 01898 5206 435145 346611 202"
"153.65625"
"$GPGGA,154457,2438.4823,N,08038.7630,W,1,9,1.7,16,"
"##MN-00 00 62 0506 01895 5206 435154 346613 202"
"153.656296"
"$GPGGA,154501,2438.4816,N,08038.7620,W,1,9,1.7,16,"
"##MN-00 00 58 0507 01891 5206 435160 346615 202"
"153.656343"
"$GPGGA,154505,2438.4808,N,08038.7605,W,1,9,1.7,16,"
"##MN-00 00 53 0509 01885 5207 435164 346617 202"
"153.656389"
"$GPGGA,154509,2438.4800,N,08038.7591,W,1,9,1.7,16,"
"##MN-00 00 60 0510 01877 5207 435157 346614 202"
"153.656435"
"$GPGGA,154513,2438.4790,N,08038.7578,W,1,9,1.7,17,"
"##MN-00 00 67 0511 01874 5207 435151 346613 202"
"153.656481"
"$GPGGA,154517,2438.4779,N,08038.7566,W,1,9,1.7,17,"
"##MN-00 00 55 0512 01871 5208 435151 346614 202"
"153.656528"
"$GPGGA,154521,2438.4769,N,08038.7549,W,1,9,1.7,17,"
"##MN-00 00 59 0514 01863 5209 435145 346611 202"
"153.656574"
"$GPGGA,154525,2438.4757,N,08038.7535,W,1,9,1.7,17,"
"##MN-00 00 66 0515 01862 5209 435138 346612 202"
"153.65662"
"$GPGGA,154529,2438.4746,N,08038.7522,W,1,9,1.8,17,"
"##MN-00 00 54 0517 01861 5208 435154 346617 202"
"153.656667"
"$GPGGA,154533,2438.4738,N,08038.7512,W,1,9,1.7,17,"
"##MN-00 00 57 0518 01861 5209 435160 346632 202"
