" Tow: 4Wd-B   RVWS/WS1406"
" Date: 06/02/2014"
" Temperature Probe #  2597    Conductivity Probe #  2870"
" Pressure Probe #  109"
" Flow Meter Calibration  4.71 (m/count)  "
"153.672616"
"$GPGGA,160827,2438.0747,N,08037.8867,W,1,9,1.9,18,"
"##MN-00 00 26 0531 01856 5481 443739 886801 201"
"153.672662"
"$GPGGA,160835,2438.0723,N,08037.8816,W,1,9,1.9,18,"
"##MN-00 00 41 0531 01855 5482 436401 925384 201"
"153.672708"
"$GPGGA,160839,2438.0711,N,08037.8791,W,1,9,1.9,18,"
"##MN-00 00 52 0531 01855 5483 435414 561526 201"
"153.672755"
"$GPGGA,160843,2438.0700,N,08037.8764,W,1,9,1.9,18,"
"##MN-00 00 50 0532 01856 5484 434315 346683 201"
"153.672801"
"$GPGGA,160847,2438.0688,N,08037.8737,W,1,8,1.9,18,"
"##MN-00 00 51 0533 01856 5485 434345 346678 201"
"153.672847"
"$GPGGA,160851,2438.0678,N,08037.8711,W,1,9,1.9,18,"
"##MN-00 00 56 0534 01857 5487 434442 346511 201"
"153.672894"
"$GPGGA,160855,2438.0667,N,08037.8686,W,1,9,1.9,18,"
"##MN-00 00 58 0534 01859 5489 434481 346460 201"
"153.67294"
"$GPGGA,160859,2438.0654,N,08037.8663,W,1,9,1.9,18,"
"##MN-00 00 57 0535 01857 5490 434486 346451 201"
"153.672986"
"$GPGGA,160903,2438.0643,N,08037.8639,W,1,9,1.9,17,"
"##MN-00 00 52 0536 01861 5491 434502 346457 201"
"153.673032"
"$GPGGA,160907,2438.0634,N,08037.8614,W,1,9,1.9,17,"
"##MN-00 00 55 0537 01867 5492 434504 346462 201"
"153.673079"
"$GPGGA,160911,2438.0624,N,08037.8588,W,1,9,1.9,17,"
"##MN-00 00 58 0538 01873 5492 434512 346461 201"
"153.673125"
"$GPGGA,160915,2438.0614,N,08037.8564,W,1,9,1.9,17,"
"##MN-00 00 61 0539 01884 5493 434516 346444 201"
"153.673171"
"$GPGGA,160919,2438.0605,N,08037.8541,W,1,9,1.9,17,"
"##MN-00 00 57 0539 01895 5494 434507 346431 201"
"153.673218"
"$GPGGA,160923,2438.0596,N,08037.8517,W,1,9,1.9,17,"
"##MN-00 00 58 0540 01898 5496 434494 346423 201"
"153.673264"
"$GPGGA,160927,2438.0588,N,08037.8492,W,1,9,1.9,17,"
"##MN-00 00 58 0541 01909 5497 434498 346423 201"
"153.67331"
"$GPGGA,160931,2438.0581,N,08037.8470,W,1,9,1.9,17,"
"##MN-00 00 59 0542 01919 5498 434509 346417 201"
"153.673356"
"$GPGGA,160935,2438.0573,N,08037.8444,W,1,9,1.9,17,"
"##MN-00 00 49 0543 01925 5498 434540 346420 201"
"153.673403"
"$GPGGA,160939,2438.0565,N,08037.8418,W,1,8,1.9,17,"
"##MN-00 00 58 0544 01929 5499 434579 346429 201"
"153.673449"
"$GPGGA,160943,2438.0556,N,08037.8394,W,1,9,1.9,17,"
"##MN-00 00 59 0544 01940 5500 434583 346431 201"
"153.673495"
"$GPGGA,160947,2438.0549,N,08037.8371,W,1,9,2.0,17,"
"##MN-00 00 56 0545 01953 5502 434571 346429 201"
"153.673542"
"$GPGGA,160951,2438.0540,N,08037.8347,W,1,9,2.0,17,"
"##MN-00 00 59 0546 01957 5503 434572 346426 201"
"153.673588"
"$GPGGA,160955,2438.0533,N,08037.8322,W,1,9,2.0,17,"
"##MN-00 00 56 0547 01966 5504 434547 346415 201"
"153.673634"
"$GPGGA,160959,2438.0526,N,08037.8297,W,1,9,2.0,17,"
"##MN-00 00 60 0547 01973 5505 434591 346428 201"
"153.673681"
"$GPGGA,161003,2438.0519,N,08037.8276,W,1,9,2.0,17,"
"##MN-00 00 54 0548 01976 5506 434605 346431 201"
"153.673727"
"$GPGGA,161007,2438.0511,N,08037.8254,W,1,9,2.0,17,"
"##MN-00 00 57 0549 01982 5507 434607 346429 201"
"153.673773"
"$GPGGA,161011,2438.0504,N,08037.8231,W,1,9,2.0,18,"
"##MN-00 00 58 0550 01980 5507 434601 346427 201"
"153.673819"
"$GPGGA,161015,2438.0495,N,08037.8205,W,1,9,2.0,18,"
"##MN-00 00 53 0551 01988 5508 434629 346436 201"
"153.673866"
"$GPGGA,161019,2438.0486,N,08037.8175,W,1,9,2.0,18,"
"##MN-00 00 55 0552 01989 5509 434582 346422 201"
"153.673912"
"$GPGGA,161023,2438.0477,N,08037.8152,W,1,9,2.0,18,"
"##MN-00 00 57 0553 01993 5509 434580 346420 201"
"153.673958"
"$GPGGA,161027,2438.0469,N,08037.8131,W,1,9,2.0,18,"
"##MN-00 00 59 0553 01997 5510 434594 346419 201"
"153.674005"
"$GPGGA,161031,2438.0461,N,08037.8110,W,1,9,2.0,18,"
"##MN-00 00 55 0553 02004 5511 434576 346417 201"
"153.674051"
"$GPGGA,161035,2438.0454,N,08037.8091,W,1,9,2.0,18,"
"##MN-00 00 58 0553 02008 5512 434578 346416 201"
"153.674097"
"$GPGGA,161039,2438.0448,N,08037.8067,W,1,9,2.0,18,"
"##MN-00 00 55 0553 02017 5513 434576 346415 201"
"153.674144"
"$GPGGA,161043,2438.0443,N,08037.8044,W,1,9,2.0,18,"
"##MN-00 00 51 0553 02020 5513 434618 346423 201"
"153.67419"
"$GPGGA,161047,2438.0436,N,08037.8020,W,1,9,2.0,18,"
"##MN-00 00 56 0553 02024 5514 434650 346433 201"
"153.674236"
"$GPGGA,161051,2438.0430,N,08037.7996,W,1,9,2.0,17,"
"##MN-00 00 53 0553 02026 5514 434680 346442 201"
"153.674282"
"$GPGGA,161055,2438.0423,N,08037.7971,W,1,9,2.0,18,"
"##MN-00 00 55 0553 02035 5515 434731 346461 201"
"153.674329"
"$GPGGA,161059,2438.0417,N,08037.7948,W,1,9,2.0,18,"
"##MN-00 00 52 0553 02038 5515 434740 346464 201"
"153.674375"
"$GPGGA,161103,2438.0410,N,08037.7924,W,1,9,2.0,18,"
"##MN-00 00 56 0553 02040 5516 434867 346491 201"
"153.674421"
"$GPGGA,161107,2438.0403,N,08037.7900,W,1,9,2.0,18,"
"##MN-00 00 56 0553 02049 5517 434916 346515 201"
"153.674468"
"$GPGGA,161111,2438.0397,N,08037.7878,W,1,9,2.0,18,"
"##MN-00 00 58 0553 02051 5517 435003 346541 201"
"153.674514"
"$GPGGA,161115,2438.0390,N,08037.7858,W,1,9,2.0,18,"
"##MN-00 00 55 0553 02058 5518 435021 346540 201"
"153.67456"
"$GPGGA,161119,2438.0383,N,08037.7838,W,1,9,2.0,18,"
"##MN-00 00 55 0553 02063 5519 435069 346563 201"
"153.674606"
"$GPGGA,161123,2438.0376,N,08037.7815,W,1,9,2.0,18,"
"##MN-00 00 53 0553 02069 5519 435165 346580 201"
"153.674653"
"$GPGGA,161127,2438.0367,N,08037.7791,W,1,9,2.0,18,"
"##MN-00 00 55 0553 02068 5519 435178 346580 201"
"153.674699"
"$GPGGA,161131,2438.0360,N,08037.7767,W,1,9,2.0,18,"
"##MN-00 00 54 0553 02076 5520 435296 346632 201"
"153.674745"
"$GPGGA,161135,2438.0352,N,08037.7746,W,1,9,1.5,18,"
"##MN-00 00 55 0553 02078 5520 435388 346648 201"
"153.674792"
"$GPGGA,161139,2438.0343,N,08037.7728,W,1,9,1.5,18,"
"##MN-00 00 52 0553 02089 5521 435534 346699 201"
"153.674838"
"$GPGGA,161143,2438.0336,N,08037.7709,W,1,9,1.5,18,"
"##MN-00 00 49 0553 02092 5521 435935 346813 201"
"153.674884"
"$GPGGA,161147,2438.0328,N,08037.7690,W,1,10,1.5,18"
"##MN-00 00 53 0553 02099 5522 436207 346894 201"
"153.674931"
"$GPGGA,161151,2438.0327,N,08037.7668,W,1,9,1.6,18,"
"##MN-00 00 58 0553 02101 5522 436485 346978 201"
"153.674977"
"$GPGGA,161155,2438.0321,N,08037.7652,W,1,9,1.6,18,"
"##MN-00 00 57 0553 02106 5523 436791 347059 201"
"153.675023"
"$GPGGA,161159,2438.0313,N,08037.7637,W,1,10,1.5,19"
"##MN-00 00 55 0553 02117 5523 437040 347177 201"
"153.675069"
"$GPGGA,161203,2438.0304,N,08037.7620,W,1,9,1.6,19,"
"##MN-00 00 52 0553 02121 5524 437768 347351 201"
"153.675116"
"$GPGGA,161207,2438.0296,N,08037.7603,W,1,9,1.6,18,"
"##MN-00 00 56 0553 02128 5524 439474 347847 201"
"153.675162"
"$GPGGA,161211,2438.0288,N,08037.7586,W,1,9,1.6,18,"
"##MN-00 00 52 0553 02138 5524 443409 349072 201"
"153.675208"
"$GPGGA,161215,2438.0283,N,08037.7569,W,1,9,1.6,18,"
"##MN-00 00 55 0553 02140 5525 446597 349991 201"
"153.675255"
"$GPGGA,161219,2438.0274,N,08037.7549,W,1,9,1.6,17,"
"##MN-00 00 53 0553 02142 5525 447517 350204 201"
"153.675301"
"$GPGGA,161223,2438.0266,N,08037.7528,W,1,9,1.6,17,"
"##MN-00 00 53 0553 02151 5525 448865 350737 201"
"153.675347"
"$GPGGA,161227,2438.0258,N,08037.7507,W,1,9,1.6,17,"
"##MN-00 00 55 0553 02157 5526 450501 351151 201"
"153.675394"
"$GPGGA,161231,2438.0249,N,08037.7486,W,1,9,1.6,17,"
"##MN-00 00 54 0553 02162 5526 451840 351638 201"
"153.67544"
"$GPGGA,161235,2438.0242,N,08037.7465,W,1,9,1.6,17,"
"##MN-00 00 50 0553 02168 5526 452228 351732 201"
"153.675486"
"$GPGGA,161239,2438.0237,N,08037.7443,W,1,10,1.5,17"
"##MN-00 00 52 0553 02169 5526 453017 352016 201"
"153.675532"
"$GPGGA,161244,2438.0226,N,08037.7419,W,1,9,1.5,18,"
"##MN-00 00 49 0553 02177 5526 453408 352257 201"
"153.675579"
"$GPGGA,161248,2438.0216,N,08037.7397,W,1,10,1.5,18"
"##MN-00 00 52 0553 02180 5527 453751 352305 201"
"153.675625"
"$GPGGA,161251,2438.0209,N,08037.7381,W,1,9,1.6,18,"
"##MN-00 00 50 0553 02185 5527 454095 352474 201"
"153.675671"
"$GPGGA,161255,2438.0201,N,08037.7361,W,1,9,1.6,18,"
"##MN-00 00 54 0553 02192 5527 454233 352500 201"
"153.675729"
"$GPGGA,161300,2438.0193,N,08037.7337,W,1,9,2.0,18,"
"##MN-00 00 53 0553 02198 5527 454456 352640 201"
"153.675775"
"$GPGGA,161303,2438.0188,N,08037.7320,W,1,10,1.5,18"
"##MN-00 00 52 0553 02205 5528 454941 352797 201"
"153.675822"
"$GPGGA,161308,2438.0176,N,08037.7295,W,1,10,1.5,19"
"##MN-00 00 48 0553 02205 5528 455075 352801 201"
"153.675868"
"$GPGGA,161312,2438.0169,N,08037.7273,W,1,10,1.5,19"
"##MN-00 00 48 0553 02204 5527 455093 352821 201"
"153.675914"
"$GPGGA,161316,2438.0158,N,08037.7252,W,1,10,1.5,19"
"##MN-00 00 47 0553 02205 5528 455095 352791 201"
"153.675961"
"$GPGGA,161320,2438.0150,N,08037.7231,W,1,10,1.5,19"
"##MN-00 00 51 0553 02206 5527 455106 352834 201"
"153.676007"
"$GPGGA,161324,2438.0140,N,08037.7211,W,1,10,1.5,19"
"##MN-00 00 48 0553 02204 5527 455102 352822 201"
"153.676053"
"$GPGGA,161328,2438.0132,N,08037.7191,W,1,10,1.5,19"
"##MN-00 00 49 0553 02207 5527 455115 352845 201"
"153.6761"
"$GPGGA,161332,2438.0122,N,08037.7171,W,1,10,1.5,19"
"##MN-00 00 49 0553 02207 5527 455134 352840 201"
"153.676146"
"$GPGGA,161336,2438.0115,N,08037.7149,W,1,10,1.5,19"
"##MN-00 00 52 0553 02212 5527 455161 352857 201"
"153.676192"
"$GPGGA,161340,2438.0107,N,08037.7128,W,1,10,1.5,19"
"##MN-00 00 49 0553 02214 5527 455229 352879 201"
"153.676238"
"$GPGGA,161344,2438.0098,N,08037.7107,W,1,10,1.5,19"
"##MN-00 00 48 0553 02220 5526 455282 352897 201"
"153.676285"
"$GPGGA,161348,2438.0092,N,08037.7084,W,1,10,1.5,19"
"##MN-00 00 45 0553 02222 5526 455432 352938 201"
"153.676331"
"$GPGGA,161352,2438.0082,N,08037.7062,W,1,10,1.5,19"
"##MN-00 00 54 0553 02224 5526 455495 352972 201"
"153.676377"
"$GPGGA,161356,2438.0075,N,08037.7041,W,1,10,2.0,19"
"##MN-00 00 48 0553 02233 5526 455547 352990 201"
"153.676424"
"$GPGGA,161400,2438.0069,N,08037.7019,W,1,10,1.5,18"
"##MN-00 00 45 0553 02234 5525 455617 353008 201"
"153.67647"
"$GPGGA,161404,2438.0057,N,08037.6995,W,1,10,1.5,18"
"##MN-00 00 57 0553 02231 5525 455625 353013 201"
"153.676516"
"$GPGGA,161408,2438.0049,N,08037.6971,W,1,10,1.5,18"
"##MN-00 00 50 0553 02244 5525 455634 353010 201"
"153.676562"
"$GPGGA,161412,2438.0040,N,08037.6947,W,1,10,1.5,18"
"##MN-00 00 48 0553 02248 5524 455628 353004 201"
"153.676609"
"$GPGGA,161416,2438.0031,N,08037.6922,W,1,10,1.5,18"
"##MN-00 00 48 0553 02252 5524 455689 353012 201"
"153.676655"
"$GPGGA,161420,2438.0022,N,08037.6895,W,1,9,1.5,18,"
"##MN-00 00 50 0553 02259 5524 455716 353016 201"
"153.676701"
"$GPGGA,161424,2438.0013,N,08037.6869,W,1,10,1.5,18"
"##MN-00 00 54 0553 02261 5523 455840 353040 201"
"153.676748"
"$GPGGA,161428,2438.0003,N,08037.6845,W,1,10,1.5,18"
"##MN-00 00 50 0553 02268 5522 455918 353057 201"
"153.676794"
"$GPGGA,161432,2437.9995,N,08037.6822,W,1,9,1.5,18,"
"##MN-00 00 51 0553 02274 5522 455948 353070 201"
"153.67684"
"$GPGGA,161436,2437.9984,N,08037.6803,W,1,9,1.5,18,"
"##MN-00 00 51 0553 02278 5521 456050 353099 201"
"153.676887"
"$GPGGA,161440,2437.9974,N,08037.6786,W,1,9,2.3,18,"
"##MN-00 00 52 0553 02287 5521 456154 353135 201"
"153.676933"
"$GPGGA,161444,2437.9966,N,08037.6767,W,1,9,1.6,18,"
"##MN-00 00 47 0553 02288 5520 456238 353148 201"
"153.676979"
"$GPGGA,161448,2437.9955,N,08037.6747,W,1,9,1.6,18,"
"##MN-00 00 49 0553 02288 5520 456488 353239 201"
"153.677025"
"$GPGGA,161452,2437.9944,N,08037.6727,W,1,9,1.6,17,"
"##MN-00 00 51 0553 02296 5519 456559 353301 201"
"153.677072"
"$GPGGA,161456,2437.9934,N,08037.6705,W,1,9,1.6,17,"
"##MN-00 00 47 0553 02301 5518 456737 353329 201"
"153.677118"
"$GPGGA,161500,2437.9926,N,08037.6684,W,1,9,1.5,17,"
"##MN-00 00 51 0553 02303 5518 456980 353441 201"
"153.677164"
"$GPGGA,161504,2437.9919,N,08037.6663,W,1,9,1.5,17,"
"##MN-00 00 52 0553 02307 5517 457189 353514 201"
"153.677211"
"$GPGGA,161508,2437.9910,N,08037.6644,W,1,10,1.5,17"
"##MN-00 00 49 0553 02312 5516 457473 353540 201"
"153.677257"
"$GPGGA,161512,2437.9904,N,08037.6624,W,1,9,1.5,17,"
"##MN-00 00 48 0553 02317 5515 457521 353554 201"
"153.677303"
"$GPGGA,161516,2437.9897,N,08037.6604,W,1,10,1.5,18"
"##MN-00 00 43 0553 02310 5515 457535 353566 201"
"153.67735"
"$GPGGA,161520,2437.9885,N,08037.6585,W,1,10,1.5,18"
"##MN+00 00 48 0553 02308 5514 457506 353560 201"
"153.677396"
"$GPGGA,161524,2437.9879,N,08037.6563,W,1,10,1.5,18"
"##MN+00 00 49 0553 02313 5513 457497 353561 202"
"153.677442"
"$GPGGA,161528,2437.9869,N,08037.6541,W,1,10,1.5,18"
"##MN+00 00 52 0553 02306 5512 457502 353558 202"
"153.677488"
"$GPGGA,161532,2437.9859,N,08037.6521,W,1,10,1.5,18"
"##MN+00 00 49 0553 02311 5512 457532 353570 202"
"153.677535"
"$GPGGA,161536,2437.9854,N,08037.6500,W,1,9,1.6,18,"
"##MN+00 00 51 0553 02313 5511 457543 353573 202"
"153.677581"
"$GPGGA,161540,2437.9846,N,08037.6481,W,1,10,1.6,18"
"##MN+00 00 58 0553 02318 5510 457591 353594 202"
"153.677627"
"$GPGGA,161544,2437.9837,N,08037.6462,W,1,9,1.6,18,"
"##MN-00 00 55 0553 02317 5509 457675 353610 202"
"153.677674"
"$GPGGA,161548,2437.9828,N,08037.6444,W,1,9,1.6,18,"
"##MN-00 00 50 0553 02317 5509 457712 353619 202"
"153.67772"
"$GPGGA,161552,2437.9820,N,08037.6424,W,1,9,1.6,18,"
"##MN-00 00 52 0553 02313 5507 457683 353616 202"
"153.677766"
"$GPGGA,161556,2437.9812,N,08037.6403,W,1,8,1.6,17,"
"##MN-00 00 50 0553 02313 5507 457665 353609 202"
"153.677812"
"$GPGGA,161600,2437.9803,N,08037.6382,W,1,9,1.6,17,"
"##MN-00 00 47 0553 02317 5506 457667 353608 202"
"153.677859"
"$GPGGA,161604,2437.9796,N,08037.6360,W,1,10,1.5,17"
"##MN-00 00 46 0553 02312 5505 457652 353608 202"
"153.677905"
"$GPGGA,161608,2437.9787,N,08037.6339,W,1,9,1.5,18,"
"##MN-00 00 49 0553 02318 5504 457673 353616 202"
"153.677951"
"$GPGGA,161612,2437.9780,N,08037.6321,W,1,8,1.6,17,"
"##MN-00 00 50 0553 02317 5502 457712 353629 202"
"153.677998"
"$GPGGA,161616,2437.9771,N,08037.6301,W,1,9,1.6,17,"
"##MN-00 00 49 0553 02321 5502 457743 353641 202"
"153.678044"
"$GPGGA,161620,2437.9762,N,08037.6282,W,1,9,1.6,17,"
"##MN-00 00 46 0553 02323 5500 457785 353653 202"
"153.67809"
"$GPGGA,161624,2437.9753,N,08037.6262,W,1,9,1.6,17,"
"##MN-00 00 50 0553 02316 5499 457810 353671 202"
"153.678137"
"$GPGGA,161628,2437.9743,N,08037.6242,W,1,9,1.6,17,"
"##MN-00 00 51 0553 02318 5499 457768 353646 202"
"153.678183"
"$GPGGA,161632,2437.9736,N,08037.6222,W,1,10,1.6,17"
"##MN-00 00 49 0553 02321 5498 457766 353656 201"
"153.678229"
"$GPGGA,161636,2437.9731,N,08037.6199,W,1,10,1.5,17"
"##MN-00 00 49 0553 02323 5497 457833 353672 202"
"153.678275"
"#increment_net"
"$GPGGA,161640,2437.9724,N,08037.6178,W,1,10,1.5,17"
"##MN-00 00 48 0553 02326 5495 457864 353677 202"
"153.678322"
"$GPGGA,161644,2437.9718,N,08037.6156,W,1,10,1.6,17"
"##MN-00 00 45 0553 02327 5495 457873 353678 202"
"153.678368"
"$GPGGA,161648,2437.9708,N,08037.6135,W,1,9,1.6,17,"
"##MN-00 00 44 0553 02326 5494 457895 353695 202"
"153.678414"
"$GPGGA,161652,2437.9702,N,08037.6113,W,1,9,1.6,17,"
"##MN-00 00 39 0553 02326 5493 457902 353701 201"
"153.678461"
"$GPGGA,161656,2437.9692,N,08037.6095,W,1,9,1.6,17,"
"##MN-00 00 47 0553 02319 5492 457874 353690 202"
"153.678507"
"$GPGGA,161700,2437.9684,N,08037.6079,W,1,9,1.6,17,"
"##MN-00 00 46 0553 02317 5491 457768 353650 201"
"153.678553"
"$GPGGA,161704,2437.9675,N,08037.6061,W,1,9,1.6,16,"
"##MN-00 00 46 0553 02311 5489 457648 353613 201"
"153.6786"
"$GPGGA,161708,2437.9666,N,08037.6041,W,1,9,1.6,16,"
"##MN+00 00 48 0553 02309 5489 457432 353565 202"
"153.678646"
"$GPGGA,161712,2437.9659,N,08037.6021,W,1,9,1.6,16,"
"##MN+00 00 49 0553 02310 5487 457323 353530 202"
"153.678692"
"$GPGGA,161716,2437.9651,N,08037.6000,W,1,9,1.6,16,"
"##MN+00 00 47 0553 02310 5486 457279 353514 201"
"153.678738"
"$GPGGA,161720,2437.9643,N,08037.5982,W,1,9,1.6,16,"
"##MN-00 00 49 0553 02306 5485 457233 353503 202"
"153.678785"
"$GPGGA,161724,2437.9634,N,08037.5963,W,1,9,1.6,15,"
"##MN+00 00 51 0553 02307 5484 457231 353496 202"
"153.678831"
"$GPGGA,161728,2437.9626,N,08037.5945,W,1,9,1.6,15,"
"##MN+00 00 44 0553 02312 5483 457214 353494 202"
"153.678877"
"$GPGGA,161732,2437.9621,N,08037.5923,W,1,9,1.5,15,"
"##MN+00 00 54 0553 02311 5482 457228 353493 202"
"153.678924"
"#increment_net"
"$GPGGA,161736,2437.9612,N,08037.5902,W,1,10,1.6,15"
"##MN-00 00 52 0553 02311 5480 457227 353489 201"
"153.678981"
"$GPGGA,161741,2437.9601,N,08037.5878,W,1,9,1.6,15,"
"##MN-00 00 54 0553 02309 5479 457231 353491 202"
"153.679028"
"$GPGGA,161745,2437.9592,N,08037.5858,W,1,9,1.6,15,"
"##MN-00 00 49 0553 02308 5478 457214 353491 202"
"153.679074"
"$GPGGA,161749,2437.9583,N,08037.5837,W,1,9,1.6,15,"
"##MN-00 00 48 0553 02311 5477 457181 353488 202"
"153.67912"
"$GPGGA,161753,2437.9574,N,08037.5818,W,1,9,1.6,15,"
"##MN-00 00 45 0553 02308 5476 457181 353484 202"
"153.679167"
"$GPGGA,161757,2437.9566,N,08037.5799,W,1,9,1.6,15,"
"##MN-00 00 46 0553 02303 5475 457164 353482 202"
"153.679213"
"$GPGGA,161801,2437.9555,N,08037.5779,W,1,9,1.6,15,"
"##MN-00 00 48 0553 02304 5474 457072 353454 201"
"153.679259"
"$GPGGA,161805,2437.9547,N,08037.5760,W,1,9,1.6,15,"
"##MN-00 00 42 0553 02307 5473 457052 353448 201"
"153.679306"
"$GPGGA,161809,2437.9539,N,08037.5740,W,1,10,1.5,15"
"##MN-00 00 46 0553 02299 5472 457086 353449 201"
"153.679352"
"$GPGGA,161813,2437.9530,N,08037.5716,W,1,10,1.5,15"
"##MN-00 00 48 0553 02307 5470 456997 353425 201"
"153.679398"
"$GPGGA,161817,2437.9526,N,08037.5702,W,1,9,1.6,15,"
"##MN-00 00 49 0553 02305 5469 457066 353449 201"
"153.679444"
"$GPGGA,161821,2437.9518,N,08037.5676,W,1,9,1.6,15,"
"##MN-00 00 50 0553 02308 5468 457134 353463 201"
"153.679491"
"$GPGGA,161825,2437.9510,N,08037.5656,W,1,10,1.5,15"
"##MN-00 00 48 0553 02313 5467 457190 353484 201"
"153.679537"
"$GPGGA,161829,2437.9500,N,08037.5640,W,1,9,1.6,15,"
"##MN-00 00 46 0553 02311 5466 457314 353515 201"
"153.679583"
"$GPGGA,161833,2437.9496,N,08037.5619,W,1,9,1.6,15,"
"##MN-00 00 46 0553 02309 5465 457282 353503 201"
"153.67963"
"$GPGGA,161837,2437.9484,N,08037.5597,W,1,10,1.5,15"
"##MN+00 00 46 0553 02309 5463 457256 353502 201"
"153.679676"
"$GPGGA,161841,2437.9471,N,08037.5575,W,1,9,1.6,16,"
"##MN+00 00 45 0553 02307 5462 457221 353492 201"
"153.679722"
"$GPGGA,161845,2437.9460,N,08037.5551,W,1,9,1.6,16,"
"##MN+00 00 51 0553 02303 5461 457243 353498 201"
"153.679768"
"$GPGGA,161849,2437.9450,N,08037.5532,W,1,10,1.5,16"
"##MN-00 00 51 0553 02307 5460 457259 353501 201"
"153.679815"
"$GPGGA,161853,2437.9443,N,08037.5513,W,1,9,1.7,17,"
"##MN-00 00 48 0553 02309 5459 457244 353503 202"
"153.679861"
"$GPGGA,161857,2437.9435,N,08037.5493,W,1,10,1.5,17"
"##MN-00 00 48 0553 02309 5457 457239 353509 202"
"153.679907"
"$GPGGA,161901,2437.9428,N,08037.5474,W,1,9,2.1,18,"
"##MN-00 00 46 0553 02311 5457 457214 353504 201"
"153.679954"
"$GPGGA,161905,2437.9418,N,08037.5452,W,1,9,1.7,18,"
"##MN-00 00 45 0553 02310 5455 457199 353491 201"
"153.68"
"$GPGGA,161909,2437.9411,N,08037.5434,W,1,10,1.5,19"
"##MN-00 00 42 0553 02311 5454 457166 353479 201"
"153.680046"
"$GPGGA,161913,2437.9408,N,08037.5412,W,1,10,1.5,19"
"##MN-00 00 46 0553 02309 5453 457211 353492 201"
"153.680093"
"$GPGGA,161917,2437.9399,N,08037.5389,W,1,9,1.7,19,"
"##MN+00 00 50 0553 02310 5451 457232 353497 201"
"153.680139"
"$GPGGA,161921,2437.9393,N,08037.5370,W,1,10,1.5,20"
"##MN+00 00 50 0553 02313 5450 457315 353530 201"
"153.680185"
"$GPGGA,161925,2437.9385,N,08037.5354,W,1,9,1.7,20,"
"##MN+00 00 54 0553 02315 5449 457375 353532 201"
"153.680231"
"$GPGGA,161929,2437.9377,N,08037.5337,W,1,9,1.7,20,"
"##MN-00 00 53 0553 02314 5448 457400 353531 201"
"153.680278"
"#increment_net"
"$GPGGA,161933,2437.9368,N,08037.5316,W,1,9,1.7,20,"
"##MN-00 00 47 0553 02313 5447 457402 353534 202"
"153.680324"
"$GPGGA,161937,2437.9361,N,08037.5294,W,1,10,1.5,20"
"##MN-00 00 46 0553 02313 5446 457385 353540 201"
"153.68037"
"$GPGGA,161941,2437.9352,N,08037.5274,W,1,9,1.7,19,"
"##MN-00 00 45 0553 02313 5444 457369 353547 201"
"153.680417"
"$GPGGA,161945,2437.9343,N,08037.5252,W,1,9,1.7,19,"
"##MN-00 00 44 0553 02312 5443 457365 353549 201"
"153.680463"
"$GPGGA,161949,2437.9335,N,08037.5230,W,1,10,1.5,19"
"##MN-00 00 46 0553 02308 5442 457364 353550 201"
"153.680509"
"$GPGGA,161953,2437.9326,N,08037.5207,W,1,10,1.5,19"
"##MN-00 00 44 0553 02312 5441 457352 353546 201"
"153.680556"
"$GPGGA,161957,2437.9321,N,08037.5185,W,1,10,1.5,19"
"##MN-00 00 45 0553 02309 5439 457340 353542 201"
"153.680602"
"$GPGGA,162001,2437.9310,N,08037.5168,W,1,9,1.7,19,"
"##MN-00 00 44 0553 02312 5438 457339 353548 201"
"153.680648"
"$GPGGA,162005,2437.9301,N,08037.5150,W,1,8,1.9,19,"
"##MN-00 00 47 0553 02313 5437 457310 353535 201"
"153.680694"
"$GPGGA,162009,2437.9294,N,08037.5133,W,1,9,1.7,19,"
"##MN-00 00 45 0553 02310 5436 457307 353526 201"
"153.680741"
"$GPGGA,162013,2437.9284,N,08037.5113,W,1,10,1.5,19"
"##MN-00 00 48 0553 02310 5435 457278 353529 201"
"153.680787"
"$GPGGA,162017,2437.9277,N,08037.5094,W,1,9,1.7,19,"
"##MN-00 00 44 0553 02312 5434 457263 353519 201"
"153.680833"
"$GPGGA,162021,2437.9269,N,08037.5076,W,1,9,1.7,19,"
"##MN-00 00 44 0553 02310 5432 457273 353524 201"
"153.68088"
"$GPGGA,162025,2437.9260,N,08037.5060,W,1,10,1.5,19"
"##MN-00 00 45 0553 02311 5431 457233 353510 201"
"153.680926"
"$GPGGA,162029,2437.9254,N,08037.5040,W,1,10,1.5,19"
"##MN-00 00 45 0553 02313 5430 457232 353506 201"
"153.680972"
"$GPGGA,162033,2437.9246,N,08037.5021,W,1,10,1.5,19"
"##MN-00 00 45 0553 02307 5429 457297 353532 201"
"153.681019"
"$GPGGA,162037,2437.9237,N,08037.5002,W,1,10,1.5,19"
"##MN-00 00 54 0553 02311 5428 457249 353512 201"
"153.681065"
"$GPGGA,162041,2437.9231,N,08037.4983,W,1,9,1.7,19,"
"##MN-00 00 47 0553 02312 5427 457240 353509 201"
"153.681111"
"$GPGGA,162045,2437.9225,N,08037.4966,W,1,10,1.5,19"
"##MN-00 00 45 0553 02319 5425 457250 353513 201"
"153.681157"
"$GPGGA,162049,2437.9219,N,08037.4947,W,1,10,1.5,19"
"##MN-00 00 45 0553 02318 5424 457284 353524 201"
"153.681204"
"$GPGGA,162053,2437.9211,N,08037.4927,W,1,9,1.7,19,"
"##MN-00 00 43 0553 02316 5423 457302 353530 201"
"153.68125"
"$GPGGA,162057,2437.9202,N,08037.4906,W,1,9,1.7,19,"
"##MN-00 00 44 0553 02317 5422 457318 353540 201"
"153.681296"
"$GPGGA,162101,2437.9194,N,08037.4886,W,1,10,1.5,19"
"##MN-00 00 43 0553 02318 5420 457359 353550 201"
"153.681343"
"$GPGGA,162105,2437.9185,N,08037.4864,W,1,10,1.5,19"
"##MN-00 00 44 0553 02316 5419 457399 353564 201"
"153.681389"
"$GPGGA,162109,2437.9178,N,08037.4843,W,1,10,1.5,19"
"##MN+00 00 45 0553 02312 5418 457405 353568 201"
"153.681435"
"$GPGGA,162113,2437.9167,N,08037.4824,W,1,10,1.5,19"
"##MN+00 00 44 0553 02315 5417 457403 353572 201"
"153.681482"
"$GPGGA,162117,2437.9160,N,08037.4805,W,1,9,1.7,19,"
"##MN+00 00 48 0553 02316 5416 457416 353574 201"
"153.681528"
"$GPGGA,162121,2437.9150,N,08037.4786,W,1,9,1.7,18,"
"##MN+00 00 45 0553 02316 5414 457445 353579 201"
"153.681574"
"$GPGGA,162125,2437.9144,N,08037.4767,W,1,9,1.7,18,"
"##MN+00 00 45 0553 02317 5413 457447 353583 201"
"153.68162"
"$GPGGA,162129,2437.9136,N,08037.4748,W,1,9,1.5,18,"
"##MN+00 00 54 0553 02320 5412 457476 353591 201"
"153.681667"
"#increment_net"
"$GPGGA,162133,2437.9125,N,08037.4730,W,1,9,1.7,19,"
"##MN-00 00 50 0553 02317 5411 457495 353600 201"
"153.681713"
"$GPGGA,162137,2437.9118,N,08037.4711,W,1,9,1.5,19,"
"##MN-00 00 44 0553 02318 5410 457484 353597 201"
"153.681759"
"$GPGGA,162141,2437.9108,N,08037.4694,W,1,10,1.7,20"
"##MN-00 00 44 0553 02315 5409 457466 353592 201"
"153.681806"
"$GPGGA,162145,2437.9099,N,08037.4675,W,1,10,1.7,20"
"##MN-00 00 44 0553 02319 5408 457438 353585 201"
"153.681852"
"$GPGGA,162149,2437.9091,N,08037.4656,W,1,9,1.7,20,"
"##MN-00 00 40 0553 02318 5407 457462 353590 201"
"153.681898"
"$GPGGA,162153,2437.9082,N,08037.4635,W,1,10,1.7,20"
"##MN-00 00 44 0553 02314 5405 457478 353594 201"
"153.681944"
"$GPGGA,162158,2437.9074,N,08037.4616,W,1,10,1.7,20"
"##MN-00 00 44 0553 02318 5404 457392 353566 201"
"153.681991"
"$GPGGA,162201,2437.9066,N,08037.4598,W,1,10,1.7,20"
"##MN-00 00 45 0553 02316 5403 457392 353566 201"
"153.682037"
"$GPGGA,162206,2437.9056,N,08037.4570,W,1,9,1.5,20,"
"##MN-00 00 45 0553 02315 5402 457387 353559 201"
"153.682083"
"$GPGGA,162210,2437.9048,N,08037.4547,W,1,9,2.1,20,"
"##MN-00 00 49 0553 02313 5401 457351 353549 201"
"153.68213"
"$GPGGA,162213,2437.9042,N,08037.4535,W,1,10,1.5,20"
"##MN-00 00 44 0553 02316 5399 457348 353544 201"
"153.682176"
"$GPGGA,162218,2437.9032,N,08037.4511,W,1,9,1.7,20,"
"##MN-00 00 40 0553 02321 5399 457347 353550 201"
"153.682234"
"$GPGGA,162222,2437.9023,N,08037.4496,W,1,10,1.7,19"
"##MN-00 00 40 0553 02311 5397 457365 353551 201"
"153.68228"
"$GPGGA,162226,2437.9014,N,08037.4475,W,1,9,1.5,19,"
"##MN-00 00 48 0553 02311 5396 457264 353516 201"
"153.682326"
"$GPGGA,162230,2437.9003,N,08037.4455,W,1,9,1.5,19,"
"##MN-00 00 44 0553 02315 5395 457239 353503 201"
"153.682373"
"$GPGGA,162234,2437.8992,N,08037.4435,W,1,9,1.7,19,"
"##MN-00 00 43 0553 02315 5394 457228 353504 201"
"153.682419"
"$GPGGA,162238,2437.8983,N,08037.4415,W,1,10,1.5,19"
"##MN-00 00 44 0553 02312 5392 457222 353499 201"
"153.682465"
"$GPGGA,162242,2437.8973,N,08037.4393,W,1,10,1.6,19"
"##MN+00 00 45 0553 02312 5391 457175 353482 201"
"153.682512"
"$GPGGA,162246,2437.8965,N,08037.4373,W,1,9,1.6,19,"
"##MN+00 00 43 0553 02310 5390 457096 353444 201"
"153.682558"
"$GPGGA,162250,2437.8958,N,08037.4356,W,1,10,1.7,20"
"##MN+00 00 43 0553 02312 5389 457087 353449 201"
"153.682604"
"$GPGGA,162254,2437.8947,N,08037.4337,W,1,10,1.6,20"
"##MN-00 00 44 0553 02312 5388 457098 353456 201"
"153.68265"
"$GPGGA,162258,2437.8937,N,08037.4317,W,1,10,1.6,20"
"##MN-00 00 42 0553 02314 5387 457055 353449 201"
"153.682697"
"$GPGGA,162302,2437.8926,N,08037.4298,W,1,9,1.7,20,"
"##MN-00 00 43 0553 02310 5386 457057 353440 201"
"153.682743"
"$GPGGA,162306,2437.8916,N,08037.4277,W,1,10,1.6,20"
"##MN-00 00 45 0553 02309 5385 456934 353396 201"
"153.682789"
"$GPGGA,162310,2437.8906,N,08037.4255,W,1,9,1.7,20,"
"##MN-00 00 46 0553 02311 5384 456905 353392 201"
"153.682836"
"$GPGGA,162314,2437.8895,N,08037.4235,W,1,9,1.7,20,"
"##MN-00 00 42 0553 02314 5382 456846 353376 201"
"153.682882"
"$GPGGA,162318,2437.8886,N,08037.4214,W,1,9,1.7,20,"
"##MN+00 00 44 0553 02306 5381 456827 353365 201"
"153.682928"
"$GPGGA,162322,2437.8876,N,08037.4195,W,1,10,1.6,19"
"##MN+00 00 44 0553 02307 5380 456726 353335 201"
"153.682974"
"$GPGGA,162326,2437.8867,N,08037.4176,W,1,9,1.7,19,"
"##MN+00 00 55 0553 02308 5379 456787 353350 201"
"153.683021"
"$GPGGA,162330,2437.8857,N,08037.4155,W,1,9,1.6,19,"
"##MN-00 00 60 0553 02308 5378 456899 353378 201"
"153.683067"
"#increment_net"
"$GPGGA,162334,2437.8850,N,08037.4135,W,1,10,1.6,19"
"##MN-00 00 49 0553 02313 5377 457047 353428 201"
"153.683113"
"$GPGGA,162338,2437.8842,N,08037.4116,W,1,9,1.6,19,"
"##MN-00 00 49 0553 02315 5376 457193 353470 201"
"153.68316"
"$GPGGA,162342,2437.8829,N,08037.4096,W,1,10,1.6,19"
"##MN-00 00 51 0553 02317 5374 457266 353519 201"
"153.683206"
"$GPGGA,162346,2437.8819,N,08037.4076,W,1,9,1.6,18,"
"##MN-00 00 46 0553 02325 5372 457395 353557 201"
"153.683252"
"$GPGGA,162350,2437.8810,N,08037.4055,W,1,10,1.7,18"
"##MN-00 00 48 0553 02325 5371 457456 353565 201"
"153.683299"
"$GPGGA,162354,2437.8799,N,08037.4035,W,1,10,1.6,18"
"##MN-00 00 49 0553 02317 5370 457464 353567 201"
"153.683345"
"$GPGGA,162358,2437.8788,N,08037.4014,W,1,10,1.6,18"
"##MN-00 00 43 0553 02313 5369 457404 353562 201"
"153.683391"
"$GPGGA,162402,2437.8777,N,08037.3995,W,1,9,1.7,18,"
"##MN-00 00 46 0554 02312 5368 457155 353470 201"
"153.683438"
"$GPGGA,162406,2437.8767,N,08037.3977,W,1,10,1.7,18"
"##MN-00 00 46 0556 02306 5367 456838 353375 201"
"153.683484"
"$GPGGA,162410,2437.8760,N,08037.3957,W,1,10,1.6,17"
"##MN-00 00 43 0557 02305 5367 456641 353325 201"
"153.68353"
"$GPGGA,162414,2437.8752,N,08037.3935,W,1,10,1.6,17"
"##MN-00 00 49 0558 02295 5366 456552 353290 201"
"153.683576"
"$GPGGA,162418,2437.8739,N,08037.3914,W,1,9,1.6,17,"
"##MN-00 00 46 0559 02294 5365 456518 353273 201"
"153.683623"
"$GPGGA,162422,2437.8731,N,08037.3894,W,1,9,1.6,17,"
"##MN-00 00 44 0560 02293 5363 456502 353276 201"
"153.683669"
"$GPGGA,162426,2437.8719,N,08037.3873,W,1,10,1.7,17"
"##MN-00 00 45 0562 02287 5362 456482 353260 201"
"153.683715"
"$GPGGA,162430,2437.8710,N,08037.3851,W,1,10,1.6,17"
"##MN-00 00 45 0563 02284 5361 456472 353260 201"
"153.683762"
"$GPGGA,162434,2437.8698,N,08037.3830,W,1,10,1.7,17"
"##MN-00 00 49 0564 02275 5360 456461 353255 201"
"153.683808"
"$GPGGA,162438,2437.8687,N,08037.3810,W,1,9,1.6,16,"
"##MN-00 00 43 0565 02275 5359 456437 353256 201"
"153.683854"
"$GPGGA,162442,2437.8680,N,08037.3790,W,1,10,1.6,16"
"##MN-00 00 44 0567 02268 5358 456420 353256 201"
"153.6839"
"$GPGGA,162446,2437.8670,N,08037.3771,W,1,10,1.6,16"
"##MN-00 00 44 0568 02268 5357 456338 353228 201"
"153.683947"
"$GPGGA,162450,2437.8663,N,08037.3754,W,1,10,1.6,16"
"##MN-00 00 49 0569 02260 5355 456186 353175 201"
"153.683993"
"$GPGGA,162454,2437.8660,N,08037.3733,W,1,10,1.6,16"
"##MN-00 00 55 0570 02255 5355 456066 353139 201"
"153.684039"
"$GPGGA,162458,2437.8653,N,08037.3714,W,1,9,1.6,16,"
"##MN-00 00 48 0572 02254 5354 455933 353093 201"
"153.684086"
"$GPGGA,162502,2437.8645,N,08037.3695,W,1,10,1.7,16"
"##MN-00 00 43 0573 02251 5353 455669 352961 201"
"153.684132"
"$GPGGA,162506,2437.8638,N,08037.3675,W,1,10,1.6,16"
"##MN-00 00 49 0574 02243 5352 455426 352937 201"
"153.684178"
"$GPGGA,162510,2437.8633,N,08037.3651,W,1,10,1.6,16"
"##MN-00 00 49 0575 02236 5351 455140 352798 201"
"153.684225"
"$GPGGA,162514,2437.8624,N,08037.3630,W,1,10,1.6,16"
"##MN-00 00 45 0576 02234 5350 455045 352802 201"
"153.684271"
"$GPGGA,162518,2437.8615,N,08037.3610,W,1,10,1.6,16"
"##MN-00 00 42 0577 02232 5349 455003 352800 201"
"153.684317"
"$GPGGA,162522,2437.8605,N,08037.3589,W,1,9,1.6,16,"
"##MN-00 00 40 0578 02226 5348 454890 352772 201"
"153.684363"
"$GPGGA,162526,2437.8593,N,08037.3568,W,1,10,1.7,17"
"##MN-00 00 44 0580 02214 5347 454605 352678 201"
"153.68441"
"$GPGGA,162530,2437.8582,N,08037.3547,W,1,10,1.7,17"
"##MN-00 00 46 0581 02209 5346 454332 352621 201"
"153.684456"
"$GPGGA,162534,2437.8572,N,08037.3525,W,1,10,1.6,17"
"##MN-00 00 43 0582 02204 5344 454187 352596 201"
"153.684502"
"$GPGGA,162538,2437.8561,N,08037.3503,W,1,10,1.6,17"
"##MN-00 00 46 0584 02194 5344 453959 352515 201"
"153.684549"
"$GPGGA,162542,2437.8551,N,08037.3481,W,1,9,1.6,17,"
"##MN-00 00 48 0585 02191 5343 453633 352405 201"
"153.684595"
"$GPGGA,162546,2437.8541,N,08037.3462,W,1,10,1.6,17"
"##MN-00 00 46 0586 02180 5341 453012 352138 201"
"153.684641"
"$GPGGA,162550,2437.8532,N,08037.3443,W,1,10,1.7,18"
"##MN-00 00 46 0587 02175 5341 452543 352064 201"
"153.684688"
"$GPGGA,162554,2437.8524,N,08037.3423,W,1,10,1.6,18"
"##MN-00 00 45 0589 02168 5339 452155 351943 201"
"153.684734"
"$GPGGA,162558,2437.8515,N,08037.3404,W,1,10,2.1,18"
"##MN-00 00 45 0590 02161 5339 450710 351552 201"
"153.68478"
"$GPGGA,162602,2437.8504,N,08037.3382,W,1,10,1.6,18"
"##MN-00 00 45 0591 02154 5338 448770 351079 201"
"153.684826"
"$GPGGA,162606,2437.8497,N,08037.3367,W,1,9,1.7,18,"
"##MN-00 00 48 0592 02145 5337 446485 350442 201"
"153.684873"
"$GPGGA,162610,2437.8482,N,08037.3341,W,1,10,1.7,18"
"##MN-00 00 45 0594 02140 5336 440694 348930 201"
"153.684919"
"$GPGGA,162614,2437.8474,N,08037.3320,W,1,10,1.6,18"
"##MN-00 00 43 0595 02135 5335 437879 348369 201"
"153.684965"
"$GPGGA,162618,2437.8464,N,08037.3297,W,1,10,1.6,18"
"##MN-00 00 48 0596 02123 5334 436800 347523 201"
"153.685012"
"$GPGGA,162622,2437.8456,N,08037.3274,W,1,10,1.6,18"
"##MN-00 00 58 0598 02112 5334 435775 346917 201"
"153.685058"
"$GPGGA,162626,2437.8446,N,08037.3257,W,1,9,1.6,18,"
"##MN-00 00 48 0599 02107 5333 435453 346789 201"
"153.685104"
"$GPGGA,162630,2437.8441,N,08037.3238,W,1,10,1.6,18"
"##MN-00 00 45 0600 02103 5332 435431 346871 201"
"153.68515"
"$GPGGA,162634,2437.8436,N,08037.3218,W,1,10,1.6,18"
"##MN-00 00 50 0601 02096 5331 435298 346712 201"
"153.685197"
"$GPGGA,162638,2437.8429,N,08037.3200,W,1,10,1.6,18"
"##MN-00 00 44 0603 02091 5330 435179 346646 201"
"153.685243"
"$GPGGA,162643,2437.8421,N,08037.3178,W,1,10,1.6,18"
"##MN-00 00 46 0604 02087 5329 435096 346617 201"
"153.685289"
"$GPGGA,162647,2437.8414,N,08037.3160,W,1,10,1.6,18"
"##MN-00 00 51 0606 02071 5328 435032 346583 201"
"153.685336"
"$GPGGA,162651,2437.8405,N,08037.3140,W,1,10,1.6,18"
"##MN-00 00 56 0607 02063 5327 434859 346570 201"
"153.685382"
"$GPGGA,162655,2437.8398,N,08037.3119,W,1,10,1.6,18"
"##MN-00 00 45 0608 02059 5326 434753 346526 201"
"153.685428"
"$GPGGA,162659,2437.8388,N,08037.3101,W,1,9,1.7,18,"
"##MN-00 00 51 0610 02046 5326 434676 346516 201"
"153.685486"
"$GPGGA,162703,2437.8380,N,08037.3082,W,1,10,1.6,18"
"##MN-00 00 44 0611 02043 5325 434493 346450 201"
"153.685532"
"$GPGGA,162707,2437.8372,N,08037.3062,W,1,10,1.6,18"
"##MN-00 00 50 0613 02032 5324 434439 346417 201"
"153.685579"
"$GPGGA,162711,2437.8363,N,08037.3042,W,1,10,1.6,18"
"##MN-00 00 54 0614 02023 5324 434371 346402 201"
"153.685625"
"$GPGGA,162715,2437.8354,N,08037.3022,W,1,10,1.6,17"
"##MN-00 00 48 0615 02018 5323 434356 346393 201"
"153.685671"
"$GPGGA,162719,2437.8345,N,08037.3004,W,1,10,1.6,17"
"##MN-00 00 51 0617 02008 5323 434289 346357 201"
"153.685718"
"$GPGGA,162723,2437.8334,N,08037.2985,W,1,10,1.6,17"
"##MN-00 00 60 0618 01995 5322 434192 346325 201"
"153.685764"
"$GPGGA,162727,2437.8326,N,08037.2963,W,1,10,1.6,17"
"##MN-00 00 64 0620 01988 5322 434113 346301 201"
"153.68581"
"$GPGGA,162731,2437.8315,N,08037.2942,W,1,10,1.6,17"
"##MN-00 00 57 0621 01982 5322 434144 346302 201"
"153.685857"
"$GPGGA,162735,2437.8307,N,08037.2920,W,1,9,1.7,17,"
"##MN-00 00 59 0623 01976 5322 434174 346312 201"
"153.685903"
"$GPGGA,162739,2437.8298,N,08037.2901,W,1,10,1.6,17"
"##MN-00 00 58 0624 01972 5321 434234 346326 201"
"153.685949"
"$GPGGA,162743,2437.8291,N,08037.2882,W,1,10,1.6,17"
"##MN-00 00 54 0626 01966 5320 434234 346326 201"
"153.685995"
"$GPGGA,162747,2437.8284,N,08037.2862,W,1,10,1.6,16"
"##MN-00 00 62 0627 01959 5320 434161 346304 201"
"153.686042"
"$GPGGA,162751,2437.8275,N,08037.2842,W,1,10,1.6,16"
"##MN-00 00 63 0628 01951 5320 434092 346291 201"
"153.686088"
"$GPGGA,162755,2437.8268,N,08037.2822,W,1,10,1.6,16"
"##MN-00 00 54 0630 01945 5320 434127 346300 201"
"153.686134"
"$GPGGA,162759,2437.8261,N,08037.2805,W,1,10,1.6,16"
"##MN-00 00 57 0631 01938 5320 434120 346295 201"
"153.686181"
"$GPGGA,162803,2437.8257,N,08037.2786,W,1,10,1.6,16"
"##MN-00 00 49 0633 01937 5320 434121 346296 201"
"153.686227"
"$GPGGA,162807,2437.8250,N,08037.2765,W,1,10,1.6,17"
"##MN-00 00 60 0634 01927 5319 434088 346286 201"
"153.686273"
"$GPGGA,162811,2437.8240,N,08037.2743,W,1,10,1.6,17"
"##MN-00 00 60 0636 01923 5319 434053 346276 201"
"153.686319"
"$GPGGA,162815,2437.8233,N,08037.2720,W,1,10,1.6,17"
"##MN-00 00 52 0637 01918 5319 434040 346274 201"
"153.686366"
"$GPGGA,162819,2437.8225,N,08037.2701,W,1,10,1.6,17"
"##MN-00 00 54 0639 01912 5318 434033 346273 201"
"153.686412"
"$GPGGA,162823,2437.8217,N,08037.2680,W,1,10,1.6,17"
"##MN-00 00 56 0640 01903 5318 434027 346269 201"
"153.686458"
"$GPGGA,162827,2437.8208,N,08037.2659,W,1,10,1.6,17"
"##MN-00 00 62 0642 01895 5318 434029 346270 201"
"153.686505"
"$GPGGA,162831,2437.8199,N,08037.2639,W,1,10,1.6,17"
"##MN-00 00 61 0643 01892 5318 434033 346271 201"
"153.686551"
"$GPGGA,162835,2437.8190,N,08037.2620,W,1,9,1.7,17,"
"##MN-00 00 59 0644 01885 5318 434065 346281 201"
"153.686597"
"$GPGGA,162839,2437.8183,N,08037.2599,W,1,10,1.6,17"
"##MN-00 00 55 0646 01880 5319 434065 346282 201"
"153.686644"
"$GPGGA,162843,2437.8174,N,08037.2578,W,1,10,1.6,17"
"##MN-00 00 54 0647 01873 5319 434048 346279 201"
"153.68669"
"$GPGGA,162847,2437.8163,N,08037.2559,W,1,10,1.6,17"
"##MN-00 00 57 0649 01867 5319 434034 346277 201"
"153.686736"
"$GPGGA,162851,2437.8154,N,08037.2541,W,1,10,1.6,16"
"##MN-00 00 56 0650 01862 5319 434029 346280 201"
"153.686782"
"$GPGGA,162855,2437.8145,N,08037.2523,W,1,10,1.6,16"
"##MN-00 00 51 0651 01862 5319 434042 346281 201"
