" Tow: 4Wm-A   RVWS/WS1406"
" Date: 06/02/2014"
" Temperature Probe #  2597    Conductivity Probe #  2870"
" Pressure Probe #  109"
" Flow Meter Calibration  2.35 (m/count)  "
"153.949271"
"$GPGGA,224650,2451.8965,N,08025.5303,W,1,9,1.9,22,"
"##MN-00 00 60 0088 01858 5213 443655 596914 202"
"153.949317"
"$GPGGA,224658,2451.9007,N,08025.5348,W,1,10,1.4,22"
"##MN-00 00 59 0090 01856 5214 436458 347080 202"
"153.949363"
"$GPGGA,224702,2451.9026,N,08025.5368,W,1,10,1.5,22"
"##MN-00 00 56 0090 01859 5216 436476 347134 202"
"153.94941"
"$GPGGA,224706,2451.9050,N,08025.5390,W,1,10,1.6,22"
"##MN-00 00 58 0092 01858 5217 436454 347087 202"
"153.949456"
"$GPGGA,224710,2451.9070,N,08025.5409,W,1,9,1.4,22,"
"##MN-00 00 58 0093 01860 5218 436457 347079 202"
"153.949502"
"$GPGGA,224714,2451.9091,N,08025.5430,W,1,10,1.4,22"
"##MN-00 00 59 0094 01859 5220 436468 347074 202"
"153.949549"
"$GPGGA,224718,2451.9112,N,08025.5449,W,1,10,1.4,22"
"##MN-00 00 63 0095 01860 5220 436483 347085 202"
"153.949606"
"$GPGGA,224722,2451.9128,N,08025.5466,W,1,9,1.4,22,"
"##MN-00 00 60 0096 01858 5221 436479 347419 202"
"153.949653"
"$GPGGA,224727,2451.9152,N,08025.5491,W,1,9,1.9,23,"
"##MN-00 00 58 0097 01859 5222 436452 347212 202"
"153.949699"
"$GPGGA,224730,2451.9167,N,08025.5502,W,1,9,1.4,23,"
"##MN-00 00 65 0098 01857 5223 436462 347196 202"
"153.949745"
"$GPGGA,224734,2451.9184,N,08025.5520,W,1,10,1.4,23"
"##MN-00 00 64 0099 01859 5224 436462 347201 202"
"153.949792"
"$GPGGA,224738,2451.9202,N,08025.5538,W,1,10,1.4,22"
"##MN-00 00 63 0100 01858 5225 436458 347170 202"
"153.949838"
"$GPGGA,224742,2451.9216,N,08025.5560,W,1,9,1.5,22,"
"##MN-00 00 66 0102 01858 5226 436471 347238 202"
"153.949884"
"$GPGGA,224747,2451.9234,N,08025.5585,W,1,10,1.4,22"
"##MN-00 00 67 0103 01860 5227 436471 347200 202"
"153.949931"
"$GPGGA,224751,2451.9247,N,08025.5601,W,1,10,1.6,22"
"##MN-00 00 64 0104 01863 5228 436463 347184 202"
"153.949977"
"$GPGGA,224755,2451.9263,N,08025.5623,W,1,10,1.4,22"
"##MN-00 00 65 0106 01863 5229 436479 347179 202"
"153.950023"
"$GPGGA,224759,2451.9275,N,08025.5644,W,1,10,1.4,22"
"##MN-00 00 64 0107 01868 5230 436473 347168 202"
"153.950069"
"$GPGGA,224803,2451.9287,N,08025.5665,W,1,9,1.5,22,"
"##MN-00 00 58 0109 01864 5232 436476 347186 202"
"153.950116"
"$GPGGA,224807,2451.9297,N,08025.5686,W,1,10,1.6,22"
"##MN-00 00 64 0110 01861 5232 436481 347281 202"
"153.950162"
"$GPGGA,224811,2451.9307,N,08025.5708,W,1,10,1.4,22"
"##MN-00 00 66 0112 01868 5233 436479 347078 202"
"153.950208"
"$GPGGA,224815,2451.9315,N,08025.5726,W,1,10,1.4,22"
"##MN-00 00 57 0113 01862 5234 436471 347058 202"
"153.950255"
"$GPGGA,224819,2451.9323,N,08025.5744,W,1,10,1.4,22"
"##MN-00 00 66 0115 01874 5234 436472 347056 202"
"153.950301"
"$GPGGA,224823,2451.9330,N,08025.5755,W,1,9,1.9,22,"
"##MN-00 00 62 0118 01876 5235 436488 347052 202"
"153.950347"
"$GPGGA,224827,2451.9337,N,08025.5769,W,1,10,1.4,21"
"##MN-00 00 67 0119 01886 5236 436499 347050 202"
"153.950394"
"$GPGGA,224831,2451.9348,N,08025.5775,W,1,9,1.5,21,"
"##MN-00 00 61 0121 01899 5237 436520 347050 202"
"153.95044"
"$GPGGA,224835,2451.9357,N,08025.5780,W,1,10,1.4,21"
"##MN-00 00 58 0124 01900 5238 436502 347044 202"
"153.950486"
"$GPGGA,224839,2451.9370,N,08025.5785,W,1,10,1.6,21"
"##MN-00 00 61 0125 01908 5239 436500 347039 202"
"153.950532"
"$GPGGA,224843,2451.9384,N,08025.5793,W,1,10,1.6,21"
"##MN-00 00 57 0128 01912 5240 436497 347033 202"
"153.950579"
"$GPGGA,224847,2451.9395,N,08025.5806,W,1,10,1.4,21"
"##MN-00 00 58 0130 01911 5241 436476 347026 202"
"153.950625"
"$GPGGA,224851,2451.9406,N,08025.5820,W,1,9,1.7,21,"
"##MN-00 00 58 0132 01918 5242 436470 347023 202"
"153.950671"
"$GPGGA,224855,2451.9419,N,08025.5835,W,1,10,1.4,21"
"##MN-00 00 58 0134 01917 5242 436477 347021 202"
"153.950718"
"$GPGGA,224859,2451.9427,N,08025.5849,W,1,9,1.9,21,"
"##MN-00 00 58 0136 01929 5243 436487 347024 202"
"153.950764"
"$GPGGA,224903,2451.9440,N,08025.5863,W,1,10,1.4,20"
"##MN-00 00 54 0139 01925 5244 436497 347025 202"
"153.95081"
"$GPGGA,224907,2451.9451,N,08025.5878,W,1,9,1.9,20,"
"##MN-00 00 60 0140 01929 5245 436518 347030 202"
"153.950856"
"$GPGGA,224911,2451.9462,N,08025.5889,W,1,10,1.4,20"
"##MN-00 00 56 0142 01933 5245 436516 347029 202"
"153.950903"
"$GPGGA,224915,2451.9471,N,08025.5904,W,1,10,1.4,20"
"##MN-00 00 60 0145 01932 5246 436501 347025 202"
"153.950949"
"$GPGGA,224919,2451.9485,N,08025.5915,W,1,10,1.4,20"
"##MN-00 00 57 0147 01937 5247 436546 347035 202"
"153.950995"
"$GPGGA,224923,2451.9492,N,08025.5926,W,1,9,1.7,20,"
"##MN-00 00 56 0149 01933 5248 436551 347035 202"
"153.951042"
"$GPGGA,224927,2451.9502,N,08025.5941,W,1,10,1.4,21"
"##MN-00 00 59 0152 01937 5249 436541 347032 202"
"153.951088"
"$GPGGA,224931,2451.9511,N,08025.5955,W,1,10,1.4,21"
"##MN-00 00 60 0154 01941 5249 436539 347032 202"
"153.951134"
"$GPGGA,224935,2451.9523,N,08025.5969,W,1,10,1.4,21"
"##MN-00 00 60 0156 01948 5250 436524 347026 202"
"153.951181"
"$GPGGA,224939,2451.9536,N,08025.5979,W,1,9,1.4,20,"
"##MN-00 00 56 0159 01949 5251 436506 347021 202"
"153.951227"
"$GPGGA,224943,2451.9547,N,08025.5995,W,1,9,1.5,21,"
"##MN-00 00 60 0161 01953 5251 436498 347018 202"
"153.951273"
"$GPGGA,224947,2451.9560,N,08025.6008,W,1,10,1.4,20"
"##MN-00 00 57 0163 01959 5252 436495 347017 202"
"153.951319"
"$GPGGA,224951,2451.9568,N,08025.6022,W,1,10,1.4,21"
"##MN-00 00 58 0166 01960 5253 436508 347016 202"
"153.951366"
"$GPGGA,224955,2451.9578,N,08025.6038,W,1,10,1.9,20"
"##MN-00 00 59 0168 01960 5254 436500 347014 202"
"153.951412"
"$GPGGA,224959,2451.9583,N,08025.6045,W,1,10,1.4,20"
"##MN-00 00 58 0170 01968 5254 436520 347013 202"
"153.951458"
"$GPGGA,225003,2451.9594,N,08025.6056,W,1,10,1.4,21"
"##MN-00 00 58 0172 01970 5255 436606 347023 202"
"153.951505"
"$GPGGA,225007,2451.9604,N,08025.6067,W,1,10,1.4,21"
"##MN-00 00 57 0175 01975 5256 436614 347034 202"
"153.951551"
"$GPGGA,225011,2451.9615,N,08025.6077,W,1,10,1.6,20"
"##MN-00 00 58 0177 01978 5256 436595 347038 202"
"153.951597"
"$GPGGA,225015,2451.9626,N,08025.6091,W,1,10,1.4,21"
"##MN-00 00 57 0179 01981 5257 436567 347032 202"
"153.951644"
"$GPGGA,225019,2451.9636,N,08025.6099,W,1,9,1.9,21,"
"##MN-00 00 59 0182 01984 5258 436625 347036 202"
"153.95169"
"$GPGGA,225023,2451.9646,N,08025.6107,W,1,10,1.4,21"
"##MN-00 00 59 0184 01989 5259 436669 347051 202"
"153.951736"
"$GPGGA,225027,2451.9659,N,08025.6124,W,1,10,1.4,22"
"##MN-00 00 57 0186 01995 5259 436650 347050 202"
"153.951782"
"$GPGGA,225031,2451.9670,N,08025.6136,W,1,10,1.4,22"
"##MN-00 00 61 0188 01995 5260 436663 347050 202"
"153.951829"
"$GPGGA,225035,2451.9682,N,08025.6149,W,1,10,1.4,22"
"##MN-00 00 58 0190 02001 5261 436698 347057 202"
"153.951875"
"$GPGGA,225039,2451.9691,N,08025.6161,W,1,10,1.4,23"
"##MN-00 00 56 0193 02006 5261 436790 347070 202"
"153.951921"
"$GPGGA,225043,2451.9704,N,08025.6174,W,1,10,1.4,23"
"##MN-00 00 55 0195 02005 5262 436908 347107 202"
"153.951968"
"$GPGGA,225047,2451.9716,N,08025.6189,W,1,9,1.5,23,"
"##MN-00 00 60 0197 02011 5263 437012 347154 202"
"153.952014"
"$GPGGA,225051,2451.9729,N,08025.6199,W,1,10,1.4,23"
"##MN-00 00 58 0199 02015 5264 436990 347146 202"
"153.95206"
"$GPGGA,225055,2451.9742,N,08025.6212,W,1,10,1.4,23"
"##MN-00 00 59 0201 02023 5264 437009 347148 202"
"153.952106"
"$GPGGA,225059,2451.9759,N,08025.6221,W,1,10,1.4,23"
"##MN-00 00 57 0203 02026 5265 437158 347182 202"
"153.952153"
"$GPGGA,225103,2451.9771,N,08025.6235,W,1,9,1.7,23,"
"##MN-00 00 61 0205 02027 5266 437358 347256 202"
"153.952199"
"$GPGGA,225107,2451.9785,N,08025.6244,W,1,10,1.4,23"
"##MN-00 00 56 0207 02036 5266 437516 347284 202"
"153.952245"
"$GPGGA,225111,2451.9796,N,08025.6255,W,1,10,1.4,23"
"##MN-00 00 55 0210 02033 5267 437524 347299 202"
"153.952292"
"$GPGGA,225115,2451.9807,N,08025.6268,W,1,10,1.6,23"
"##MN-00 00 58 0212 02040 5268 437497 347295 202"
"153.952338"
"$GPGGA,225119,2451.9817,N,08025.6275,W,1,9,1.5,23,"
"##MN-00 00 56 0214 02045 5268 437624 347324 202"
"153.952384"
"$GPGGA,225123,2451.9825,N,08025.6290,W,1,10,1.6,23"
"##MN-00 00 60 0216 02048 5268 437769 347336 202"
"153.952431"
"$GPGGA,225127,2451.9838,N,08025.6297,W,1,10,1.4,23"
"##MN-00 00 56 0218 02052 5269 437984 347408 202"
"153.952477"
"$GPGGA,225131,2451.9846,N,08025.6311,W,1,10,1.4,23"
"##MN-00 00 57 0220 02055 5270 438328 347471 202"
"153.952523"
"$GPGGA,225135,2451.9857,N,08025.6326,W,1,10,1.4,22"
"##MN-00 00 60 0222 02059 5271 438549 347571 202"
"153.952569"
"$GPGGA,225139,2451.9870,N,08025.6337,W,1,10,1.4,22"
"##MN-00 00 57 0224 02065 5271 438756 347640 202"
"153.952616"
"$GPGGA,225143,2451.9878,N,08025.6349,W,1,9,1.5,22,"
"##MN-00 00 56 0226 02074 5272 439948 348130 202"
"153.952662"
"$GPGGA,225147,2451.9890,N,08025.6358,W,1,10,1.6,22"
"##MN-00 00 56 0229 02074 5273 443179 348828 202"
"153.952708"
"$GPGGA,225151,2451.9903,N,08025.6370,W,1,10,1.4,22"
"##MN-00 00 60 0230 02081 5274 445954 350003 202"
"153.952755"
"$GPGGA,225155,2451.9915,N,08025.6383,W,1,10,1.4,22"
"##MN-00 00 54 0232 02084 5274 446769 349971 202"
"153.952801"
"$GPGGA,225159,2451.9926,N,08025.6398,W,1,9,1.5,21,"
"##MN-00 00 59 0235 02081 5274 447119 350237 202"
"153.952859"
"$GPGGA,225203,2451.9939,N,08025.6410,W,1,9,1.7,21,"
"##MN-00 00 56 0236 02087 5275 447344 350257 202"
"153.952905"
"$GPGGA,225207,2451.9947,N,08025.6427,W,1,10,1.4,21"
"##MN-00 00 55 0239 02086 5275 447408 350280 202"
"153.952951"
"$GPGGA,225212,2451.9962,N,08025.6442,W,1,10,1.6,20"
"##MN-00 00 56 0241 02093 5276 447453 350261 202"
"153.952998"
"$GPGGA,225215,2451.9969,N,08025.6449,W,1,10,1.6,20"
"##MN-00 00 56 0243 02092 5277 447449 350289 202"
"153.953044"
"$GPGGA,225219,2451.9977,N,08025.6465,W,1,10,1.6,20"
"##MN-00 00 60 0245 02093 5277 447476 350335 202"
"153.95309"
"$GPGGA,225223,2451.9987,N,08025.6478,W,1,10,1.4,20"
"##MN-00 00 57 0247 02096 5278 447554 350354 202"
"153.953137"
"$GPGGA,225227,2451.9997,N,08025.6496,W,1,10,1.4,20"
"##MN-00 00 56 0250 02104 5278 447589 350374 202"
"153.953183"
"$GPGGA,225232,2452.0012,N,08025.6512,W,1,9,1.6,20,"
"##MN-00 00 57 0252 02103 5279 447896 350378 202"
"153.953229"
"$GPGGA,225235,2452.0019,N,08025.6525,W,1,10,1.4,20"
"##MN-00 00 57 0254 02109 5279 448290 350482 202"
"153.953275"
"$GPGGA,225240,2452.0033,N,08025.6540,W,1,9,1.5,21,"
"##MN-00 00 55 0256 02113 5280 449634 350794 202"
"153.953322"
"$GPGGA,225244,2452.0042,N,08025.6553,W,1,9,1.4,21,"
"##MN-00 00 56 0258 02113 5280 450724 351095 202"
"153.953368"
"$GPGGA,225248,2452.0053,N,08025.6564,W,1,10,1.4,21"
"##MN-00 00 56 0261 02113 5281 451752 351329 202"
"153.953414"
"$GPGGA,225252,2452.0063,N,08025.6575,W,1,10,1.6,21"
"##MN-00 00 56 0263 02112 5281 452099 351504 202"
"153.953461"
"$GPGGA,225256,2452.0073,N,08025.6586,W,1,10,1.4,21"
"##MN-00 00 58 0265 02115 5282 452269 351702 202"
"153.953507"
"$GPGGA,225300,2452.0082,N,08025.6597,W,1,10,1.4,21"
"##MN-00 00 55 0267 02115 5282 452354 351734 202"
"153.953553"
"$GPGGA,225304,2452.0092,N,08025.6608,W,1,10,1.4,21"
"##MN-00 00 55 0270 02116 5283 452432 351736 202"
"153.9536"
"$GPGGA,225308,2452.0105,N,08025.6620,W,1,10,1.6,21"
"##MN+00 00 57 0272 02117 5283 452371 351802 202"
"153.953646"
"$GPGGA,225312,2452.0114,N,08025.6634,W,1,10,1.5,21"
"##MN+00 00 54 0274 02117 5283 452212 351815 201"
"153.953692"
"$GPGGA,225316,2452.0127,N,08025.6647,W,1,10,1.4,21"
"##MN+00 00 56 0276 02114 5283 452091 351810 201"
"153.953738"
"$GPGGA,225320,2452.0138,N,08025.6662,W,1,9,1.4,21,"
"##MN-00 00 55 0278 02117 5284 452061 351815 201"
"153.953785"
"$GPGGA,225324,2452.0150,N,08025.6677,W,1,10,1.5,21"
"##MN+00 00 54 0281 02114 5284 452021 351822 202"
"153.953831"
"$GPGGA,225328,2452.0163,N,08025.6694,W,1,10,1.4,21"
"##MN+00 00 56 0283 02113 5284 451933 351817 201"
"153.953877"
"$GPGGA,225332,2452.0175,N,08025.6705,W,1,9,1.4,21,"
"##MN+00 00 66 0286 02117 5284 451859 351797 201"
"153.953924"
"$GPGGA,225336,2452.0190,N,08025.6716,W,1,10,1.4,21"
"##MN-00 00 61 0287 02116 5285 452140 351894 201"
"153.95397"
"$GPGGA,225340,2452.0201,N,08025.6730,W,1,9,1.4,21,"
"##MN-00 00 60 0289 02115 5285 451988 351892 201"
"153.954016"
"#increment_net"
"$GPGGA,225344,2452.0215,N,08025.6742,W,1,10,1.4,21"
"##MN-00 00 56 0292 02115 5286 451833 351827 201"
"153.954062"
"$GPGGA,225348,2452.0228,N,08025.6756,W,1,10,1.4,21"
"##MN-00 00 58 0294 02113 5286 451789 351774 201"
"153.954109"
"$GPGGA,225352,2452.0244,N,08025.6767,W,1,9,1.4,21,"
"##MN-00 00 60 0296 02114 5286 451910 351810 201"
"153.954155"
"$GPGGA,225356,2452.0255,N,08025.6781,W,1,10,1.4,21"
"##MN-00 00 57 0298 02114 5286 451582 351758 201"
"153.954201"
"$GPGGA,225400,2452.0268,N,08025.6795,W,1,10,1.4,21"
"##MN-00 00 58 0301 02115 5286 451340 351687 201"
"153.954248"
"$GPGGA,225404,2452.0277,N,08025.6807,W,1,9,2.7,21,"
"##MN-00 00 57 0303 02119 5286 451275 351681 201"
"153.954294"
"$GPGGA,225408,2452.0293,N,08025.6817,W,1,10,1.4,21"
"##MN-00 00 57 0305 02118 5286 451180 351634 201"
"153.95434"
"$GPGGA,225412,2452.0305,N,08025.6824,W,1,9,1.4,21,"
"##MN-00 00 58 0308 02121 5286 451041 351603 201"
"153.954387"
"$GPGGA,225416,2452.0318,N,08025.6832,W,1,10,1.5,21"
"##MN-00 00 57 0310 02122 5286 450938 351576 201"
"153.954433"
"$GPGGA,225420,2452.0327,N,08025.6843,W,1,10,1.5,22"
"##MN-00 00 58 0312 02121 5286 450930 351557 201"
"153.954479"
"$GPGGA,225424,2452.0341,N,08025.6854,W,1,10,1.4,22"
"##MN-00 00 57 0314 02124 5286 451001 351552 201"
"153.954525"
"$GPGGA,225428,2452.0352,N,08025.6866,W,1,10,1.4,22"
"##MN-00 00 55 0316 02123 5287 451052 351554 201"
"153.954572"
"$GPGGA,225432,2452.0363,N,08025.6882,W,1,9,1.4,22,"
"##MN-00 00 58 0319 02123 5286 450962 351554 201"
"153.954618"
"$GPGGA,225436,2452.0374,N,08025.6894,W,1,10,1.5,22"
"##MN-00 00 57 0321 02124 5287 450911 351539 201"
"153.954664"
"$GPGGA,225440,2452.0387,N,08025.6908,W,1,10,1.5,22"
"##MN-00 00 57 0323 02123 5287 450923 351515 201"
"153.954711"
"$GPGGA,225444,2452.0396,N,08025.6925,W,1,10,1.5,22"
"##MN-00 00 58 0326 02117 5287 450936 351518 201"
"153.954757"
"$GPGGA,225448,2452.0407,N,08025.6938,W,1,10,1.5,22"
"##MN-00 00 56 0328 02123 5287 450682 351486 201"
"153.954803"
"$GPGGA,225452,2452.0419,N,08025.6952,W,1,10,1.5,22"
"##MN-00 00 56 0330 02122 5287 450596 351448 201"
"153.95485"
"$GPGGA,225456,2452.0428,N,08025.6965,W,1,10,1.5,22"
"##MN-00 00 54 0332 02120 5287 450495 351390 201"
"153.954896"
"$GPGGA,225500,2452.0435,N,08025.6980,W,1,9,1.5,21,"
"##MN-00 00 56 0334 02120 5286 450266 351341 201"
"153.954942"
"$GPGGA,225504,2452.0446,N,08025.6994,W,1,10,1.5,21"
"##MN-00 00 56 0337 02123 5286 450149 351304 201"
"153.954988"
"$GPGGA,225508,2452.0460,N,08025.7001,W,1,10,1.5,21"
"##MN-00 00 56 0339 02124 5287 450265 351308 201"
"153.955035"
"$GPGGA,225512,2452.0471,N,08025.7013,W,1,9,1.5,21,"
"##MN+00 00 56 0341 02125 5286 450702 351415 201"
"153.955081"
"$GPGGA,225516,2452.0485,N,08025.7016,W,1,9,1.5,21,"
"##MN+00 00 55 0343 02124 5287 450945 351480 201"
"153.955127"
"$GPGGA,225520,2452.0500,N,08025.7027,W,1,10,1.5,21"
"##MN+00 00 57 0345 02123 5286 450721 351473 201"
"153.955174"
"$GPGGA,225524,2452.0511,N,08025.7041,W,1,10,1.5,21"
"##MN-00 00 57 0348 02124 5286 450478 351393 201"
"153.95522"
"$GPGGA,225528,2452.0519,N,08025.7052,W,1,9,1.5,22,"
"##MN-00 00 57 0350 02125 5286 450363 351361 201"
"153.955266"
"$GPGGA,225532,2452.0532,N,08025.7059,W,1,10,1.6,22"
"##MN-00 00 56 0352 02131 5286 450540 351399 202"
"153.955312"
"$GPGGA,225536,2452.0546,N,08025.7067,W,1,10,1.5,22"
"##MN+00 00 54 0354 02128 5286 451693 351811 202"
"153.955359"
"$GPGGA,225540,2452.0553,N,08025.7082,W,1,10,1.5,22"
"##MN+00 00 64 0356 02127 5286 452188 351945 201"
"153.955405"
"$GPGGA,225544,2452.0565,N,08025.7093,W,1,10,1.5,22"
"##MN+00 00 61 0357 02130 5286 453063 352191 201"
"153.955451"
"#increment_net"
"$GPGGA,225548,2452.0576,N,08025.7106,W,1,9,1.5,22,"
"##MN-00 00 58 0359 02129 5286 453409 352228 201"
"153.955498"
"$GPGGA,225552,2452.0587,N,08025.7117,W,1,9,1.5,22,"
"##MN-00 00 57 0362 02130 5286 453604 352302 201"
"153.955544"
"$GPGGA,225556,2452.0601,N,08025.7126,W,1,10,1.5,21"
"##MN-00 00 58 0364 02129 5286 453734 352368 201"
"153.95559"
"$GPGGA,225600,2452.0612,N,08025.7135,W,1,10,1.5,22"
"##MN-00 00 55 0366 02131 5285 453783 352380 201"
"153.955637"
"$GPGGA,225604,2452.0625,N,08025.7144,W,1,10,1.5,22"
"##MN-00 00 54 0368 02130 5285 453801 352395 201"
"153.955683"
"$GPGGA,225608,2452.0634,N,08025.7160,W,1,9,1.5,22,"
"##MN-00 00 55 0370 02126 5285 453753 352403 201"
"153.955729"
"$GPGGA,225612,2452.0649,N,08025.7171,W,1,10,1.5,22"
"##MN-00 00 52 0373 02126 5285 453649 352388 201"
"153.955775"
"$GPGGA,225616,2452.0665,N,08025.7182,W,1,10,1.5,22"
"##MN-00 00 54 0375 02120 5284 453269 352334 201"
"153.955822"
"$GPGGA,225620,2452.0683,N,08025.7193,W,1,10,1.5,23"
"##MN-00 00 52 0378 02124 5284 452487 352205 201"
"153.955868"
"$GPGGA,225624,2452.0695,N,08025.7202,W,1,10,1.5,23"
"##MN-00 00 53 0380 02119 5284 451185 351804 201"
"153.955914"
"$GPGGA,225628,2452.0710,N,08025.7212,W,1,10,1.5,23"
"##MN-00 00 55 0382 02117 5284 450623 351612 201"
"153.955961"
"$GPGGA,225632,2452.0724,N,08025.7223,W,1,10,1.5,24"
"##MN-00 00 54 0384 02122 5284 450297 351462 201"
"153.956007"
"$GPGGA,225636,2452.0739,N,08025.7236,W,1,9,2.0,24,"
"##MN-00 00 52 0386 02119 5284 449804 351343 201"
"153.956053"
"$GPGGA,225640,2452.0753,N,08025.7252,W,1,10,2.0,24"
"##MN-00 00 56 0388 02118 5283 449387 351111 201"
"153.956111"
"$GPGGA,225644,2452.0768,N,08025.7262,W,1,9,1.5,24,"
"##MN-00 00 54 0390 02119 5283 449293 351102 201"
"153.956157"
"$GPGGA,225648,2452.0786,N,08025.7283,W,1,9,2.0,24,"
"##MN-00 00 54 0393 02116 5283 449285 351072 201"
"153.956204"
"$GPGGA,225652,2452.0804,N,08025.7301,W,1,9,2.0,24,"
"##MN-00 00 57 0395 02116 5283 449145 351005 201"
"153.95625"
"$GPGGA,225656,2452.0818,N,08025.7312,W,1,10,1.5,23"
"##MN-00 00 52 0397 02115 5282 449014 350977 201"
"153.956296"
"$GPGGA,225700,2452.0833,N,08025.7323,W,1,10,1.5,23"
"##MN-00 00 56 0399 02114 5282 449007 350946 201"
"153.956343"
"$GPGGA,225704,2452.0851,N,08025.7331,W,1,10,1.5,23"
"##MN-00 00 54 0401 02116 5282 449160 350967 201"
"153.956389"
"$GPGGA,225708,2452.0868,N,08025.7345,W,1,10,1.5,23"
"##MN-00 00 56 0404 02113 5282 449206 350980 201"
"153.956435"
"$GPGGA,225712,2452.0887,N,08025.7356,W,1,10,1.6,23"
"##MN-00 00 59 0406 02114 5281 449469 351037 201"
"153.956481"
"$GPGGA,225717,2452.0909,N,08025.7374,W,1,10,1.5,23"
"##MN-00 00 53 0408 02115 5281 449587 351093 201"
"153.956528"
"$GPGGA,225721,2452.0929,N,08025.7386,W,1,10,1.5,23"
"##MN+00 00 55 0410 02112 5281 449399 351071 201"
"153.956574"
"$GPGGA,225725,2452.0949,N,08025.7399,W,1,9,2.0,23,"
"##MN+00 00 55 0413 02115 5281 449417 351051 201"
"153.95662"
"$GPGGA,225729,2452.0970,N,08025.7407,W,1,10,1.5,23"
"##MN+00 00 54 0415 02113 5280 449374 351038 201"
"153.956667"
"$GPGGA,225733,2452.0988,N,08025.7418,W,1,10,1.5,23"
"##MN-00 00 58 0417 02111 5280 449580 351072 201"
"153.956713"
"$GPGGA,225737,2452.1010,N,08025.7431,W,1,10,2.0,23"
"##MN-00 00 54 0419 02115 5280 449422 351062 201"
"153.956759"
"$GPGGA,225741,2452.1031,N,08025.7442,W,1,10,1.5,22"
"##MN-00 00 54 0421 02114 5280 449306 351022 201"
"153.956806"
"$GPGGA,225745,2452.1049,N,08025.7453,W,1,10,1.5,22"
"##MN-00 00 57 0424 02118 5279 449420 351037 201"
"153.956852"
"$GPGGA,225749,2452.1071,N,08025.7461,W,1,10,1.5,22"
"##MN-00 00 53 0426 02120 5279 449486 351067 201"
"153.956898"
"$GPGGA,225753,2452.1091,N,08025.7475,W,1,9,2.0,21,"
"##MN+00 00 57 0428 02117 5279 449202 351004 201"
"153.956944"
"$GPGGA,225757,2452.1111,N,08025.7487,W,1,8,2.0,21,"
"##MN+00 00 54 0430 02121 5278 449352 351014 201"
"153.956991"
"$GPGGA,225801,2452.1135,N,08025.7489,W,1,10,1.5,21"
"##MN+00 00 64 0432 02125 5278 449803 351110 201"
"153.957037"
"#increment_net"
"$GPGGA,225805,2452.1156,N,08025.7497,W,1,9,2.0,21,"
"##MN-00 00 60 0434 02124 5278 450998 351385 201"
"153.957083"
"$GPGGA,225809,2452.1178,N,08025.7503,W,1,9,1.5,21,"
"##MN-00 00 57 0436 02124 5278 451398 351627 201"
"153.95713"
"$GPGGA,225813,2452.1194,N,08025.7514,W,1,9,2.1,21,"
"##MN-00 00 53 0438 02127 5278 451215 351622 201"
"153.957176"
"$GPGGA,225817,2452.1215,N,08025.7526,W,1,9,2.1,21,"
"##MN-00 00 51 0440 02126 5277 451108 351553 201"
"153.957222"
"$GPGGA,225821,2452.1238,N,08025.7539,W,1,10,1.5,20"
"##MN-00 00 53 0443 02124 5277 450783 351427 201"
"153.957269"
"$GPGGA,225825,2452.1266,N,08025.7545,W,1,10,1.5,20"
"##MN-00 00 53 0445 02125 5276 450754 351446 201"
"153.957315"
"$GPGGA,225829,2452.1284,N,08025.7551,W,1,10,1.5,20"
"##MN-00 00 55 0447 02123 5276 450615 351419 201"
"153.957361"
"$GPGGA,225833,2452.1306,N,08025.7556,W,1,10,1.5,19"
"##MN-00 00 51 0450 02126 5276 451292 351582 201"
"153.957407"
"$GPGGA,225837,2452.1334,N,08025.7566,W,1,10,1.5,19"
"##MN-00 00 53 0452 02123 5276 451518 351668 201"
"153.957454"
"$GPGGA,225841,2452.1353,N,08025.7573,W,1,10,1.5,19"
"##MN-00 00 52 0454 02126 5275 451041 351466 201"
"153.9575"
"$GPGGA,225845,2452.1375,N,08025.7581,W,1,10,1.5,19"
"##MN-00 00 51 0456 02128 5275 450974 351536 201"
"153.957546"
"$GPGGA,225849,2452.1399,N,08025.7590,W,1,10,1.5,19"
"##MN-00 00 56 0458 02123 5275 451862 351846 201"
"153.957593"
"$GPGGA,225853,2452.1422,N,08025.7597,W,1,10,1.5,19"
"##MN-00 00 53 0459 02130 5275 452580 352057 201"
"153.957639"
"$GPGGA,225857,2452.1450,N,08025.7606,W,1,9,2.1,19,"
"##MN-00 00 51 0461 02127 5275 452859 352149 201"
"153.957685"
"$GPGGA,225901,2452.1476,N,08025.7612,W,1,10,1.5,19"
"##MN-00 00 52 0463 02129 5274 452876 352152 201"
"153.957731"
"$GPGGA,225905,2452.1505,N,08025.7617,W,1,9,2.1,19,"
"##MN-00 00 52 0465 02132 5274 452906 352185 201"
"153.957778"
"$GPGGA,225909,2452.1530,N,08025.7623,W,1,10,1.5,19"
"##MN-00 00 50 0467 02130 5274 452916 352192 201"
"153.957824"
"$GPGGA,225913,2452.1558,N,08025.7628,W,1,10,1.5,19"
"##MN-00 00 54 0470 02126 5274 452883 352188 201"
"153.95787"
"$GPGGA,225917,2452.1584,N,08025.7631,W,1,10,1.5,19"
"##MN-00 00 52 0472 02125 5274 452602 352107 201"
"153.957917"
"$GPGGA,225921,2452.1613,N,08025.7637,W,1,10,1.5,19"
"##MN-00 00 51 0474 02128 5273 452140 351988 201"
"153.957963"
"$GPGGA,225925,2452.1638,N,08025.7639,W,1,10,1.5,19"
"##MN-00 00 53 0476 02130 5273 451856 351881 201"
"153.958009"
"$GPGGA,225929,2452.1663,N,08025.7641,W,1,10,1.5,19"
"##MN-00 00 53 0478 02135 5272 451983 351913 201"
"153.958056"
"$GPGGA,225933,2452.1686,N,08025.7643,W,1,10,1.5,19"
"##MN-00 00 55 0480 02139 5272 452374 351992 201"
"153.958102"
"$GPGGA,225937,2452.1711,N,08025.7643,W,1,10,1.5,19"
"##MN+00 00 51 0482 02141 5272 452749 352141 201"
"153.958148"
"$GPGGA,225941,2452.1736,N,08025.7641,W,1,10,1.5,19"
"##MN+00 00 51 0484 02140 5272 452855 352189 201"
"153.958194"
"$GPGGA,225945,2452.1761,N,08025.7637,W,1,10,1.5,19"
"##MN+00 00 52 0486 02140 5272 452889 352205 201"
"153.958241"
"$GPGGA,225949,2452.1785,N,08025.7634,W,1,10,1.5,19"
"##MN-00 00 52 0487 02144 5271 452832 352201 201"
"153.958287"
"$GPGGA,225953,2452.1807,N,08025.7631,W,1,10,1.5,19"
"##MN-00 00 49 0489 02148 5271 452957 352236 201"
"153.958333"
"$GPGGA,225957,2452.1829,N,08025.7629,W,1,10,1.5,19"
"##MN-00 00 50 0491 02150 5270 453075 352307 201"
"153.95838"
"$GPGGA,230001,2452.1851,N,08025.7626,W,1,10,1.5,19"
"##MN-00 00 48 0493 02153 5270 453237 352384 201"
"153.958426"
"$GPGGA,230005,2452.1873,N,08025.7622,W,1,10,1.5,19"
"##MN+00 00 46 0495 02148 5270 453273 352388 201"
"153.958472"
"$GPGGA,230009,2452.1898,N,08025.7620,W,1,10,1.5,19"
"##MN+00 00 46 0496 02144 5270 452786 352171 201"
"153.958519"
"$GPGGA,230013,2452.1920,N,08025.7616,W,1,10,1.5,18"
"##MN+00 00 56 0498 02147 5269 452531 352121 201"
"153.958565"
"$GPGGA,230017,2452.1944,N,08025.7612,W,1,10,1.5,18"
"##MN-00 00 50 0500 02147 5269 452484 352111 201"
"153.958611"
"#increment_net"
"$GPGGA,230021,2452.1967,N,08025.7608,W,1,10,1.5,18"
"##MN-00 00 45 0502 02144 5269 452374 352060 201"
"153.958657"
"$GPGGA,230025,2452.1991,N,08025.7603,W,1,10,1.5,18"
"##MN-00 00 46 0504 02137 5268 452252 352026 201"
"153.958704"
"$GPGGA,230029,2452.2013,N,08025.7601,W,1,10,1.5,18"
"##MN-00 00 49 0506 02138 5268 451982 351923 201"
"153.95875"
"$GPGGA,230033,2452.2036,N,08025.7596,W,1,10,1.5,17"
"##MN-00 00 41 0507 02136 5268 450933 351568 201"
"153.958796"
"$GPGGA,230037,2452.2057,N,08025.7594,W,1,10,1.5,17"
"##MN-00 00 46 0510 02124 5268 450239 351359 201"
"153.958843"
"$GPGGA,230041,2452.2079,N,08025.7588,W,1,10,1.5,17"
"##MN-00 00 46 0511 02125 5267 448876 350964 201"
"153.958889"
"$GPGGA,230045,2452.2101,N,08025.7583,W,1,10,1.5,17"
"##MN-00 00 49 0513 02127 5267 448656 350870 201"
"153.958935"
"$GPGGA,230049,2452.2121,N,08025.7579,W,1,10,1.5,17"
"##MN-00 00 50 0514 02134 5267 449263 351058 201"
"153.958982"
"$GPGGA,230053,2452.2143,N,08025.7574,W,1,10,1.5,17"
"##MN-00 00 48 0515 02145 5266 450343 351417 201"
"153.959028"
"$GPGGA,230057,2452.2165,N,08025.7569,W,1,10,1.5,17"
"##MN-00 00 43 0516 02137 5266 451080 351580 201"
"153.959074"
"$GPGGA,230101,2452.2190,N,08025.7568,W,1,10,1.5,17"
"##MN-00 00 45 0518 02134 5266 451549 351767 201"
"153.95912"
"$GPGGA,230105,2452.2217,N,08025.7565,W,1,10,1.5,16"
"##MN-00 00 43 0520 02128 5266 450297 351272 201"
"153.959167"
"$GPGGA,230109,2452.2245,N,08025.7565,W,1,10,1.5,16"
"##MN-00 00 42 0521 02119 5265 448889 350990 201"
"153.959213"
"$GPGGA,230113,2452.2274,N,08025.7566,W,1,10,1.5,16"
"##MN-00 00 45 0523 02112 5265 447758 350580 201"
"153.959259"
"$GPGGA,230117,2452.2303,N,08025.7569,W,1,10,1.5,16"
"##MN-00 00 41 0525 02107 5264 446915 350386 201"
"153.959306"
"$GPGGA,230121,2452.2334,N,08025.7573,W,1,10,1.5,16"
"##MN-00 00 43 0527 02104 5264 446561 350270 201"
"153.959363"
"$GPGGA,230125,2452.2364,N,08025.7579,W,1,10,1.5,16"
"##MN-00 00 48 0529 02094 5263 446400 350232 201"
"153.95941"
"$GPGGA,230129,2452.2392,N,08025.7587,W,1,10,1.5,16"
"##MN-00 00 42 0530 02097 5263 446104 350028 201"
"153.959456"
"$GPGGA,230133,2452.2421,N,08025.7598,W,1,10,1.5,16"
"##MN-00 00 45 0532 02091 5263 445893 349947 201"
"153.959502"
"$GPGGA,230137,2452.2450,N,08025.7605,W,1,10,1.5,16"
"##MN-00 00 47 0534 02093 5262 445773 349898 201"
"153.959549"
"$GPGGA,230141,2452.2480,N,08025.7606,W,1,10,1.5,17"
"##MN-00 00 46 0535 02096 5262 445806 349924 201"
"153.959595"
"$GPGGA,230146,2452.2513,N,08025.7612,W,1,10,1.5,17"
"##MN-00 00 47 0537 02094 5262 445815 349930 201"
"153.959641"
"$GPGGA,230149,2452.2536,N,08025.7613,W,1,10,1.5,17"
"##MN-00 00 50 0539 02096 5261 445773 349892 201"
"153.959687"
"$GPGGA,230154,2452.2571,N,08025.7615,W,1,10,1.5,17"
"##MN-00 00 51 0540 02102 5261 445772 349884 201"
"153.959734"
"$GPGGA,230158,2452.2600,N,08025.7614,W,1,10,1.5,17"
"##MN-00 00 51 0542 02104 5261 445858 349913 201"
"153.95978"
"$GPGGA,230202,2452.2628,N,08025.7615,W,1,10,1.5,17"
"##MN-00 00 48 0543 02111 5261 445876 349914 201"
"153.959826"
"$GPGGA,230206,2452.2657,N,08025.7616,W,1,10,1.5,17"
"##MN+00 00 44 0545 02114 5261 445839 349899 201"
"153.959873"
"$GPGGA,230210,2452.2683,N,08025.7616,W,1,10,1.5,17"
"##MN+00 00 43 0546 02114 5260 445765 349882 201"
"153.959919"
"$GPGGA,230214,2452.2711,N,08025.7612,W,1,10,1.6,17"
"##MN+00 00 47 0548 02117 5260 445842 349903 201"
"153.959965"
"$GPGGA,230218,2452.2736,N,08025.7608,W,1,10,1.5,17"
"##MN-00 00 47 0549 02124 5260 446017 349969 201"
"153.960012"
"$GPGGA,230222,2452.2764,N,08025.7603,W,1,10,1.5,17"
"##MN-00 00 44 0550 02114 5259 446947 350168 201"
"153.960058"
"$GPGGA,230226,2452.2791,N,08025.7602,W,1,10,1.5,17"
"##MN-00 00 46 0552 02123 5259 446691 350197 201"
"153.960104"
"$GPGGA,230230,2452.2820,N,08025.7602,W,1,10,1.5,17"
"##MN-00 00 41 0553 02124 5259 446604 350132 201"
"153.96015"
"$GPGGA,230234,2452.2848,N,08025.7605,W,1,10,1.5,16"
"##MN+00 00 44 0555 02120 5259 446328 350068 201"
"153.960197"
"$GPGGA,230238,2452.2876,N,08025.7605,W,1,10,1.5,16"
"##MN+00 00 44 0556 02122 5259 446612 350227 201"
"153.960243"
"$GPGGA,230242,2452.2906,N,08025.7605,W,1,10,1.5,16"
"##MN+00 00 51 0558 02120 5259 446862 350234 201"
"153.960289"
"#increment_net"
"$GPGGA,230246,2452.2936,N,08025.7610,W,1,10,1.5,16"
"##MN-00 00 54 0559 02116 5259 446840 350236 201"
"153.960336"
"$GPGGA,230250,2452.2968,N,08025.7611,W,1,10,1.6,16"
"##MN-00 00 48 0561 02120 5258 446545 350162 201"
"153.960382"
"$GPGGA,230254,2452.2999,N,08025.7614,W,1,10,1.5,16"
"##MN-00 00 51 0564 02119 5258 446725 350208 201"
"153.960428"
"$GPGGA,230258,2452.3028,N,08025.7617,W,1,10,1.6,16"
"##MN-00 00 48 0566 02119 5257 447012 350245 201"
"153.960475"
"$GPGGA,230302,2452.3055,N,08025.7619,W,1,10,1.5,16"
"##MN-00 00 49 0569 02120 5256 446654 350159 201"
"153.960521"
"$GPGGA,230306,2452.3082,N,08025.7620,W,1,10,1.5,16"
"##MN-00 00 52 0571 02111 5256 446295 350069 201"
"153.960567"
"$GPGGA,230310,2452.3109,N,08025.7624,W,1,10,1.5,16"
"##MN-00 00 54 0574 02107 5256 446009 350016 201"
"153.960613"
"$GPGGA,230314,2452.3136,N,08025.7630,W,1,10,1.5,16"
"##MN-00 00 44 0576 02106 5256 445702 349887 201"
"153.96066"
"$GPGGA,230318,2452.3165,N,08025.7634,W,1,10,1.5,16"
"##MN-00 00 48 0579 02098 5256 445604 349846 201"
"153.960706"
"$GPGGA,230322,2452.3198,N,08025.7637,W,1,10,1.5,16"
"##MN-00 00 52 0581 02093 5256 445389 349789 201"
"153.960752"
"$GPGGA,230326,2452.3228,N,08025.7645,W,1,10,1.5,16"
"##MN-00 00 52 0583 02085 5256 445032 349687 201"
"153.960799"
"$GPGGA,230330,2452.3260,N,08025.7652,W,1,10,1.5,16"
"##MN-00 00 45 0586 02083 5255 444864 349621 201"
"153.960845"
"$GPGGA,230334,2452.3290,N,08025.7662,W,1,10,1.5,16"
"##MN-00 00 49 0589 02069 5255 444619 349552 201"
"153.960891"
"$GPGGA,230338,2452.3320,N,08025.7670,W,1,10,1.5,16"
"##MN-00 00 46 0591 02068 5255 443930 349368 201"
"153.960938"
"$GPGGA,230342,2452.3349,N,08025.7678,W,1,10,2.1,16"
"##MN-00 00 51 0594 02059 5255 442927 349105 201"
"153.960984"
"$GPGGA,230346,2452.3375,N,08025.7684,W,1,10,1.5,17"
"##MN-00 00 51 0597 02055 5255 442273 348966 201"
"153.96103"
"$GPGGA,230350,2452.3402,N,08025.7699,W,1,9,2.1,17,"
"##MN-00 00 46 0599 02052 5255 440973 348672 201"
"153.961076"
"$GPGGA,230354,2452.3427,N,08025.7706,W,1,10,1.5,17"
"##MN-00 00 48 0602 02049 5255 441017 348523 201"
"153.961123"
"$GPGGA,230358,2452.3452,N,08025.7715,W,1,10,2.1,18"
"##MN-00 00 48 0605 02042 5255 440449 348378 201"
"153.961169"
"$GPGGA,230402,2452.3477,N,08025.7728,W,1,10,1.5,18"
"##MN-00 00 48 0607 02038 5255 440096 348212 201"
"153.961215"
"$GPGGA,230406,2452.3499,N,08025.7746,W,1,9,2.1,18,"
"##MN-00 00 50 0610 02030 5254 440098 348187 201"
"153.961262"
"$GPGGA,230410,2452.3520,N,08025.7750,W,1,10,1.6,18"
"##MN-00 00 49 0613 02031 5255 440053 348120 201"
"153.961308"
"$GPGGA,230414,2452.3538,N,08025.7764,W,1,10,1.5,18"
"##MN-00 00 46 0615 02028 5255 440236 348187 201"
"153.961354"
"$GPGGA,230418,2452.3559,N,08025.7775,W,1,9,1.5,19,"
"##MN-00 00 48 0618 02026 5254 440383 348208 201"
"153.9614"
"$GPGGA,230422,2452.3578,N,08025.7783,W,1,10,1.6,19"
"##MN-00 00 54 0621 02016 5255 440053 348166 201"
"153.961447"
"$GPGGA,230426,2452.3600,N,08025.7796,W,1,10,1.6,19"
"##MN-00 00 50 0623 02017 5255 439536 347944 201"
"153.961493"
"$GPGGA,230430,2452.3618,N,08025.7803,W,1,10,1.5,19"
"##MN-00 00 44 0626 02019 5254 438720 347707 201"
"153.961539"
"$GPGGA,230434,2452.3636,N,08025.7811,W,1,10,1.6,19"
"##MN-00 00 49 0628 02008 5255 438288 347577 201"
"153.961586"
"$GPGGA,230438,2452.3654,N,08025.7819,W,1,10,1.6,18"
"##MN-00 00 48 0631 02008 5254 437941 347494 201"
"153.961632"
"$GPGGA,230442,2452.3671,N,08025.7829,W,1,10,1.5,18"
"##MN-00 00 46 0633 02004 5255 437747 347434 201"
"153.961678"
"$GPGGA,230446,2452.3687,N,08025.7836,W,1,10,1.5,19"
"##MN-00 00 49 0636 01999 5255 437631 347402 201"
"153.961725"
"$GPGGA,230450,2452.3707,N,08025.7833,W,1,10,2.1,19"
"##MN-00 00 46 0638 01999 5255 437462 347301 201"
"153.961771"
"$GPGGA,230454,2452.3727,N,08025.7836,W,1,9,1.5,19,"
"##MN-00 00 45 0641 01994 5255 437341 347299 201"
"153.961817"
"$GPGGA,230458,2452.3744,N,08025.7847,W,1,8,2.1,19,"
"##MN-00 00 46 0643 01992 5255 437249 347265 201"
"153.961863"
"$GPGGA,230502,2452.3761,N,08025.7843,W,1,9,2.7,20,"
"##MN-00 00 44 0645 01989 5255 437285 347262 201"
"153.96191"
"$GPGGA,230506,2452.3777,N,08025.7843,W,1,10,1.5,20"
"##MN-00 00 44 0648 01984 5255 437265 347260 201"
"153.961956"
"$GPGGA,230510,2452.3788,N,08025.7843,W,1,9,1.5,20,"
"##MN-00 00 42 0650 01985 5255 437254 347262 201"
"153.962002"
"$GPGGA,230514,2452.3803,N,08025.7842,W,1,9,1.5,21,"
"##MN-00 00 40 0652 01981 5255 437226 347254 201"
"153.962049"
"$GPGGA,230518,2452.3817,N,08025.7844,W,1,10,1.5,22"
"##MN-00 00 39 0654 01981 5255 437131 347218 201"
"153.962095"
"$GPGGA,230522,2452.3831,N,08025.7845,W,1,10,1.5,22"
"##MN-00 00 34 0656 01981 5255 437116 347209 201"
"153.962141"
"$GPGGA,230526,2452.3844,N,08025.7845,W,1,10,1.5,22"
"##MN-00 00 39 0658 01969 5256 437248 347225 201"
"153.962188"
"$GPGGA,230530,2452.3860,N,08025.7848,W,1,10,1.5,22"
"##MN-00 00 35 0660 01974 5256 437309 347257 201"
"153.962234"
"$GPGGA,230534,2452.3875,N,08025.7848,W,1,10,1.5,22"
"##MN-00 00 35 0662 01971 5256 437195 347219 201"
"153.96228"
"$GPGGA,230538,2452.3891,N,08025.7847,W,1,10,1.5,21"
"##MN-00 00 34 0664 01965 5256 437067 347184 201"
"153.962326"
"$GPGGA,230542,2452.3907,N,08025.7844,W,1,10,1.5,21"
"##MN-00 00 34 0665 01958 5256 436989 347159 201"
"153.962373"
"$GPGGA,230546,2452.3922,N,08025.7843,W,1,10,2.4,21"
"##MN-00 00 32 0667 01955 5257 437035 347173 201"
"153.962419"
"$GPGGA,230550,2452.3938,N,08025.7838,W,1,10,1.6,20"
"##MN-00 00 31 0668 01954 5257 437062 347181 201"
"153.962465"
"$GPGGA,230554,2452.3951,N,08025.7831,W,1,10,1.6,20"
"##MN-00 00 28 0670 01947 5257 437065 347183 201"
"153.962512"
"$GPGGA,230558,2452.3969,N,08025.7828,W,1,10,1.5,20"
"##MN-00 00 28 0672 01941 5257 437032 347168 201"
"153.962558"
"$GPGGA,230602,2452.3987,N,08025.7825,W,1,10,2.1,21"
"##MN-00 00 27 0673 01945 5258 437032 347172 201"
"153.962616"
"$GPGGA,230606,2452.4004,N,08025.7825,W,1,10,2.1,20"
"##MN-00 00 26 0675 01927 5258 437030 347174 201"
"153.962662"
"$GPGGA,230610,2452.4018,N,08025.7821,W,1,10,2.1,21"
"##MN-00 00 30 0676 01920 5258 437028 347171 201"
"153.962708"
"$GPGGA,230614,2452.4034,N,08025.7814,W,1,9,2.1,20,"
"##MN-00 00 28 0677 01922 5258 437038 347175 201"
"153.962755"
"$GPGGA,230618,2452.4048,N,08025.7815,W,1,9,1.5,20,"
"##MN-00 00 25 0679 01914 5258 437030 347172 201"
"153.962801"
"$GPGGA,230623,2452.4070,N,08025.7810,W,1,9,2.1,20,"
"##MN-00 00 25 0680 01903 5259 437005 347165 201"
"153.962847"
"$GPGGA,230627,2452.4084,N,08025.7802,W,1,10,1.5,20"
"##MN-00 00 25 0682 01899 5259 437006 347167 201"
"153.962893"
"$GPGGA,230630,2452.4097,N,08025.7800,W,1,9,1.5,20,"
"##MN-00 00 25 0683 01889 5259 437017 347171 201"
"153.96294"
"$GPGGA,230635,2452.4117,N,08025.7795,W,1,9,1.5,20,"
"##MN-00 00 25 0685 01881 5260 437032 347176 201"
"153.962986"
"$GPGGA,230639,2452.4135,N,08025.7793,W,1,10,1.5,20"
"##MN-00 00 16 0686 01877 5260 437029 347177 201"
"153.963032"
"$GPGGA,230643,2452.4152,N,08025.7789,W,1,9,1.5,21,"
"##MN-00 00 27 0687 01862 5261 437001 347170 201"
