" Tow: 4Wm-B   RVWS/WS1406"
" Date: 06/02/2014"
" Temperature Probe #  2597    Conductivity Probe #  2870"
" Pressure Probe #  109"
" Flow Meter Calibration  2.35 (m/count)  "
"153.98022"
"$GPGGA,233129,2451.6733,N,08024.3310,W,1,10,2.1,18"
"##MN-00 00 67 0102 01876 5256 445203 864997 201"
"153.980266"
"$GPGGA,233132,2451.6723,N,08024.3294,W,1,10,2.1,18"
"##MN-00 00 69 0103 01881 5256 435525 346783 201"
"153.980313"
"$GPGGA,233136,2451.6707,N,08024.3276,W,1,9,2.1,17,"
"##MN-00 00 63 0105 01889 5256 435508 346759 201"
"153.980359"
"$GPGGA,233140,2451.6691,N,08024.3255,W,1,10,2.1,17"
"##MN-00 00 65 0108 01892 5256 435510 346745 201"
"153.980405"
"$GPGGA,233144,2451.6674,N,08024.3230,W,1,10,2.1,18"
"##MN-00 00 63 0110 01899 5256 435510 346742 201"
"153.980451"
"$GPGGA,233148,2451.6657,N,08024.3207,W,1,10,2.1,18"
"##MN-00 00 61 0113 01902 5256 435498 346736 201"
"153.980498"
"$GPGGA,233152,2451.6642,N,08024.3186,W,1,10,2.1,18"
"##MN-00 00 66 0116 01904 5256 435518 346734 201"
"153.980544"
"$GPGGA,233156,2451.6624,N,08024.3163,W,1,10,2.1,18"
"##MN-00 00 66 0119 01902 5257 435538 346732 201"
"153.980718"
"$GPGGA,233207,2451.6577,N,08024.3102,W,1,10,2.1,19"
"##MN-00 00 64 0127 01916 5257 435514 346719 201"
"153.980764"
"$GPGGA,233215,2451.6542,N,08024.3053,W,1,10,2.1,20"
"##MN-00 00 67 0130 01928 5258 435483 346700 201"
"153.98081"
"$GPGGA,233219,2451.6530,N,08024.3026,W,1,10,2.1,20"
"##MN-00 00 72 0132 01928 5258 435489 346700 201"
"153.980856"
"$GPGGA,233223,2451.6512,N,08024.3009,W,1,10,2.1,20"
"##MN-00 00 64 0134 01939 5258 435494 346699 201"
"153.980903"
"$GPGGA,233227,2451.6497,N,08024.2986,W,1,10,2.1,20"
"##MN-00 00 66 0137 01940 5258 435523 346705 201"
"153.980949"
"$GPGGA,233231,2451.6480,N,08024.2965,W,1,10,2.1,20"
"##MN-00 00 66 0139 01950 5258 435484 346698 201"
"153.980995"
"$GPGGA,233235,2451.6466,N,08024.2939,W,1,10,2.1,20"
"##MN-00 00 72 0141 01952 5259 435499 346695 201"
"153.981042"
"$GPGGA,233239,2451.6451,N,08024.2919,W,1,10,2.1,20"
"##MN-00 00 63 0143 01962 5259 435499 346693 201"
"153.981088"
"$GPGGA,233243,2451.6436,N,08024.2893,W,1,10,2.1,20"
"##MN-00 00 64 0146 01962 5259 435476 346686 201"
"153.981134"
"$GPGGA,233247,2451.6419,N,08024.2874,W,1,10,2.1,20"
"##MN-00 00 64 0148 01971 5259 435459 346677 201"
"153.981181"
"$GPGGA,233251,2451.6404,N,08024.2852,W,1,10,2.1,20"
"##MN-00 00 63 0151 01973 5260 435512 346687 201"
"153.981227"
"$GPGGA,233255,2451.6389,N,08024.2829,W,1,10,2.1,20"
"##MN-00 00 69 0153 01978 5260 435589 346718 201"
"153.981273"
"$GPGGA,233259,2451.6371,N,08024.2803,W,1,10,2.1,20"
"##MN-00 00 65 0155 01985 5261 435699 346788 201"
"153.981319"
"$GPGGA,233303,2451.6358,N,08024.2775,W,1,10,2.1,20"
"##MN-00 00 66 0158 01989 5261 435775 346763 201"
"153.981366"
"$GPGGA,233307,2451.6342,N,08024.2751,W,1,10,2.1,20"
"##MN-00 00 68 0159 01998 5261 435916 346804 201"
"153.981412"
"$GPGGA,233311,2451.6329,N,08024.2724,W,1,10,2.1,19"
"##MN-00 00 66 0161 02005 5261 436183 346862 201"
"153.981458"
"$GPGGA,233315,2451.6317,N,08024.2697,W,1,8,2.6,19,"
"##MN-00 00 67 0163 02015 5262 436340 346901 201"
"153.981505"
"$GPGGA,233319,2451.6306,N,08024.2675,W,1,9,2.2,19,"
"##MN-00 00 66 0165 02026 5262 436547 346946 201"
"153.981551"
"$GPGGA,233323,2451.6294,N,08024.2653,W,1,10,2.1,18"
"##MN-00 00 64 0168 02035 5262 437167 347060 201"
"153.981597"
"$GPGGA,233327,2451.6282,N,08024.2631,W,1,10,2.1,18"
"##MN-00 00 62 0170 02041 5263 438738 347519 201"
"153.981644"
"$GPGGA,233331,2451.6266,N,08024.2604,W,1,10,2.1,17"
"##MN-00 00 64 0172 02053 5263 440223 347705 201"
"153.98169"
"$GPGGA,233335,2451.6252,N,08024.2580,W,1,9,2.2,17,"
"##MN-00 00 61 0175 02056 5263 442845 348261 201"
"153.981736"
"$GPGGA,233339,2451.6234,N,08024.2557,W,1,9,2.1,17,"
"##MN-00 00 62 0177 02067 5264 445247 349360 201"
"153.981782"
"$GPGGA,233343,2451.6218,N,08024.2534,W,1,10,2.1,16"
"##MN-00 00 62 0178 02074 5265 447550 350109 201"
"153.981829"
"$GPGGA,233347,2451.6200,N,08024.2511,W,1,10,2.1,16"
"##MN-00 00 65 0180 02080 5265 448900 350505 201"
"153.981875"
"$GPGGA,233351,2451.6183,N,08024.2487,W,1,9,2.1,16,"
"##MN-00 00 62 0182 02092 5266 449879 350826 201"
"153.981921"
"$GPGGA,233355,2451.6169,N,08024.2462,W,1,9,2.0,17,"
"##MN-00 00 60 0184 02096 5266 451117 351021 201"
"153.981968"
"$GPGGA,233359,2451.6149,N,08024.2444,W,1,10,2.2,17"
"##MN-00 00 66 0186 02103 5267 452307 351650 201"
"153.982014"
"$GPGGA,233403,2451.6133,N,08024.2422,W,1,10,2.0,16"
"##MN-00 00 63 0188 02110 5267 453044 351877 201"
"153.98206"
"$GPGGA,233407,2451.6116,N,08024.2400,W,1,10,2.0,16"
"##MN-00 00 68 0190 02120 5268 454042 352407 201"
"153.982106"
"$GPGGA,233411,2451.6101,N,08024.2375,W,1,9,2.0,16,"
"##MN-00 00 63 0192 02125 5268 455243 352886 201"
"153.982153"
"$GPGGA,233415,2451.6089,N,08024.2349,W,1,10,2.2,16"
"##MN-00 00 61 0195 02127 5268 455220 352815 201"
"153.982199"
"$GPGGA,233419,2451.6075,N,08024.2323,W,1,10,2.0,16"
"##MN-00 00 60 0197 02131 5268 455248 352770 201"
"153.982245"
"$GPGGA,233423,2451.6062,N,08024.2294,W,1,10,2.0,16"
"##MN-00 00 64 0199 02131 5269 455340 352801 201"
"153.982292"
"$GPGGA,233427,2451.6047,N,08024.2268,W,1,10,2.0,16"
"##MN-00 00 58 0201 02136 5269 455421 352874 201"
"153.982338"
"$GPGGA,233431,2451.6036,N,08024.2245,W,1,9,2.2,17,"
"##MN-00 00 63 0203 02137 5269 455568 352924 201"
"153.982384"
"$GPGGA,233435,2451.6023,N,08024.2224,W,1,10,2.0,17"
"##MN-00 00 59 0205 02140 5269 455678 352964 201"
"153.982431"
"$GPGGA,233439,2451.6011,N,08024.2199,W,1,9,2.2,17,"
"##MN-00 00 60 0208 02138 5270 455765 352995 201"
"153.982477"
"$GPGGA,233443,2451.5996,N,08024.2177,W,1,10,2.0,17"
"##MN-00 00 60 0210 02138 5270 455813 353006 201"
"153.982523"
"$GPGGA,233447,2451.5985,N,08024.2150,W,1,9,2.0,17,"
"##MN-00 00 60 0213 02140 5270 455877 353019 201"
"153.982569"
"$GPGGA,233451,2451.5971,N,08024.2128,W,1,9,2.0,17,"
"##MN-00 00 60 0215 02144 5270 455876 353038 201"
"153.982616"
"$GPGGA,233455,2451.5960,N,08024.2105,W,1,9,2.0,17,"
"##MN-00 00 58 0217 02141 5271 455898 353059 201"
"153.982662"
"$GPGGA,233459,2451.5948,N,08024.2083,W,1,9,2.0,18,"
"##MN-00 00 58 0218 02146 5271 455865 353059 201"
"153.982708"
"$GPGGA,233503,2451.5934,N,08024.2058,W,1,8,2.2,18,"
"##MN-00 00 58 0219 02143 5271 455844 353067 201"
"153.982755"
"$GPGGA,233507,2451.5924,N,08024.2036,W,1,9,2.0,18,"
"##MN-00 00 60 0221 02147 5271 455848 353063 201"
"153.982801"
"$GPGGA,233511,2451.5911,N,08024.2013,W,1,9,2.0,18,"
"##MN-00 00 62 0223 02145 5271 455852 353071 201"
"153.982847"
"$GPGGA,233515,2451.5898,N,08024.1990,W,1,9,2.0,18,"
"##MN-00 00 58 0226 02145 5271 455877 353077 201"
"153.982894"
"$GPGGA,233519,2451.5883,N,08024.1971,W,1,9,2.0,19,"
"##MN-00 00 54 0228 02149 5271 455866 353074 201"
"153.98294"
"$GPGGA,233523,2451.5870,N,08024.1948,W,1,9,2.0,19,"
"##MN-00 00 56 0231 02143 5271 455860 353083 201"
"153.982986"
"$GPGGA,233527,2451.5858,N,08024.1925,W,1,9,2.0,18,"
"##MN-00 00 60 0233 02142 5271 455859 353084 201"
"153.983032"
"$GPGGA,233531,2451.5846,N,08024.1901,W,1,9,2.0,18,"
"##MN-00 00 58 0235 02141 5272 455859 353080 201"
"153.983079"
"$GPGGA,233535,2451.5838,N,08024.1879,W,1,9,2.0,18,"
"##MN-00 00 60 0238 02138 5271 455830 353082 201"
"153.983125"
"$GPGGA,233539,2451.5826,N,08024.1856,W,1,9,2.0,19,"
"##MN-00 00 59 0241 02137 5271 455729 353063 201"
"153.983171"
"$GPGGA,233543,2451.5815,N,08024.1832,W,1,9,2.0,19,"
"##MN-00 00 57 0243 02136 5271 455596 353033 201"
"153.983218"
"$GPGGA,233547,2451.5804,N,08024.1812,W,1,9,2.0,19,"
"##MN-00 00 59 0246 02132 5271 455549 353016 201"
"153.983264"
"$GPGGA,233551,2451.5791,N,08024.1794,W,1,9,2.0,19,"
"##MN-00 00 57 0248 02129 5271 455498 352989 201"
"153.98331"
"$GPGGA,233555,2451.5777,N,08024.1775,W,1,9,2.0,19,"
"##MN-00 00 56 0251 02128 5271 455556 353011 201"
"153.983356"
"$GPGGA,233559,2451.5768,N,08024.1751,W,1,8,2.2,19,"
"##MN-00 00 64 0253 02119 5271 455845 353217 201"
"153.983403"
"$GPGGA,233603,2451.5757,N,08024.1734,W,1,9,2.0,19,"
"##MN-00 00 61 0255 02122 5271 455555 353144 201"
"153.983449"
"$GPGGA,233607,2451.5746,N,08024.1714,W,1,9,2.0,19,"
"##MN-00 00 56 0257 02123 5270 455133 353063 201"
"153.983495"
"$GPGGA,233611,2451.5735,N,08024.1696,W,1,9,2.0,19,"
"##MN-00 00 56 0259 02129 5271 454742 352918 201"
"153.983542"
"$GPGGA,233615,2451.5726,N,08024.1669,W,1,9,2.0,19,"
"##MN-00 00 55 0262 02127 5270 455224 353034 201"
"153.983588"
"$GPGGA,233619,2451.5715,N,08024.1649,W,1,9,2.0,19,"
"##MN-00 00 58 0263 02128 5270 455426 353119 201"
"153.983634"
"$GPGGA,233624,2451.5703,N,08024.1615,W,1,8,2.0,19,"
"##MN-00 00 61 0265 02133 5270 455550 353148 201"
"153.983681"
"$GPGGA,233627,2451.5692,N,08024.1594,W,1,10,1.6,19"
"##MN-00 00 58 0267 02131 5270 455702 353232 201"
"153.983727"
"$GPGGA,233632,2451.5678,N,08024.1560,W,1,10,1.5,20"
"##MN-00 00 59 0270 02127 5270 455734 353228 201"
"153.983773"
"$GPGGA,233636,2451.5667,N,08024.1536,W,1,10,1.5,21"
"##MN-00 00 56 0272 02131 5270 455648 353233 201"
"153.983819"
"$GPGGA,233640,2451.5656,N,08024.1512,W,1,10,1.5,22"
"##MN-00 00 54 0274 02125 5270 455557 353200 201"
"153.983866"
"$GPGGA,233643,2451.5643,N,08024.1493,W,1,10,1.5,23"
"##MN-00 00 58 0277 02124 5269 455098 353075 201"
"153.983912"
"$GPGGA,233648,2451.5627,N,08024.1455,W,1,10,1.5,24"
"##MN-00 00 53 0279 02120 5269 454851 352957 201"
"153.98397"
"$GPGGA,233651,2451.5617,N,08024.1437,W,1,10,1.5,24"
"##MN-00 00 58 0282 02123 5269 454739 352863 201"
"153.984016"
"$GPGGA,233656,2451.5602,N,08024.1409,W,1,10,1.5,25"
"##MN-00 00 54 0284 02124 5268 454854 352893 201"
"153.984063"
"$GPGGA,233700,2451.5591,N,08024.1387,W,1,10,1.5,25"
"##MN+00 00 54 0286 02119 5268 454913 352930 201"
"153.984109"
"$GPGGA,233704,2451.5575,N,08024.1365,W,1,10,1.5,25"
"##MN+00 00 58 0288 02120 5268 454822 352899 201"
"153.984155"
"$GPGGA,233708,2451.5566,N,08024.1341,W,1,9,1.5,26,"
"##MN+00 00 55 0291 02119 5268 455045 352952 201"
"153.984201"
"$GPGGA,233712,2451.5553,N,08024.1320,W,1,10,1.5,26"
"##MN-00 00 58 0293 02120 5267 455031 352963 201"
"153.984248"
"$GPGGA,233716,2451.5542,N,08024.1297,W,1,10,1.5,26"
"##MN+00 00 56 0295 02120 5267 455047 352973 201"
"153.984294"
"$GPGGA,233720,2451.5530,N,08024.1277,W,1,9,1.5,26,"
"##MN+00 00 56 0298 02117 5267 454928 352920 201"
"153.98434"
"$GPGGA,233724,2451.5520,N,08024.1258,W,1,10,1.5,26"
"##MN+00 00 69 0300 02122 5266 454872 352913 201"
"153.984387"
"$GPGGA,233728,2451.5508,N,08024.1237,W,1,10,1.5,26"
"##MN-00 00 68 0302 02121 5266 454788 352873 201"
"153.984433"
"#increment_net"
"$GPGGA,233732,2451.5497,N,08024.1212,W,1,10,1.5,26"
"##MN-00 00 65 0304 02122 5266 454440 352747 201"
"153.984479"
"$GPGGA,233736,2451.5486,N,08024.1191,W,1,10,1.5,26"
"##MN-00 00 62 0306 02124 5266 454274 352662 201"
"153.984525"
"$GPGGA,233740,2451.5475,N,08024.1168,W,1,10,1.5,25"
"##MN-00 00 57 0309 02127 5265 454221 352657 201"
"153.984572"
"$GPGGA,233744,2451.5462,N,08024.1141,W,1,10,1.5,26"
"##MN-00 00 58 0311 02125 5265 454304 352677 201"
"153.984618"
"$GPGGA,233748,2451.5453,N,08024.1114,W,1,10,1.5,26"
"##MN-00 00 60 0313 02125 5264 454475 352720 201"
"153.984664"
"$GPGGA,233752,2451.5441,N,08024.1094,W,1,9,1.5,26,"
"##MN-00 00 58 0315 02126 5264 454494 352736 201"
"153.984711"
"$GPGGA,233756,2451.5432,N,08024.1066,W,1,10,1.5,26"
"##MN-00 00 59 0318 02123 5264 454754 352774 201"
"153.984757"
"$GPGGA,233800,2451.5419,N,08024.1051,W,1,10,1.5,26"
"##MN-00 00 65 0319 02126 5263 454758 352823 201"
"153.984803"
"$GPGGA,233804,2451.5410,N,08024.1026,W,1,10,1.5,26"
"##MN-00 00 57 0321 02123 5263 454691 352806 201"
"153.98485"
"$GPGGA,233808,2451.5398,N,08024.1005,W,1,10,1.5,26"
"##MN-00 00 61 0323 02130 5263 454504 352753 201"
"153.984896"
"$GPGGA,233812,2451.5390,N,08024.0983,W,1,10,1.5,26"
"##MN-00 00 56 0325 02129 5262 454631 352797 201"
"153.984942"
"$GPGGA,233816,2451.5378,N,08024.0962,W,1,10,1.6,26"
"##MN-00 00 55 0327 02135 5262 454463 352744 201"
"153.984988"
"$GPGGA,233820,2451.5368,N,08024.0939,W,1,9,1.5,25,"
"##MN-00 00 52 0330 02134 5262 454571 352766 201"
"153.985035"
"$GPGGA,233824,2451.5357,N,08024.0917,W,1,10,1.5,25"
"##MN-00 00 55 0332 02133 5261 454567 352753 201"
"153.985081"
"$GPGGA,233828,2451.5349,N,08024.0894,W,1,10,1.5,25"
"##MN-00 00 55 0334 02130 5261 454632 352777 201"
"153.985127"
"$GPGGA,233832,2451.5339,N,08024.0873,W,1,10,1.6,25"
"##MN-00 00 61 0336 02129 5260 454565 352767 201"
"153.985174"
"$GPGGA,233836,2451.5327,N,08024.0851,W,1,10,1.5,25"
"##MN-00 00 57 0339 02129 5260 454508 352742 201"
"153.98522"
"$GPGGA,233840,2451.5316,N,08024.0831,W,1,10,1.5,24"
"##MN-00 00 60 0340 02129 5260 454634 352791 201"
"153.985266"
"$GPGGA,233844,2451.5307,N,08024.0814,W,1,10,1.6,24"
"##MN-00 00 58 0342 02128 5260 454713 352823 201"
"153.985312"
"$GPGGA,233848,2451.5298,N,08024.0796,W,1,10,1.5,24"
"##MN-00 00 56 0345 02132 5259 454758 352839 201"
"153.985359"
"$GPGGA,233852,2451.5288,N,08024.0772,W,1,10,1.5,24"
"##MN-00 00 54 0347 02130 5259 454837 352847 201"
"153.985405"
"$GPGGA,233856,2451.5275,N,08024.0752,W,1,10,1.5,24"
"##MN-00 00 58 0349 02129 5259 454748 352841 201"
"153.985451"
"$GPGGA,233900,2451.5267,N,08024.0728,W,1,10,1.5,24"
"##MN-00 00 58 0351 02128 5258 454778 352847 201"
"153.985498"
"$GPGGA,233904,2451.5253,N,08024.0704,W,1,10,1.6,24"
"##MN-00 00 56 0353 02130 5257 454787 352839 201"
"153.985544"
"$GPGGA,233908,2451.5244,N,08024.0685,W,1,10,2.0,24"
"##MN+00 00 52 0356 02131 5257 454833 352857 201"
"153.98559"
"$GPGGA,233912,2451.5233,N,08024.0661,W,1,9,1.5,23,"
"##MN+00 00 57 0358 02124 5257 454742 352855 201"
"153.985637"
"$GPGGA,233916,2451.5219,N,08024.0634,W,1,10,1.5,23"
"##MN+00 00 58 0360 02127 5256 454676 352821 201"
"153.985683"
"$GPGGA,233920,2451.5209,N,08024.0606,W,1,10,1.6,23"
"##MN-00 00 55 0362 02126 5256 454759 352833 201"
"153.985729"
"$GPGGA,233924,2451.5195,N,08024.0585,W,1,9,1.6,23,"
"##MN-00 00 55 0364 02125 5255 454617 352809 201"
"153.985775"
"$GPGGA,233928,2451.5186,N,08024.0565,W,1,10,1.5,24"
"##MN-00 00 58 0366 02128 5255 454450 352737 201"
"153.985822"
"$GPGGA,233932,2451.5173,N,08024.0538,W,1,10,1.6,24"
"##MN-00 00 64 0368 02125 5254 454355 352685 201"
"153.985868"
"$GPGGA,233936,2451.5158,N,08024.0513,W,1,9,1.5,24,"
"##MN+00 00 63 0371 02126 5254 453869 352496 201"
"153.985914"
"$GPGGA,233940,2451.5151,N,08024.0489,W,1,9,1.5,25,"
"##MN+00 00 58 0373 02130 5254 453743 352432 201"
"153.985961"
"$GPGGA,233944,2451.5141,N,08024.0473,W,1,10,1.5,25"
"##MN+00 00 62 0375 02136 5254 453870 352505 201"
"153.986007"
"$GPGGA,233948,2451.5133,N,08024.0457,W,1,10,1.5,26"
"##MN-00 00 55 0376 02134 5253 454273 352633 201"
"153.986053"
"#increment_net"
"$GPGGA,233952,2451.5119,N,08024.0439,W,1,10,1.5,26"
"##MN-00 00 55 0378 02131 5253 454339 352658 201"
"153.9861"
"$GPGGA,233956,2451.5109,N,08024.0420,W,1,10,1.5,26"
"##MN-00 00 70 0379 02125 5252 454623 352788 201"
"153.986146"
"$GPGGA,234000,2451.5097,N,08024.0406,W,1,10,1.5,27"
"##MN-00 00 53 0380 02133 5252 454595 352760 201"
"153.986192"
"$GPGGA,234004,2451.5090,N,08024.0384,W,1,9,1.6,27,"
"##MN-00 00 53 0383 02126 5251 454722 352792 201"
"153.986238"
"$GPGGA,234008,2451.5079,N,08024.0363,W,1,10,1.5,27"
"##MN-00 00 52 0384 02137 5251 454545 352783 201"
"153.986285"
"$GPGGA,234012,2451.5078,N,08024.0337,W,1,10,1.5,27"
"##MN-00 00 47 0386 02130 5251 455089 352945 201"
"153.986331"
"$GPGGA,234016,2451.5067,N,08024.0314,W,1,10,1.5,27"
"##MN-00 00 57 0387 02136 5250 454725 352788 201"
"153.986377"
"$GPGGA,234020,2451.5063,N,08024.0291,W,1,10,1.5,26"
"##MN-00 00 63 0389 02138 5250 455137 352976 201"
"153.986424"
"$GPGGA,234024,2451.5053,N,08024.0269,W,1,9,1.6,26,"
"##MN-00 00 57 0391 02143 5249 455432 353081 201"
"153.98647"
"$GPGGA,234028,2451.5049,N,08024.0246,W,1,10,1.5,26"
"##MN-00 00 52 0393 02142 5249 455542 353096 201"
"153.986516"
"$GPGGA,234032,2451.5042,N,08024.0221,W,1,10,1.5,26"
"##MN-00 00 51 0396 02141 5248 455592 353118 201"
"153.986562"
"$GPGGA,234036,2451.5029,N,08024.0200,W,1,10,1.5,26"
"##MN-00 00 57 0398 02137 5248 455479 353116 201"
"153.986609"
"$GPGGA,234040,2451.5017,N,08024.0178,W,1,10,1.5,26"
"##MN-00 00 63 0400 02133 5247 455169 353016 201"
"153.986655"
"$GPGGA,234044,2451.5005,N,08024.0157,W,1,10,1.5,25"
"##MN-00 00 57 0402 02131 5247 454625 352782 201"
"153.986701"
"$GPGGA,234048,2451.4995,N,08024.0139,W,1,10,1.5,25"
"##MN-00 00 59 0404 02130 5246 454501 352744 201"
"153.986748"
"$GPGGA,234052,2451.4987,N,08024.0124,W,1,10,1.5,25"
"##MN-00 00 54 0406 02133 5246 454304 352648 201"
"153.986794"
"$GPGGA,234056,2451.4977,N,08024.0108,W,1,9,1.6,24,"
"##MN-00 00 54 0409 02128 5245 454221 352634 201"
"153.98684"
"$GPGGA,234100,2451.4968,N,08024.0089,W,1,10,1.5,24"
"##MN-00 00 52 0411 02131 5245 454194 352615 201"
"153.986887"
"$GPGGA,234104,2451.4957,N,08024.0070,W,1,10,1.5,24"
"##MN-00 00 53 0413 02129 5245 454191 352610 201"
"153.986933"
"$GPGGA,234108,2451.4946,N,08024.0046,W,1,10,1.5,24"
"##MN-00 00 51 0415 02128 5244 454255 352626 201"
"153.986979"
"$GPGGA,234113,2451.4932,N,08024.0023,W,1,10,1.5,23"
"##MN-00 00 54 0417 02126 5244 454199 352629 201"
"153.987025"
"$GPGGA,234117,2451.4920,N,08024.0000,W,1,10,1.5,23"
"##MN-00 00 56 0420 02125 5243 454155 352602 201"
"153.987072"
"$GPGGA,234120,2451.4912,N,08023.9982,W,1,10,1.6,23"
"##MN-00 00 55 0422 02120 5243 454076 352561 201"
"153.987118"
"$GPGGA,234124,2451.4903,N,08023.9959,W,1,10,1.5,23"
"##MN-00 00 57 0424 02121 5243 454014 352531 201"
"153.987164"
"$GPGGA,234129,2451.4890,N,08023.9929,W,1,10,1.5,23"
"##MN+00 00 53 0427 02121 5242 453904 352507 201"
"153.987222"
"$GPGGA,234132,2451.4879,N,08023.9912,W,1,10,1.5,22"
"##MN+00 00 54 0428 02122 5242 453656 352398 201"
"153.987269"
"$GPGGA,234137,2451.4866,N,08023.9881,W,1,10,1.5,22"
"##MN+00 00 60 0431 02116 5241 453621 352370 201"
"153.987315"
"$GPGGA,234141,2451.4851,N,08023.9860,W,1,10,1.5,22"
"##MN-00 00 54 0433 02120 5241 453518 352327 201"
"153.987361"
"$GPGGA,234145,2451.4839,N,08023.9838,W,1,9,1.6,22,"
"##MN-00 00 55 0435 02117 5240 453576 352354 201"
"153.987407"
"$GPGGA,234149,2451.4827,N,08023.9819,W,1,9,1.5,22,"
"##MN-00 00 56 0438 02116 5240 453465 352327 201"
"153.987454"
"$GPGGA,234153,2451.4816,N,08023.9797,W,1,8,1.5,22,"
"##MN-00 00 54 0440 02118 5239 453351 352278 201"
"153.9875"
"$GPGGA,234157,2451.4804,N,08023.9769,W,1,9,1.5,22,"
"##MN-00 00 55 0442 02118 5239 453330 352267 201"
"153.987546"
"$GPGGA,234201,2451.4789,N,08023.9746,W,1,9,1.5,22,"
"##MN+00 00 62 0444 02118 5239 453282 352249 201"
"153.987593"
"$GPGGA,234205,2451.4775,N,08023.9721,W,1,9,1.6,22,"
"##MN+00 00 53 0446 02120 5238 453210 352228 201"
"153.987639"
"$GPGGA,234209,2451.4763,N,08023.9701,W,1,8,1.5,22,"
"##MN+00 00 63 0448 02125 5238 453092 352186 201"
"153.987685"
"$GPGGA,234213,2451.4751,N,08023.9677,W,1,8,1.6,22,"
"##MN-00 00 58 0450 02120 5237 453078 352171 201"
"153.987731"
"$GPGGA,234217,2451.4740,N,08023.9653,W,1,9,1.5,22,"
"##MN-00 00 54 0452 02122 5237 453008 352150 201"
"153.987778"
"#increment_net"
"$GPGGA,234221,2451.4731,N,08023.9628,W,1,9,1.5,22,"
"##MN-00 00 57 0455 02121 5237 452920 352108 201"
"153.987824"
"$GPGGA,234225,2451.4721,N,08023.9602,W,1,9,1.5,22,"
"##MN-00 00 57 0457 02122 5236 452955 352117 201"
"153.98787"
"$GPGGA,234229,2451.4711,N,08023.9579,W,1,9,1.6,22,"
"##MN-00 00 56 0459 02119 5235 452869 352075 201"
"153.987917"
"$GPGGA,234233,2451.4697,N,08023.9556,W,1,9,1.5,22,"
"##MN-00 00 59 0461 02119 5235 452794 352053 201"
"153.987963"
"$GPGGA,234237,2451.4688,N,08023.9534,W,1,8,1.6,22,"
"##MN-00 00 55 0464 02118 5234 452710 352004 201"
"153.988009"
"$GPGGA,234241,2451.4674,N,08023.9514,W,1,9,1.5,22,"
"##MN-00 00 55 0466 02120 5234 452758 352015 201"
"153.988056"
"$GPGGA,234245,2451.4666,N,08023.9493,W,1,9,1.5,22,"
"##MN-00 00 54 0468 02116 5234 452764 352018 201"
"153.988102"
"$GPGGA,234249,2451.4648,N,08023.9473,W,1,9,1.5,22,"
"##MN-00 00 54 0471 02116 5233 452732 352008 201"
"153.988148"
"$GPGGA,234253,2451.4637,N,08023.9452,W,1,9,1.5,22,"
"##MN-00 00 56 0473 02114 5233 452722 351997 201"
"153.988194"
"$GPGGA,234257,2451.4623,N,08023.9432,W,1,9,1.5,22,"
"##MN-00 00 56 0475 02115 5232 452668 351981 201"
"153.988241"
"$GPGGA,234301,2451.4614,N,08023.9412,W,1,9,1.5,22,"
"##MN-00 00 59 0477 02118 5232 452670 351979 201"
"153.988287"
"$GPGGA,234305,2451.4604,N,08023.9392,W,1,9,1.5,22,"
"##MN-00 00 53 0480 02119 5232 452764 352002 201"
"153.988333"
"$GPGGA,234309,2451.4592,N,08023.9373,W,1,9,1.5,22,"
"##MN-00 00 53 0482 02120 5231 452824 352030 201"
"153.98838"
"$GPGGA,234313,2451.4584,N,08023.9348,W,1,9,1.5,22,"
"##MN-00 00 56 0484 02114 5231 453007 352088 201"
"153.988426"
"$GPGGA,234317,2451.4570,N,08023.9327,W,1,8,1.6,22,"
"##MN-00 00 52 0487 02119 5230 452983 352083 201"
"153.988472"
"$GPGGA,234321,2451.4565,N,08023.9303,W,1,9,1.5,22,"
"##MN-00 00 53 0488 02109 5230 453045 352105 201"
"153.988519"
"$GPGGA,234325,2451.4547,N,08023.9282,W,1,9,1.5,22,"
"##MN-00 00 57 0491 02111 5230 452938 352058 201"
"153.988565"
"$GPGGA,234329,2451.4537,N,08023.9254,W,1,9,1.5,22,"
"##MN-00 00 60 0493 02106 5229 452988 352079 201"
"153.988611"
"$GPGGA,234333,2451.4523,N,08023.9234,W,1,9,1.5,22,"
"##MN-00 00 55 0495 02116 5229 453079 352103 201"
"153.988657"
"$GPGGA,234337,2451.4515,N,08023.9209,W,1,7,1.7,22,"
"##MN-00 00 54 0497 02116 5228 453230 352157 201"
"153.988704"
"$GPGGA,234341,2451.4502,N,08023.9186,W,1,7,1.7,22,"
"##MN-00 00 55 0500 02114 5228 453274 352178 201"
"153.98875"
"$GPGGA,234345,2451.4491,N,08023.9162,W,1,7,1.7,21,"
"##MN-00 00 54 0502 02116 5228 453262 352178 201"
"153.988796"
"$GPGGA,234349,2451.4478,N,08023.9137,W,1,8,1.7,21,"
"##MN-00 00 58 0504 02114 5227 453303 352193 201"
"153.988843"
"$GPGGA,234353,2451.4465,N,08023.9113,W,1,9,1.6,21,"
"##MN-00 00 57 0507 02116 5227 453330 352207 201"
"153.988889"
"$GPGGA,234357,2451.4454,N,08023.9088,W,1,9,1.6,21,"
"##MN+00 00 57 0509 02117 5227 453325 352207 201"
"153.988935"
"$GPGGA,234401,2451.4442,N,08023.9067,W,1,9,1.6,21,"
"##MN+00 00 54 0511 02121 5226 453342 352214 201"
"153.988981"
"$GPGGA,234405,2451.4429,N,08023.9046,W,1,8,1.7,20,"
"##MN+00 00 57 0514 02116 5226 453345 352210 201"
"153.989028"
"$GPGGA,234409,2451.4418,N,08023.9021,W,1,9,1.6,20,"
"##MN-00 00 58 0516 02115 5226 453367 352217 201"
"153.989074"
"$GPGGA,234413,2451.4406,N,08023.9000,W,1,9,1.6,20,"
"##MN+00 00 58 0518 02119 5225 453336 352212 201"
"153.98912"
"$GPGGA,234417,2451.4396,N,08023.8974,W,1,9,1.6,20,"
"##MN+00 00 57 0521 02116 5225 453298 352199 201"
"153.989167"
"$GPGGA,234421,2451.4384,N,08023.8951,W,1,8,1.7,20,"
"##MN+00 00 63 0523 02122 5224 453259 352182 201"
"153.989213"
"#increment_net"
"$GPGGA,234425,2451.4374,N,08023.8928,W,1,8,1.7,20,"
"##MN-00 00 57 0524 02117 5224 453251 352177 201"
"153.989259"
"$GPGGA,234429,2451.4361,N,08023.8904,W,1,9,1.6,19,"
"##MN-00 00 55 0527 02120 5224 453236 352168 201"
"153.989306"
"$GPGGA,234433,2451.4355,N,08023.8878,W,1,10,1.6,19"
"##MN-00 00 57 0529 02119 5224 453239 352167 201"
"153.989352"
"$GPGGA,234437,2451.4348,N,08023.8858,W,1,9,1.7,19,"
"##MN-00 00 56 0531 02122 5224 453240 352162 201"
"153.989398"
"$GPGGA,234441,2451.4341,N,08023.8835,W,1,10,1.6,20"
"##MN-00 00 56 0534 02122 5223 453238 352160 201"
"153.989444"
"$GPGGA,234445,2451.4328,N,08023.8813,W,1,10,1.6,20"
"##MN-00 00 55 0536 02124 5223 453231 352159 201"
"153.989491"
"$GPGGA,234449,2451.4317,N,08023.8786,W,1,10,1.6,20"
"##MN-00 00 58 0539 02119 5222 453224 352156 201"
"153.989537"
"$GPGGA,234453,2451.4301,N,08023.8760,W,1,9,1.6,20,"
"##MN-00 00 63 0541 02119 5222 453223 352153 201"
"153.989583"
"$GPGGA,234457,2451.4291,N,08023.8735,W,1,10,1.6,21"
"##MN-00 00 58 0543 02115 5221 453230 352155 201"
"153.98963"
"$GPGGA,234501,2451.4273,N,08023.8712,W,1,10,1.8,21"
"##MN-00 00 60 0546 02117 5221 453216 352151 201"
"153.989676"
"$GPGGA,234505,2451.4260,N,08023.8687,W,1,10,1.6,20"
"##MN-00 00 55 0548 02118 5221 453216 352151 201"
"153.989722"
"$GPGGA,234509,2451.4247,N,08023.8671,W,1,10,1.6,20"
"##MN-00 00 58 0551 02118 5220 453190 352142 201"
"153.989769"
"$GPGGA,234513,2451.4237,N,08023.8652,W,1,10,1.6,20"
"##MN-00 00 54 0553 02120 5221 453186 352142 201"
"153.989815"
"$GPGGA,234517,2451.4223,N,08023.8632,W,1,10,1.6,20"
"##MN-00 00 56 0555 02119 5220 453188 352140 201"
"153.989861"
"$GPGGA,234521,2451.4212,N,08023.8610,W,1,10,1.6,20"
"##MN-00 00 58 0558 02122 5219 453220 352145 201"
"153.989907"
"$GPGGA,234525,2451.4198,N,08023.8586,W,1,10,1.6,21"
"##MN-00 00 63 0560 02123 5219 453259 352153 201"
"153.989954"
"$GPGGA,234529,2451.4186,N,08023.8565,W,1,10,1.6,21"
"##MN-00 00 56 0562 02121 5219 453357 352183 201"
"153.99"
"$GPGGA,234533,2451.4175,N,08023.8543,W,1,10,1.6,21"
"##MN-00 00 59 0565 02122 5219 453535 352238 201"
"153.990046"
"$GPGGA,234537,2451.4162,N,08023.8521,W,1,10,1.6,21"
"##MN-00 00 58 0567 02119 5218 453558 352253 201"
"153.990093"
"$GPGGA,234541,2451.4150,N,08023.8497,W,1,10,1.6,22"
"##MN-00 00 58 0570 02122 5218 453585 352263 201"
"153.990139"
"$GPGGA,234545,2451.4140,N,08023.8471,W,1,10,1.6,22"
"##MN-00 00 60 0572 02121 5217 453630 352270 201"
"153.990185"
"$GPGGA,234549,2451.4128,N,08023.8450,W,1,10,1.6,22"
"##MN+00 00 55 0574 02121 5217 453653 352284 201"
"153.990232"
"$GPGGA,234553,2451.4120,N,08023.8432,W,1,9,1.6,22,"
"##MN+00 00 57 0576 02124 5217 453684 352289 201"
"153.990278"
"$GPGGA,234557,2451.4108,N,08023.8403,W,1,10,1.6,21"
"##MN+00 00 62 0579 02121 5217 453754 352312 200"
"153.990324"
"$GPGGA,234601,2451.4096,N,08023.8380,W,1,10,1.6,22"
"##MN-00 00 61 0581 02121 5216 453754 352317 199"
"153.99037"
"$GPGGA,234606,2451.4081,N,08023.8351,W,1,10,1.6,22"
"##MN-00 00 53 0584 02123 5215 453767 352323 200"
"153.990417"
"$GPGGA,234610,2451.4071,N,08023.8329,W,1,10,1.6,21"
"##MN-00 00 58 0586 02120 5215 453851 352351 200"
"153.990475"
"$GPGGA,234613,2451.4066,N,08023.8317,W,1,10,1.6,21"
"##MN-00 00 55 0588 02125 5215 453765 352322 200"
"153.990521"
"$GPGGA,234618,2451.4048,N,08023.8286,W,1,10,1.6,21"
"##MN+00 00 57 0591 02123 5214 453785 352330 200"
"153.990567"
"$GPGGA,234622,2451.4034,N,08023.8262,W,1,9,1.6,21,"
"##MN+00 00 54 0593 02126 5214 453749 352318 200"
"153.990613"
"$GPGGA,234626,2451.4025,N,08023.8237,W,1,9,1.6,21,"
"##MN+00 00 64 0595 02131 5214 453817 352332 201"
"153.99066"
"#increment_net"
"$GPGGA,234630,2451.4016,N,08023.8214,W,1,9,1.6,21,"
"##MN-00 00 63 0598 02133 5214 454085 352412 201"
"153.990706"
"$GPGGA,234634,2451.4003,N,08023.8190,W,1,9,1.6,21,"
"##MN-00 00 66 0601 02137 5214 454342 352468 201"
"153.990752"
"$GPGGA,234638,2451.3991,N,08023.8166,W,1,10,1.6,21"
"##MN-00 00 69 0604 02142 5213 454635 352584 201"
"153.990799"
"$GPGGA,234642,2451.3977,N,08023.8143,W,1,9,1.6,21,"
"##MN-00 00 59 0607 02147 5211 454870 352730 201"
"153.990845"
"$GPGGA,234646,2451.3965,N,08023.8118,W,1,9,1.6,21,"
"##MN-00 00 62 0609 02147 5211 455323 352875 201"
"153.990891"
"$GPGGA,234650,2451.3952,N,08023.8093,W,1,9,1.6,21,"
"##MN-00 00 56 0612 02151 5211 455762 353081 201"
"153.990937"
"$GPGGA,234654,2451.3938,N,08023.8067,W,1,9,1.6,21,"
"##MN-00 00 62 0616 02154 5210 456198 353239 201"
"153.990984"
"$GPGGA,234658,2451.3923,N,08023.8042,W,1,9,1.6,21,"
"##MN-00 00 64 0619 02151 5210 456101 353302 201"
"153.99103"
"$GPGGA,234702,2451.3908,N,08023.8018,W,1,9,1.6,21,"
"##MN-00 00 58 0622 02152 5209 456031 353247 201"
"153.991076"
"$GPGGA,234706,2451.3893,N,08023.7991,W,1,9,1.6,21,"
"##MN-00 00 63 0625 02148 5209 455882 353211 201"
"153.991123"
"$GPGGA,234710,2451.3880,N,08023.7968,W,1,9,1.6,21,"
"##MN-00 00 63 0628 02150 5209 455193 352868 201"
"153.991169"
"$GPGGA,234714,2451.3866,N,08023.7947,W,1,10,1.6,21"
"##MN-00 00 66 0631 02148 5209 454650 352685 201"
"153.991215"
"$GPGGA,234718,2451.3853,N,08023.7929,W,1,10,1.8,21"
"##MN-00 00 60 0634 02147 5209 454524 352634 201"
"153.991262"
"$GPGGA,234722,2451.3839,N,08023.7912,W,1,10,1.6,22"
"##MN-00 00 68 0637 02141 5209 454464 352599 201"
"153.991308"
"$GPGGA,234726,2451.3824,N,08023.7901,W,1,10,1.6,22"
"##MN-00 00 55 0640 02144 5208 454074 352498 201"
"153.991354"
"$GPGGA,234730,2451.3812,N,08023.7883,W,1,8,1.7,23,"
"##MN-00 00 62 0643 02140 5208 453727 352348 201"
"153.9914"
"$GPGGA,234734,2451.3796,N,08023.7870,W,1,10,1.6,23"
"##MN-00 00 64 0647 02136 5208 453455 352241 201"
"153.991447"
"$GPGGA,234738,2451.3784,N,08023.7854,W,1,9,1.6,23,"
"##MN-00 00 61 0650 02136 5207 453193 352172 201"
"153.991493"
"$GPGGA,234742,2451.3772,N,08023.7842,W,1,9,1.6,23,"
"##MN-00 00 60 0652 02136 5207 453115 352143 201"
"153.991539"
"$GPGGA,234746,2451.3763,N,08023.7833,W,1,10,1.6,23"
"##MN-00 00 56 0656 02134 5207 452953 352071 201"
"153.991586"
"$GPGGA,234750,2451.3752,N,08023.7822,W,1,10,1.6,24"
"##MN-00 00 54 0659 02134 5206 452818 352097 201"
"153.991632"
"$GPGGA,234754,2451.3745,N,08023.7815,W,1,9,1.6,24,"
"##MN-00 00 58 0662 02129 5206 452895 352180 201"
"153.991678"
"$GPGGA,234758,2451.3727,N,08023.7806,W,1,9,1.6,25,"
"##MN-00 00 58 0665 02128 5206 452598 352150 201"
"153.991725"
"$GPGGA,234802,2451.3720,N,08023.7795,W,1,10,1.6,25"
"##MN-00 00 65 0668 02117 5206 451326 351776 201"
"153.991771"
"$GPGGA,234806,2451.3703,N,08023.7790,W,1,10,1.6,25"
"##MN-00 00 53 0671 02118 5205 449644 351270 201"
"153.991817"
"$GPGGA,234810,2451.3696,N,08023.7783,W,1,10,1.6,25"
"##MN-00 00 57 0673 02105 5205 448655 350897 201"
"153.991863"
"$GPGGA,234814,2451.3682,N,08023.7780,W,1,10,1.6,26"
"##MN-00 00 56 0676 02103 5204 445967 350193 201"
"153.99191"
"$GPGGA,234818,2451.3671,N,08023.7774,W,1,10,1.6,26"
"##MN-00 00 61 0679 02098 5204 444469 349768 201"
"153.991956"
"$GPGGA,234822,2451.3666,N,08023.7770,W,1,10,1.6,26"
"##MN-00 00 55 0682 02094 5204 444467 349566 201"
"153.992002"
"$GPGGA,234826,2451.3658,N,08023.7769,W,1,10,1.6,26"
"##MN-00 00 56 0685 02094 5203 444059 349534 201"
"153.992049"
"$GPGGA,234830,2451.3653,N,08023.7764,W,1,9,1.9,26,"
"##MN-00 00 55 0689 02086 5203 441945 348881 201"
"153.992095"
"$GPGGA,234834,2451.3643,N,08023.7764,W,1,9,1.9,26,"
"##MN-00 00 58 0692 02079 5203 440752 348534 201"
"153.992141"
"$GPGGA,234838,2451.3640,N,08023.7759,W,1,9,1.8,26,"
"##MN-00 00 64 0695 02068 5203 440103 348198 201"
"153.992188"
"$GPGGA,234842,2451.3630,N,08023.7765,W,1,10,1.6,26"
"##MN-00 00 60 0699 02064 5202 439064 347959 201"
"153.992234"
"$GPGGA,234846,2451.3627,N,08023.7767,W,1,9,1.6,26,"
"##MN-00 00 67 0701 02050 5202 438125 347651 201"
"153.99228"
"$GPGGA,234850,2451.3622,N,08023.7780,W,1,10,1.9,26"
"##MN-00 00 60 0704 02045 5202 436913 347195 201"
"153.992326"
"$GPGGA,234854,2451.3622,N,08023.7793,W,1,8,1.6,26,"
"##MN-00 00 66 0707 02031 5202 436040 346949 201"
"153.992373"
"$GPGGA,234858,2451.3620,N,08023.7807,W,1,9,1.6,25,"
"##MN-00 00 66 0710 02026 5201 435612 346753 201"
"153.992419"
"$GPGGA,234902,2451.3617,N,08023.7818,W,1,10,2.1,25"
"##MN-00 00 67 0713 02011 5201 435425 346732 201"
"153.992465"
"$GPGGA,234906,2451.3612,N,08023.7826,W,1,9,1.6,24,"
"##MN-00 00 70 0716 02004 5201 435332 346674 201"
"153.992512"
"$GPGGA,234910,2451.3606,N,08023.7840,W,1,8,2.1,24,"
"##MN-00 00 70 0718 01986 5201 435229 346629 201"
"153.992558"
"$GPGGA,234914,2451.3600,N,08023.7850,W,1,10,1.6,23"
"##MN-00 00 66 0721 01983 5201 435116 346605 201"
"153.992604"
"$GPGGA,234918,2451.3596,N,08023.7859,W,1,9,1.6,23,"
"##MN-00 00 69 0722 01964 5201 435109 346591 201"
"153.99265"
"$GPGGA,234922,2451.3589,N,08023.7877,W,1,10,1.6,23"
"##MN-00 00 70 0725 01966 5201 435098 346580 201"
"153.992697"
"$GPGGA,234926,2451.3585,N,08023.7891,W,1,9,2.1,23,"
"##MN-00 00 70 0727 01956 5201 435070 346570 201"
"153.992743"
"$GPGGA,234930,2451.3582,N,08023.7899,W,1,9,1.6,22,"
"##MN-00 00 76 0729 01951 5201 435085 346567 201"
"153.992789"
"$GPGGA,234934,2451.3581,N,08023.7917,W,1,9,1.9,22,"
"##MN-00 00 72 0731 01946 5200 435091 346566 201"
"153.992836"
"$GPGGA,234938,2451.3582,N,08023.7931,W,1,9,1.6,21,"
"##MN-00 00 72 0733 01944 5200 435122 346572 201"
"153.992882"
"$GPGGA,234942,2451.3584,N,08023.7944,W,1,10,1.6,21"
"##MN-00 00 74 0736 01940 5200 435079 346552 201"
"153.992928"
"$GPGGA,234946,2451.3588,N,08023.7955,W,1,9,1.6,20,"
"##MN-00 00 73 0738 01935 5200 435073 346556 201"
"153.992975"
"$GPGGA,234950,2451.3592,N,08023.7967,W,1,9,1.6,20,"
"##MN-00 00 73 0740 01934 5201 435101 346563 201"
"153.993021"
"$GPGGA,234954,2451.3600,N,08023.7986,W,1,10,1.6,21"
"##MN-00 00 73 0742 01927 5200 435123 346569 201"
"153.993067"
"$GPGGA,234958,2451.3605,N,08023.8000,W,1,9,1.8,21,"
"##MN-00 00 72 0745 01922 5201 435136 346574 201"
"153.993113"
"$GPGGA,235002,2451.3615,N,08023.8021,W,1,10,1.6,21"
"##MN-00 00 72 0746 01912 5201 435120 346569 201"
"153.99316"
"$GPGGA,235006,2451.3622,N,08023.8049,W,1,10,1.6,21"
"##MN-00 00 75 0749 01914 5201 435139 346575 201"
"153.993206"
"$GPGGA,235011,2451.3636,N,08023.8074,W,1,9,1.6,21,"
"##MN-00 00 74 0751 01903 5202 435122 346570 201"
"153.993252"
"$GPGGA,235015,2451.3646,N,08023.8097,W,1,10,1.8,21"
"##MN-00 00 68 0754 01905 5201 435128 346572 201"
"153.993299"
"$GPGGA,235018,2451.3654,N,08023.8111,W,1,10,1.8,22"
"##MN-00 00 76 0754 01891 5202 435124 346570 201"
"153.993345"
"$GPGGA,235022,2451.3664,N,08023.8139,W,1,10,1.6,22"
"##MN-00 00 73 0757 01895 5202 435118 346570 201"
"153.993391"
"$GPGGA,235026,2451.3679,N,08023.8159,W,1,9,1.6,22,"
"##MN-00 00 74 0758 01882 5202 435131 346572 201"
"153.993438"
"$GPGGA,235031,2451.3694,N,08023.8195,W,1,10,1.6,23"
"##MN-00 00 79 0760 01880 5202 435174 346583 201"
"153.993484"
"$GPGGA,235035,2451.3712,N,08023.8223,W,1,10,1.8,23"
"##MN-00 00 72 0761 01872 5203 435159 346581 201"
"153.99353"
"$GPGGA,235039,2451.3726,N,08023.8251,W,1,10,1.6,23"
"##MN-00 00 76 0764 01871 5203 435118 346573 201"
"153.993576"
"$GPGGA,235043,2451.3736,N,08023.8277,W,1,10,1.6,23"
"##MN-00 00 76 0765 01863 5203 435143 346578 201"
"153.993634"
"$GPGGA,235047,2451.3748,N,08023.8303,W,1,9,1.6,24,"
"##MN-00 00 74 0767 01861 5204 435142 346583 201"
"153.993681"
"$GPGGA,235051,2451.3759,N,08023.8331,W,1,9,1.6,24,"
"##MN-00 00 74 0770 01862 5204 435158 346587 201"
"153.993727"
"$GPGGA,235055,2451.3773,N,08023.8356,W,1,10,1.8,24"
"##MN-00 00 76 0772 01862 5204 435184 346597 201"
