" Tow: 4Ws-B   RVWS/WS1406"
" Date: 06/02/2014"
" Temperature Probe #  2597    Conductivity Probe #  2870"
" Pressure Probe #  109"
" Flow Meter Calibration  2.35 (m/count)  "
"153.842187"
"$GPGGA,201238,2443.8672,N,08028.8090,W,1,10,1.8,16"
"##MN-00 00 39 0239 01855 5571 000015 925365 201"
"153.842234"
"$GPGGA,201246,2443.8718,N,08028.8121,W,1,10,1.5,15"
"##MN-00 00 32 0240 01856 5571 439954 925367 201"
"153.84228"
"$GPGGA,201250,2443.8738,N,08028.8140,W,1,10,1.5,15"
"##MN-00 00 55 0242 01855 5571 439700 925368 201"
"153.842326"
"$GPGGA,201254,2443.8759,N,08028.8157,W,1,8,1.5,15,"
"##MN-00 00 61 0247 01856 5572 439439 925367 201"
"153.842373"
"$GPGGA,201258,2443.8784,N,08028.8172,W,1,10,1.8,15"
"##MN-00 00 48 0248 01856 5573 434600 376439 201"
"153.842419"
"$GPGGA,201302,2443.8805,N,08028.8191,W,1,9,1.5,15,"
"##MN-00 00 52 0249 01857 5573 433703 346592 201"
"153.842465"
"$GPGGA,201306,2443.8828,N,08028.8205,W,1,9,1.8,14,"
"##MN-00 00 54 0251 01855 5573 433640 346394 201"
"153.842512"
"$GPGGA,201310,2443.8850,N,08028.8222,W,1,10,1.9,14"
"##MN-00 00 57 0253 01855 5573 433637 346420 201"
"153.842558"
"$GPGGA,201314,2443.8875,N,08028.8233,W,1,9,1.8,14,"
"##MN-00 00 55 0255 01859 5573 433630 346416 201"
"153.842604"
"$GPGGA,201318,2443.8896,N,08028.8248,W,1,9,1.6,13,"
"##MN-00 00 59 0257 01858 5573 433634 346333 201"
"153.84265"
"$GPGGA,201322,2443.8913,N,08028.8259,W,1,10,1.5,13"
"##MN-00 00 65 0258 01861 5574 433635 346293 201"
"153.842697"
"$GPGGA,201326,2443.8936,N,08028.8278,W,1,9,1.5,13,"
"##MN-00 00 60 0261 01863 5575 433644 346290 201"
"153.842743"
"$GPGGA,201330,2443.8951,N,08028.8291,W,1,9,1.5,13,"
"##MN-00 00 62 0263 01862 5575 433641 346269 201"
"153.842789"
"$GPGGA,201334,2443.8972,N,08028.8302,W,1,10,1.5,13"
"##MN-00 00 61 0265 01867 5575 433636 346253 201"
"153.842836"
"$GPGGA,201338,2443.9001,N,08028.8318,W,1,10,1.5,13"
"##MN-00 00 59 0268 01863 5576 433631 346239 201"
"153.842882"
"$GPGGA,201342,2443.9026,N,08028.8338,W,1,10,1.5,14"
"##MN-00 00 62 0270 01866 5577 433634 346240 201"
"153.842928"
"$GPGGA,201346,2443.9054,N,08028.8350,W,1,10,1.5,14"
"##MN-00 00 61 0273 01866 5577 433649 346244 201"
"153.842975"
"$GPGGA,201350,2443.9084,N,08028.8367,W,1,9,1.5,15,"
"##MN-00 00 61 0275 01869 5577 433651 346242 201"
"153.843021"
"$GPGGA,201354,2443.9117,N,08028.8383,W,1,10,1.5,15"
"##MN-00 00 65 0277 01869 5578 433656 346236 201"
"153.843067"
"$GPGGA,201358,2443.9151,N,08028.8400,W,1,10,1.5,16"
"##MN-00 00 66 0280 01870 5579 433667 346237 201"
"153.843113"
"$GPGGA,201402,2443.9182,N,08028.8417,W,1,10,1.5,16"
"##MN-00 00 64 0282 01875 5578 433665 346237 201"
"153.84316"
"$GPGGA,201406,2443.9218,N,08028.8429,W,1,10,1.5,16"
"##MN-00 00 61 0285 01869 5579 433673 346235 201"
"153.843206"
"$GPGGA,201410,2443.9256,N,08028.8443,W,1,10,1.5,16"
"##MN-00 00 67 0287 01874 5579 433674 346234 201"
"153.843252"
"$GPGGA,201414,2443.9289,N,08028.8454,W,1,10,1.5,17"
"##MN-00 00 64 0290 01875 5579 433675 346229 201"
"153.843299"
"$GPGGA,201418,2443.9325,N,08028.8469,W,1,10,1.5,17"
"##MN-00 00 63 0292 01875 5580 433664 346222 201"
"153.843345"
"$GPGGA,201422,2443.9359,N,08028.8479,W,1,10,1.5,17"
"##MN-00 00 67 0295 01877 5580 433657 346217 201"
"153.843391"
"$GPGGA,201426,2443.9395,N,08028.8490,W,1,10,1.5,17"
"##MN-00 00 65 0298 01876 5580 433653 346215 201"
"153.843438"
"$GPGGA,201430,2443.9438,N,08028.8501,W,1,10,1.8,17"
"##MN-00 00 63 0300 01880 5581 433651 346213 201"
"153.843484"
"$GPGGA,201434,2443.9480,N,08028.8508,W,1,10,1.8,17"
"##MN-00 00 66 0303 01880 5581 433652 346211 201"
"153.84353"
"$GPGGA,201438,2443.9525,N,08028.8523,W,1,10,1.8,17"
"##MN-00 00 66 0306 01881 5581 433648 346208 201"
"153.843576"
"$GPGGA,201442,2443.9570,N,08028.8535,W,1,10,1.5,16"
"##MN-00 00 67 0308 01883 5581 433644 346206 201"
"153.843623"
"$GPGGA,201446,2443.9615,N,08028.8549,W,1,10,1.5,16"
"##MN-00 00 63 0311 01881 5581 433645 346205 201"
"153.843669"
"$GPGGA,201450,2443.9662,N,08028.8559,W,1,9,1.5,16,"
"##MN-00 00 67 0314 01881 5582 433645 346203 201"
"153.843715"
"$GPGGA,201454,2443.9709,N,08028.8569,W,1,10,1.5,17"
"##MN-00 00 66 0317 01881 5581 433638 346200 201"
"153.843762"
"$GPGGA,201458,2443.9760,N,08028.8585,W,1,10,1.5,17"
"##MN-00 00 64 0320 01883 5582 433639 346197 201"
"153.843808"
"$GPGGA,201502,2443.9809,N,08028.8596,W,1,10,1.8,17"
"##MN-00 00 64 0323 01881 5582 433648 346198 201"
"153.843854"
"$GPGGA,201506,2443.9856,N,08028.8609,W,1,10,1.5,17"
"##MN-00 00 69 0326 01877 5582 433643 346197 201"
"153.8439"
"$GPGGA,201510,2443.9904,N,08028.8620,W,1,10,1.5,17"
"##MN-00 00 67 0328 01881 5583 433645 346197 201"
"153.843947"
"$GPGGA,201514,2443.9953,N,08028.8629,W,1,10,1.5,18"
"##MN-00 00 70 0331 01878 5583 433653 346198 201"
"153.843993"
"$GPGGA,201518,2444.0002,N,08028.8634,W,1,10,1.5,18"
"##MN-00 00 68 0333 01883 5583 433680 346348 201"
"153.844039"
"$GPGGA,201522,2444.0049,N,08028.8636,W,1,10,1.8,18"
"##MN-00 00 71 0336 01889 5584 433692 346208 201"
"153.844086"
"$GPGGA,201526,2444.0096,N,08028.8639,W,1,10,1.8,18"
"##MN-00 00 65 0339 01892 5584 433700 346207 201"
"153.844132"
"$GPGGA,201530,2444.0145,N,08028.8632,W,1,10,1.5,18"
"##MN-00 00 67 0341 01898 5583 433710 346210 201"
"153.844178"
"$GPGGA,201534,2444.0192,N,08028.8628,W,1,10,1.5,18"
"##MN-00 00 69 0344 01895 5584 433703 346207 201"
"153.844225"
"$GPGGA,201538,2444.0240,N,08028.8621,W,1,10,1.5,18"
"##MN-00 00 67 0346 01900 5584 433715 346209 201"
"153.844271"
"$GPGGA,201542,2444.0290,N,08028.8613,W,1,10,1.5,18"
"##MN-00 00 60 0349 01904 5584 433725 346210 201"
"153.844317"
"$GPGGA,201546,2444.0340,N,08028.8602,W,1,10,1.5,18"
"##MN-00 00 58 0351 01904 5584 433734 346386 201"
"153.844363"
"$GPGGA,201550,2444.0389,N,08028.8595,W,1,10,1.5,18"
"##MN-00 00 64 0353 01907 5585 433739 346201 201"
"153.84441"
"$GPGGA,201554,2444.0439,N,08028.8589,W,1,10,1.8,18"
"##MN-00 00 66 0356 01907 5584 433737 346201 201"
"153.844456"
"$GPGGA,201558,2444.0490,N,08028.8574,W,1,10,1.5,18"
"##MN-00 00 63 0358 01918 5584 433740 346199 201"
"153.844502"
"$GPGGA,201602,2444.0544,N,08028.8561,W,1,10,1.5,18"
"##MN-00 00 58 0360 01913 5585 433720 346192 201"
"153.844549"
"$GPGGA,201606,2444.0596,N,08028.8549,W,1,10,1.5,18"
"##MN-00 00 66 0362 01917 5585 433715 346189 201"
"153.844595"
"$GPGGA,201610,2444.0648,N,08028.8540,W,1,10,1.5,18"
"##MN-00 00 59 0364 01920 5585 433715 346189 201"
"153.844641"
"$GPGGA,201614,2444.0701,N,08028.8534,W,1,10,1.5,18"
"##MN-00 00 58 0367 01916 5585 433721 346189 201"
"153.844687"
"$GPGGA,201618,2444.0753,N,08028.8530,W,1,10,1.5,18"
"##MN-00 00 61 0370 01914 5584 433732 346191 201"
"153.844734"
"$GPGGA,201622,2444.0804,N,08028.8530,W,1,10,1.8,18"
"##MN-00 00 67 0372 01910 5584 433744 346194 201"
"153.84478"
"$GPGGA,201626,2444.0855,N,08028.8527,W,1,10,1.5,18"
"##MN-00 00 64 0375 01913 5584 433734 346194 201"
"153.844826"
"$GPGGA,201630,2444.0907,N,08028.8526,W,1,10,1.5,18"
"##MN-00 00 61 0378 01910 5584 433739 346195 201"
"153.844873"
"$GPGGA,201634,2444.0959,N,08028.8523,W,1,10,1.5,18"
"##MN-00 00 67 0380 01906 5584 433747 346197 201"
"153.844919"
"$GPGGA,201638,2444.1010,N,08028.8516,W,1,10,1.5,18"
"##MN-00 00 61 0382 01907 5584 433755 346199 201"
"153.844965"
"$GPGGA,201643,2444.1078,N,08028.8510,W,1,10,1.5,18"
"##MN-00 00 62 0385 01907 5585 433747 346198 201"
"153.845012"
"$GPGGA,201646,2444.1115,N,08028.8505,W,1,10,1.5,18"
"##MN-00 00 62 0387 01913 5585 433738 346193 201"
"153.845058"
"$GPGGA,201650,2444.1164,N,08028.8499,W,1,10,1.5,18"
"##MN-00 00 63 0389 01919 5585 433748 346192 201"
"153.845104"
"$GPGGA,201654,2444.1211,N,08028.8493,W,1,10,1.5,17"
"##MN-00 00 60 0392 01919 5585 433758 346195 201"
"153.84515"
"$GPGGA,201658,2444.1255,N,08028.8491,W,1,10,1.5,17"
"##MN-00 00 61 0394 01925 5585 433758 346193 201"
"153.845197"
"$GPGGA,201703,2444.1308,N,08028.8486,W,1,10,1.5,18"
"##MN-00 00 58 0396 01932 5585 433767 346196 201"
"153.845243"
"$GPGGA,201706,2444.1339,N,08028.8483,W,1,10,1.5,18"
"##MN-00 00 54 0398 01927 5585 433765 346194 201"
"153.845289"
"$GPGGA,201711,2444.1391,N,08028.8475,W,1,10,1.5,18"
"##MN-00 00 60 0400 01933 5586 433761 346192 201"
"153.845347"
"$GPGGA,201715,2444.1431,N,08028.8466,W,1,10,1.8,18"
"##MN-00 00 57 0402 01942 5585 433781 346194 201"
"153.845393"
"$GPGGA,201719,2444.1468,N,08028.8460,W,1,10,1.5,19"
"##MN-00 00 60 0404 01948 5585 433787 346197 201"
"153.84544"
"$GPGGA,201723,2444.1505,N,08028.8455,W,1,10,1.5,19"
"##MN-00 00 59 0405 01958 5585 433783 346193 201"
"153.845486"
"$GPGGA,201727,2444.1537,N,08028.8450,W,1,10,1.5,19"
"##MN-00 00 58 0407 01969 5585 433793 346194 201"
"153.845532"
"$GPGGA,201731,2444.1572,N,08028.8441,W,1,10,1.5,19"
"##MN-00 00 57 0409 01974 5586 433788 346191 201"
"153.845579"
"$GPGGA,201735,2444.1602,N,08028.8430,W,1,10,1.5,20"
"##MN-00 00 55 0410 01986 5585 433793 346190 201"
"153.845625"
"$GPGGA,201739,2444.1634,N,08028.8418,W,1,10,1.5,20"
"##MN-00 00 57 0411 01987 5586 433783 346184 201"
"153.845671"
"$GPGGA,201743,2444.1664,N,08028.8411,W,1,9,1.7,20,"
"##MN-00 00 53 0412 01998 5585 433804 346187 201"
"153.845718"
"$GPGGA,201747,2444.1691,N,08028.8400,W,1,10,1.5,20"
"##MN-00 00 54 0413 02006 5586 433881 346209 201"
"153.845764"
"$GPGGA,201751,2444.1718,N,08028.8389,W,1,10,1.5,20"
"##MN-00 00 49 0414 02005 5586 433951 346230 201"
"153.84581"
"$GPGGA,201755,2444.1747,N,08028.8378,W,1,10,1.5,20"
"##MN-00 00 46 0416 02012 5586 433946 346228 201"
"153.845857"
"$GPGGA,201759,2444.1779,N,08028.8369,W,1,10,1.7,20"
"##MN-00 00 32 0416 02012 5586 433954 346229 201"
"153.845903"
"$GPGGA,201803,2444.1816,N,08028.8357,W,1,10,1.5,20"
"##MN-00 00 42 0418 02002 5586 433962 346233 201"
"153.845949"
"$GPGGA,201807,2444.1854,N,08028.8345,W,1,10,1.5,20"
"##MN-00 00 45 0419 02004 5586 433957 346232 201"
"153.845995"
"$GPGGA,201811,2444.1888,N,08028.8328,W,1,10,1.5,20"
"##MN-00 00 41 0421 01995 5586 433923 346227 201"
"153.846042"
"$GPGGA,201815,2444.1920,N,08028.8317,W,1,10,1.5,20"
"##MN-00 00 48 0422 01990 5586 433928 346221 201"
"153.846088"
"$GPGGA,201819,2444.1953,N,08028.8306,W,1,10,1.5,20"
"##MN-00 00 44 0424 01990 5585 434042 346257 201"
"153.846134"
"$GPGGA,201823,2444.1982,N,08028.8295,W,1,10,1.5,20"
"##MN-00 00 44 0425 01993 5585 434036 346256 201"
"153.846181"
"$GPGGA,201827,2444.2011,N,08028.8283,W,1,10,1.5,20"
"##MN-00 00 44 0426 01995 5586 434002 346248 201"
"153.846227"
"$GPGGA,201831,2444.2040,N,08028.8272,W,1,10,1.5,20"
"##MN-00 00 42 0427 01991 5586 433955 346237 201"
"153.846273"
"$GPGGA,201835,2444.2068,N,08028.8261,W,1,10,1.5,20"
"##MN-00 00 39 0429 01987 5585 433934 346229 201"
"153.846319"
"$GPGGA,201839,2444.2094,N,08028.8252,W,1,10,1.5,20"
"##MN-00 00 42 0430 01983 5585 433911 346222 201"
"153.846366"
"$GPGGA,201843,2444.2122,N,08028.8243,W,1,10,1.5,19"
"##MN-00 00 39 0432 01981 5585 433884 346212 201"
"153.846412"
"$GPGGA,201847,2444.2150,N,08028.8230,W,1,10,1.5,19"
"##MN-00 00 40 0433 01981 5585 433887 346214 201"
"153.846458"
"$GPGGA,201851,2444.2180,N,08028.8220,W,1,10,1.5,19"
"##MN-00 00 36 0434 01975 5586 433879 346214 201"
"153.846505"
"$GPGGA,201855,2444.2212,N,08028.8212,W,1,10,1.5,19"
"##MN-00 00 36 0436 01968 5585 433884 346215 201"
"153.846551"
"$GPGGA,201859,2444.2242,N,08028.8207,W,1,10,1.5,19"
"##MN-00 00 41 0437 01967 5585 433871 346210 201"
"153.846597"
"$GPGGA,201903,2444.2273,N,08028.8199,W,1,10,1.5,20"
"##MN-00 00 41 0438 01969 5585 433864 346208 201"
"153.846644"
"$GPGGA,201907,2444.2305,N,08028.8191,W,1,10,1.5,20"
"##MN-00 00 42 0439 01973 5586 433863 346207 201"
"153.84669"
"$GPGGA,201911,2444.2339,N,08028.8180,W,1,10,1.5,20"
"##MN-00 00 34 0440 01971 5585 433859 346206 201"
"153.846736"
"$GPGGA,201915,2444.2375,N,08028.8170,W,1,10,1.5,20"
"##MN+00 00 40 0441 01963 5585 433928 346222 201"
"153.846782"
"$GPGGA,201919,2444.2412,N,08028.8163,W,1,10,1.5,20"
"##MN+00 00 42 0442 01963 5585 433878 346213 201"
"153.846829"
"$GPGGA,201923,2444.2448,N,08028.8159,W,1,10,1.5,20"
"##MN+00 00 43 0444 01963 5585 433896 346224 201"
"153.846875"
"$GPGGA,201927,2444.2483,N,08028.8154,W,1,10,1.5,20"
"##MN-00 00 42 0445 01965 5585 433976 346239 201"
"153.846921"
"$GPGGA,201931,2444.2513,N,08028.8147,W,1,10,1.5,20"
"##MN-00 00 46 0446 01969 5585 433982 346241 201"
"153.846968"
"$GPGGA,201935,2444.2544,N,08028.8139,W,1,10,1.5,20"
"##MN-00 00 45 0448 01974 5585 433962 346231 201"
"153.847014"
"$GPGGA,201939,2444.2571,N,08028.8129,W,1,10,1.5,20"
"##MN+00 00 43 0448 01978 5585 433898 346215 201"
"153.84706"
"$GPGGA,201943,2444.2599,N,08028.8119,W,1,10,1.5,20"
"##MN+00 00 44 0449 01988 5585 433887 346211 201"
"153.847106"
"$GPGGA,201947,2444.2625,N,08028.8107,W,1,10,1.5,20"
"##MN+00 00 39 0450 01987 5585 433887 346210 201"
"153.847153"
"$GPGGA,201951,2444.2653,N,08028.8099,W,1,10,1.5,20"
"##MN-00 00 44 0451 01976 5585 433859 346203 201"
"153.847199"
"$GPGGA,201955,2444.2682,N,08028.8091,W,1,10,1.5,20"
"##MN-00 00 42 0452 01982 5584 433845 346198 201"
"153.847245"
"#increment_net"
"$GPGGA,201959,2444.2708,N,08028.8083,W,1,10,1.7,20"
"##MN-00 00 40 0453 01987 5585 433846 346198 201"
"153.847292"
"$GPGGA,202003,2444.2739,N,08028.8076,W,1,10,1.5,20"
"##MN-00 00 36 0454 01980 5585 433847 346198 201"
"153.847338"
"$GPGGA,202007,2444.2768,N,08028.8069,W,1,10,1.7,20"
"##MN-00 00 38 0455 01974 5585 433857 346202 201"
"153.847384"
"$GPGGA,202011,2444.2797,N,08028.8061,W,1,10,1.5,20"
"##MN-00 00 31 0457 01970 5584 433899 346212 201"
"153.847431"
"$GPGGA,202015,2444.2827,N,08028.8056,W,1,10,1.7,20"
"##MN-00 00 34 0458 01970 5584 433929 346224 201"
"153.847477"
"$GPGGA,202019,2444.2854,N,08028.8045,W,1,10,1.5,19"
"##MN-00 00 42 0459 01973 5584 433904 346216 201"
"153.847523"
"$GPGGA,202023,2444.2878,N,08028.8032,W,1,10,1.7,19"
"##MN-00 00 38 0460 01973 5584 433880 346209 201"
"153.847569"
"$GPGGA,202027,2444.2903,N,08028.8022,W,1,10,1.5,19"
"##MN-00 00 42 0461 01967 5584 433867 346204 201"
"153.847616"
"$GPGGA,202031,2444.2928,N,08028.8016,W,1,10,1.5,19"
"##MN-00 00 40 0462 01973 5584 433862 346202 201"
"153.847662"
"$GPGGA,202035,2444.2956,N,08028.8008,W,1,10,1.5,19"
"##MN-00 00 36 0462 01970 5584 433888 346206 201"
"153.847708"
"$GPGGA,202039,2444.2982,N,08028.7998,W,1,10,1.7,19"
"##MN-00 00 38 0463 01971 5584 433905 346215 201"
"153.847755"
"$GPGGA,202043,2444.3011,N,08028.7988,W,1,10,1.7,18"
"##MN-00 00 31 0464 01976 5584 433999 346230 201"
"153.847801"
"$GPGGA,202047,2444.3037,N,08028.7981,W,1,10,1.5,18"
"##MN-00 00 33 0465 01956 5584 434046 346254 201"
"153.847847"
"$GPGGA,202051,2444.3062,N,08028.7977,W,1,10,1.5,19"
"##MN-00 00 44 0466 01959 5584 433925 346225 201"
"153.847894"
"$GPGGA,202055,2444.3089,N,08028.7971,W,1,10,1.5,19"
"##MN-00 00 41 0467 01963 5584 433874 346207 201"
"153.84794"
"$GPGGA,202059,2444.3116,N,08028.7966,W,1,10,1.5,19"
"##MN-00 00 42 0468 01961 5584 433854 346204 201"
"153.847986"
"$GPGGA,202103,2444.3140,N,08028.7962,W,1,10,1.7,19"
"##MN-00 00 43 0469 01961 5583 433850 346200 201"
"153.848032"
"$GPGGA,202107,2444.3177,N,08028.7957,W,1,10,1.5,19"
"##MN-00 00 45 0470 01962 5583 433873 346206 201"
"153.848079"
"$GPGGA,202111,2444.3201,N,08028.7952,W,1,10,1.7,19"
"##MN-00 00 40 0471 01966 5583 433862 346204 201"
"153.848125"
"$GPGGA,202115,2444.3239,N,08028.7941,W,1,10,1.7,18"
"##MN-00 00 39 0472 01962 5583 433866 346204 201"
"153.848171"
"$GPGGA,202119,2444.3268,N,08028.7933,W,1,10,1.7,18"
"##MN-00 00 44 0473 01960 5583 433885 346208 201"
"153.848218"
"$GPGGA,202123,2444.3288,N,08028.7925,W,1,10,1.5,17"
"##MN-00 00 44 0474 01968 5583 433895 346214 201"
"153.848264"
"$GPGGA,202127,2444.3322,N,08028.7903,W,1,10,1.5,17"
"##MN-00 00 36 0475 01964 5583 433894 346210 201"
"153.84831"
"$GPGGA,202131,2444.3351,N,08028.7897,W,1,10,1.5,18"
"##MN-00 00 45 0476 01961 5583 433873 346205 201"
"153.848356"
"$GPGGA,202135,2444.3380,N,08028.7892,W,1,10,1.5,18"
"##MN-00 00 39 0478 01969 5583 433889 346210 201"
"153.848403"
"$GPGGA,202140,2444.3416,N,08028.7885,W,1,10,1.5,18"
"##MN-00 00 36 0479 01959 5583 433874 346206 201"
"153.848449"
"$GPGGA,202144,2444.3444,N,08028.7880,W,1,10,1.5,18"
"##MN-00 00 45 0480 01959 5582 433885 346207 201"
"153.848495"
"$GPGGA,202148,2444.3473,N,08028.7875,W,1,10,1.5,18"
"##MN-00 00 43 0481 01962 5583 433920 346218 201"
"153.848542"
"$GPGGA,202152,2444.3499,N,08028.7870,W,1,10,1.5,18"
"##MN-00 00 40 0482 01966 5582 433944 346223 201"
"153.8486"
"$GPGGA,202156,2444.3526,N,08028.7864,W,1,10,1.5,18"
"##MN-00 00 40 0483 01965 5582 433932 346221 201"
"153.848646"
"$GPGGA,202200,2444.3553,N,08028.7857,W,1,10,1.5,18"
"##MN-00 00 44 0485 01962 5582 433922 346217 201"
"153.848692"
"$GPGGA,202204,2444.3578,N,08028.7848,W,1,10,1.5,18"
"##MN-00 00 43 0486 01966 5582 433923 346220 201"
"153.848738"
"$GPGGA,202208,2444.3606,N,08028.7839,W,1,10,1.5,18"
"##MN-00 00 42 0487 01968 5582 433915 346218 201"
"153.848785"
"$GPGGA,202212,2444.3632,N,08028.7833,W,1,10,1.5,17"
"##MN-00 00 39 0488 01968 5582 433890 346212 201"
"153.848831"
"$GPGGA,202216,2444.3660,N,08028.7827,W,1,10,1.5,17"
"##MN+00 00 41 0489 01969 5582 433873 346206 201"
"153.848877"
"$GPGGA,202220,2444.3687,N,08028.7821,W,1,10,1.5,17"
"##MN+00 00 41 0490 01969 5582 433884 346207 201"
"153.848924"
"$GPGGA,202224,2444.3714,N,08028.7814,W,1,10,1.5,17"
"##MN+00 00 40 0491 01968 5582 433868 346202 201"
"153.84897"
"$GPGGA,202228,2444.3741,N,08028.7806,W,1,10,1.5,17"
"##MN-00 00 42 0492 01964 5582 433877 346204 201"
"153.849016"
"$GPGGA,202232,2444.3769,N,08028.7799,W,1,10,1.5,17"
"##MN-00 00 42 0493 01967 5581 433969 346226 201"
"153.849063"
"$GPGGA,202236,2444.3795,N,08028.7791,W,1,10,1.5,17"
"##MN-00 00 43 0494 01966 5582 433976 346233 201"
"153.849109"
"$GPGGA,202240,2444.3824,N,08028.7786,W,1,10,1.5,16"
"##MN-00 00 46 0495 01958 5581 433995 346239 201"
"153.849155"
"$GPGGA,202244,2444.3852,N,08028.7783,W,1,10,1.7,16"
"##MN-00 00 44 0496 01962 5581 433935 346224 201"
"153.849201"
"$GPGGA,202248,2444.3878,N,08028.7783,W,1,10,1.5,16"
"##MN-00 00 42 0498 01959 5581 433919 346217 201"
"153.849248"
"$GPGGA,202252,2444.3907,N,08028.7783,W,1,10,1.5,16"
"##MN-00 00 44 0499 01953 5581 433898 346214 201"
"153.849294"
"$GPGGA,202256,2444.3935,N,08028.7782,W,1,10,1.5,16"
"##MN+00 00 48 0501 01953 5581 433930 346224 201"
"153.84934"
"$GPGGA,202300,2444.3961,N,08028.7779,W,1,10,1.5,16"
"##MN+00 00 44 0502 01951 5580 433943 346227 201"
"153.849387"
"$GPGGA,202304,2444.3989,N,08028.7775,W,1,10,1.5,16"
"##MN+00 00 47 0504 01949 5581 433935 346224 201"
"153.849433"
"$GPGGA,202308,2444.4014,N,08028.7769,W,1,10,1.5,16"
"##MN-00 00 49 0505 01956 5581 433934 346225 201"
"153.849479"
"#increment_net"
"$GPGGA,202312,2444.4039,N,08028.7763,W,1,10,1.5,16"
"##MN-00 00 35 0506 01957 5581 433946 346226 201"
"153.849525"
"$GPGGA,202316,2444.4063,N,08028.7759,W,1,10,1.5,16"
"##MN-00 00 38 0507 01945 5581 433944 346227 201"
"153.849572"
"$GPGGA,202320,2444.4095,N,08028.7757,W,1,10,1.5,16"
"##MN-00 00 47 0508 01953 5580 433943 346229 201"
"153.849618"
"$GPGGA,202324,2444.4120,N,08028.7753,W,1,10,1.5,16"
"##MN-00 00 39 0509 01957 5580 433958 346230 201"
"153.849664"
"$GPGGA,202328,2444.4146,N,08028.7748,W,1,10,1.5,17"
"##MN-00 00 30 0510 01946 5580 433960 346232 201"
"153.849711"
"$GPGGA,202332,2444.4171,N,08028.7749,W,1,10,1.5,17"
"##MN-00 00 51 0511 01948 5580 433965 346232 201"
"153.849757"
"$GPGGA,202336,2444.4196,N,08028.7746,W,1,10,1.5,17"
"##MN-00 00 50 0512 01958 5580 433963 346232 201"
"153.849803"
"$GPGGA,202340,2444.4225,N,08028.7748,W,1,10,1.5,17"
"##MN-00 00 44 0514 01953 5580 433966 346234 201"
"153.84985"
"$GPGGA,202344,2444.4250,N,08028.7749,W,1,10,1.5,17"
"##MN-00 00 48 0515 01957 5580 433973 346236 201"
"153.849896"
"$GPGGA,202348,2444.4276,N,08028.7747,W,1,10,1.5,17"
"##MN-00 00 48 0517 01966 5580 433971 346234 201"
"153.849942"
"$GPGGA,202352,2444.4301,N,08028.7746,W,1,10,1.5,17"
"##MN-00 00 46 0518 01969 5580 433973 346234 201"
"153.849988"
"$GPGGA,202356,2444.4325,N,08028.7740,W,1,10,1.5,17"
"##MN-00 00 48 0520 01977 5580 433973 346232 201"
"153.850035"
"$GPGGA,202400,2444.4348,N,08028.7732,W,1,10,1.5,17"
"##MN-00 00 34 0520 01971 5580 433965 346229 201"
"153.850081"
"$GPGGA,202404,2444.4372,N,08028.7728,W,1,10,1.5,17"
"##MN-00 00 44 0522 01970 5580 433963 346228 201"
"153.850127"
"$GPGGA,202408,2444.4395,N,08028.7721,W,1,10,1.5,17"
"##MN-00 00 49 0523 01980 5579 433978 346232 201"
"153.850174"
"$GPGGA,202412,2444.4420,N,08028.7711,W,1,10,1.5,17"
"##MN-00 00 43 0524 01979 5579 433998 346237 201"
"153.85022"
"$GPGGA,202416,2444.4442,N,08028.7703,W,1,10,1.5,17"
"##MN-00 00 45 0525 01980 5579 433994 346236 201"
"153.850266"
"$GPGGA,202420,2444.4462,N,08028.7695,W,1,10,1.5,17"
"##MN-00 00 40 0526 01990 5579 434049 346248 201"
"153.850312"
"$GPGGA,202424,2444.4485,N,08028.7688,W,1,10,1.5,17"
"##MN-00 00 33 0528 01984 5579 434050 346252 201"
"153.850359"
"$GPGGA,202428,2444.4510,N,08028.7681,W,1,10,1.5,17"
"##MN-00 00 44 0529 01983 5579 434016 346241 201"
"153.850405"
"$GPGGA,202432,2444.4534,N,08028.7671,W,1,10,1.5,17"
"##MN-00 00 41 0530 01992 5579 434034 346251 201"
"153.850451"
"$GPGGA,202436,2444.4557,N,08028.7666,W,1,10,1.5,16"
"##MN-00 00 39 0531 01993 5579 434144 346274 201"
"153.850498"
"$GPGGA,202440,2444.4582,N,08028.7660,W,1,10,1.5,16"
"##MN-00 00 42 0532 01990 5579 434139 346279 201"
"153.850544"
"$GPGGA,202444,2444.4607,N,08028.7650,W,1,10,1.5,16"
"##MN-00 00 41 0534 01989 5579 434053 346258 201"
"153.85059"
"$GPGGA,202448,2444.4630,N,08028.7640,W,1,10,1.5,16"
"##MN-00 00 38 0535 01988 5579 434018 346247 201"
"153.850637"
"$GPGGA,202452,2444.4652,N,08028.7630,W,1,10,1.5,16"
"##MN-00 00 37 0536 01989 5579 434019 346245 201"
"153.850683"
"$GPGGA,202456,2444.4677,N,08028.7623,W,1,10,1.5,17"
"##MN-00 00 34 0538 01977 5579 434000 346239 201"
"153.850729"
"$GPGGA,202500,2444.4698,N,08028.7619,W,1,10,1.5,17"
"##MN-00 00 39 0539 01975 5579 433984 346235 201"
"153.850775"
"$GPGGA,202504,2444.4722,N,08028.7611,W,1,10,1.5,17"
"##MN-00 00 40 0540 01982 5578 433975 346231 201"
"153.850822"
"$GPGGA,202508,2444.4745,N,08028.7606,W,1,9,1.5,17,"
"##MN-00 00 39 0541 01971 5578 433968 346230 201"
"153.850868"
"$GPGGA,202512,2444.4770,N,08028.7600,W,1,10,1.6,17"
"##MN+00 00 47 0542 01975 5578 433974 346229 201"
"153.850914"
"$GPGGA,202516,2444.4794,N,08028.7592,W,1,10,1.6,17"
"##MN+00 00 35 0542 01985 5578 433980 346232 201"
"153.850961"
"$GPGGA,202520,2444.4818,N,08028.7585,W,1,9,1.5,17,"
"##MN+00 00 33 0544 01974 5578 433970 346230 201"
"153.851007"
"$GPGGA,202524,2444.4842,N,08028.7579,W,1,9,1.5,17,"
"##MN-00 00 42 0544 01977 5578 433963 346227 201"
"153.851053"
"$GPGGA,202528,2444.4864,N,08028.7576,W,1,10,1.5,17"
"##MN-00 00 38 0545 01988 5578 433997 346233 201"
"153.8511"
"$GPGGA,202532,2444.4886,N,08028.7563,W,1,10,1.5,17"
"##MN-00 00 27 0546 01982 5577 434020 346243 201"
"153.851146"
"$GPGGA,202536,2444.4908,N,08028.7558,W,1,10,1.5,17"
"##MN-00 00 37 0547 01979 5578 434026 346240 201"
"153.851192"
"$GPGGA,202540,2444.4930,N,08028.7551,W,1,10,1.5,17"
"##MN-00 00 40 0548 01987 5577 434019 346243 201"
"153.851238"
"$GPGGA,202544,2444.4951,N,08028.7544,W,1,10,1.6,18"
"##MN-00 00 40 0549 01986 5577 434003 346238 201"
"153.851285"
"$GPGGA,202548,2444.4975,N,08028.7531,W,1,10,1.6,18"
"##MN-00 00 39 0550 01993 5577 433996 346235 201"
"153.851331"
"$GPGGA,202552,2444.4997,N,08028.7519,W,1,10,1.6,18"
"##MN-00 00 36 0551 01985 5577 433991 346236 201"
"153.851377"
"$GPGGA,202556,2444.5019,N,08028.7509,W,1,10,1.6,17"
"##MN+00 00 37 0552 01988 5577 434125 346268 201"
"153.851424"
"$GPGGA,202600,2444.5042,N,08028.7501,W,1,10,1.6,17"
"##MN+00 00 30 0553 01989 5577 434186 346287 201"
"153.85147"
"$GPGGA,202604,2444.5065,N,08028.7497,W,1,10,1.6,16"
"##MN+00 00 38 0554 01982 5577 434119 346277 201"
"153.851516"
"$GPGGA,202608,2444.5088,N,08028.7493,W,1,10,1.6,16"
"##MN-00 00 47 0556 01977 5577 433984 346237 201"
"153.851563"
"$GPGGA,202612,2444.5109,N,08028.7487,W,1,10,1.6,16"
"##MN-00 00 41 0556 01980 5577 434010 346242 201"
"153.851609"
"#increment_net"
"$GPGGA,202617,2444.5135,N,08028.7482,W,1,10,1.6,16"
"##MN-00 00 39 0558 01979 5576 434009 346241 201"
"153.851655"
"$GPGGA,202620,2444.5154,N,08028.7477,W,1,10,1.6,16"
"##MN-00 00 40 0559 01978 5577 434026 346248 201"
"153.851701"
"$GPGGA,202625,2444.5188,N,08028.7465,W,1,10,1.6,16"
"##MN-00 00 38 0560 01985 5576 434044 346251 201"
"153.851748"
"$GPGGA,202629,2444.5211,N,08028.7454,W,1,10,1.6,16"
"##MN-00 00 37 0561 01981 5576 434031 346247 201"
"153.851794"
"$GPGGA,202633,2444.5233,N,08028.7444,W,1,10,1.6,16"
"##MN-00 00 35 0562 01983 5576 434041 346249 201"
"153.851852"
"$GPGGA,202636,2444.5251,N,08028.7439,W,1,10,1.6,16"
"##MN-00 00 36 0563 01976 5576 434098 346263 201"
"153.851898"
"$GPGGA,202641,2444.5280,N,08028.7427,W,1,11,1.5,16"
"##MN-00 00 36 0564 01980 5576 434099 346266 201"
"153.851944"
"$GPGGA,202645,2444.5302,N,08028.7416,W,1,11,1.5,16"
"##MN-00 00 33 0565 01983 5576 434079 346263 201"
"153.851991"
"$GPGGA,202649,2444.5323,N,08028.7407,W,1,11,1.5,16"
"##MN-00 00 35 0566 01976 5576 434072 346260 201"
"153.852037"
"$GPGGA,202653,2444.5348,N,08028.7400,W,1,11,1.5,17"
"##MN-00 00 36 0567 01981 5576 434083 346263 201"
"153.852083"
"$GPGGA,202657,2444.5372,N,08028.7393,W,1,11,1.5,17"
"##MN-00 00 32 0568 01987 5575 434055 346256 201"
"153.85213"
"$GPGGA,202701,2444.5392,N,08028.7385,W,1,11,1.5,17"
"##MN-00 00 34 0569 01978 5575 434018 346246 201"
"153.852176"
"$GPGGA,202705,2444.5414,N,08028.7378,W,1,11,1.5,17"
"##MN-00 00 36 0570 01977 5575 434023 346245 201"
"153.852222"
"$GPGGA,202709,2444.5436,N,08028.7373,W,1,11,1.5,17"
"##MN-00 00 38 0571 01977 5575 434015 346242 201"
"153.852269"
"$GPGGA,202713,2444.5457,N,08028.7367,W,1,11,1.5,17"
"##MN-00 00 39 0572 01988 5575 434034 346248 201"
"153.852315"
"$GPGGA,202717,2444.5479,N,08028.7359,W,1,11,1.5,17"
"##MN-00 00 34 0573 01983 5575 434066 346252 201"
"153.852361"
"$GPGGA,202721,2444.5500,N,08028.7351,W,1,11,1.5,17"
"##MN-00 00 38 0574 01983 5575 434113 346267 201"
"153.852407"
"$GPGGA,202725,2444.5522,N,08028.7340,W,1,11,1.5,17"
"##MN-00 00 38 0575 01989 5575 434104 346267 201"
"153.852454"
"$GPGGA,202729,2444.5543,N,08028.7331,W,1,11,1.5,16"
"##MN-00 00 36 0576 01985 5575 434100 346264 201"
"153.8525"
"$GPGGA,202733,2444.5562,N,08028.7322,W,1,11,1.5,16"
"##MN-00 00 36 0576 01982 5575 434049 346251 201"
"153.852546"
"$GPGGA,202737,2444.5582,N,08028.7312,W,1,11,1.5,16"
"##MN-00 00 34 0577 01986 5575 434035 346249 201"
"153.852593"
"$GPGGA,202741,2444.5602,N,08028.7303,W,1,11,1.5,16"
"##MN-00 00 36 0578 01986 5574 434021 346246 201"
"153.852639"
"$GPGGA,202745,2444.5623,N,08028.7294,W,1,11,1.5,16"
"##MN-00 00 34 0579 01989 5574 434014 346242 201"
"153.852685"
"$GPGGA,202749,2444.5645,N,08028.7288,W,1,11,1.5,16"
"##MN-00 00 36 0580 01977 5574 434008 346241 201"
"153.852731"
"$GPGGA,202753,2444.5666,N,08028.7283,W,1,11,1.5,16"
"##MN-00 00 40 0581 01981 5574 434004 346238 201"
"153.852778"
"$GPGGA,202757,2444.5685,N,08028.7277,W,1,11,1.5,15"
"##MN-00 00 37 0583 01985 5574 434001 346238 201"
"153.852824"
"$GPGGA,202801,2444.5706,N,08028.7272,W,1,10,1.5,15"
"##MN-00 00 37 0584 01976 5574 434002 346237 201"
"153.85287"
"$GPGGA,202805,2444.5731,N,08028.7263,W,1,11,1.5,15"
"##MN-00 00 38 0585 01981 5574 434004 346237 201"
"153.852917"
"$GPGGA,202809,2444.5753,N,08028.7258,W,1,11,1.5,15"
"##MN-00 00 40 0586 01981 5574 434005 346238 201"
"153.852963"
"$GPGGA,202813,2444.5775,N,08028.7254,W,1,11,1.5,15"
"##MN-00 00 35 0587 01977 5574 434007 346239 201"
"153.853009"
"$GPGGA,202817,2444.5796,N,08028.7247,W,1,11,1.5,15"
"##MN-00 00 41 0589 01969 5574 434018 346242 201"
"153.853056"
"$GPGGA,202821,2444.5818,N,08028.7241,W,1,11,1.5,15"
"##MN-00 00 41 0590 01974 5574 434051 346251 201"
"153.853102"
"$GPGGA,202825,2444.5840,N,08028.7233,W,1,11,1.5,15"
"##MN-00 00 34 0590 01979 5574 434067 346257 201"
"153.853148"
"$GPGGA,202829,2444.5862,N,08028.7229,W,1,11,1.5,15"
"##MN-00 00 30 0591 01968 5574 434056 346256 201"
"153.853194"
"$GPGGA,202833,2444.5885,N,08028.7225,W,1,11,1.5,15"
"##MN-00 00 43 0592 01967 5574 434017 346244 201"
"153.853241"
"$GPGGA,202837,2444.5908,N,08028.7217,W,1,9,1.5,15,"
"##MN-00 00 43 0594 01974 5573 434046 346253 201"
"153.853287"
"$GPGGA,202841,2444.5930,N,08028.7207,W,1,11,1.5,15"
"##MN-00 00 41 0595 01975 5573 434041 346250 201"
"153.853333"
"$GPGGA,202845,2444.5954,N,08028.7196,W,1,11,1.5,15"
"##MN+00 00 39 0596 01968 5573 434026 346246 201"
"153.85338"
"$GPGGA,202849,2444.5976,N,08028.7189,W,1,11,1.5,15"
"##MN+00 00 42 0597 01969 5573 434050 346251 201"
"153.853426"
"$GPGGA,202853,2444.5999,N,08028.7182,W,1,11,1.5,15"
"##MN+00 00 41 0598 01975 5573 434110 346267 201"
"153.853472"
"$GPGGA,202857,2444.6021,N,08028.7173,W,1,11,1.5,15"
"##MN-00 00 34 0599 01975 5573 434121 346273 201"
"153.853518"
"$GPGGA,202901,2444.6045,N,08028.7161,W,1,11,1.5,15"
"##MN-00 00 39 0601 01972 5573 434133 346274 201"
"153.853565"
"$GPGGA,202905,2444.6068,N,08028.7149,W,1,11,1.5,15"
"##MN-00 00 42 0602 01978 5573 434089 346263 201"
"153.853611"
"$GPGGA,202909,2444.6089,N,08028.7139,W,1,11,1.5,15"
"##MN+00 00 39 0603 01976 5573 434072 346260 201"
"153.853657"
"$GPGGA,202913,2444.6109,N,08028.7130,W,1,11,1.5,15"
"##MN+00 00 37 0604 01977 5573 434102 346265 201"
"153.853704"
"$GPGGA,202917,2444.6129,N,08028.7120,W,1,11,1.5,15"
"##MN+00 00 41 0605 01987 5572 434116 346268 201"
"153.85375"
"$GPGGA,202921,2444.6150,N,08028.7111,W,1,11,1.5,15"
"##MN-00 00 40 0606 01982 5572 434090 346267 201"
"153.853796"
"$GPGGA,202925,2444.6169,N,08028.7105,W,1,11,1.5,15"
"##MN-00 00 40 0607 01979 5572 434070 346259 201"
"153.853843"
"$GPGGA,202929,2444.6190,N,08028.7099,W,1,11,1.5,15"
"##MN-00 00 39 0609 01980 5572 434067 346259 201"
"153.853889"
"$GPGGA,202933,2444.6208,N,08028.7096,W,1,11,1.5,15"
"##MN-00 00 39 0610 01977 5572 434057 346256 201"
"153.853935"
"$GPGGA,202937,2444.6229,N,08028.7089,W,1,11,1.5,15"
"##MN+00 00 39 0611 01978 5572 434065 346256 201"
"153.853981"
"$GPGGA,202941,2444.6248,N,08028.7081,W,1,11,1.5,15"
"##MN+00 00 39 0612 01981 5572 434071 346259 201"
"153.854028"
"$GPGGA,202945,2444.6269,N,08028.7072,W,1,11,1.5,15"
"##MN+00 00 38 0613 01979 5572 434071 346257 201"
"153.854074"
"#increment_net"
"$GPGGA,202949,2444.6290,N,08028.7061,W,1,11,1.5,15"
"##MN-00 00 39 0614 01980 5572 434053 346253 201"
"153.85412"
"$GPGGA,202953,2444.6312,N,08028.7051,W,1,11,1.5,15"
"##MN-00 00 38 0615 01985 5572 434051 346251 201"
"153.854167"
"$GPGGA,202957,2444.6335,N,08028.7037,W,1,11,1.5,15"
"##MN-00 00 38 0616 01993 5572 434097 346266 201"
"153.854213"
"$GPGGA,203001,2444.6357,N,08028.7022,W,1,11,1.5,15"
"##MN-00 00 24 0617 01996 5572 434161 346273 201"
"153.854259"
"$GPGGA,203005,2444.6378,N,08028.7008,W,1,11,1.5,15"
"##MN-00 00 32 0617 01991 5571 434216 346299 201"
"153.854306"
"$GPGGA,203009,2444.6399,N,08028.6998,W,1,11,1.5,15"
"##MN-00 00 32 0618 01993 5571 434095 346268 201"
"153.854352"
"$GPGGA,203013,2444.6418,N,08028.6988,W,1,11,1.5,15"
"##MN-00 00 31 0619 01992 5571 434080 346259 201"
"153.854398"
"$GPGGA,203017,2444.6440,N,08028.6978,W,1,11,1.5,15"
"##MN-00 00 33 0620 01996 5571 434064 346254 201"
"153.854444"
"$GPGGA,203021,2444.6461,N,08028.6966,W,1,11,1.5,15"
"##MN-00 00 26 0621 02001 5571 434066 346255 201"
"153.854491"
"$GPGGA,203025,2444.6480,N,08028.6957,W,1,11,1.5,15"
"##MN-00 00 29 0622 01992 5571 434071 346257 201"
"153.854537"
"$GPGGA,203029,2444.6503,N,08028.6946,W,1,11,1.5,15"
"##MN-00 00 32 0622 01993 5571 434064 346252 201"
"153.854583"
"$GPGGA,203033,2444.6523,N,08028.6934,W,1,11,1.5,15"
"##MN-00 00 24 0623 01993 5571 434074 346256 201"
"153.85463"
"$GPGGA,203037,2444.6543,N,08028.6924,W,1,11,1.5,15"
"##MN-00 00 22 0624 01974 5571 434075 346258 201"
"153.854676"
"$GPGGA,203041,2444.6563,N,08028.6915,W,1,11,1.5,15"
"##MN-00 00 42 0624 01975 5571 434048 346252 201"
"153.854722"
"$GPGGA,203045,2444.6583,N,08028.6905,W,1,11,1.5,15"
"##MN-00 00 34 0625 01983 5570 434043 346249 201"
"153.854769"
"$GPGGA,203049,2444.6602,N,08028.6897,W,1,11,1.5,15"
"##MN-00 00 35 0627 01977 5571 434042 346249 201"
"153.854815"
"$GPGGA,203053,2444.6624,N,08028.6885,W,1,11,1.5,15"
"##MN-00 00 38 0628 01975 5570 434042 346248 201"
"153.854861"
"$GPGGA,203057,2444.6646,N,08028.6876,W,1,11,1.5,15"
"##MN-00 00 37 0629 01980 5570 434048 346249 201"
"153.854907"
"$GPGGA,203102,2444.6671,N,08028.6867,W,1,11,1.4,14"
"##MN-00 00 30 0629 01981 5570 434047 346249 201"
"153.854954"
"$GPGGA,203106,2444.6695,N,08028.6859,W,1,11,1.4,14"
"##MN-00 00 32 0630 01974 5570 434044 346249 201"
"153.855"
"$GPGGA,203110,2444.6716,N,08028.6850,W,1,11,1.4,14"
"##MN-00 00 34 0631 01979 5570 434046 346249 201"
"153.855046"
"$GPGGA,203114,2444.6739,N,08028.6840,W,1,11,1.4,14"
"##MN-00 00 33 0632 01978 5570 434045 346249 201"
"153.855104"
"$GPGGA,203118,2444.6761,N,08028.6830,W,1,11,1.4,14"
"##MN-00 00 33 0633 01975 5570 434045 346249 201"
"153.85515"
"$GPGGA,203121,2444.6779,N,08028.6822,W,1,11,1.4,14"
"##MN-00 00 33 0634 01981 5570 434041 346248 201"
"153.855197"
"$GPGGA,203126,2444.6807,N,08028.6809,W,1,11,1.4,14"
"##MN-00 00 31 0635 01979 5570 434041 346248 201"
"153.855243"
"$GPGGA,203130,2444.6828,N,08028.6799,W,1,11,1.4,14"
"##MN-00 00 33 0636 01979 5570 434067 346252 201"
"153.855289"
"$GPGGA,203134,2444.6852,N,08028.6790,W,1,11,1.4,15"
"##MN-00 00 27 0636 01990 5569 434100 346265 201"
"153.855336"
"$GPGGA,203138,2444.6876,N,08028.6782,W,1,11,1.4,15"
"##MN-00 00 27 0637 01979 5569 434098 346266 201"
"153.855382"
"$GPGGA,203142,2444.6899,N,08028.6779,W,1,10,1.4,15"
"##MN-00 00 35 0638 01973 5570 434118 346268 201"
"153.855428"
"$GPGGA,203146,2444.6923,N,08028.6774,W,1,11,1.4,16"
"##MN-00 00 33 0639 01978 5569 434079 346263 201"
"153.855475"
"$GPGGA,203150,2444.6945,N,08028.6771,W,1,11,1.4,16"
"##MN-00 00 32 0640 01969 5569 434050 346252 201"
"153.855521"
"$GPGGA,203154,2444.6971,N,08028.6767,W,1,11,1.4,16"
"##MN-00 00 37 0641 01968 5569 434052 346252 201"
"153.855567"
"$GPGGA,203158,2444.6993,N,08028.6758,W,1,11,1.4,17"
"##MN-00 00 35 0643 01969 5569 434066 346257 201"
"153.855613"
"$GPGGA,203202,2444.7017,N,08028.6750,W,1,11,1.5,17"
"##MN-00 00 37 0644 01964 5569 434068 346256 201"
"153.85566"
"$GPGGA,203206,2444.7042,N,08028.6741,W,1,11,1.4,17"
"##MN-00 00 39 0645 01972 5569 434070 346256 201"
"153.855706"
"$GPGGA,203210,2444.7067,N,08028.6731,W,1,11,1.4,17"
"##MN-00 00 37 0646 01972 5569 434067 346255 201"
"153.855752"
"$GPGGA,203214,2444.7093,N,08028.6721,W,1,10,1.5,17"
"##MN-00 00 37 0647 01975 5569 434071 346256 201"
"153.855799"
"$GPGGA,203218,2444.7118,N,08028.6709,W,1,11,1.4,16"
"##MN-00 00 37 0648 01978 5568 434064 346255 201"
"153.855845"
"$GPGGA,203222,2444.7141,N,08028.6699,W,1,11,1.4,16"
"##MN-00 00 36 0649 01979 5568 434063 346254 201"
"153.855891"
"$GPGGA,203226,2444.7166,N,08028.6687,W,1,11,1.4,16"
"##MN-00 00 34 0649 01984 5568 434114 346264 201"
"153.855937"
"$GPGGA,203230,2444.7188,N,08028.6676,W,1,11,1.4,16"
"##MN-00 00 29 0650 01983 5568 434187 346285 201"
"153.855984"
"$GPGGA,203234,2444.7213,N,08028.6667,W,1,11,1.4,16"
"##MN-00 00 33 0651 01978 5568 434190 346291 201"
"153.85603"
"$GPGGA,203238,2444.7237,N,08028.6658,W,1,11,1.4,16"
"##MN-00 00 34 0652 01984 5568 434235 346306 201"
"153.856076"
"$GPGGA,203242,2444.7260,N,08028.6648,W,1,11,1.4,15"
"##MN-00 00 32 0653 01978 5568 434260 346312 201"
"153.856123"
"$GPGGA,203246,2444.7284,N,08028.6640,W,1,11,1.4,15"
"##MN-00 00 33 0654 01981 5568 434192 346292 201"
"153.856169"
"$GPGGA,203250,2444.7306,N,08028.6631,W,1,11,1.4,15"
"##MN-00 00 33 0655 01977 5567 434116 346269 201"
"153.856215"
"$GPGGA,203254,2444.7327,N,08028.6626,W,1,11,1.4,15"
"##MN+00 00 34 0656 01978 5567 434078 346259 201"
"153.856262"
"$GPGGA,203258,2444.7343,N,08028.6619,W,1,11,1.4,15"
"##MN+00 00 36 0657 01981 5568 434050 346252 201"
"153.856308"
"$GPGGA,203302,2444.7371,N,08028.6614,W,1,11,1.4,15"
"##MN+00 00 39 0659 01979 5568 434046 346249 201"
"153.856354"
"$GPGGA,203306,2444.7393,N,08028.6611,W,1,11,1.4,15"
"##MN-00 00 39 0660 01976 5567 434048 346250 201"
"153.8564"
"$GPGGA,203310,2444.7415,N,08028.6603,W,1,11,1.4,15"
"##MN-00 00 35 0662 01983 5567 434047 346250 201"
"153.856447"
"$GPGGA,203314,2444.7437,N,08028.6595,W,1,11,1.4,15"
"##MN-00 00 33 0663 01979 5567 434043 346248 201"
"153.856493"
"#increment_net"
"$GPGGA,203318,2444.7461,N,08028.6588,W,1,11,1.4,15"
"##MN-00 00 33 0665 01983 5567 434047 346248 201"
"153.856539"
"$GPGGA,203322,2444.7482,N,08028.6582,W,1,11,1.4,15"
"##MN-00 00 32 0666 01989 5567 434063 346252 201"
"153.856586"
"$GPGGA,203326,2444.7505,N,08028.6574,W,1,11,1.4,15"
"##MN-00 00 30 0668 01991 5567 434063 346252 201"
"153.856632"
"$GPGGA,203330,2444.7527,N,08028.6565,W,1,11,1.4,15"
"##MN-00 00 28 0669 01991 5567 434066 346253 201"
"153.856678"
"$GPGGA,203334,2444.7549,N,08028.6557,W,1,11,1.4,15"
"##MN-00 00 26 0671 01989 5566 434145 346280 201"
"153.856725"
"$GPGGA,203338,2444.7574,N,08028.6551,W,1,11,1.4,15"
"##MN-00 00 25 0673 01985 5566 434148 346279 201"
"153.856771"
"$GPGGA,203342,2444.7596,N,08028.6548,W,1,11,1.4,15"
"##MN-00 00 31 0675 01968 5566 434093 346264 201"
"153.856817"
"$GPGGA,203346,2444.7620,N,08028.6546,W,1,11,1.4,15"
"##MN-00 00 32 0676 01966 5566 434093 346264 201"
"153.856863"
"$GPGGA,203350,2444.7643,N,08028.6544,W,1,11,1.4,15"
"##MN-00 00 28 0678 01961 5566 434086 346263 201"
"153.85691"
"$GPGGA,203354,2444.7668,N,08028.6541,W,1,11,1.4,15"
"##MN-00 00 33 0680 01945 5566 434084 346263 201"
"153.856956"
"$GPGGA,203358,2444.7693,N,08028.6536,W,1,11,1.4,15"
"##MN-00 00 34 0681 01941 5566 434097 346267 201"
"153.857002"
"$GPGGA,203402,2444.7717,N,08028.6531,W,1,11,1.4,15"
"##MN-00 00 32 0683 01941 5566 434114 346274 201"
"153.857049"
"$GPGGA,203406,2444.7740,N,08028.6525,W,1,11,1.4,15"
"##MN-00 00 29 0685 01934 5566 434128 346279 201"
"153.857095"
"$GPGGA,203410,2444.7764,N,08028.6518,W,1,11,1.4,15"
"##MN-00 00 32 0687 01924 5566 434129 346282 201"
"153.857141"
"$GPGGA,203414,2444.7787,N,08028.6512,W,1,11,1.4,15"
"##MN-00 00 31 0689 01920 5566 434119 346278 201"
"153.857188"
"$GPGGA,203418,2444.7812,N,08028.6503,W,1,10,1.4,15"
"##MN-00 00 28 0690 01913 5566 434113 346278 201"
"153.857234"
"$GPGGA,203422,2444.7837,N,08028.6495,W,1,11,1.4,15"
"##MN-00 00 33 0692 01903 5565 434102 346275 201"
"153.85728"
"$GPGGA,203426,2444.7860,N,08028.6488,W,1,11,1.4,15"
"##MN-00 00 30 0694 01908 5566 434104 346276 201"
"153.857326"
"$GPGGA,203430,2444.7884,N,08028.6480,W,1,11,1.4,15"
"##MN-00 00 21 0695 01895 5566 434118 346283 201"
"153.857373"
"$GPGGA,203434,2444.7909,N,08028.6479,W,1,11,1.4,15"
"##MN-00 00 37 0696 01872 5565 434129 346288 201"
"153.857419"
"$GPGGA,203438,2444.7934,N,08028.6478,W,1,10,1.4,15"
"##MN-00 00 39 0698 01876 5565 434146 346295 201"
"153.857465"
"$GPGGA,203442,2444.7956,N,08028.6478,W,1,11,1.4,15"
"##MN-00 00 32 0700 01866 5565 434137 346295 201"
"153.857512"
"$GPGGA,203446,2444.7981,N,08028.6475,W,1,11,1.4,15"
"##MN-00 00 34 0702 01859 5565 434141 346302 201"
