" Tow: 4Ws-A   RVWS/WS1406"
" Date: 06/02/2014"
" Temperature Probe #  2597    Conductivity Probe #  2870"
" Pressure Probe #  109"
" Flow Meter Calibration  4.71 (m/count)  "
"153.808333"
"$GPGGA,192343,2444.4950,N,08030.4863,W,1,12,1.4,25"
"##MN-00 00 46 0088 01854 5332 449895 560677 202"
"153.80838"
"$GPGGA,192401,2444.5005,N,08030.4655,W,1,12,1.4,25"
"##MN-00 00 46 0089 01861 5335 434955 351826 202"
"153.808426"
"$GPGGA,192405,2444.5016,N,08030.4617,W,1,12,1.4,25"
"##MN-00 00 42 0090 01865 5338 434928 346492 202"
"153.808472"
"$GPGGA,192409,2444.5030,N,08030.4576,W,1,11,1.7,25"
"##MN-00 00 40 0091 01863 5340 434937 346954 202"
"153.808518"
"$GPGGA,192413,2444.5041,N,08030.4536,W,1,12,1.4,24"
"##MN-00 00 42 0092 01858 5342 434959 347742 202"
"153.808565"
"$GPGGA,192417,2444.5051,N,08030.4496,W,1,12,1.4,24"
"##MN-00 00 46 0093 01858 5345 434994 347444 202"
"153.808611"
"$GPGGA,192421,2444.5060,N,08030.4456,W,1,12,1.4,24"
"##MN-00 00 36 0094 01859 5346 434977 350814 202"
"153.808657"
"$GPGGA,192425,2444.5066,N,08030.4419,W,1,12,1.4,24"
"##MN-00 00 44 0095 01858 5348 434948 346881 202"
"153.808704"
"$GPGGA,192429,2444.5074,N,08030.4384,W,1,10,1.8,24"
"##MN-00 00 43 0096 01858 5350 434990 346736 202"
"153.80875"
"$GPGGA,192433,2444.5078,N,08030.4348,W,1,11,1.7,24"
"##MN-00 00 55 0097 01856 5352 434949 346596 202"
"153.808796"
"$GPGGA,192437,2444.5080,N,08030.4310,W,1,12,1.4,25"
"##MN-00 00 53 0099 01856 5353 434976 346558 202"
"153.808843"
"$GPGGA,192441,2444.5080,N,08030.4276,W,1,12,1.4,25"
"##MN-00 00 50 0100 01856 5355 434962 346551 202"
"153.808889"
"$GPGGA,192445,2444.5076,N,08030.4241,W,1,12,1.4,25"
"##MN-00 00 33 0103 01857 5357 434972 346605 202"
"153.808935"
"$GPGGA,192449,2444.5069,N,08030.4213,W,1,11,1.4,25"
"##MN-00 00 48 0105 01857 5359 434974 347080 202"
"153.808981"
"$GPGGA,192453,2444.5063,N,08030.4184,W,1,11,1.4,25"
"##MN-00 00 51 0106 01855 5361 434991 346695 202"
"153.809028"
"$GPGGA,192457,2444.5054,N,08030.4154,W,1,11,1.4,25"
"##MN-00 00 56 0108 01854 5362 434977 346589 202"
"153.809074"
"$GPGGA,192501,2444.5046,N,08030.4122,W,1,11,1.4,24"
"##MN-00 00 61 0111 01856 5363 434980 346665 202"
"153.80912"
"$GPGGA,192505,2444.5039,N,08030.4088,W,1,11,1.4,24"
"##MN-00 00 61 0113 01857 5363 434976 346704 202"
"153.809167"
"$GPGGA,192509,2444.5032,N,08030.4054,W,1,11,1.4,24"
"##MN-00 00 61 0115 01858 5365 434986 346606 202"
"153.809213"
"$GPGGA,192513,2444.5028,N,08030.4027,W,1,11,1.4,24"
"##MN-00 00 58 0117 01858 5366 434965 346580 202"
"153.809259"
"$GPGGA,192517,2444.5020,N,08030.4000,W,1,11,1.4,24"
"##MN-00 00 55 0119 01859 5367 434961 346588 202"
"153.809306"
"$GPGGA,192521,2444.5010,N,08030.3969,W,1,11,1.4,24"
"##MN-00 00 56 0121 01858 5369 434961 346576 202"
"153.809352"
"$GPGGA,192525,2444.5000,N,08030.3937,W,1,11,1.4,24"
"##MN-00 00 57 0123 01858 5370 434963 346873 202"
"153.809398"
"$GPGGA,192529,2444.4989,N,08030.3908,W,1,11,1.6,24"
"##MN-00 00 62 0125 01859 5371 434938 346625 202"
"153.809444"
"$GPGGA,192533,2444.4977,N,08030.3883,W,1,11,1.4,24"
"##MN-00 00 59 0127 01861 5372 434939 346631 202"
"153.809491"
"$GPGGA,192537,2444.4968,N,08030.3857,W,1,11,1.4,24"
"##MN-00 00 56 0129 01863 5373 434924 346577 202"
"153.809537"
"$GPGGA,192541,2444.4960,N,08030.3828,W,1,11,1.4,24"
"##MN-00 00 59 0132 01868 5374 434918 346560 202"
"153.809583"
"$GPGGA,192545,2444.4950,N,08030.3798,W,1,11,1.4,24"
"##MN-00 00 55 0134 01871 5376 434926 346580 202"
"153.80963"
"$GPGGA,192549,2444.4940,N,08030.3768,W,1,11,1.4,23"
"##MN-00 00 49 0136 01868 5376 434921 346555 202"
"153.809676"
"$GPGGA,192553,2444.4930,N,08030.3740,W,1,11,1.5,23"
"##MN-00 00 55 0138 01869 5377 434903 346545 202"
"153.809722"
"$GPGGA,192557,2444.4919,N,08030.3711,W,1,11,1.4,23"
"##MN-00 00 59 0141 01872 5378 434894 346542 202"
"153.809769"
"$GPGGA,192601,2444.4908,N,08030.3682,W,1,11,1.4,23"
"##MN-00 00 60 0143 01876 5379 434903 346542 202"
"153.809815"
"$GPGGA,192605,2444.4899,N,08030.3652,W,1,11,1.4,23"
"##MN-00 00 54 0145 01881 5379 434898 346537 202"
"153.809861"
"$GPGGA,192609,2444.4892,N,08030.3621,W,1,11,1.4,23"
"##MN-00 00 61 0148 01878 5381 434887 346532 202"
"153.809907"
"$GPGGA,192613,2444.4884,N,08030.3591,W,1,11,1.4,23"
"##MN-00 00 60 0150 01882 5382 434881 346527 202"
"153.809954"
"$GPGGA,192617,2444.4879,N,08030.3566,W,1,10,1.4,22"
"##MN-00 00 59 0152 01891 5382 434873 346524 202"
"153.81"
"$GPGGA,192621,2444.4872,N,08030.3541,W,1,11,1.4,22"
"##MN-00 00 62 0153 01897 5383 434890 346524 202"
"153.810046"
"$GPGGA,192625,2444.4866,N,08030.3516,W,1,11,1.4,22"
"##MN-00 00 55 0155 01900 5384 434899 346527 202"
"153.810104"
"$GPGGA,192629,2444.4862,N,08030.3490,W,1,11,1.4,22"
"##MN-00 00 55 0157 01903 5385 434893 346520 202"
"153.81015"
"$GPGGA,192633,2444.4857,N,08030.3466,W,1,11,1.4,22"
"##MN-00 00 58 0159 01912 5385 434873 346512 202"
"153.810197"
"$GPGGA,192637,2444.4854,N,08030.3439,W,1,11,1.4,22"
"##MN-00 00 56 0161 01916 5387 434863 346508 202"
"153.810243"
"$GPGGA,192641,2444.4847,N,08030.3414,W,1,11,1.4,22"
"##MN-00 00 51 0163 01918 5387 434855 346504 202"
"153.810289"
"$GPGGA,192645,2444.4843,N,08030.3385,W,1,11,1.4,22"
"##MN-00 00 57 0165 01930 5388 434856 346503 202"
"153.810336"
"$GPGGA,192649,2444.4838,N,08030.3361,W,1,11,1.4,21"
"##MN-00 00 53 0167 01936 5389 434869 346504 202"
"153.810382"
"$GPGGA,192653,2444.4834,N,08030.3338,W,1,11,1.4,21"
"##MN-00 00 51 0168 01940 5389 434871 346503 202"
"153.810428"
"$GPGGA,192657,2444.4828,N,08030.3312,W,1,11,1.4,21"
"##MN-00 00 55 0170 01943 5390 434868 346500 202"
"153.810475"
"$GPGGA,192701,2444.4825,N,08030.3286,W,1,11,1.4,21"
"##MN-00 00 55 0172 01954 5391 434864 346499 202"
"153.810521"
"$GPGGA,192705,2444.4821,N,08030.3258,W,1,11,1.4,21"
"##MN-00 00 54 0174 01962 5392 434864 346498 202"
"153.810567"
"$GPGGA,192709,2444.4818,N,08030.3233,W,1,11,1.4,21"
"##MN-00 00 53 0175 01967 5392 434875 346501 202"
"153.810613"
"$GPGGA,192713,2444.4818,N,08030.3209,W,1,11,1.4,21"
"##MN-00 00 53 0177 01975 5393 434889 346502 202"
"153.81066"
"$GPGGA,192717,2444.4818,N,08030.3184,W,1,11,1.4,20"
"##MN-00 00 51 0179 01982 5393 434904 346504 202"
"153.810706"
"$GPGGA,192721,2444.4818,N,08030.3160,W,1,11,1.4,20"
"##MN-00 00 51 0181 01984 5395 434914 346510 202"
"153.810752"
"$GPGGA,192726,2444.4820,N,08030.3133,W,1,11,1.4,20"
"##MN-00 00 51 0182 01987 5395 434959 346528 202"
"153.810799"
"$GPGGA,192729,2444.4818,N,08030.3120,W,1,11,1.4,20"
"##MN-00 00 54 0184 01989 5396 434980 346529 202"
"153.810845"
"$GPGGA,192734,2444.4821,N,08030.3093,W,1,11,1.4,20"
"##MN-00 00 53 0185 01998 5396 434976 346525 202"
"153.810891"
"$GPGGA,192738,2444.4828,N,08030.3073,W,1,11,1.4,20"
"##MN-00 00 51 0187 02007 5397 435030 346548 202"
"153.810937"
"$GPGGA,192741,2444.4832,N,08030.3059,W,1,11,1.4,20"
"##MN-00 00 49 0188 02011 5398 435061 346555 202"
"153.810984"
"$GPGGA,192746,2444.4838,N,08030.3032,W,1,11,1.4,20"
"##MN-00 00 49 0190 02017 5398 435072 346554 202"
"153.81103"
"$GPGGA,192750,2444.4843,N,08030.3009,W,1,11,1.4,20"
"##MN-00 00 46 0191 02020 5399 435043 346564 202"
"153.811076"
"$GPGGA,192754,2444.4850,N,08030.2987,W,1,11,1.4,20"
"##MN-00 00 46 0192 02023 5399 435061 346555 202"
"153.811123"
"$GPGGA,192758,2444.4854,N,08030.2966,W,1,11,1.4,20"
"##MN-00 00 39 0194 02024 5400 434986 346526 202"
"153.811169"
"$GPGGA,192802,2444.4860,N,08030.2946,W,1,11,1.4,19"
"##MN-00 00 39 0195 02019 5400 434959 346510 202"
"153.811215"
"$GPGGA,192806,2444.4865,N,08030.2925,W,1,11,1.4,19"
"##MN-00 00 38 0197 02020 5401 435008 346540 202"
"153.811262"
"$GPGGA,192810,2444.4868,N,08030.2904,W,1,11,1.4,19"
"##MN-00 00 41 0198 02013 5401 435082 346546 202"
"153.811308"
"$GPGGA,192814,2444.4870,N,08030.2882,W,1,11,1.4,19"
"##MN-00 00 40 0199 02009 5402 434976 346529 202"
"153.811354"
"$GPGGA,192818,2444.4874,N,08030.2861,W,1,11,1.4,19"
"##MN-00 00 38 0201 02010 5402 434976 346525 202"
"153.8114"
"$GPGGA,192822,2444.4878,N,08030.2841,W,1,11,1.4,19"
"##MN-00 00 41 0202 02003 5403 434933 346509 202"
"153.811447"
"$GPGGA,192826,2444.4879,N,08030.2820,W,1,11,1.4,19"
"##MN-00 00 44 0204 02000 5403 434916 346508 202"
"153.811493"
"$GPGGA,192830,2444.4886,N,08030.2800,W,1,11,1.4,19"
"##MN-00 00 42 0205 02001 5404 434899 346503 202"
"153.811539"
"$GPGGA,192834,2444.4890,N,08030.2781,W,1,11,1.4,19"
"##MN-00 00 42 0206 02000 5404 434886 346500 202"
"153.811586"
"$GPGGA,192838,2444.4894,N,08030.2761,W,1,11,1.4,18"
"##MN-00 00 39 0208 01991 5405 434860 346495 202"
"153.811632"
"$GPGGA,192842,2444.4897,N,08030.2739,W,1,11,1.4,18"
"##MN-00 00 40 0209 01988 5405 434830 346481 202"
"153.811678"
"$GPGGA,192846,2444.4899,N,08030.2717,W,1,11,1.4,18"
"##MN-00 00 41 0211 01986 5406 434795 346470 202"
"153.811725"
"$GPGGA,192850,2444.4901,N,08030.2693,W,1,11,1.4,18"
"##MN-00 00 39 0213 01982 5406 434788 346471 202"
"153.811771"
"$GPGGA,192854,2444.4904,N,08030.2672,W,1,11,1.7,18"
"##MN-00 00 42 0215 01971 5407 434789 346473 202"
"153.811817"
"$GPGGA,192858,2444.4906,N,08030.2651,W,1,10,1.4,18"
"##MN-00 00 44 0216 01965 5407 434789 346471 202"
"153.811863"
"$GPGGA,192902,2444.4907,N,08030.2633,W,1,11,1.4,18"
"##MN-00 00 42 0217 01971 5408 434794 346472 202"
"153.81191"
"$GPGGA,192906,2444.4908,N,08030.2610,W,1,11,1.4,18"
"##MN-00 00 43 0219 01965 5408 434800 346475 202"
"153.811956"
"$GPGGA,192910,2444.4907,N,08030.2586,W,1,11,1.4,19"
"##MN-00 00 49 0220 01965 5408 434823 346481 202"
"153.812002"
"$GPGGA,192914,2444.4908,N,08030.2563,W,1,11,1.4,19"
"##MN-00 00 43 0222 01971 5409 434878 346541 202"
"153.812049"
"$GPGGA,192918,2444.4910,N,08030.2539,W,1,11,1.4,19"
"##MN-00 00 43 0223 01967 5409 434894 346503 202"
"153.812095"
"$GPGGA,192922,2444.4910,N,08030.2515,W,1,11,1.4,19"
"##MN-00 00 45 0225 01966 5410 434888 346501 202"
"153.812141"
"$GPGGA,192926,2444.4914,N,08030.2494,W,1,11,1.4,19"
"##MN-00 00 45 0226 01969 5410 434892 346504 202"
"153.812188"
"$GPGGA,192930,2444.4914,N,08030.2476,W,1,11,1.4,19"
"##MN-00 00 34 0227 01969 5411 434895 346505 202"
"153.812234"
"$GPGGA,192934,2444.4915,N,08030.2454,W,1,11,1.4,19"
"##MN-00 00 39 0229 01964 5411 434921 346515 202"
"153.81228"
"$GPGGA,192938,2444.4919,N,08030.2435,W,1,11,1.4,19"
"##MN-00 00 45 0230 01971 5412 434946 346519 202"
"153.812326"
"$GPGGA,192942,2444.4923,N,08030.2414,W,1,11,1.4,19"
"##MN-00 00 44 0231 01982 5412 434969 346525 202"
"153.812373"
"$GPGGA,192946,2444.4926,N,08030.2394,W,1,11,1.4,19"
"##MN-00 00 34 0232 01976 5413 434950 346524 202"
"153.812419"
"$GPGGA,192950,2444.4926,N,08030.2370,W,1,11,1.4,19"
"##MN-00 00 44 0234 01968 5413 434881 346498 202"
"153.812465"
"$GPGGA,192954,2444.4928,N,08030.2349,W,1,11,1.4,19"
"##MN-00 00 44 0235 01974 5414 434828 346483 202"
"153.812512"
"$GPGGA,192958,2444.4928,N,08030.2326,W,1,11,1.4,20"
"##MN-00 00 47 0237 01975 5414 434818 346481 202"
"153.812558"
"$GPGGA,193002,2444.4928,N,08030.2304,W,1,11,1.5,20"
"##MN+00 00 48 0238 01977 5414 434822 346480 202"
"153.812604"
"$GPGGA,193006,2444.4930,N,08030.2284,W,1,11,1.5,20"
"##MN+00 00 46 0239 01982 5414 434888 346500 202"
"153.81265"
"$GPGGA,193010,2444.4935,N,08030.2262,W,1,11,1.5,20"
"##MN+00 00 42 0241 01983 5415 434895 346502 202"
"153.812697"
"$GPGGA,193014,2444.4939,N,08030.2239,W,1,11,1.5,20"
"##MN-00 00 41 0242 01984 5415 434891 346503 202"
"153.812743"
"$GPGGA,193018,2444.4939,N,08030.2215,W,1,11,1.7,20"
"##MN-00 00 39 0244 01979 5416 434873 346499 202"
"153.812789"
"$GPGGA,193022,2444.4937,N,08030.2190,W,1,11,1.5,19"
"##MN+00 00 37 0245 01979 5416 434839 346486 202"
"153.812836"
"$GPGGA,193026,2444.4937,N,08030.2168,W,1,11,1.5,19"
"##MN+00 00 37 0246 01977 5416 434838 346488 202"
"153.812882"
"$GPGGA,193030,2444.4937,N,08030.2148,W,1,11,1.5,19"
"##MN+00 00 55 0248 01974 5417 434826 346483 202"
"153.812928"
"#increment_net"
"$GPGGA,193034,2444.4937,N,08030.2127,W,1,11,1.5,19"
"##MN-00 00 48 0250 01973 5417 434847 346489 202"
"153.812975"
"$GPGGA,193038,2444.4937,N,08030.2104,W,1,11,1.5,19"
"##MN-00 00 43 0252 01972 5418 434827 346483 202"
"153.813021"
"$GPGGA,193042,2444.4937,N,08030.2081,W,1,10,1.5,18"
"##MN-00 00 43 0253 01967 5419 434812 346479 202"
"153.813067"
"$GPGGA,193046,2444.4935,N,08030.2057,W,1,11,1.5,18"
"##MN-00 00 46 0255 01968 5419 434809 346478 202"
"153.813113"
"$GPGGA,193050,2444.4933,N,08030.2040,W,1,10,1.5,18"
"##MN-00 00 44 0257 01967 5419 434814 346484 202"
"153.81316"
"$GPGGA,193054,2444.4931,N,08030.2017,W,1,11,1.5,18"
"##MN-00 00 49 0258 01958 5419 434864 346494 202"
"153.813218"
"$GPGGA,193058,2444.4930,N,08030.1992,W,1,11,1.5,19"
"##MN-00 00 48 0260 01961 5419 434876 346500 202"
"153.813264"
"$GPGGA,193102,2444.4930,N,08030.1965,W,1,11,1.5,19"
"##MN-00 00 49 0262 01966 5420 434864 346492 202"
"153.81331"
"$GPGGA,193106,2444.4930,N,08030.1938,W,1,11,1.5,19"
"##MN-00 00 50 0263 01968 5420 434858 346499 202"
"153.813356"
"$GPGGA,193110,2444.4930,N,08030.1911,W,1,11,1.5,19"
"##MN-00 00 48 0265 01971 5421 434881 346501 202"
"153.813403"
"$GPGGA,193114,2444.4930,N,08030.1890,W,1,11,1.5,19"
"##MN-00 00 47 0267 01973 5421 434883 346502 202"
"153.813449"
"$GPGGA,193118,2444.4930,N,08030.1868,W,1,11,1.5,20"
"##MN-00 00 44 0268 01972 5421 434880 346499 202"
"153.813495"
"$GPGGA,193122,2444.4929,N,08030.1846,W,1,11,1.5,20"
"##MN-00 00 48 0270 01972 5422 434866 346496 202"
"153.813542"
"$GPGGA,193126,2444.4930,N,08030.1821,W,1,11,1.5,20"
"##MN+00 00 44 0271 01970 5422 434851 346491 202"
"153.813588"
"$GPGGA,193130,2444.4929,N,08030.1799,W,1,11,1.5,20"
"##MN+00 00 44 0273 01961 5423 434913 346512 202"
"153.813634"
"$GPGGA,193134,2444.4926,N,08030.1778,W,1,11,1.5,20"
"##MN+00 00 54 0274 01959 5423 434839 346490 202"
"153.813681"
"$GPGGA,193138,2444.4926,N,08030.1759,W,1,11,1.5,20"
"##MN-00 00 46 0276 01968 5423 434822 346482 202"
"153.813727"
"$GPGGA,193142,2444.4926,N,08030.1738,W,1,11,1.5,20"
"##MN+00 00 45 0277 01966 5424 434824 346484 202"
"153.813773"
"$GPGGA,193146,2444.4928,N,08030.1717,W,1,11,1.5,20"
"##MN+00 00 52 0279 01965 5424 434838 346489 202"
"153.813819"
"$GPGGA,193150,2444.4927,N,08030.1696,W,1,11,1.5,20"
"##MN+00 00 51 0281 01970 5424 434863 346495 202"
"153.813866"
"$GPGGA,193155,2444.4926,N,08030.1669,W,1,11,1.5,20"
"##MN-00 00 48 0282 01966 5425 434869 346497 202"
"153.813912"
"$GPGGA,193158,2444.4927,N,08030.1653,W,1,11,1.5,20"
"##MN-00 00 47 0284 01958 5426 434877 346498 202"
"153.813958"
"#increment_net"
"$GPGGA,193203,2444.4930,N,08030.1631,W,1,11,1.5,20"
"##MN-00 00 51 0285 01963 5426 434870 346497 202"
"153.814005"
"$GPGGA,193207,2444.4928,N,08030.1610,W,1,11,1.5,20"
"##MN-00 00 45 0287 01961 5426 434874 346499 202"
"153.814051"
"$GPGGA,193211,2444.4926,N,08030.1586,W,1,11,1.5,20"
"##MN-00 00 46 0289 01956 5426 434886 346504 202"
"153.814097"
"$GPGGA,193215,2444.4921,N,08030.1564,W,1,11,1.5,20"
"##MN-00 00 51 0291 01955 5426 434842 346489 202"
"153.814143"
"$GPGGA,193219,2444.4915,N,08030.1542,W,1,11,1.5,20"
"##MN-00 00 45 0293 01955 5427 434805 346483 202"
"153.81419"
"$GPGGA,193223,2444.4908,N,08030.1519,W,1,11,1.5,20"
"##MN-00 00 46 0295 01949 5427 434798 346478 202"
"153.814236"
"$GPGGA,193227,2444.4901,N,08030.1498,W,1,11,1.5,20"
"##MN-00 00 50 0297 01945 5427 434808 346480 202"
"153.814282"
"$GPGGA,193231,2444.4895,N,08030.1476,W,1,11,1.5,21"
"##MN-00 00 52 0299 01946 5428 434817 346483 202"
"153.814329"
"$GPGGA,193235,2444.4891,N,08030.1457,W,1,11,1.5,21"
"##MN-00 00 48 0301 01950 5428 434820 346483 202"
"153.814375"
"$GPGGA,193239,2444.4885,N,08030.1435,W,1,11,1.5,21"
"##MN-00 00 49 0302 01941 5428 434820 346483 202"
"153.814421"
"$GPGGA,193243,2444.4877,N,08030.1411,W,1,11,1.5,22"
"##MN-00 00 52 0305 01943 5429 434811 346480 202"
"153.814468"
"$GPGGA,193247,2444.4870,N,08030.1390,W,1,10,1.8,22"
"##MN-00 00 48 0307 01948 5429 434811 346481 202"
"153.814514"
"$GPGGA,193251,2444.4863,N,08030.1371,W,1,11,1.5,22"
"##MN-00 00 52 0309 01946 5429 434830 346486 202"
"153.81456"
"$GPGGA,193255,2444.4857,N,08030.1348,W,1,11,1.5,23"
"##MN-00 00 55 0311 01944 5430 434847 346492 202"
"153.814607"
"$GPGGA,193259,2444.4852,N,08030.1321,W,1,11,1.5,23"
"##MN-00 00 52 0313 01946 5430 434841 346491 202"
"153.814653"
"$GPGGA,193303,2444.4847,N,08030.1294,W,1,11,1.5,23"
"##MN-00 00 54 0314 01949 5430 434823 346484 202"
"153.814699"
"$GPGGA,193307,2444.4841,N,08030.1271,W,1,11,1.5,22"
"##MN+00 00 55 0316 01949 5431 434813 346481 202"
"153.814745"
"$GPGGA,193311,2444.4836,N,08030.1249,W,1,11,1.5,22"
"##MN+00 00 53 0319 01949 5431 434810 346481 202"
"153.814792"
"$GPGGA,193315,2444.4828,N,08030.1226,W,1,11,1.8,22"
"##MN+00 00 55 0321 01951 5431 434810 346480 202"
"153.814838"
"$GPGGA,193319,2444.4822,N,08030.1208,W,1,11,1.5,22"
"##MN-00 00 54 0323 01950 5432 434817 346482 202"
"153.814884"
"$GPGGA,193323,2444.4812,N,08030.1187,W,1,10,1.7,22"
"##MN+00 00 51 0326 01949 5432 434822 346483 202"
"153.814931"
"$GPGGA,193327,2444.4805,N,08030.1163,W,1,11,1.5,21"
"##MN+00 00 55 0328 01951 5433 434832 346486 202"
"153.814977"
"$GPGGA,193331,2444.4801,N,08030.1140,W,1,11,1.5,21"
"##MN+00 00 64 0330 01954 5433 434820 346483 202"
"153.815023"
"#increment_net"
"$GPGGA,193335,2444.4793,N,08030.1118,W,1,11,1.5,21"
"##MN-00 00 54 0332 01954 5433 434821 346483 202"
"153.815069"
"$GPGGA,193339,2444.4786,N,08030.1095,W,1,11,1.5,21"
"##MN-00 00 53 0333 01953 5434 434826 346484 202"
"153.815116"
"$GPGGA,193343,2444.4781,N,08030.1073,W,1,11,1.5,21"
"##MN-00 00 54 0335 01956 5434 434831 346486 202"
"153.815162"
"$GPGGA,193347,2444.4776,N,08030.1053,W,1,11,1.5,21"
"##MN-00 00 52 0338 01962 5434 434844 346489 202"
"153.815208"
"$GPGGA,193351,2444.4767,N,08030.1034,W,1,11,1.5,21"
"##MN-00 00 51 0340 01962 5434 434845 346488 202"
"153.815255"
"$GPGGA,193355,2444.4762,N,08030.1017,W,1,11,1.5,21"
"##MN-00 00 48 0342 01960 5434 434829 346484 202"
"153.815301"
"$GPGGA,193359,2444.4755,N,08030.0996,W,1,11,1.5,21"
"##MN-00 00 57 0344 01961 5435 434820 346481 202"
"153.815347"
"$GPGGA,193403,2444.4750,N,08030.0976,W,1,11,1.5,20"
"##MN-00 00 52 0346 01965 5435 434841 346489 202"
"153.815394"
"$GPGGA,193407,2444.4745,N,08030.0958,W,1,11,1.5,20"
"##MN-00 00 58 0348 01967 5436 434846 346486 202"
"153.81544"
"$GPGGA,193411,2444.4739,N,08030.0939,W,1,11,1.5,20"
"##MN-00 00 52 0350 01966 5436 434813 346479 202"
"153.815486"
"$GPGGA,193415,2444.4734,N,08030.0917,W,1,11,1.5,20"
"##MN-00 00 52 0352 01964 5436 434794 346475 202"
"153.815532"
"$GPGGA,193419,2444.4727,N,08030.0895,W,1,11,1.5,19"
"##MN-00 00 56 0355 01960 5436 434793 346475 202"
"153.815579"
"$GPGGA,193423,2444.4722,N,08030.0881,W,1,11,1.5,19"
"##MN-00 00 52 0357 01958 5436 434796 346476 202"
"153.815625"
"$GPGGA,193427,2444.4714,N,08030.0852,W,1,11,1.5,19"
"##MN-00 00 53 0359 01957 5436 434793 346474 202"
"153.815671"
"$GPGGA,193431,2444.4708,N,08030.0840,W,1,11,1.5,19"
"##MN-00 00 62 0362 01954 5437 434789 346473 202"
"153.815718"
"$GPGGA,193435,2444.4697,N,08030.0812,W,1,11,1.5,19"
"##MN+00 00 55 0364 01952 5437 434789 346472 202"
"153.815764"
"$GPGGA,193439,2444.4688,N,08030.0790,W,1,11,1.5,19"
"##MN+00 00 54 0366 01953 5438 434783 346472 202"
"153.81581"
"$GPGGA,193443,2444.4678,N,08030.0769,W,1,11,1.5,18"
"##MN+00 00 52 0369 01951 5438 434796 346474 202"
"153.815856"
"$GPGGA,193447,2444.4668,N,08030.0747,W,1,11,1.5,18"
"##MN+00 00 54 0371 01949 5438 434807 346561 202"
"153.815903"
"$GPGGA,193451,2444.4655,N,08030.0724,W,1,11,1.5,18"
"##MN+00 00 55 0374 01946 5439 434797 346477 202"
"153.815949"
"$GPGGA,193455,2444.4642,N,08030.0699,W,1,10,1.5,18"
"##MN+00 00 69 0376 01945 5438 434788 346474 202"
"153.815995"
"$GPGGA,193459,2444.4631,N,08030.0678,W,1,11,1.5,18"
"##MN-00 00 63 0379 01944 5439 434785 346475 202"
"153.816042"
"$GPGGA,193503,2444.4619,N,08030.0656,W,1,11,1.5,17"
"##MN-00 00 66 0381 01946 5440 434787 346475 202"
"153.816088"
"$GPGGA,193507,2444.4606,N,08030.0634,W,1,11,1.5,17"
"##MN-00 00 57 0383 01946 5441 434826 346487 202"
"153.816134"
"$GPGGA,193511,2444.4599,N,08030.0612,W,1,11,1.5,17"
"##MN-00 00 60 0386 01947 5441 434831 346488 202"
"153.816181"
"$GPGGA,193515,2444.4590,N,08030.0588,W,1,11,1.5,17"
"##MN-00 00 58 0388 01952 5441 434792 346474 202"
"153.816227"
"#increment_net"
"$GPGGA,193519,2444.4585,N,08030.0562,W,1,11,1.5,17"
"##MN-00 00 57 0390 01958 5441 434768 346470 202"
"153.816273"
"$GPGGA,193523,2444.4579,N,08030.0541,W,1,11,1.5,17"
"##MN-00 00 56 0392 01961 5441 434762 346467 202"
"153.816319"
"$GPGGA,193527,2444.4574,N,08030.0520,W,1,11,1.5,17"
"##MN-00 00 60 0394 01966 5441 434758 346465 202"
"153.816366"
"$GPGGA,193531,2444.4568,N,08030.0499,W,1,11,1.5,16"
"##MN-00 00 55 0396 01971 5442 434759 346463 202"
"153.816424"
"$GPGGA,193535,2444.4565,N,08030.0477,W,1,11,1.5,16"
"##MN-00 00 55 0398 01974 5442 434762 346462 202"
"153.81647"
"$GPGGA,193539,2444.4559,N,08030.0452,W,1,11,1.5,16"
"##MN-00 00 54 0401 01978 5442 434768 346463 202"
"153.816516"
"$GPGGA,193543,2444.4556,N,08030.0430,W,1,11,1.5,16"
"##MN-00 00 52 0403 01981 5442 434776 346468 202"
"153.816562"
"$GPGGA,193547,2444.4550,N,08030.0406,W,1,11,1.5,16"
"##MN-00 00 53 0405 01982 5443 434799 346474 202"
"153.816609"
"$GPGGA,193551,2444.4545,N,08030.0385,W,1,11,1.5,16"
"##MN-00 00 57 0408 01982 5443 434779 346469 202"
"153.816655"
"$GPGGA,193555,2444.4541,N,08030.0365,W,1,11,1.5,16"
"##MN-00 00 49 0410 01984 5444 434790 346471 202"
"153.816701"
"$GPGGA,193559,2444.4536,N,08030.0343,W,1,11,1.5,16"
"##MN-00 00 49 0412 01982 5444 434799 346472 202"
"153.816748"
"$GPGGA,193603,2444.4531,N,08030.0320,W,1,11,1.5,16"
"##MN-00 00 51 0414 01982 5444 434775 346466 202"
"153.816794"
"$GPGGA,193607,2444.4527,N,08030.0298,W,1,11,1.5,16"
"##MN+00 00 52 0416 01982 5445 434777 346467 202"
"153.81684"
"$GPGGA,193611,2444.4523,N,08030.0276,W,1,11,1.5,15"
"##MN+00 00 54 0419 01979 5444 434770 346465 202"
"153.816887"
"$GPGGA,193615,2444.4521,N,08030.0253,W,1,11,1.5,15"
"##MN+00 00 52 0421 01981 5445 434751 346457 202"
"153.816933"
"$GPGGA,193619,2444.4516,N,08030.0231,W,1,11,1.5,15"
"##MN+00 00 54 0423 01981 5445 434737 346455 202"
"153.816979"
"$GPGGA,193623,2444.4514,N,08030.0208,W,1,11,1.5,15"
"##MN+00 00 60 0425 01982 5445 434736 346454 202"
"153.817026"
"$GPGGA,193627,2444.4508,N,08030.0187,W,1,11,1.5,15"
"##MN+00 00 61 0428 01991 5446 434730 346450 202"
"153.817072"
"#increment_net"
"$GPGGA,193631,2444.4504,N,08030.0167,W,1,11,1.5,15"
"##MN-00 00 54 0429 01993 5446 434755 346458 202"
"153.817118"
"$GPGGA,193636,2444.4497,N,08030.0141,W,1,11,1.5,15"
"##MN-00 00 55 0432 01996 5447 434764 346462 202"
"153.817164"
"$GPGGA,193639,2444.4494,N,08030.0125,W,1,11,1.5,15"
"##MN-00 00 63 0435 02001 5447 434753 346458 202"
"153.817211"
"$GPGGA,193644,2444.4486,N,08030.0095,W,1,11,1.5,15"
"##MN-00 00 57 0437 02004 5446 434804 346470 202"
"153.817257"
"$GPGGA,193647,2444.4479,N,08030.0078,W,1,11,1.5,15"
"##MN-00 00 59 0440 02005 5446 434812 346473 202"
"153.817303"
"$GPGGA,193652,2444.4471,N,08030.0047,W,1,11,1.5,15"
"##MN-00 00 67 0443 02004 5446 434806 346474 202"
"153.81735"
"$GPGGA,193656,2444.4467,N,08030.0022,W,1,11,1.5,15"
"##MN-00 00 55 0446 02007 5447 434762 346458 202"
"153.817396"
"$GPGGA,193659,2444.4466,N,08030.0008,W,1,11,1.5,15"
"##MN-00 00 54 0448 02006 5447 434732 346449 202"
"153.817442"
"$GPGGA,193704,2444.4457,N,08029.9981,W,1,11,1.5,16"
"##MN-00 00 51 0451 02007 5448 434718 346445 202"
"153.817488"
"$GPGGA,193708,2444.4453,N,08029.9960,W,1,11,1.5,17"
"##MN-00 00 55 0454 02007 5448 434717 346446 202"
"153.817535"
"$GPGGA,193712,2444.4446,N,08029.9937,W,1,11,1.5,18"
"##MN-00 00 58 0457 01999 5448 434722 346447 202"
"153.817581"
"$GPGGA,193716,2444.4438,N,08029.9909,W,1,11,1.5,18"
"##MN-00 00 62 0460 01998 5448 434729 346451 202"
"153.817627"
"$GPGGA,193720,2444.4431,N,08029.9885,W,1,10,1.5,19"
"##MN-00 00 54 0462 01995 5449 434765 346458 202"
"153.817674"
"$GPGGA,193724,2444.4422,N,08029.9858,W,1,11,1.5,19"
"##MN-00 00 50 0465 01990 5449 434767 346461 202"
"153.81772"
"$GPGGA,193728,2444.4413,N,08029.9830,W,1,11,1.8,19"
"##MN-00 00 56 0468 01985 5449 434771 346463 202"
"153.817766"
"$GPGGA,193732,2444.4404,N,08029.9804,W,1,11,1.5,19"
"##MN-00 00 55 0471 01987 5449 434785 346468 202"
"153.817813"
"$GPGGA,193736,2444.4395,N,08029.9776,W,1,11,1.5,19"
"##MN-00 00 58 0474 01980 5449 434798 346473 202"
"153.817859"
"$GPGGA,193740,2444.4385,N,08029.9748,W,1,11,1.5,19"
"##MN-00 00 60 0477 01975 5450 434780 346468 202"
"153.817905"
"$GPGGA,193744,2444.4377,N,08029.9721,W,1,11,1.5,19"
"##MN-00 00 63 0480 01975 5450 434774 346468 202"
"153.817951"
"$GPGGA,193748,2444.4370,N,08029.9698,W,1,10,1.5,19"
"##MN-00 00 58 0482 01971 5450 434786 346471 202"
"153.817998"
"$GPGGA,193752,2444.4363,N,08029.9676,W,1,11,1.5,19"
"##MN-00 00 61 0485 01972 5451 434794 346474 202"
"153.818044"
"$GPGGA,193756,2444.4359,N,08029.9657,W,1,11,1.5,19"
"##MN-00 00 52 0488 01970 5451 434768 346465 202"
"153.81809"
"$GPGGA,193800,2444.4352,N,08029.9636,W,1,11,1.5,19"
"##MN-00 00 54 0491 01968 5451 434781 346468 202"
"153.818137"
"$GPGGA,193804,2444.4344,N,08029.9615,W,1,11,1.5,19"
"##MN-00 00 63 0494 01963 5451 434749 346463 202"
"153.818183"
"$GPGGA,193808,2444.4335,N,08029.9595,W,1,10,1.5,18"
"##MN-00 00 58 0496 01960 5451 434707 346449 202"
"153.818229"
"$GPGGA,193812,2444.4330,N,08029.9576,W,1,10,1.5,18"
"##MN-00 00 56 0499 01962 5452 434714 346450 202"
"153.818275"
"$GPGGA,193816,2444.4330,N,08029.9561,W,1,11,1.5,18"
"##MN-00 00 52 0501 01965 5452 434742 346458 202"
"153.818322"
"$GPGGA,193820,2444.4329,N,08029.9545,W,1,10,1.7,17"
"##MN-00 00 48 0504 01971 5452 434708 346452 202"
"153.818368"
"$GPGGA,193824,2444.4331,N,08029.9529,W,1,10,1.7,17"
"##MN-00 00 51 0506 01969 5452 434691 346446 202"
"153.818414"
"$GPGGA,193828,2444.4337,N,08029.9515,W,1,10,1.5,17"
"##MN-00 00 51 0508 01972 5452 434691 346441 202"
"153.818461"
"$GPGGA,193832,2444.4337,N,08029.9497,W,1,10,1.5,17"
"##MN-00 00 45 0510 01975 5453 434680 346438 202"
"153.818507"
"$GPGGA,193836,2444.4341,N,08029.9481,W,1,11,1.5,17"
"##MN-00 00 45 0513 01969 5453 434671 346437 202"
"153.818553"
"$GPGGA,193840,2444.4344,N,08029.9467,W,1,11,1.5,17"
"##MN-00 00 47 0516 01966 5453 434663 346433 202"
"153.8186"
"$GPGGA,193844,2444.4348,N,08029.9456,W,1,11,1.5,17"
"##MN-00 00 43 0518 01967 5454 434657 346435 202"
"153.818646"
"$GPGGA,193848,2444.4352,N,08029.9445,W,1,11,1.5,17"
"##MN-00 00 44 0520 01962 5454 434660 346435 202"
"153.818692"
"$GPGGA,193852,2444.4353,N,08029.9434,W,1,11,1.5,17"
"##MN-00 00 46 0523 01956 5454 434664 346436 202"
"153.818738"
"$GPGGA,193856,2444.4358,N,08029.9425,W,1,10,1.8,17"
"##MN-00 00 42 0525 01957 5454 434666 346437 202"
"153.818785"
"$GPGGA,193900,2444.4363,N,08029.9422,W,1,11,1.5,18"
"##MN-00 00 41 0527 01958 5455 434671 346441 202"
"153.818831"
"$GPGGA,193904,2444.4370,N,08029.9415,W,1,11,1.7,18"
"##MN-00 00 40 0530 01954 5455 434702 346448 202"
"153.818877"
"$GPGGA,193908,2444.4377,N,08029.9408,W,1,11,1.5,18"
"##MN-00 00 39 0532 01953 5455 434747 346466 202"
"153.818924"
"$GPGGA,193912,2444.4387,N,08029.9400,W,1,11,1.5,19"
"##MN-00 00 36 0534 01953 5455 434720 346456 202"
"153.81897"
"$GPGGA,193916,2444.4397,N,08029.9390,W,1,11,1.5,19"
"##MN-00 00 37 0536 01953 5456 434728 346457 202"
"153.819016"
"$GPGGA,193920,2444.4405,N,08029.9380,W,1,11,1.5,20"
"##MN-00 00 34 0538 01946 5456 434717 346453 202"
"153.819062"
"$GPGGA,193924,2444.4417,N,08029.9368,W,1,10,1.9,20"
"##MN-00 00 31 0540 01944 5456 434724 346456 202"
"153.819109"
"$GPGGA,193928,2444.4427,N,08029.9358,W,1,9,1.5,20,"
"##MN-00 00 35 0541 01936 5457 434707 346451 202"
"153.819155"
"$GPGGA,193932,2444.4438,N,08029.9351,W,1,11,1.5,20"
"##MN-00 00 36 0543 01934 5457 434699 346448 202"
"153.819201"
"$GPGGA,193936,2444.4449,N,08029.9343,W,1,11,1.9,20"
"##MN-00 00 32 0545 01932 5457 434701 346451 202"
"153.819248"
"$GPGGA,193940,2444.4459,N,08029.9337,W,1,11,1.5,20"
"##MN-00 00 32 0547 01926 5457 434690 346448 202"
"153.819294"
"$GPGGA,193944,2444.4467,N,08029.9331,W,1,11,1.5,20"
"##MN-00 00 34 0549 01921 5458 434698 346453 202"
"153.81934"
"$GPGGA,193948,2444.4481,N,08029.9321,W,1,11,1.5,20"
"##MN-00 00 34 0551 01914 5458 434708 346455 202"
"153.819387"
"$GPGGA,193952,2444.4493,N,08029.9310,W,1,10,1.5,20"
"##MN-00 00 38 0554 01905 5458 434702 346454 202"
"153.819433"
"$GPGGA,193956,2444.4505,N,08029.9304,W,1,11,1.5,20"
"##MN-00 00 39 0556 01904 5458 434695 346452 202"
"153.819479"
"$GPGGA,194000,2444.4518,N,08029.9296,W,1,11,1.5,20"
"##MN-00 00 28 0557 01900 5458 434696 346453 202"
"153.819525"
"$GPGGA,194004,2444.4531,N,08029.9288,W,1,11,1.5,20"
"##MN-00 00 34 0559 01891 5458 434695 346452 202"
"153.819572"
"$GPGGA,194008,2444.4543,N,08029.9282,W,1,11,1.9,20"
"##MN-00 00 40 0561 01882 5459 434704 346455 202"
"153.819618"
"$GPGGA,194012,2444.4556,N,08029.9276,W,1,11,1.5,20"
"##MN-00 00 36 0563 01886 5459 434709 346458 202"
"153.819676"
"$GPGGA,194016,2444.4571,N,08029.9268,W,1,10,1.5,20"
"##MN-00 00 37 0565 01879 5459 434708 346459 202"
"153.819722"
"$GPGGA,194020,2444.4583,N,08029.9264,W,1,11,1.5,20"
"##MN-00 00 40 0566 01872 5459 434707 346461 202"
"153.819769"
"$GPGGA,194024,2444.4597,N,08029.9260,W,1,10,1.5,20"
"##MN-00 00 32 0568 01874 5460 434705 346461 202"
