" Tow: 5Wd-A   RVWS/WS1406"
" Date: 06/05/2014"
" Temperature Probe #  2597    Conductivity Probe #  2870"
" Pressure Probe #  109"
" Flow Meter Calibration  4.71 (m/count)  "
"156.701273"
"$GPGGA,164943,2424.1622,N,08125.2781,W,1,9,2.0,11,"
"##MN-00 00 55 0087 01861 5517 000241 908904 201"
"156.701632"
"$GPGGA,165015,2424.1475,N,08125.2679,W,1,9,2.0,11,"
"##MN-00 00 53 0093 01871 5520 443981 349404 201"
"156.701678"
"$GPGGA,165022,2424.1449,N,08125.2658,W,1,9,2.0,11,"
"##MN-00 00 53 0094 01873 5521 443982 349425 201"
"156.701725"
"$GPGGA,165026,2424.1433,N,08125.2645,W,1,9,2.0,11,"
"##MN-00 00 51 0095 01875 5521 443992 349422 201"
"156.701771"
"$GPGGA,165030,2424.1418,N,08125.2632,W,1,9,2.0,11,"
"##MN-00 00 51 0096 01879 5522 443981 349414 201"
"156.701817"
"$GPGGA,165034,2424.1402,N,08125.2620,W,1,9,2.0,11,"
"##MN-00 00 51 0097 01880 5522 443986 349420 201"
"156.701863"
"$GPGGA,165038,2424.1386,N,08125.2609,W,1,9,2.0,11,"
"##MN-00 00 51 0097 01885 5522 443962 349398 201"
"156.70191"
"$GPGGA,165042,2424.1371,N,08125.2597,W,1,9,2.0,11,"
"##MN-00 00 52 0098 01890 5523 443963 349415 201"
"156.701956"
"$GPGGA,165046,2424.1355,N,08125.2585,W,1,9,2.0,11,"
"##MN-00 00 52 0099 01897 5523 444002 349432 201"
"156.702002"
"$GPGGA,165050,2424.1340,N,08125.2573,W,1,9,2.0,11,"
"##MN-00 00 51 0100 01900 5523 444021 349442 201"
"156.702049"
"$GPGGA,165054,2424.1324,N,08125.2562,W,1,9,2.0,11,"
"##MN-00 00 51 0100 01905 5523 444011 349430 201"
"156.702095"
"$GPGGA,165058,2424.1308,N,08125.2550,W,1,9,2.0,11,"
"##MN-00 00 51 0101 01910 5524 443989 349403 201"
"156.702141"
"$GPGGA,165102,2424.1292,N,08125.2536,W,1,9,2.0,11,"
"##MN-00 00 51 0102 01915 5524 443943 349389 201"
"156.702188"
"$GPGGA,165106,2424.1276,N,08125.2523,W,1,9,2.0,11,"
"##MN-00 00 51 0103 01919 5524 443921 349360 201"
"156.702234"
"$GPGGA,165110,2424.1261,N,08125.2508,W,1,9,2.0,11,"
"##MN-00 00 51 0103 01924 5524 443904 349352 201"
"156.70228"
"$GPGGA,165114,2424.1245,N,08125.2496,W,1,9,2.0,11,"
"##MN-00 00 51 0104 01928 5524 443895 349347 201"
"156.702326"
"$GPGGA,165118,2424.1229,N,08125.2484,W,1,9,2.0,11,"
"##MN-00 00 50 0105 01932 5525 443879 349317 201"
"156.702373"
"$GPGGA,165122,2424.1214,N,08125.2472,W,1,9,2.0,11,"
"##MN-00 00 49 0105 01935 5524 443869 349309 201"
"156.702419"
"$GPGGA,165126,2424.1198,N,08125.2461,W,1,9,2.0,11,"
"##MN-00 00 51 0106 01939 5525 443863 349305 201"
"156.702465"
"$GPGGA,165130,2424.1182,N,08125.2450,W,1,9,2.0,11,"
"##MN-00 00 51 0107 01947 5525 443861 349303 201"
"156.702512"
"$GPGGA,165134,2424.1167,N,08125.2440,W,1,9,2.0,11,"
"##MN-00 00 51 0108 01950 5525 443861 349302 201"
"156.702558"
"$GPGGA,165138,2424.1150,N,08125.2430,W,1,9,2.0,11,"
"##MN-00 00 51 0108 01954 5525 443854 349300 201"
"156.702604"
"$GPGGA,165142,2424.1134,N,08125.2420,W,1,9,2.0,11,"
"##MN-00 00 52 0109 01961 5525 443856 349292 201"
"156.70265"
"$GPGGA,165146,2424.1118,N,08125.2410,W,1,9,2.0,11,"
"##MN-00 00 53 0110 01964 5525 443870 349295 201"
"156.702697"
"$GPGGA,165150,2424.1105,N,08125.2403,W,1,9,2.0,11,"
"##MN-00 00 51 0110 01969 5525 443873 349295 201"
"156.702743"
"$GPGGA,165154,2424.1089,N,08125.2395,W,1,9,2.0,11,"
"##MN-00 00 51 0111 01970 5525 443876 349295 201"
"156.702789"
"$GPGGA,165158,2424.1068,N,08125.2383,W,1,9,2.0,11,"
"##MN-00 00 50 0112 01975 5525 443902 349304 201"
"156.702836"
"$GPGGA,165202,2424.1053,N,08125.2375,W,1,9,2.0,11,"
"##MN-00 00 52 0112 01981 5525 443904 349306 201"
"156.702882"
"$GPGGA,165206,2424.1041,N,08125.2369,W,1,9,2.0,11,"
"##MN-00 00 51 0113 01986 5525 443915 349308 201"
"156.702928"
"$GPGGA,165210,2424.1024,N,08125.2361,W,1,9,2.0,11,"
"##MN-00 00 51 0114 01988 5524 443925 349309 201"
"156.702975"
"$GPGGA,165214,2424.1004,N,08125.2350,W,1,9,2.0,11,"
"##MN-00 00 51 0115 01995 5525 443935 349317 201"
"156.703021"
"$GPGGA,165218,2424.0988,N,08125.2341,W,1,9,2.0,11,"
"##MN-00 00 51 0115 02000 5524 443954 349323 201"
"156.703067"
"$GPGGA,165222,2424.0976,N,08125.2333,W,1,9,2.0,11,"
"##MN-00 00 50 0116 02005 5524 443960 349323 201"
"156.703113"
"$GPGGA,165226,2424.0956,N,08125.2323,W,1,9,2.0,11,"
"##MN-00 00 51 0117 02008 5524 443970 349329 201"
"156.70316"
"$GPGGA,165230,2424.0940,N,08125.2314,W,1,9,2.0,11,"
"##MN-00 00 51 0118 02013 5524 443978 349333 201"
"156.703206"
"$GPGGA,165234,2424.0923,N,08125.2310,W,1,9,2.0,11,"
"##MN-00 00 49 0118 02017 5524 443991 349335 201"
"156.703252"
"$GPGGA,165238,2424.0905,N,08125.2308,W,1,9,2.0,11,"
"##MN-00 00 50 0119 02022 5524 444060 349363 201"
"156.703299"
"$GPGGA,165242,2424.0886,N,08125.2303,W,1,9,2.0,12,"
"##MN-00 00 49 0120 02029 5523 444703 349635 201"
"156.703345"
"$GPGGA,165246,2424.0871,N,08125.2299,W,1,9,2.0,12,"
"##MN-00 00 49 0120 02033 5523 445987 349951 201"
"156.703391"
"$GPGGA,165250,2424.0854,N,08125.2291,W,1,9,2.0,13,"
"##MN-00 00 51 0121 02036 5523 446270 350077 201"
"156.703437"
"$GPGGA,165254,2424.0837,N,08125.2284,W,1,9,2.0,13,"
"##MN-00 00 51 0122 02040 5522 446557 350153 201"
"156.703484"
"$GPGGA,165258,2424.0822,N,08125.2275,W,1,9,2.0,14,"
"##MN-00 00 51 0122 02047 5522 446623 350182 201"
"156.70353"
"$GPGGA,165302,2424.0807,N,08125.2264,W,1,9,2.0,14,"
"##MN-00 00 51 0123 02052 5522 446709 350190 201"
"156.703576"
"$GPGGA,165306,2424.0791,N,08125.2253,W,1,9,2.0,14,"
"##MN-00 00 50 0124 02055 5522 446728 350184 201"
"156.703623"
"$GPGGA,165310,2424.0775,N,08125.2243,W,1,9,2.0,14,"
"##MN-00 00 50 0125 02061 5522 446748 350191 201"
"156.703669"
"$GPGGA,165314,2424.0759,N,08125.2232,W,1,9,2.0,14,"
"##MN-00 00 50 0125 02065 5521 446747 350189 201"
"156.703715"
"$GPGGA,165318,2424.0744,N,08125.2222,W,1,9,2.0,14,"
"##MN-00 00 50 0126 02072 5521 446757 350196 201"
"156.703762"
"$GPGGA,165322,2424.0727,N,08125.2211,W,1,9,2.0,14,"
"##MN-00 00 49 0127 02076 5521 446767 350190 201"
"156.703808"
"$GPGGA,165326,2424.0712,N,08125.2200,W,1,9,2.0,14,"
"##MN-00 00 50 0127 02081 5521 446816 350190 201"
"156.703854"
"$GPGGA,165330,2424.0694,N,08125.2190,W,1,9,2.0,14,"
"##MN-00 00 49 0128 02086 5520 446869 350196 201"
"156.7039"
"$GPGGA,165334,2424.0677,N,08125.2181,W,1,9,2.0,13,"
"##MN-00 00 49 0129 02091 5520 446912 350205 201"
"156.703947"
"$GPGGA,165338,2424.0661,N,08125.2171,W,1,9,2.0,13,"
"##MN-00 00 49 0129 02095 5520 446940 350212 201"
"156.704005"
"$GPGGA,165342,2424.0644,N,08125.2161,W,1,9,2.0,13,"
"##MN-00 00 49 0130 02098 5519 446979 350219 201"
"156.704051"
"$GPGGA,165346,2424.0627,N,08125.2150,W,1,9,2.0,13,"
"##MN-00 00 49 0131 02104 5519 446992 350218 201"
"156.704097"
"$GPGGA,165351,2424.0605,N,08125.2138,W,1,9,2.0,13,"
"##MN-00 00 49 0131 02109 5519 447007 350215 201"
"156.704144"
"$GPGGA,165354,2424.0592,N,08125.2131,W,1,9,2.0,12,"
"##MN-00 00 49 0132 02113 5518 447105 350241 201"
"156.70419"
"$GPGGA,165358,2424.0575,N,08125.2121,W,1,9,2.0,12,"
"##MN-00 00 50 0133 02117 5517 447240 350294 201"
"156.704236"
"$GPGGA,165402,2424.0557,N,08125.2112,W,1,9,2.0,12,"
"##MN-00 00 50 0133 02124 5517 447614 350413 201"
"156.704282"
"$GPGGA,165406,2424.0540,N,08125.2101,W,1,9,2.0,12,"
"##MN-00 00 50 0134 02129 5517 447828 350444 201"
"156.704329"
"$GPGGA,165411,2424.0520,N,08125.2087,W,1,9,2.0,12,"
"##MN-00 00 49 0135 02132 5517 447924 350472 201"
"156.704375"
"$GPGGA,165414,2424.0507,N,08125.2079,W,1,9,2.0,12,"
"##MN-00 00 49 0135 02138 5516 448068 350507 201"
"156.704421"
"$GPGGA,165419,2424.0485,N,08125.2066,W,1,9,2.0,12,"
"##MN-00 00 49 0136 02143 5516 448198 350540 201"
"156.704468"
"$GPGGA,165423,2424.0468,N,08125.2055,W,1,9,2.0,12,"
"##MN-00 00 49 0137 02145 5515 448311 350568 201"
"156.704514"
"$GPGGA,165427,2424.0450,N,08125.2045,W,1,9,2.0,12,"
"##MN-00 00 49 0137 02151 5515 448386 350585 201"
"156.70456"
"$GPGGA,165431,2424.0434,N,08125.2036,W,1,9,2.0,12,"
"##MN-00 00 48 0138 02159 5514 448641 350696 201"
"156.704606"
"$GPGGA,165435,2424.0415,N,08125.2028,W,1,9,2.0,12,"
"##MN-00 00 49 0139 02163 5514 449231 350861 201"
"156.704653"
"$GPGGA,165439,2424.0399,N,08125.2019,W,1,9,2.0,12,"
"##MN-00 00 48 0139 02164 5514 449477 350972 201"
"156.704699"
"$GPGGA,165443,2424.0383,N,08125.2012,W,1,9,2.0,11,"
"##MN-00 00 48 0140 02168 5513 450029 351128 201"
"156.704745"
"$GPGGA,165447,2424.0366,N,08125.2004,W,1,9,2.0,11,"
"##MN-00 00 49 0140 02173 5512 450503 351277 201"
"156.704792"
"$GPGGA,165451,2424.0350,N,08125.1996,W,1,9,2.0,11,"
"##MN-00 00 49 0141 02178 5512 450874 351467 201"
"156.704838"
"$GPGGA,165455,2424.0336,N,08125.1987,W,1,9,2.0,11,"
"##MN-00 00 48 0142 02183 5511 451446 351608 201"
"156.704884"
"$GPGGA,165459,2424.0319,N,08125.1978,W,1,9,2.0,11,"
"##MN-00 00 48 0142 02186 5511 451857 351738 201"
"156.704931"
"$GPGGA,165503,2424.0303,N,08125.1970,W,1,9,2.0,11,"
"##MN-00 00 48 0143 02194 5511 452503 351969 201"
"156.704977"
"$GPGGA,165507,2424.0289,N,08125.1962,W,1,9,2.0,11,"
"##MN-00 00 49 0144 02197 5510 452867 352098 201"
"156.705023"
"$GPGGA,165511,2424.0273,N,08125.1955,W,1,9,2.0,12,"
"##MN-00 00 48 0144 02200 5510 453138 352185 201"
"156.705069"
"$GPGGA,165515,2424.0257,N,08125.1947,W,1,9,2.0,12,"
"##MN-00 00 49 0145 02202 5509 453614 352330 201"
"156.705116"
"$GPGGA,165519,2424.0240,N,08125.1939,W,1,9,2.0,12,"
"##MN-00 00 49 0145 02209 5509 453923 352488 201"
"156.705162"
"$GPGGA,165523,2424.0225,N,08125.1931,W,1,9,2.0,12,"
"##MN-00 00 47 0146 02212 5508 454210 352575 201"
"156.705208"
"$GPGGA,165527,2424.0210,N,08125.1924,W,1,9,2.0,12,"
"##MN-00 00 46 0147 02218 5507 454771 352704 201"
"156.705255"
"$GPGGA,165531,2424.0195,N,08125.1915,W,1,9,2.0,12,"
"##MN-00 00 46 0147 02220 5507 455321 352840 201"
"156.705301"
"$GPGGA,165535,2424.0179,N,08125.1907,W,1,9,2.0,12,"
"##MN-00 00 47 0148 02223 5506 455518 352900 201"
"156.705347"
"$GPGGA,165539,2424.0164,N,08125.1899,W,1,9,2.0,12,"
"##MN-00 00 48 0149 02228 5505 455688 352998 201"
"156.705394"
"$GPGGA,165543,2424.0148,N,08125.1892,W,1,9,2.0,12,"
"##MN-00 00 48 0149 02233 5505 455934 353076 201"
"156.70544"
"$GPGGA,165547,2424.0132,N,08125.1884,W,1,9,2.0,12,"
"##MN-00 00 49 0150 02237 5504 456289 353174 201"
"156.705486"
"$GPGGA,165551,2424.0119,N,08125.1876,W,1,9,1.9,12,"
"##MN-00 00 47 0150 02241 5503 456436 353210 201"
"156.705532"
"$GPGGA,165555,2424.0106,N,08125.1867,W,1,9,1.9,12,"
"##MN-00 00 46 0151 02243 5503 456558 353247 201"
"156.705579"
"$GPGGA,165559,2424.0091,N,08125.1859,W,1,9,1.9,13,"
"##MN-00 00 48 0152 02248 5502 456577 353250 201"
"156.705625"
"$GPGGA,165603,2424.0076,N,08125.1851,W,1,9,1.9,13,"
"##MN-00 00 49 0152 02251 5501 456646 353299 201"
"156.705671"
"$GPGGA,165607,2424.0061,N,08125.1843,W,1,9,1.9,13,"
"##MN-00 00 49 0153 02253 5500 456845 353365 201"
"156.705718"
"$GPGGA,165611,2424.0045,N,08125.1834,W,1,9,1.9,13,"
"##MN-00 00 48 0154 02257 5500 457202 353562 201"
"156.705764"
"$GPGGA,165615,2424.0030,N,08125.1825,W,1,9,1.9,13,"
"##MN-00 00 49 0154 02262 5499 457604 353619 201"
"156.70581"
"$GPGGA,165619,2424.0014,N,08125.1817,W,1,9,1.9,13,"
"##MN-00 00 48 0155 02266 5499 457894 353729 201"
"156.705856"
"$GPGGA,165623,2423.9998,N,08125.1809,W,1,9,1.9,13,"
"##MN-00 00 49 0155 02269 5498 458189 353852 201"
"156.705903"
"$GPGGA,165627,2423.9983,N,08125.1800,W,1,9,1.9,13,"
"##MN-00 00 49 0156 02270 5497 458696 354052 201"
"156.705949"
"$GPGGA,165631,2423.9966,N,08125.1791,W,1,9,1.9,13,"
"##MN-00 00 50 0157 02274 5496 459449 354338 201"
"156.705995"
"$GPGGA,165635,2423.9950,N,08125.1783,W,1,9,1.9,13,"
"##MN-00 00 49 0157 02277 5495 460243 354587 201"
"156.706042"
"$GPGGA,165639,2423.9933,N,08125.1777,W,1,8,3.3,13,"
"##MN-00 00 48 0158 02283 5494 460627 354605 201"
"156.706088"
"$GPGGA,165643,2423.9917,N,08125.1770,W,1,9,1.9,14,"
"##MN-00 00 49 0159 02282 5493 460901 354701 201"
"156.706134"
"$GPGGA,165647,2423.9900,N,08125.1761,W,1,9,1.9,14,"
"##MN-00 00 49 0159 02285 5492 460979 354741 201"
"156.706181"
"$GPGGA,165651,2423.9884,N,08125.1753,W,1,9,1.9,14,"
"##MN-00 00 49 0160 02290 5492 461116 354817 201"
"156.706227"
"$GPGGA,165655,2423.9868,N,08125.1745,W,1,9,1.9,14,"
"##MN-00 00 50 0161 02294 5491 461251 354860 201"
"156.706273"
"$GPGGA,165659,2423.9852,N,08125.1737,W,1,9,1.9,14,"
"##MN-00 00 49 0161 02295 5490 461572 354969 201"
"156.706319"
"$GPGGA,165703,2423.9836,N,08125.1728,W,1,9,1.9,15,"
"##MN-00 00 49 0162 02298 5489 461824 355033 201"
"156.706366"
"$GPGGA,165707,2423.9821,N,08125.1719,W,1,9,1.9,15,"
"##MN-00 00 50 0163 02302 5488 461932 355069 201"
"156.706412"
"$GPGGA,165711,2423.9805,N,08125.1711,W,1,9,1.9,15,"
"##MN-00 00 49 0163 02307 5487 462115 355107 201"
"156.706458"
"$GPGGA,165715,2423.9790,N,08125.1702,W,1,9,1.9,15,"
"##MN-00 00 47 0164 02306 5486 462414 355245 201"
"156.706505"
"$GPGGA,165719,2423.9776,N,08125.1692,W,1,9,1.9,15,"
"##MN-00 00 47 0165 02302 5485 462445 355236 201"
"156.706551"
"$GPGGA,165723,2423.9760,N,08125.1683,W,1,9,1.9,15,"
"##MN-00 00 46 0165 02301 5484 462315 355200 201"
"156.706597"
"$GPGGA,165727,2423.9747,N,08125.1674,W,1,9,1.9,15,"
"##MN-00 00 48 0166 02299 5483 462257 355184 201"
"156.706644"
"$GPGGA,165731,2423.9731,N,08125.1665,W,1,9,1.9,15,"
"##MN-00 00 48 0167 02300 5482 462224 355174 201"
"156.70669"
"$GPGGA,165735,2423.9717,N,08125.1658,W,1,9,1.9,15,"
"##MN-00 00 48 0168 02299 5481 462217 355169 201"
"156.706736"
"$GPGGA,165739,2423.9702,N,08125.1650,W,1,9,1.9,15,"
"##MN-00 00 49 0168 02298 5480 462205 355171 201"
"156.706782"
"$GPGGA,165743,2423.9688,N,08125.1643,W,1,9,1.9,15,"
"##MN-00 00 49 0169 02299 5479 462211 355176 201"
"156.706829"
"$GPGGA,165747,2423.9673,N,08125.1635,W,1,9,1.9,15,"
"##MN-00 00 48 0170 02299 5478 462229 355179 201"
"156.706875"
"$GPGGA,165751,2423.9659,N,08125.1628,W,1,9,1.9,15,"
"##MN-00 00 48 0171 02297 5477 462233 355177 201"
"156.706921"
"$GPGGA,165755,2423.9646,N,08125.1622,W,1,9,1.9,15,"
"##MN-00 00 48 0171 02301 5475 462231 355177 201"
"156.706968"
"$GPGGA,165759,2423.9632,N,08125.1614,W,1,9,1.9,15,"
"##MN-00 00 50 0172 02300 5474 462248 355190 201"
"156.707014"
"$GPGGA,165803,2423.9617,N,08125.1608,W,1,9,1.9,15,"
"##MN-00 00 49 0173 02298 5473 462282 355195 201"
"156.70706"
"$GPGGA,165807,2423.9604,N,08125.1602,W,1,9,1.9,15,"
"##MN-00 00 49 0174 02298 5472 462300 355200 201"
"156.707118"
"$GPGGA,165811,2423.9590,N,08125.1596,W,1,9,1.9,15,"
"##MN-00 00 49 0174 02298 5471 462303 355200 201"
"156.707164"
"$GPGGA,165815,2423.9575,N,08125.1590,W,1,9,1.9,14,"
"##MN-00 00 48 0175 02294 5470 462268 355190 201"
"156.707211"
"$GPGGA,165819,2423.9560,N,08125.1585,W,1,9,1.9,14,"
"##MN-00 00 46 0176 02291 5469 462224 355178 201"
"156.707257"
"$GPGGA,165823,2423.9545,N,08125.1580,W,1,9,1.9,14,"
"##MN-00 00 48 0177 02288 5468 462165 355163 201"
"156.707303"
"$GPGGA,165827,2423.9529,N,08125.1576,W,1,9,1.9,14,"
"##MN-00 00 48 0178 02285 5466 462061 355148 201"
"156.70735"
"$GPGGA,165831,2423.9512,N,08125.1571,W,1,9,1.9,14,"
"##MN-00 00 48 0178 02285 5465 461909 355104 201"
"156.707396"
"$GPGGA,165835,2423.9496,N,08125.1567,W,1,9,1.9,14,"
"##MN-00 00 49 0179 02280 5464 461694 355084 201"
"156.707442"
"$GPGGA,165839,2423.9480,N,08125.1562,W,1,9,1.9,13,"
"##MN-00 00 49 0180 02279 5463 461621 355031 201"
"156.707488"
"$GPGGA,165843,2423.9462,N,08125.1558,W,1,9,1.9,13,"
"##MN-00 00 50 0181 02281 5461 461531 354982 201"
"156.707535"
"$GPGGA,165848,2423.9440,N,08125.1552,W,1,9,1.9,13,"
"##MN-00 00 52 0182 02280 5460 461498 354948 201"
"156.707581"
"$GPGGA,165851,2423.9427,N,08125.1549,W,1,9,1.9,13,"
"##MN-00 00 51 0183 02279 5459 461498 354958 201"
"156.707627"
"$GPGGA,165855,2423.9411,N,08125.1545,W,1,9,1.9,13,"
"##MN-00 00 52 0183 02280 5458 461499 354952 201"
"156.707674"
"$GPGGA,165859,2423.9393,N,08125.1541,W,1,9,1.9,13,"
"##MN-00 00 51 0184 02281 5456 461511 354950 201"
"156.70772"
"$GPGGA,165903,2423.9375,N,08125.1537,W,1,9,1.9,13,"
"##MN-00 00 51 0185 02280 5455 461509 354948 201"
"156.707766"
"$GPGGA,165907,2423.9357,N,08125.1533,W,1,9,1.9,13,"
"##MN-00 00 52 0186 02282 5454 461514 354950 201"
"156.707812"
"$GPGGA,165912,2423.9335,N,08125.1528,W,1,9,1.9,13,"
"##MN-00 00 51 0187 02280 5452 461520 354949 201"
"156.707859"
"$GPGGA,165916,2423.9318,N,08125.1525,W,1,9,1.9,13,"
"##MN-00 00 51 0188 02278 5451 461523 354950 201"
"156.707905"
"$GPGGA,165919,2423.9304,N,08125.1522,W,1,9,1.9,13,"
"##MN-00 00 52 0188 02278 5450 461523 354949 201"
"156.707951"
"$GPGGA,165924,2423.9282,N,08125.1517,W,1,9,1.9,13,"
"##MN-00 00 52 0189 02280 5448 461518 354946 201"
"156.707998"
"$GPGGA,165928,2423.9264,N,08125.1513,W,1,9,1.9,12,"
"##MN-00 00 52 0190 02281 5447 461512 354943 201"
"156.708044"
"$GPGGA,165932,2423.9245,N,08125.1509,W,1,9,1.9,12,"
"##MN-00 00 52 0191 02284 5446 461486 354941 201"
"156.70809"
"$GPGGA,165936,2423.9227,N,08125.1506,W,1,9,1.9,12,"
"##MN-00 00 53 0192 02285 5445 461470 354934 201"
"156.708137"
"$GPGGA,165940,2423.9209,N,08125.1504,W,1,9,1.9,12,"
"##MN-00 00 53 0193 02285 5443 461478 354933 201"
"156.708183"
"$GPGGA,165944,2423.9191,N,08125.1501,W,1,9,1.9,12,"
"##MN-00 00 53 0194 02285 5442 461502 354934 201"
"156.708229"
"$GPGGA,165948,2423.9173,N,08125.1498,W,1,9,1.9,12,"
"##MN-00 00 54 0195 02289 5441 461528 354939 201"
"156.708275"
"$GPGGA,165952,2423.9153,N,08125.1496,W,1,9,1.9,12,"
"##MN-00 00 52 0195 02290 5439 461565 354947 201"
"156.708322"
"$GPGGA,165956,2423.9137,N,08125.1492,W,1,9,1.9,12,"
"##MN-00 00 54 0196 02289 5438 461592 354953 201"
"156.708368"
"$GPGGA,170000,2423.9116,N,08125.1489,W,1,9,1.9,12,"
"##MN-00 00 54 0197 02292 5437 461620 354965 201"
"156.708414"
"$GPGGA,170004,2423.9098,N,08125.1486,W,1,9,1.9,12,"
"##MN-00 00 53 0198 02295 5435 461677 354978 201"
"156.708461"
"$GPGGA,170008,2423.9081,N,08125.1483,W,1,9,1.9,12,"
"##MN-00 00 53 0199 02296 5434 461764 355011 201"
"156.708507"
"$GPGGA,170012,2423.9062,N,08125.1481,W,1,9,1.9,12,"
"##MN-00 00 53 0200 02295 5432 461786 355021 201"
"156.708553"
"$GPGGA,170016,2423.9050,N,08125.1479,W,1,9,1.9,12,"
"##MN-00 00 54 0201 02296 5431 461812 355030 201"
"156.7086"
"$GPGGA,170020,2423.9026,N,08125.1476,W,1,9,1.9,12,"
"##MN-00 00 55 0201 02297 5430 461860 355040 201"
"156.708646"
"$GPGGA,170024,2423.9008,N,08125.1474,W,1,9,1.9,12,"
"##MN-00 00 55 0202 02299 5429 461891 355055 201"
"156.708692"
"$GPGGA,170028,2423.8990,N,08125.1474,W,1,9,1.9,12,"
"##MN-00 00 55 0203 02300 5427 461926 355066 201"
"156.708738"
"$GPGGA,170032,2423.8974,N,08125.1471,W,1,9,1.9,12,"
"##MN-00 00 56 0204 02305 5426 461936 355073 201"
"156.708785"
"$GPGGA,170036,2423.8956,N,08125.1469,W,1,9,1.9,12,"
"##MN-00 00 54 0205 02306 5425 462018 355089 201"
"156.708831"
"$GPGGA,170040,2423.8939,N,08125.1467,W,1,9,1.9,11,"
"##MN-00 00 54 0206 02301 5423 462069 355107 201"
"156.708877"
"$GPGGA,170044,2423.8922,N,08125.1466,W,1,9,1.9,11,"
"##MN-00 00 55 0207 02301 5422 462017 355108 201"
"156.708924"
"$GPGGA,170048,2423.8905,N,08125.1467,W,1,9,1.9,11,"
"##MN-00 00 54 0208 02301 5420 461956 355093 201"
"156.70897"
"$GPGGA,170052,2423.8889,N,08125.1465,W,1,9,1.9,11,"
"##MN-00 00 54 0209 02299 5419 461898 355081 201"
"156.709016"
"$GPGGA,170056,2423.8871,N,08125.1463,W,1,9,1.9,11,"
"##MN-00 00 55 0210 02297 5418 461849 355071 201"
"156.709062"
"$GPGGA,170100,2423.8855,N,08125.1461,W,1,9,1.9,11,"
"##MN-00 00 54 0211 02296 5416 461806 355045 201"
"156.709109"
"$GPGGA,170104,2423.8838,N,08125.1459,W,1,9,1.9,11,"
"##MN-00 00 54 0212 02295 5415 461752 355037 201"
"156.709155"
"$GPGGA,170108,2423.8822,N,08125.1457,W,1,9,1.9,11,"
"##MN-00 00 57 0212 02299 5413 461719 355021 201"
"156.709201"
"$GPGGA,170112,2423.8805,N,08125.1456,W,1,9,1.9,11,"
"##MN-00 00 55 0213 02299 5412 461720 355019 201"
"156.709248"
"$GPGGA,170116,2423.8790,N,08125.1456,W,1,9,1.9,11,"
"##MN-00 00 55 0214 02297 5411 461739 355018 201"
"156.709294"
"$GPGGA,170120,2423.8773,N,08125.1454,W,1,9,1.9,10,"
"##MN-00 00 55 0215 02300 5409 461741 355020 201"
"156.70934"
"$GPGGA,170124,2423.8757,N,08125.1452,W,1,9,1.9,10,"
"##MN-00 00 55 0216 02298 5408 461750 355021 201"
"156.709387"
"$GPGGA,170128,2423.8741,N,08125.1452,W,1,9,1.9,10,"
"##MN-00 00 55 0217 02302 5406 461743 355019 201"
"156.709433"
"$GPGGA,170132,2423.8725,N,08125.1452,W,1,9,1.9,10,"
"##MN-00 00 55 0218 02299 5405 461744 355018 201"
"156.709479"
"$GPGGA,170136,2423.8708,N,08125.1450,W,1,9,1.9,11,"
"##MN-00 00 57 0219 02299 5404 461744 355017 201"
"156.709525"
"$GPGGA,170140,2423.8691,N,08125.1450,W,1,9,1.9,11,"
"##MN-00 00 55 0220 02301 5402 461749 355017 201"
"156.709572"
"$GPGGA,170144,2423.8675,N,08125.1449,W,1,9,1.9,11,"
"##MN-00 00 54 0221 02302 5401 461755 355018 201"
"156.709618"
"$GPGGA,170148,2423.8660,N,08125.1448,W,1,9,1.9,11,"
"##MN-00 00 54 0222 02299 5400 461762 355020 201"
"156.709664"
"$GPGGA,170152,2423.8643,N,08125.1448,W,1,9,1.9,11,"
"##MN-00 00 56 0223 02303 5398 461764 355024 201"
"156.709711"
"$GPGGA,170156,2423.8628,N,08125.1449,W,1,9,1.9,11,"
"##MN-00 00 55 0224 02300 5397 461744 355018 201"
"156.709757"
"$GPGGA,170200,2423.8613,N,08125.1450,W,1,9,1.9,11,"
"##MN-00 00 55 0225 02305 5395 461744 355015 201"
"156.709803"
"$GPGGA,170204,2423.8597,N,08125.1450,W,1,9,1.9,11,"
"##MN-00 00 54 0226 02303 5394 461766 355016 201"
"156.70985"
"$GPGGA,170208,2423.8581,N,08125.1450,W,1,9,1.9,12,"
"##MN+00 00 56 0227 02301 5393 461754 355018 201"
"156.709896"
"$GPGGA,170212,2423.8566,N,08125.1451,W,1,9,1.9,12,"
"##MN+00 00 55 0228 02298 5391 461701 355004 201"
"156.709942"
"$GPGGA,170216,2423.8550,N,08125.1451,W,1,9,1.9,12,"
"##MN+00 00 57 0229 02298 5390 461658 354993 201"
"156.709988"
"$GPGGA,170220,2423.8535,N,08125.1452,W,1,9,1.9,12,"
"##MN-00 00 55 0230 02299 5388 461614 354981 199"
"156.710035"
"$GPGGA,170224,2423.8519,N,08125.1452,W,1,9,1.9,12,"
"##MN+00 00 55 0231 02299 5387 461602 354974 199"
"156.710081"
"$GPGGA,170228,2423.8504,N,08125.1453,W,1,9,1.9,12,"
"##MN+00 00 56 0232 02299 5386 461632 354978 199"
"156.710127"
"$GPGGA,170232,2423.8488,N,08125.1454,W,1,9,1.9,12,"
"##MN+00 00 55 0233 02298 5385 461663 354989 199"
"156.710174"
"$GPGGA,170236,2423.8473,N,08125.1454,W,1,9,1.9,12,"
"##MN-00 00 66 0234 02299 5383 461666 354988 201"
"156.71022"
"$GPGGA,170240,2423.8456,N,08125.1454,W,1,9,1.9,12,"
"##MN-00 00 61 0235 02295 5382 461669 354991 201"
"156.710266"
"$GPGGA,170244,2423.8439,N,08125.1454,W,1,9,1.9,12,"
"##MN-00 00 58 0236 02294 5381 461647 354987 201"
"156.710313"
"$GPGGA,170248,2423.8420,N,08125.1454,W,1,9,1.9,12,"
"##MN-00 00 57 0237 02293 5379 461540 354967 201"
"156.71037"
"#increment_net"
"$GPGGA,170252,2423.8403,N,08125.1454,W,1,9,1.9,12,"
"##MN+00 00 57 0238 02292 5377 461419 354939 201"
"156.710417"
"$GPGGA,170256,2423.8385,N,08125.1453,W,1,9,1.9,12,"
"##MN+00 00 57 0239 02288 5376 461282 354902 200"
"156.710463"
"$GPGGA,170300,2423.8367,N,08125.1451,W,1,9,1.9,12,"
"##MN+00 00 58 0240 02288 5375 461112 354869 199"
"156.710509"
"$GPGGA,170304,2423.8347,N,08125.1451,W,1,9,1.9,12,"
"##MN-00 00 58 0241 02288 5374 460954 354819 201"
"156.710556"
"$GPGGA,170308,2423.8328,N,08125.1449,W,1,9,1.9,12,"
"##MN-00 00 58 0242 02289 5372 460848 354782 201"
"156.710602"
"$GPGGA,170312,2423.8308,N,08125.1449,W,1,9,1.9,11,"
"##MN-00 00 56 0243 02290 5371 460866 354759 201"
"156.710648"
"$GPGGA,170316,2423.8288,N,08125.1447,W,1,9,1.9,11,"
"##MN-00 00 58 0244 02292 5369 461006 354768 201"
"156.710694"
"$GPGGA,170320,2423.8268,N,08125.1446,W,1,9,1.9,11,"
"##MN-00 00 56 0245 02292 5368 461177 354804 201"
"156.710741"
"$GPGGA,170324,2423.8249,N,08125.1446,W,1,9,1.9,11,"
"##MN-00 00 57 0246 02293 5367 461284 354816 201"
"156.710787"
"$GPGGA,170328,2423.8230,N,08125.1444,W,1,9,1.9,11,"
"##MN-00 00 57 0247 02295 5365 461422 354836 201"
"156.710833"
"$GPGGA,170333,2423.8203,N,08125.1443,W,1,9,1.9,11,"
"##MN-00 00 58 0248 02293 5364 461615 354907 201"
"156.71088"
"$GPGGA,170337,2423.8183,N,08125.1442,W,1,9,1.9,11,"
"##MN-00 00 57 0249 02293 5363 461752 354948 201"
"156.710926"
"$GPGGA,170341,2423.8161,N,08125.1439,W,1,9,1.9,11,"
"##MN-00 00 58 0250 02293 5361 461920 354995 201"
"156.710972"
"$GPGGA,170345,2423.8140,N,08125.1438,W,1,9,1.9,11,"
"##MN-00 00 58 0251 02297 5359 462039 355050 201"
"156.711018"
"$GPGGA,170349,2423.8119,N,08125.1436,W,1,9,1.9,11,"
"##MN-00 00 58 0252 02298 5358 462122 355052 201"
"156.711065"
"$GPGGA,170353,2423.8098,N,08125.1433,W,1,9,1.9,11,"
"##MN-00 00 58 0253 02298 5357 462189 355085 201"
"156.711111"
"$GPGGA,170356,2423.8082,N,08125.1431,W,1,9,1.9,11,"
"##MN-00 00 58 0254 02298 5356 462216 355091 201"
"156.711157"
"$GPGGA,170401,2423.8056,N,08125.1426,W,1,9,1.9,11,"
"##MN-00 00 58 0255 02302 5354 462243 355109 201"
"156.711204"
"$GPGGA,170405,2423.8035,N,08125.1423,W,1,9,1.9,11,"
"##MN-00 00 58 0256 02305 5353 462284 355149 201"
"156.71125"
"$GPGGA,170409,2423.8014,N,08125.1420,W,1,9,1.9,11,"
"##MN-00 00 58 0257 02302 5352 462347 355147 201"
"156.711296"
"$GPGGA,170413,2423.7993,N,08125.1417,W,1,9,1.9,11,"
"##MN-00 00 57 0258 02306 5351 462379 355185 201"
"156.711343"
"$GPGGA,170417,2423.7972,N,08125.1413,W,1,9,1.9,11,"
"##MN-00 00 58 0259 02304 5349 462309 355197 201"
"156.711389"
"$GPGGA,170421,2423.7952,N,08125.1409,W,1,9,1.9,11,"
"##MN-00 00 58 0261 02301 5348 462181 355182 201"
"156.711435"
"$GPGGA,170425,2423.7930,N,08125.1403,W,1,9,1.9,12,"
"##MN-00 00 59 0262 02306 5347 462063 355156 201"
"156.711481"
"$GPGGA,170429,2423.7910,N,08125.1398,W,1,9,1.9,12,"
"##MN-00 00 60 0263 02305 5345 461981 355118 201"
"156.711528"
"$GPGGA,170433,2423.7891,N,08125.1393,W,1,8,1.9,12,"
"##MN+00 00 58 0264 02306 5344 461937 355091 201"
"156.711574"
"$GPGGA,170437,2423.7872,N,08125.1388,W,1,9,1.9,12,"
"##MN+00 00 58 0265 02306 5343 461997 355097 201"
"156.71162"
"$GPGGA,170441,2423.7854,N,08125.1381,W,1,9,1.9,12,"
"##MN+00 00 58 0266 02307 5342 462156 355117 199"
"156.711667"
"$GPGGA,170445,2423.7833,N,08125.1375,W,1,9,1.9,12,"
"##MN-00 00 68 0267 02309 5340 462408 355187 201"
"156.711713"
"$GPGGA,170449,2423.7814,N,08125.1368,W,1,9,1.9,12,"
"##MN-00 00 62 0268 02310 5339 462555 355249 201"
"156.711759"
"$GPGGA,170453,2423.7793,N,08125.1361,W,1,9,1.9,12,"
"##MN-00 00 58 0269 02312 5338 462624 355269 201"
"156.711806"
"$GPGGA,170457,2423.7773,N,08125.1353,W,1,9,1.9,12,"
"##MN-00 00 58 0270 02311 5336 462659 355287 201"
"156.711852"
"$GPGGA,170501,2423.7753,N,08125.1345,W,1,9,1.9,12,"
"##MN+00 00 56 0271 02311 5335 462677 355294 201"
"156.711898"
"$GPGGA,170505,2423.7732,N,08125.1335,W,1,9,1.9,12,"
"##MN+00 00 56 0272 02314 5333 462749 355300 200"
"156.711944"
"$GPGGA,170509,2423.7711,N,08125.1325,W,1,9,1.9,12,"
"##MN+00 00 55 0273 02315 5332 463151 355442 200"
"156.711991"
"$GPGGA,170513,2423.7689,N,08125.1315,W,1,9,1.9,12,"
"##MN-00 00 56 0274 02315 5331 463950 355522 200"
"156.712037"
"$GPGGA,170517,2423.7668,N,08125.1306,W,1,9,1.9,12,"
"##MN-00 00 55 0275 02316 5330 464529 355837 200"
"156.712083"
"$GPGGA,170521,2423.7646,N,08125.1298,W,1,9,1.9,12,"
"##MN-00 00 57 0276 02315 5328 464723 355952 200"
"156.71213"
"$GPGGA,170525,2423.7624,N,08125.1291,W,1,9,1.9,12,"
"##MN-00 00 57 0277 02315 5327 464773 355966 200"
"156.712176"
"$GPGGA,170529,2423.7602,N,08125.1284,W,1,9,1.9,12,"
"##MN-00 00 56 0278 02315 5326 464663 355971 200"
"156.712222"
"$GPGGA,170533,2423.7580,N,08125.1278,W,1,9,1.9,12,"
"##MN-00 00 55 0279 02314 5325 464485 355944 200"
"156.712269"
"$GPGGA,170537,2423.7558,N,08125.1270,W,1,9,1.9,12,"
"##MN-00 00 56 0280 02312 5323 463996 355883 200"
"156.712315"
"$GPGGA,170541,2423.7534,N,08125.1262,W,1,9,1.9,12,"
"##MN-00 00 58 0281 02312 5322 463499 355748 200"
"156.712361"
"$GPGGA,170545,2423.7513,N,08125.1255,W,1,9,1.9,12,"
"##MN+00 00 56 0282 02313 5321 463119 355626 200"
"156.712407"
"$GPGGA,170549,2423.7491,N,08125.1248,W,1,9,1.9,12,"
"##MN+00 00 55 0283 02312 5319 462907 355634 200"
"156.712454"
"$GPGGA,170553,2423.7468,N,08125.1242,W,1,9,1.9,12,"
"##MN+00 00 58 0285 02308 5318 462795 355562 201"
"156.7125"
"$GPGGA,170557,2423.7446,N,08125.1236,W,1,9,1.9,12,"
"##MN-00 00 66 0286 02312 5317 462680 355411 201"
"156.712546"
"$GPGGA,170601,2423.7424,N,08125.1230,W,1,9,1.9,12,"
"##MN-00 00 61 0287 02311 5316 462674 355377 201"
"156.712593"
"#increment_net"
"$GPGGA,170605,2423.7402,N,08125.1225,W,1,9,1.9,12,"
"##MN-00 00 56 0288 02312 5315 462659 355360 201"
"156.712639"
"$GPGGA,170609,2423.7381,N,08125.1219,W,1,9,1.9,12,"
"##MN-00 00 55 0289 02312 5313 462624 355345 201"
"156.712685"
"$GPGGA,170613,2423.7357,N,08125.1213,W,1,9,1.9,12,"
"##MN-00 00 56 0290 02312 5312 462583 355315 201"
"156.712732"
"$GPGGA,170617,2423.7334,N,08125.1208,W,1,9,1.9,12,"
"##MN-00 00 57 0291 02310 5310 462535 355304 201"
"156.712778"
"$GPGGA,170621,2423.7312,N,08125.1203,W,1,9,1.9,12,"
"##MN-00 00 56 0292 02310 5309 462513 355286 201"
"156.712824"
"$GPGGA,170625,2423.7291,N,08125.1197,W,1,9,1.9,12,"
"##MN-00 00 57 0293 02311 5308 462472 355274 201"
"156.71287"
"$GPGGA,170629,2423.7269,N,08125.1190,W,1,9,1.9,12,"
"##MN-00 00 57 0295 02310 5306 462458 355265 201"
"156.712917"
"$GPGGA,170633,2423.7247,N,08125.1184,W,1,9,1.9,12,"
"##MN-00 00 57 0296 02309 5306 462418 355271 201"
"156.712963"
"$GPGGA,170637,2423.7224,N,08125.1179,W,1,9,1.9,12,"
"##MN-00 00 58 0297 02309 5304 462351 355253 201"
"156.713009"
"$GPGGA,170641,2423.7201,N,08125.1172,W,1,9,1.6,12,"
"##MN-00 00 57 0298 02308 5302 462262 355225 201"
"156.713056"
"$GPGGA,170645,2423.7179,N,08125.1166,W,1,9,1.6,12,"
"##MN-00 00 60 0299 02308 5301 462189 355197 201"
"156.713102"
"$GPGGA,170649,2423.7157,N,08125.1160,W,1,10,1.6,12"
"##MN-00 00 57 0300 02307 5300 462140 355174 201"
"156.713148"
"$GPGGA,170653,2423.7135,N,08125.1155,W,1,10,1.6,13"
"##MN-00 00 56 0301 02309 5299 462053 355148 201"
"156.713194"
"$GPGGA,170657,2423.7112,N,08125.1150,W,1,10,1.6,13"
"##MN-00 00 57 0303 02310 5298 461964 355118 201"
"156.713241"
"$GPGGA,170701,2423.7090,N,08125.1145,W,1,10,1.6,13"
"##MN-00 00 56 0304 02308 5297 461907 355099 201"
"156.713287"
"$GPGGA,170705,2423.7070,N,08125.1138,W,1,10,1.6,13"
"##MN-00 00 56 0305 02309 5295 461986 355098 201"
"156.713333"
"$GPGGA,170709,2423.7048,N,08125.1133,W,1,10,1.6,13"
"##MN-00 00 58 0306 02309 5294 462011 355116 201"
"156.71338"
"$GPGGA,170713,2423.7027,N,08125.1128,W,1,10,1.6,13"
"##MN-00 00 56 0307 02308 5293 462033 355116 201"
"156.713426"
"$GPGGA,170717,2423.7005,N,08125.1122,W,1,10,1.6,13"
"##MN-00 00 55 0309 02309 5292 462070 355121 201"
"156.713472"
"$GPGGA,170721,2423.6981,N,08125.1115,W,1,10,1.6,13"
"##MN-00 00 56 0310 02306 5291 462048 355119 201"
"156.713519"
"$GPGGA,170725,2423.6959,N,08125.1109,W,1,10,1.6,13"
"##MN-00 00 57 0311 02308 5289 461955 355109 201"
"156.713565"
"$GPGGA,170729,2423.6937,N,08125.1104,W,1,10,1.6,13"
"##MN-00 00 56 0312 02307 5288 461939 355102 201"
"156.713623"
"$GPGGA,170733,2423.6916,N,08125.1099,W,1,10,1.6,13"
"##MN-00 00 58 0313 02307 5287 461979 355105 201"
"156.713669"
"$GPGGA,170737,2423.6894,N,08125.1093,W,1,10,1.5,13"
"##MN+00 00 58 0314 02310 5286 462048 355113 201"
"156.713715"
"$GPGGA,170741,2423.6873,N,08125.1086,W,1,10,1.5,13"
"##MN+00 00 56 0315 02309 5285 462116 355131 201"
"156.713762"
"$GPGGA,170745,2423.6852,N,08125.1082,W,1,10,1.5,13"
"##MN+00 00 57 0317 02311 5283 462180 355148 200"
"156.713808"
"$GPGGA,170749,2423.6832,N,08125.1075,W,1,10,1.5,13"
"##MN-00 00 56 0318 02311 5282 462236 355163 201"
"156.713854"
"$GPGGA,170753,2423.6812,N,08125.1069,W,1,10,1.5,13"
"##MN-00 00 58 0319 02311 5281 462295 355188 201"
"156.7139"
"$GPGGA,170757,2423.6792,N,08125.1064,W,1,10,1.5,13"
"##MN+00 00 57 0320 02313 5280 462389 355205 201"
"156.713947"
"$GPGGA,170801,2423.6772,N,08125.1059,W,1,10,1.5,13"
"##MN+00 00 56 0321 02314 5279 462487 355210 201"
"156.713993"
"$GPGGA,170805,2423.6752,N,08125.1054,W,1,10,1.5,13"
"##MN+00 00 56 0322 02316 5277 462536 355234 201"
"156.714039"
"$GPGGA,170809,2423.6732,N,08125.1049,W,1,10,1.5,13"
"##MN-00 00 64 0323 02318 5276 462624 355280 200"
"156.714086"
"$GPGGA,170813,2423.6712,N,08125.1046,W,1,10,1.5,13"
"##MN-00 00 60 0324 02317 5275 462729 355317 200"
"156.714132"
"#increment_net"
"$GPGGA,170817,2423.6691,N,08125.1042,W,1,10,1.5,13"
"##MN-00 00 58 0326 02319 5274 462793 355333 200"
"156.714178"
"$GPGGA,170822,2423.6666,N,08125.1036,W,1,10,1.5,13"
"##MN-00 00 55 0327 02318 5273 462763 355343 200"
"156.714224"
"$GPGGA,170826,2423.6645,N,08125.1032,W,1,10,1.5,13"
"##MN-00 00 54 0328 02318 5272 462707 355335 200"
"156.714271"
"$GPGGA,170830,2423.6626,N,08125.1028,W,1,10,1.5,13"
"##MN-00 00 53 0329 02317 5271 462646 355320 200"
"156.714317"
"$GPGGA,170834,2423.6611,N,08125.1026,W,1,10,1.5,13"
"##MN-00 00 55 0330 02316 5269 462577 355302 200"
"156.714363"
"$GPGGA,170838,2423.6591,N,08125.1022,W,1,10,1.5,13"
"##MN-00 00 55 0331 02314 5268 462527 355284 200"
"156.71441"
"$GPGGA,170842,2423.6568,N,08125.1018,W,1,10,1.5,13"
"##MN-00 00 55 0332 02318 5267 462496 355278 200"
"156.714456"
"$GPGGA,170846,2423.6553,N,08125.1016,W,1,10,1.5,13"
"##MN-00 00 54 0333 02318 5266 462485 355268 200"
"156.714502"
"$GPGGA,170850,2423.6532,N,08125.1011,W,1,9,1.5,13,"
"##MN-00 00 54 0334 02318 5265 462501 355269 200"
"156.714549"
"$GPGGA,170854,2423.6510,N,08125.1007,W,1,10,1.5,13"
"##MN-00 00 54 0335 02318 5264 462506 355273 200"
"156.714595"
"$GPGGA,170858,2423.6489,N,08125.1002,W,1,10,1.5,13"
"##MN-00 00 55 0336 02317 5262 462518 355277 200"
"156.714641"
"$GPGGA,170902,2423.6469,N,08125.0999,W,1,10,1.5,13"
"##MN-00 00 54 0337 02313 5261 462507 355271 200"
"156.714688"
"$GPGGA,170906,2423.6450,N,08125.0995,W,1,10,1.5,13"
"##MN-00 00 54 0339 02316 5260 462462 355263 200"
"156.714734"
"$GPGGA,170910,2423.6431,N,08125.0994,W,1,10,1.5,13"
"##MN-00 00 54 0340 02316 5259 462440 355255 200"
"156.71478"
"$GPGGA,170914,2423.6410,N,08125.0990,W,1,10,1.5,14"
"##MN-00 00 54 0341 02315 5258 462410 355241 200"
"156.714826"
"$GPGGA,170918,2423.6391,N,08125.0987,W,1,10,1.6,14"
"##MN-00 00 54 0342 02318 5257 462384 355236 200"
"156.714873"
"$GPGGA,170922,2423.6373,N,08125.0986,W,1,10,1.5,14"
"##MN-00 00 53 0343 02314 5256 462363 355232 200"
"156.714919"
"$GPGGA,170926,2423.6355,N,08125.0982,W,1,10,1.5,14"
"##MN-00 00 55 0344 02315 5254 462339 355224 200"
"156.714965"
"$GPGGA,170930,2423.6337,N,08125.0981,W,1,9,1.5,15,"
"##MN-00 00 56 0345 02313 5253 462316 355216 200"
"156.715012"
"$GPGGA,170934,2423.6317,N,08125.0980,W,1,10,1.5,15"
"##MN-00 00 55 0346 02315 5252 462324 355215 200"
"156.715058"
"$GPGGA,170938,2423.6299,N,08125.0979,W,1,10,1.5,15"
"##MN-00 00 54 0348 02314 5251 462373 355223 200"
"156.715104"
"$GPGGA,170942,2423.6284,N,08125.0979,W,1,10,1.5,15"
"##MN-00 00 55 0349 02312 5250 462387 355229 200"
"156.71515"
"$GPGGA,170946,2423.6264,N,08125.0979,W,1,9,1.5,15,"
"##MN+00 00 55 0350 02315 5249 462394 355230 200"
"156.715197"
"$GPGGA,170950,2423.6247,N,08125.0979,W,1,10,1.5,15"
"##MN+00 00 55 0351 02311 5248 462409 355232 200"
"156.715243"
"$GPGGA,170954,2423.6230,N,08125.0978,W,1,10,1.5,15"
"##MN+00 00 55 0352 02313 5247 462407 355233 201"
"156.715289"
"$GPGGA,170958,2423.6210,N,08125.0977,W,1,10,1.5,15"
"##MN-00 00 56 0353 02311 5246 462383 355234 201"
"156.715336"
"$GPGGA,171002,2423.6194,N,08125.0977,W,1,10,1.5,15"
"##MN-00 00 54 0354 02309 5245 462344 355223 201"
"156.715382"
"$GPGGA,171006,2423.6176,N,08125.0978,W,1,10,1.5,14"
"##MN-00 00 55 0356 02310 5243 462274 355217 201"
"156.715428"
"$GPGGA,171010,2423.6157,N,08125.0977,W,1,10,1.5,14"
"##MN+00 00 55 0357 02310 5243 462226 355202 201"
"156.715475"
"$GPGGA,171014,2423.6139,N,08125.0977,W,1,10,1.5,14"
"##MN+00 00 54 0358 02307 5242 462168 355186 200"
"156.715521"
"$GPGGA,171018,2423.6121,N,08125.0977,W,1,10,1.5,14"
"##MN+00 00 55 0359 02305 5240 462062 355149 200"
"156.715567"
"$GPGGA,171022,2423.6105,N,08125.0979,W,1,10,1.5,14"
"##MN-00 00 67 0360 02311 5239 461890 355109 201"
"156.715613"
"$GPGGA,171026,2423.6087,N,08125.0979,W,1,9,1.6,14,"
"##MN-00 00 63 0361 02310 5239 461851 355090 201"
"156.71566"
"#increment_net"
"$GPGGA,171030,2423.6069,N,08125.0980,W,1,9,1.6,13,"
"##MN-00 00 60 0363 02313 5238 461943 355093 201"
"156.715706"
"$GPGGA,171034,2423.6051,N,08125.0980,W,1,9,1.6,13,"
"##MN-00 00 58 0364 02321 5236 462080 355121 201"
"156.715752"
"$GPGGA,171038,2423.6034,N,08125.0983,W,1,8,1.6,13,"
"##MN-00 00 60 0366 02323 5235 462314 355171 201"
"156.715799"
"$GPGGA,171042,2423.6013,N,08125.0986,W,1,10,1.5,13"
"##MN-00 00 60 0367 02324 5234 462605 355274 201"
"156.715845"
"$GPGGA,171046,2423.5994,N,08125.0988,W,1,10,1.5,13"
"##MN-00 00 59 0369 02330 5233 462812 355330 201"
"156.715891"
"$GPGGA,171050,2423.5975,N,08125.0991,W,1,10,1.5,13"
"##MN-00 00 60 0370 02331 5232 463016 355411 201"
"156.715938"
"$GPGGA,171054,2423.5954,N,08125.0994,W,1,10,1.5,13"
"##MN-00 00 61 0371 02331 5231 463678 355499 201"
"156.715984"
"$GPGGA,171058,2423.5932,N,08125.0997,W,1,10,1.5,13"
"##MN-00 00 58 0373 02334 5230 464554 355820 201"
"156.71603"
"$GPGGA,171102,2423.5910,N,08125.0998,W,1,10,1.5,13"
"##MN-00 00 60 0374 02336 5229 464854 355932 201"
"156.716076"
"$GPGGA,171106,2423.5887,N,08125.0998,W,1,10,1.5,13"
"##MN-00 00 59 0376 02334 5228 465009 356034 201"
"156.716123"
"$GPGGA,171110,2423.5863,N,08125.0998,W,1,10,1.6,13"
"##MN-00 00 60 0377 02334 5227 465034 356078 201"
"156.716169"
"$GPGGA,171114,2423.5842,N,08125.0998,W,1,10,1.5,13"
"##MN-00 00 59 0379 02334 5226 465060 356091 201"
"156.716215"
"$GPGGA,171118,2423.5820,N,08125.0998,W,1,10,1.5,13"
"##MN-00 00 60 0380 02334 5225 465025 356090 201"
"156.716262"
"$GPGGA,171122,2423.5796,N,08125.0999,W,1,10,1.5,13"
"##MN-00 00 58 0382 02336 5224 464953 356080 201"
"156.716308"
"$GPGGA,171126,2423.5773,N,08125.1000,W,1,10,1.5,13"
"##MN-00 00 58 0383 02341 5223 464906 356065 201"
"156.716354"
"$GPGGA,171130,2423.5750,N,08125.1001,W,1,10,1.5,13"
"##MN-00 00 58 0384 02340 5222 464885 356060 201"
"156.7164"
"$GPGGA,171134,2423.5728,N,08125.0998,W,1,10,1.5,13"
"##MN-00 00 58 0386 02343 5221 464882 356061 201"
"156.716447"
"$GPGGA,171138,2423.5705,N,08125.0994,W,1,10,1.5,13"
"##MN-00 00 57 0387 02345 5220 464886 356059 201"
"156.716493"
"$GPGGA,171142,2423.5683,N,08125.0991,W,1,10,1.5,13"
"##MN+00 00 57 0389 02349 5219 465030 356076 201"
"156.716539"
"$GPGGA,171146,2423.5661,N,08125.0986,W,1,10,1.5,13"
"##MN+00 00 59 0390 02347 5218 465475 356164 200"
"156.716586"
"$GPGGA,171150,2423.5638,N,08125.0980,W,1,10,1.5,13"
"##MN+00 00 58 0392 02347 5217 465981 356345 201"
"156.716632"
"$GPGGA,171154,2423.5616,N,08125.0973,W,1,10,1.5,13"
"##MN-00 00 56 0393 02348 5215 465931 356366 201"
"156.716678"
"$GPGGA,171158,2423.5596,N,08125.0966,W,1,10,1.5,13"
"##MN-00 00 57 0394 02347 5214 465611 356308 201"
"156.716725"
"$GPGGA,171202,2423.5572,N,08125.0958,W,1,10,1.5,13"
"##MN+00 00 57 0396 02347 5214 465218 356229 201"
"156.716771"
"$GPGGA,171206,2423.5550,N,08125.0949,W,1,10,1.5,14"
"##MN+00 00 56 0397 02349 5212 465016 356153 200"
"156.716817"
"$GPGGA,171210,2423.5531,N,08125.0939,W,1,10,1.6,14"
"##MN+00 00 56 0398 02352 5212 465032 356137 200"
"156.716875"
"$GPGGA,171214,2423.5509,N,08125.0931,W,1,10,1.5,14"
"##MN-00 00 54 0400 02357 5211 465443 356203 200"
"156.716921"
"$GPGGA,171218,2423.5488,N,08125.0923,W,1,10,1.5,14"
"##MN-00 00 54 0401 02359 5210 466873 356659 201"
"156.716968"
"$GPGGA,171222,2423.5466,N,08125.0915,W,1,9,1.6,14,"
"##MN-00 00 57 0402 02362 5209 469154 357268 201"
"156.717014"
"$GPGGA,171226,2423.5445,N,08125.0906,W,1,10,1.5,14"
"##MN-00 00 57 0404 02363 5207 471101 357835 201"
"156.71706"
"$GPGGA,171230,2423.5423,N,08125.0896,W,1,9,1.5,14,"
"##MN+00 00 56 0405 02367 5207 473078 358296 201"
"156.717107"
"$GPGGA,171234,2423.5401,N,08125.0886,W,1,10,1.5,14"
"##MN+00 00 55 0406 02371 5206 474456 358782 200"
"156.717153"
"$GPGGA,171238,2423.5380,N,08125.0874,W,1,10,1.5,14"
"##MN+00 00 57 0408 02373 5205 475795 358862 200"
"156.717199"
"$GPGGA,171242,2423.5359,N,08125.0864,W,1,10,1.5,14"
"##MN-00 00 55 0409 02377 5204 477854 359486 200"
"156.717245"
"$GPGGA,171246,2423.5338,N,08125.0853,W,1,10,1.5,15"
"##MN-00 00 55 0410 02378 5203 478818 360286 200"
"156.717292"
"$GPGGA,171251,2423.5312,N,08125.0837,W,1,10,1.5,15"
"##MN-00 00 55 0412 02379 5202 479544 360667 200"
"156.717338"
"$GPGGA,171255,2423.5293,N,08125.0823,W,1,10,1.5,15"
"##MN+00 00 54 0413 02381 5201 480481 360759 200"
"156.717384"
"$GPGGA,171259,2423.5271,N,08125.0808,W,1,10,1.5,15"
"##MN+00 00 53 0414 02384 5200 481087 361079 200"
"156.717431"
"$GPGGA,171303,2423.5251,N,08125.0795,W,1,10,1.5,15"
"##MN+00 00 54 0415 02388 5198 481585 361164 200"
"156.717477"
"#increment_net"
"$GPGGA,171306,2423.5235,N,08125.0785,W,1,10,1.5,15"
"##MN-00 00 54 0417 02389 5197 482206 361306 200"
"156.717523"
"$GPGGA,171311,2423.5210,N,08125.0767,W,1,10,1.5,15"
"##MN-00 00 53 0418 02393 5196 482755 361657 200"
"156.717569"
"$GPGGA,171315,2423.5188,N,08125.0752,W,1,10,1.5,15"
"##MN-00 00 53 0419 02393 5195 483108 361762 200"
"156.717616"
"$GPGGA,171319,2423.5168,N,08125.0736,W,1,10,1.5,15"
"##MN-00 00 54 0421 02392 5194 483508 361977 200"
"156.717662"
"$GPGGA,171323,2423.5148,N,08125.0721,W,1,10,1.5,15"
"##MN-00 00 53 0422 02395 5193 483804 362076 200"
"156.717708"
"$GPGGA,171327,2423.5125,N,08125.0705,W,1,10,1.5,15"
"##MN-00 00 52 0423 02398 5192 483933 362130 200"
"156.717755"
"$GPGGA,171331,2423.5105,N,08125.0690,W,1,10,1.5,15"
"##MN-00 00 52 0424 02400 5190 484089 362209 200"
"156.717801"
"$GPGGA,171335,2423.5083,N,08125.0674,W,1,10,1.5,15"
"##MN-00 00 53 0426 02401 5189 484206 362233 200"
"156.717847"
"$GPGGA,171339,2423.5062,N,08125.0659,W,1,10,1.5,14"
"##MN-00 00 52 0427 02405 5188 484333 362285 200"
"156.717894"
"$GPGGA,171343,2423.5041,N,08125.0644,W,1,10,1.5,14"
"##MN-00 00 51 0428 02404 5187 484433 362310 200"
"156.71794"
"$GPGGA,171347,2423.5019,N,08125.0629,W,1,10,1.5,14"
"##MN-00 00 51 0429 02405 5186 484515 362336 200"
"156.717986"
"$GPGGA,171351,2423.4997,N,08125.0615,W,1,10,1.5,14"
"##MN-00 00 52 0431 02406 5184 484558 362362 200"
"156.718032"
"$GPGGA,171355,2423.4975,N,08125.0602,W,1,10,1.5,14"
"##MN-00 00 51 0432 02408 5183 484597 362367 200"
"156.718079"
"$GPGGA,171359,2423.4953,N,08125.0589,W,1,10,1.5,14"
"##MN-00 00 51 0433 02404 5182 484582 362378 200"
"156.718125"
"$GPGGA,171403,2423.4933,N,08125.0576,W,1,10,1.5,14"
"##MN-00 00 52 0435 02404 5180 484543 362372 200"
"156.718171"
"$GPGGA,171407,2423.4912,N,08125.0564,W,1,10,1.5,14"
"##MN-00 00 50 0436 02403 5179 484521 362381 200"
"156.718218"
"$GPGGA,171411,2423.4890,N,08125.0551,W,1,10,1.5,14"
"##MN-00 00 51 0437 02404 5178 484510 362376 200"
"156.718264"
"$GPGGA,171415,2423.4870,N,08125.0538,W,1,10,1.5,14"
"##MN-00 00 52 0438 02402 5176 484434 362368 200"
"156.71831"
"$GPGGA,171419,2423.4848,N,08125.0523,W,1,10,1.5,14"
"##MN-00 00 51 0440 02402 5175 484353 362357 200"
"156.718356"
"$GPGGA,171423,2423.4827,N,08125.0509,W,1,10,1.5,14"
"##MN-00 00 51 0441 02403 5173 484279 362338 200"
"156.718403"
"$GPGGA,171427,2423.4805,N,08125.0494,W,1,10,1.5,14"
"##MN-00 00 51 0442 02402 5172 484228 362314 200"
"156.718449"
"$GPGGA,171431,2423.4781,N,08125.0480,W,1,10,1.5,14"
"##MN-00 00 57 0444 02396 5171 484141 362300 200"
"156.718495"
"$GPGGA,171435,2423.4759,N,08125.0466,W,1,10,1.5,14"
"##MN-00 00 53 0445 02392 5169 483803 362216 200"
"156.718542"
"$GPGGA,171439,2423.4738,N,08125.0454,W,1,10,1.5,14"
"##MN-00 00 55 0446 02385 5168 483191 362063 200"
"156.718588"
"$GPGGA,171443,2423.4717,N,08125.0441,W,1,10,1.5,14"
"##MN-00 00 52 0448 02379 5166 482998 361996 200"
"156.718634"
"$GPGGA,171447,2423.4697,N,08125.0428,W,1,10,1.5,14"
"##MN-00 00 52 0449 02377 5164 482737 361924 200"
"156.718681"
"$GPGGA,171451,2423.4675,N,08125.0414,W,1,10,1.5,13"
"##MN-00 00 52 0451 02375 5163 482358 361859 200"
"156.718727"
"$GPGGA,171455,2423.4654,N,08125.0400,W,1,10,1.5,13"
"##MN-00 00 52 0452 02370 5161 481664 361697 200"
"156.718773"
"$GPGGA,171459,2423.4633,N,08125.0386,W,1,10,1.5,13"
"##MN-00 00 54 0453 02365 5160 480762 361424 200"
"156.718819"
"$GPGGA,171503,2423.4611,N,08125.0372,W,1,10,1.5,13"
"##MN-00 00 53 0455 02359 5158 480068 361207 200"
"156.718866"
"$GPGGA,171507,2423.4590,N,08125.0359,W,1,10,1.5,13"
"##MN-00 00 52 0456 02356 5157 479557 361044 200"
"156.718912"
"$GPGGA,171511,2423.4568,N,08125.0345,W,1,10,1.5,13"
"##MN-00 00 51 0457 02354 5155 479049 360876 200"
"156.718958"
"$GPGGA,171515,2423.4547,N,08125.0331,W,1,10,1.5,13"
"##MN-00 00 50 0459 02350 5154 478281 360698 200"
"156.719005"
"$GPGGA,171519,2423.4525,N,08125.0318,W,1,10,1.5,13"
"##MN-00 00 50 0460 02346 5152 476841 360324 200"
"156.719051"
"$GPGGA,171523,2423.4505,N,08125.0303,W,1,10,1.5,13"
"##MN-00 00 50 0461 02343 5151 475819 360014 200"
"156.719097"
"$GPGGA,171527,2423.4482,N,08125.0289,W,1,10,1.5,13"
"##MN-00 00 50 0463 02339 5149 475155 359745 200"
"156.719144"
"$GPGGA,171531,2423.4460,N,08125.0276,W,1,10,1.5,13"
"##MN-00 00 49 0464 02334 5147 474573 359530 200"
"156.71919"
"$GPGGA,171535,2423.4440,N,08125.0262,W,1,10,1.5,13"
"##MN-00 00 48 0465 02332 5146 473809 359256 200"
"156.719236"
"$GPGGA,171539,2423.4417,N,08125.0248,W,1,10,1.5,13"
"##MN-00 00 48 0467 02328 5144 472727 358919 200"
"156.719282"
"$GPGGA,171543,2423.4395,N,08125.0234,W,1,10,1.5,13"
"##MN-00 00 49 0468 02323 5142 471113 358525 200"
"156.719329"
"$GPGGA,171547,2423.4373,N,08125.0220,W,1,10,1.5,13"
"##MN-00 00 49 0469 02320 5141 469501 358225 200"
"156.719375"
"$GPGGA,171551,2423.4352,N,08125.0207,W,1,10,1.5,13"
"##MN-00 00 48 0471 02316 5139 468467 357786 200"
"156.719421"
"$GPGGA,171555,2423.4332,N,08125.0193,W,1,10,1.5,13"
"##MN-00 00 48 0472 02310 5138 466869 357257 200"
"156.719468"
"$GPGGA,171559,2423.4310,N,08125.0180,W,1,10,1.5,13"
"##MN-00 00 49 0473 02305 5136 465836 356936 200"
"156.719514"
"$GPGGA,171603,2423.4288,N,08125.0166,W,1,10,1.5,13"
"##MN-00 00 49 0475 02299 5134 465312 356631 200"
"156.71956"
"$GPGGA,171607,2423.4267,N,08125.0153,W,1,10,1.5,13"
"##MN-00 00 51 0476 02295 5133 464868 356373 200"
"156.719606"
"$GPGGA,171611,2423.4245,N,08125.0140,W,1,10,1.5,13"
"##MN-00 00 50 0477 02292 5131 464360 356068 200"
"156.719653"
"$GPGGA,171615,2423.4227,N,08125.0125,W,1,10,1.5,13"
"##MN-00 00 49 0479 02286 5129 463902 355930 200"
"156.719699"
"$GPGGA,171619,2423.4207,N,08125.0111,W,1,10,1.6,14"
"##MN-00 00 49 0480 02283 5128 463164 355728 200"
"156.719745"
"$GPGGA,171623,2423.4186,N,08125.0100,W,1,10,1.5,14"
"##MN-00 00 50 0481 02273 5127 462610 355446 200"
"156.719792"
"$GPGGA,171627,2423.4166,N,08125.0088,W,1,10,1.5,14"
"##MN-00 00 49 0483 02265 5125 461997 355400 200"
"156.719838"
"$GPGGA,171631,2423.4144,N,08125.0077,W,1,10,1.5,14"
"##MN-00 00 49 0484 02257 5124 461215 355138 200"
"156.719884"
"$GPGGA,171635,2423.4122,N,08125.0065,W,1,10,1.6,14"
"##MN-00 00 48 0486 02249 5122 460253 354900 200"
"156.719931"
"$GPGGA,171639,2423.4101,N,08125.0052,W,1,10,1.5,14"
"##MN-00 00 46 0487 02239 5121 459656 354665 200"
"156.719977"
"$GPGGA,171643,2423.4081,N,08125.0039,W,1,10,1.5,14"
"##MN-00 00 50 0488 02231 5119 458971 354395 200"
"156.720023"
"$GPGGA,171647,2423.4065,N,08125.0030,W,1,10,1.5,14"
"##MN-00 00 49 0490 02226 5118 458461 354218 200"
"156.720069"
"$GPGGA,171651,2423.4041,N,08125.0014,W,1,9,1.5,14,"
"##MN-00 00 48 0491 02217 5116 458203 354170 200"
"156.720127"
"$GPGGA,171655,2423.4023,N,08125.0000,W,1,10,1.5,14"
"##MN-00 00 48 0492 02208 5115 457891 353885 200"
"156.720174"
"$GPGGA,171659,2423.4010,N,08124.9991,W,1,10,1.5,14"
"##MN-00 00 50 0494 02200 5114 457381 353720 200"
"156.72022"
"$GPGGA,171703,2423.3987,N,08124.9978,W,1,9,1.6,15,"
"##MN-00 00 48 0495 02192 5113 456771 353497 200"
"156.720266"
"$GPGGA,171707,2423.3960,N,08124.9961,W,1,10,1.5,15"
"##MN-00 00 46 0496 02184 5111 456234 353269 200"
"156.720313"
"$GPGGA,171711,2423.3938,N,08124.9950,W,1,10,1.5,15"
"##MN-00 00 48 0498 02175 5110 455955 353230 200"
"156.720359"
"$GPGGA,171715,2423.3916,N,08124.9938,W,1,10,1.5,15"
"##MN-00 00 47 0499 02167 5109 455730 353143 200"
"156.720405"
"$GPGGA,171719,2423.3896,N,08124.9925,W,1,10,1.5,14"
"##MN-00 00 47 0501 02158 5107 455522 353093 200"
"156.720451"
"$GPGGA,171724,2423.3871,N,08124.9910,W,1,10,1.6,14"
"##MN-00 00 45 0502 02151 5106 454989 352902 200"
"156.720498"
"$GPGGA,171727,2423.3855,N,08124.9901,W,1,10,1.5,14"
"##MN-00 00 48 0503 02142 5105 454060 352714 200"
"156.720544"
"$GPGGA,171731,2423.3835,N,08124.9889,W,1,10,1.5,14"
"##MN-00 00 50 0505 02134 5104 453092 352303 200"
"156.72059"
"$GPGGA,171735,2423.3815,N,08124.9877,W,1,10,1.5,14"
"##MN-00 00 46 0506 02124 5103 452199 352004 200"
"156.720637"
"$GPGGA,171739,2423.3792,N,08124.9865,W,1,10,1.5,14"
"##MN-00 00 48 0507 02116 5102 450996 351724 200"
"156.720683"
"$GPGGA,171744,2423.3765,N,08124.9850,W,1,10,1.5,14"
"##MN-00 00 46 0509 02105 5100 449310 351262 200"
"156.720729"
"$GPGGA,171748,2423.3744,N,08124.9837,W,1,10,1.5,14"
"##MN-00 00 48 0510 02094 5099 447993 351073 200"
"156.720775"
"$GPGGA,171752,2423.3721,N,08124.9824,W,1,10,1.5,13"
"##MN-00 00 48 0512 02083 5099 447356 350666 200"
"156.720822"
"$GPGGA,171756,2423.3699,N,08124.9811,W,1,10,1.5,13"
"##MN-00 00 47 0513 02071 5097 447019 350412 200"
"156.720868"
"$GPGGA,171800,2423.3679,N,08124.9798,W,1,10,1.5,13"
"##MN-00 00 46 0515 02063 5096 446915 350400 200"
"156.720914"
"$GPGGA,171804,2423.3654,N,08124.9787,W,1,10,1.6,13"
"##MN-00 00 47 0516 02049 5096 446873 350352 200"
"156.720961"
"$GPGGA,171808,2423.3633,N,08124.9774,W,1,10,1.5,13"
"##MN-00 00 48 0517 02040 5095 446822 350279 200"
"156.721007"
"$GPGGA,171812,2423.3613,N,08124.9761,W,1,10,1.5,13"
"##MN-00 00 46 0519 02030 5094 446703 350220 200"
"156.721053"
"$GPGGA,171816,2423.3591,N,08124.9748,W,1,10,1.5,13"
"##MN-00 00 48 0520 02020 5093 446305 350119 200"
"156.7211"
"$GPGGA,171820,2423.3568,N,08124.9735,W,1,10,1.5,13"
"##MN-00 00 50 0522 02008 5092 445411 350011 200"
"156.721146"
"$GPGGA,171824,2423.3546,N,08124.9722,W,1,10,1.5,13"
"##MN-00 00 49 0523 02000 5092 444751 349891 200"
"156.721192"
"$GPGGA,171828,2423.3523,N,08124.9710,W,1,10,1.5,13"
"##MN-00 00 50 0524 01990 5091 444163 349647 200"
"156.721238"
"$GPGGA,171832,2423.3501,N,08124.9697,W,1,9,1.5,12,"
"##MN-00 00 51 0526 01977 5090 443841 349587 200"
"156.721285"
"$GPGGA,171836,2423.3481,N,08124.9684,W,1,10,1.5,12"
"##MN-00 00 51 0527 01970 5090 443711 349496 200"
"156.721331"
"$GPGGA,171840,2423.3462,N,08124.9671,W,1,10,1.5,12"
"##MN-00 00 50 0529 01962 5089 443676 349551 200"
"156.721377"
"$GPGGA,171844,2423.3443,N,08124.9657,W,1,10,1.5,12"
"##MN-00 00 49 0530 01948 5088 443665 349506 200"
"156.721424"
"$GPGGA,171848,2423.3421,N,08124.9643,W,1,10,1.5,12"
"##MN-00 00 51 0532 01940 5088 443665 349492 200"
"156.72147"
"$GPGGA,171852,2423.3400,N,08124.9629,W,1,10,1.5,12"
"##MN-00 00 54 0533 01929 5087 443668 349501 200"
"156.721516"
"$GPGGA,171856,2423.3380,N,08124.9616,W,1,10,1.5,12"
"##MN-00 00 51 0535 01921 5086 443671 349497 200"
"156.721562"
"$GPGGA,171900,2423.3358,N,08124.9605,W,1,10,1.5,12"
"##MN-00 00 50 0536 01910 5086 443674 349497 200"
"156.721609"
"$GPGGA,171904,2423.3336,N,08124.9593,W,1,10,1.5,12"
"##MN-00 00 50 0537 01900 5085 443673 349498 200"
