" Tow: 5Wd-B   RVWS/WS1406"
" Date: 06/05/2014"
" Temperature Probe #  2597    Conductivity Probe #  2870"
" Pressure Probe #  109"
" Flow Meter Calibration  4.71 (m/count)  "
"156.735671"
"$GPGGA,173916,2421.9719,N,08124.0938,W,1,10,1.3,17"
"##MN-00 00 56 0090 01865 5284 437401 800567 200"
"156.735718"
"$GPGGA,173923,2421.9687,N,08124.0924,W,1,11,1.3,17"
"##MN-00 00 54 0091 01867 5285 445600 350013 200"
"156.735764"
"$GPGGA,173927,2421.9670,N,08124.0917,W,1,11,1.3,17"
"##MN-00 00 54 0092 01873 5286 445601 350005 200"
"156.73581"
"$GPGGA,173931,2421.9653,N,08124.0911,W,1,11,1.3,17"
"##MN-00 00 55 0092 01877 5287 445595 349996 200"
"156.735856"
"$GPGGA,173935,2421.9637,N,08124.0904,W,1,11,1.3,17"
"##MN-00 00 57 0093 01882 5288 445597 349989 200"
"156.735903"
"$GPGGA,173939,2421.9621,N,08124.0898,W,1,11,1.3,17"
"##MN-00 00 56 0094 01886 5289 445590 349969 200"
"156.735949"
"$GPGGA,173943,2421.9603,N,08124.0892,W,1,10,1.4,17"
"##MN-00 00 55 0095 01892 5289 445574 349960 200"
"156.735995"
"$GPGGA,173947,2421.9587,N,08124.0885,W,1,11,1.3,17"
"##MN-00 00 55 0096 01900 5290 445566 349952 200"
"156.736042"
"$GPGGA,173951,2421.9570,N,08124.0879,W,1,10,1.4,17"
"##MN-00 00 54 0096 01902 5291 445571 349942 200"
"156.736088"
"$GPGGA,173955,2421.9553,N,08124.0874,W,1,11,1.3,17"
"##MN-00 00 55 0097 01906 5291 445585 349937 200"
"156.736134"
"$GPGGA,173959,2421.9540,N,08124.0869,W,1,11,1.3,17"
"##MN-00 00 55 0098 01911 5292 445603 349942 200"
"156.736181"
"$GPGGA,174003,2421.9523,N,08124.0863,W,1,10,1.4,17"
"##MN-00 00 54 0099 01914 5293 445624 349942 200"
"156.736227"
"$GPGGA,174007,2421.9505,N,08124.0857,W,1,10,1.4,17"
"##MN-00 00 55 0099 01923 5293 445644 349949 200"
"156.736273"
"$GPGGA,174011,2421.9491,N,08124.0851,W,1,11,1.3,17"
"##MN-00 00 54 0100 01926 5294 445667 349955 200"
"156.736319"
"$GPGGA,174015,2421.9476,N,08124.0845,W,1,11,1.3,17"
"##MN-00 00 54 0101 01928 5295 445696 349958 200"
"156.736366"
"$GPGGA,174019,2421.9462,N,08124.0839,W,1,11,1.3,17"
"##MN-00 00 54 0102 01933 5296 445697 349956 200"
"156.736412"
"$GPGGA,174023,2421.9445,N,08124.0834,W,1,11,1.3,17"
"##MN-00 00 56 0102 01941 5296 445711 349957 200"
"156.736458"
"$GPGGA,174027,2421.9429,N,08124.0828,W,1,11,1.3,17"
"##MN-00 00 53 0103 01943 5297 445728 349957 200"
"156.736505"
"$GPGGA,174031,2421.9412,N,08124.0822,W,1,11,1.3,17"
"##MN-00 00 55 0104 01947 5298 445734 349955 200"
"156.736551"
"$GPGGA,174035,2421.9397,N,08124.0816,W,1,11,1.3,17"
"##MN-00 00 54 0105 01955 5298 445740 349953 200"
"156.736597"
"$GPGGA,174039,2421.9380,N,08124.0811,W,1,11,1.3,17"
"##MN-00 00 52 0106 01958 5299 445745 349950 200"
"156.736644"
"$GPGGA,174043,2421.9364,N,08124.0806,W,1,11,1.3,17"
"##MN-00 00 54 0106 01963 5299 445757 349949 200"
"156.73669"
"$GPGGA,174047,2421.9352,N,08124.0800,W,1,11,1.3,17"
"##MN-00 00 54 0107 01967 5299 445800 349957 200"
"156.736736"
"$GPGGA,174051,2421.9336,N,08124.0794,W,1,10,1.4,17"
"##MN-00 00 51 0108 01971 5300 445845 349961 200"
"156.736782"
"$GPGGA,174055,2421.9319,N,08124.0788,W,1,10,1.4,17"
"##MN-00 00 51 0109 01972 5301 445875 349970 200"
"156.736829"
"$GPGGA,174059,2421.9303,N,08124.0783,W,1,11,1.3,17"
"##MN-00 00 53 0109 01975 5301 445906 349978 200"
"156.736875"
"$GPGGA,174103,2421.9286,N,08124.0778,W,1,10,1.3,17"
"##MN-00 00 54 0110 01984 5301 445919 349977 200"
"156.736921"
"$GPGGA,174107,2421.9271,N,08124.0773,W,1,11,1.3,17"
"##MN-00 00 52 0111 01988 5302 445928 349978 200"
"156.736968"
"$GPGGA,174111,2421.9256,N,08124.0766,W,1,11,1.3,17"
"##MN-00 00 53 0112 01990 5302 445965 349981 200"
"156.737014"
"$GPGGA,174115,2421.9241,N,08124.0759,W,1,11,1.3,17"
"##MN-00 00 53 0113 01998 5303 445975 349978 200"
"156.73706"
"$GPGGA,174119,2421.9227,N,08124.0753,W,1,11,1.3,17"
"##MN-00 00 53 0113 02000 5303 445993 349982 200"
"156.737106"
"$GPGGA,174123,2421.9209,N,08124.0747,W,1,11,1.3,17"
"##MN-00 00 54 0114 02005 5303 446020 349992 200"
"156.737153"
"$GPGGA,174127,2421.9192,N,08124.0743,W,1,10,1.4,17"
"##MN-00 00 54 0115 02009 5304 446064 350033 200"
"156.737199"
"$GPGGA,174131,2421.9177,N,08124.0737,W,1,11,1.3,17"
"##MN-00 00 53 0116 02015 5304 446289 350088 200"
"156.737245"
"$GPGGA,174135,2421.9162,N,08124.0730,W,1,11,1.3,17"
"##MN-00 00 54 0116 02018 5304 446532 350150 200"
"156.737292"
"$GPGGA,174139,2421.9145,N,08124.0724,W,1,11,1.4,17"
"##MN-00 00 54 0117 02024 5305 447112 350488 200"
"156.737338"
"$GPGGA,174143,2421.9129,N,08124.0719,W,1,11,1.3,17"
"##MN-00 00 53 0118 02029 5305 447969 350751 200"
"156.737384"
"$GPGGA,174147,2421.9115,N,08124.0715,W,1,11,1.4,17"
"##MN-00 00 54 0118 02032 5305 448215 350811 200"
"156.737431"
"$GPGGA,174151,2421.9102,N,08124.0709,W,1,11,1.3,17"
"##MN-00 00 54 0119 02035 5306 448509 350824 200"
"156.737477"
"$GPGGA,174155,2421.9086,N,08124.0704,W,1,10,1.3,18"
"##MN-00 00 54 0120 02043 5306 448942 351024 200"
"156.737523"
"$GPGGA,174159,2421.9066,N,08124.0699,W,1,11,1.4,18"
"##MN-00 00 53 0121 02047 5306 449249 351151 200"
"156.737569"
"$GPGGA,174203,2421.9051,N,08124.0694,W,1,11,1.3,18"
"##MN-00 00 52 0121 02052 5306 449478 351228 200"
"156.737616"
"$GPGGA,174207,2421.9032,N,08124.0690,W,1,10,1.4,18"
"##MN-00 00 52 0122 02055 5307 450060 351447 200"
"156.737662"
"$GPGGA,174211,2421.9015,N,08124.0685,W,1,11,1.3,18"
"##MN-00 00 53 0123 02058 5307 450659 351672 200"
"156.737708"
"$GPGGA,174215,2421.9000,N,08124.0679,W,1,11,1.3,17"
"##MN-00 00 53 0124 02066 5307 451091 351694 200"
"156.737755"
"$GPGGA,174219,2421.8985,N,08124.0673,W,1,11,1.3,17"
"##MN-00 00 53 0125 02069 5307 451688 351865 200"
"156.737801"
"$GPGGA,174223,2421.8969,N,08124.0666,W,1,11,1.3,17"
"##MN-00 00 52 0125 02072 5308 452231 352119 200"
"156.737847"
"$GPGGA,174227,2421.8952,N,08124.0661,W,1,11,1.3,18"
"##MN-00 00 51 0126 02078 5308 453126 352545 200"
"156.737894"
"$GPGGA,174231,2421.8935,N,08124.0655,W,1,10,1.4,18"
"##MN-00 00 52 0127 02082 5308 453711 352661 200"
"156.737951"
"$GPGGA,174235,2421.8918,N,08124.0649,W,1,11,1.3,18"
"##MN-00 00 53 0127 02086 5308 453942 352764 200"
"156.737998"
"$GPGGA,174239,2421.8902,N,08124.0644,W,1,10,1.4,18"
"##MN-00 00 54 0128 02092 5308 454324 352881 200"
"156.738044"
"$GPGGA,174243,2421.8885,N,08124.0640,W,1,10,1.4,18"
"##MN-00 00 54 0129 02095 5309 454621 353008 200"
"156.73809"
"$GPGGA,174247,2421.8869,N,08124.0635,W,1,10,1.4,18"
"##MN-00 00 53 0130 02100 5309 455252 353307 200"
"156.738137"
"$GPGGA,174251,2421.8853,N,08124.0630,W,1,10,1.4,18"
"##MN-00 00 54 0130 02105 5309 455917 353448 200"
"156.738183"
"$GPGGA,174255,2421.8839,N,08124.0628,W,1,11,1.3,18"
"##MN-00 00 54 0131 02110 5309 456173 353499 200"
"156.738229"
"$GPGGA,174259,2421.8823,N,08124.0622,W,1,10,1.4,18"
"##MN-00 00 54 0132 02110 5309 456715 353455 200"
"156.738275"
"$GPGGA,174304,2421.8801,N,08124.0616,W,1,10,1.4,18"
"##MN-00 00 53 0133 02118 5309 457408 353963 200"
"156.738322"
"$GPGGA,174308,2421.8788,N,08124.0609,W,1,9,1.3,18,"
"##MN-00 00 53 0133 02123 5309 457913 354095 200"
"156.738368"
"$GPGGA,174312,2421.8775,N,08124.0603,W,1,10,1.5,18"
"##MN-00 00 52 0134 02124 5309 458127 354204 200"
"156.738414"
"$GPGGA,174316,2421.8761,N,08124.0596,W,1,11,1.3,18"
"##MN-00 00 52 0135 02128 5309 458553 354407 200"
"156.738461"
"$GPGGA,174319,2421.8751,N,08124.0591,W,1,11,1.3,18"
"##MN-00 00 53 0136 02134 5309 458935 354522 200"
"156.738507"
"$GPGGA,174324,2421.8732,N,08124.0586,W,1,10,1.3,19"
"##MN-00 00 53 0136 02135 5309 459178 354495 200"
"156.738553"
"$GPGGA,174327,2421.8718,N,08124.0584,W,1,9,1.5,19,"
"##MN-00 00 54 0137 02141 5309 459448 354540 200"
"156.7386"
"$GPGGA,174332,2421.8698,N,08124.0580,W,1,10,1.5,19"
"##MN-00 00 53 0138 02145 5309 459991 354815 200"
"156.738646"
"$GPGGA,174336,2421.8679,N,08124.0578,W,1,9,1.5,18,"
"##MN-00 00 52 0139 02148 5308 460233 354883 200"
"156.738692"
"$GPGGA,174340,2421.8661,N,08124.0575,W,1,10,1.3,18"
"##MN-00 00 54 0139 02152 5308 460356 354911 200"
"156.738738"
"$GPGGA,174344,2421.8649,N,08124.0570,W,1,11,1.4,18"
"##MN-00 00 53 0140 02157 5308 460598 355016 200"
"156.738785"
"$GPGGA,174348,2421.8634,N,08124.0567,W,1,10,1.4,18"
"##MN-00 00 53 0141 02159 5308 461009 355153 200"
"156.738831"
"$GPGGA,174352,2421.8620,N,08124.0565,W,1,10,1.4,18"
"##MN-00 00 52 0142 02165 5308 461605 355409 200"
"156.738877"
"$GPGGA,174356,2421.8606,N,08124.0564,W,1,11,1.3,18"
"##MN-00 00 53 0142 02169 5308 462519 355810 200"
"156.738924"
"$GPGGA,174400,2421.8595,N,08124.0559,W,1,10,1.3,18"
"##MN-00 00 52 0143 02172 5308 463028 355968 200"
"156.73897"
"$GPGGA,174404,2421.8581,N,08124.0557,W,1,11,1.4,18"
"##MN-00 00 52 0144 02175 5307 463594 356191 200"
"156.739016"
"$GPGGA,174408,2421.8567,N,08124.0554,W,1,10,1.4,18"
"##MN-00 00 53 0145 02181 5307 463959 356312 200"
"156.739062"
"$GPGGA,174412,2421.8549,N,08124.0551,W,1,10,1.4,18"
"##MN-00 00 53 0145 02186 5307 464151 356326 200"
"156.739109"
"$GPGGA,174416,2421.8533,N,08124.0547,W,1,10,1.4,18"
"##MN-00 00 54 0146 02186 5307 464423 356392 200"
"156.739155"
"$GPGGA,174420,2421.8517,N,08124.0546,W,1,10,1.4,18"
"##MN-00 00 52 0147 02190 5306 464696 356519 200"
"156.739201"
"$GPGGA,174424,2421.8497,N,08124.0542,W,1,9,1.5,18,"
"##MN-00 00 53 0148 02197 5306 464961 356660 200"
"156.739248"
"$GPGGA,174428,2421.8479,N,08124.0539,W,1,9,1.5,17,"
"##MN-00 00 53 0148 02201 5305 465103 356668 200"
"156.739294"
"$GPGGA,174432,2421.8461,N,08124.0536,W,1,9,1.5,17,"
"##MN-00 00 52 0149 02201 5305 465154 356680 200"
"156.73934"
"$GPGGA,174436,2421.8444,N,08124.0533,W,1,9,1.5,16,"
"##MN-00 00 53 0150 02205 5305 465220 356666 200"
"156.739387"
"$GPGGA,174440,2421.8427,N,08124.0531,W,1,9,1.5,16,"
"##MN-00 00 53 0151 02211 5304 465244 356708 200"
"156.739433"
"$GPGGA,174444,2421.8411,N,08124.0529,W,1,9,1.5,15,"
"##MN-00 00 53 0151 02213 5304 465246 356693 200"
"156.739479"
"$GPGGA,174448,2421.8394,N,08124.0527,W,1,9,1.5,15,"
"##MN-00 00 53 0152 02216 5304 465255 356688 200"
"156.739525"
"$GPGGA,174452,2421.8378,N,08124.0526,W,1,9,1.5,15,"
"##MN-00 00 53 0153 02222 5303 465271 356686 200"
"156.739572"
"$GPGGA,174456,2421.8363,N,08124.0525,W,1,9,1.5,14,"
"##MN-00 00 54 0154 02225 5302 465320 356690 200"
"156.739618"
"$GPGGA,174500,2421.8347,N,08124.0523,W,1,9,1.5,14,"
"##MN-00 00 53 0154 02228 5302 465411 356696 200"
"156.739664"
"$GPGGA,174504,2421.8332,N,08124.0520,W,1,9,1.5,14,"
"##MN-00 00 53 0155 02233 5302 465602 356747 200"
"156.739711"
"$GPGGA,174508,2421.8318,N,08124.0520,W,1,9,1.5,14,"
"##MN-00 00 53 0156 02235 5301 465811 356786 200"
"156.739757"
"$GPGGA,174512,2421.8303,N,08124.0517,W,1,9,1.5,13,"
"##MN-00 00 54 0157 02237 5300 466108 356879 200"
"156.739803"
"$GPGGA,174516,2421.8288,N,08124.0516,W,1,9,1.5,13,"
"##MN-00 00 52 0158 02243 5300 466320 356946 200"
"156.73985"
"$GPGGA,174520,2421.8278,N,08124.0510,W,1,8,1.5,13,"
"##MN-00 00 53 0158 02247 5299 466574 357100 200"
"156.739896"
"$GPGGA,174524,2421.8264,N,08124.0506,W,1,10,1.5,13"
"##MN-00 00 54 0159 02246 5299 467177 357295 200"
"156.739942"
"$GPGGA,174528,2421.8255,N,08124.0504,W,1,10,1.4,14"
"##MN-00 00 54 0160 02253 5298 468607 357958 200"
"156.739988"
"$GPGGA,174532,2421.8241,N,08124.0504,W,1,10,1.4,14"
"##MN-00 00 54 0160 02258 5297 469767 358300 200"
"156.740035"
"$GPGGA,174536,2421.8228,N,08124.0503,W,1,10,1.5,14"
"##MN-00 00 53 0161 02261 5296 470375 358485 200"
"156.740081"
"$GPGGA,174540,2421.8215,N,08124.0501,W,1,9,1.5,14,"
"##MN-00 00 53 0162 02261 5296 470702 358557 200"
"156.740127"
"$GPGGA,174544,2421.8201,N,08124.0500,W,1,10,1.4,15"
"##MN-00 00 53 0163 02263 5295 470971 358652 200"
"156.740174"
"$GPGGA,174548,2421.8190,N,08124.0499,W,1,10,1.4,15"
"##MN-00 00 54 0163 02269 5295 471279 358765 200"
"156.74022"
"$GPGGA,174552,2421.8174,N,08124.0499,W,1,10,1.4,15"
"##MN-00 00 53 0164 02269 5294 471863 359003 200"
"156.740266"
"$GPGGA,174556,2421.8158,N,08124.0499,W,1,9,1.4,15,"
"##MN-00 00 54 0165 02275 5293 472271 359032 200"
"156.740312"
"$GPGGA,174600,2421.8147,N,08124.0498,W,1,10,1.4,15"
"##MN-00 00 54 0166 02279 5292 472711 359219 200"
"156.740359"
"$GPGGA,174604,2421.8133,N,08124.0499,W,1,10,1.4,15"
"##MN-00 00 53 0166 02281 5291 473475 359401 200"
"156.740405"
"$GPGGA,174608,2421.8120,N,08124.0498,W,1,11,1.3,15"
"##MN-00 00 53 0167 02284 5290 473894 359534 200"
"156.740451"
"$GPGGA,174612,2421.8107,N,08124.0497,W,1,11,1.3,16"
"##MN-00 00 54 0168 02285 5290 474437 359605 200"
"156.740498"
"$GPGGA,174616,2421.8094,N,08124.0497,W,1,11,1.3,16"
"##MN-00 00 54 0169 02288 5289 474902 359776 200"
"156.740544"
"$GPGGA,174620,2421.8082,N,08124.0497,W,1,11,1.3,16"
"##MN-00 00 54 0170 02292 5288 475632 359907 200"
"156.74059"
"$GPGGA,174624,2421.8068,N,08124.0498,W,1,10,1.4,16"
"##MN-00 00 54 0170 02292 5287 476082 359977 200"
"156.740637"
"$GPGGA,174628,2421.8057,N,08124.0497,W,1,11,1.3,16"
"##MN-00 00 54 0171 02296 5286 476504 360153 200"
"156.740683"
"$GPGGA,174632,2421.8042,N,08124.0499,W,1,10,1.3,16"
"##MN-00 00 54 0172 02300 5285 476850 360325 200"
"156.740729"
"$GPGGA,174636,2421.8027,N,08124.0500,W,1,10,1.4,16"
"##MN-00 00 54 0173 02302 5284 477152 360466 200"
"156.740775"
"$GPGGA,174640,2421.8013,N,08124.0502,W,1,10,1.4,16"
"##MN-00 00 53 0174 02302 5283 477400 360504 200"
"156.740822"
"$GPGGA,174644,2421.7999,N,08124.0502,W,1,10,1.4,16"
"##MN-00 00 51 0175 02303 5282 477662 360654 200"
"156.740868"
"$GPGGA,174648,2421.7984,N,08124.0502,W,1,10,1.4,16"
"##MN-00 00 51 0175 02299 5281 477722 360686 200"
"156.740914"
"$GPGGA,174652,2421.7972,N,08124.0502,W,1,11,1.5,16"
"##MN-00 00 52 0176 02297 5280 477678 360705 200"
"156.740961"
"$GPGGA,174656,2421.7962,N,08124.0503,W,1,11,1.3,17"
"##MN-00 00 52 0177 02297 5279 477565 360709 200"
"156.741007"
"$GPGGA,174700,2421.7952,N,08124.0504,W,1,11,1.4,17"
"##MN-00 00 52 0178 02294 5278 477456 360692 200"
"156.741053"
"$GPGGA,174704,2421.7941,N,08124.0502,W,1,11,1.3,17"
"##MN-00 00 53 0179 02294 5277 477371 360667 200"
"156.7411"
"$GPGGA,174708,2421.7930,N,08124.0503,W,1,11,1.3,17"
"##MN-00 00 52 0180 02293 5275 477270 360657 200"
"156.741146"
"$GPGGA,174712,2421.7916,N,08124.0504,W,1,11,1.3,17"
"##MN-00 00 52 0181 02291 5275 477145 360633 200"
"156.741204"
"$GPGGA,174716,2421.7905,N,08124.0506,W,1,11,1.3,17"
"##MN-00 00 52 0182 02292 5273 477043 360587 200"
"156.74125"
"$GPGGA,174720,2421.7894,N,08124.0507,W,1,10,1.4,17"
"##MN-00 00 55 0183 02297 5272 477113 360585 200"
"156.741296"
"$GPGGA,174724,2421.7883,N,08124.0507,W,1,11,1.4,17"
"##MN-00 00 56 0183 02301 5271 477455 360711 200"
"156.741343"
"$GPGGA,174728,2421.7872,N,08124.0510,W,1,10,1.3,17"
"##MN-00 00 55 0184 02308 5270 477824 360753 200"
"156.741389"
"$GPGGA,174732,2421.7861,N,08124.0513,W,1,11,1.4,17"
"##MN-00 00 55 0185 02309 5268 477955 360758 200"
"156.741435"
"$GPGGA,174736,2421.7849,N,08124.0517,W,1,10,1.4,17"
"##MN-00 00 54 0186 02306 5267 478033 360775 200"
"156.741481"
"$GPGGA,174740,2421.7838,N,08124.0519,W,1,10,1.3,17"
"##MN-00 00 54 0187 02303 5266 478066 360787 200"
"156.741528"
"$GPGGA,174744,2421.7827,N,08124.0521,W,1,11,1.3,17"
"##MN-00 00 52 0188 02306 5264 477960 360762 200"
"156.741574"
"$GPGGA,174748,2421.7818,N,08124.0524,W,1,11,1.3,17"
"##MN-00 00 54 0189 02302 5263 477931 360755 200"
"156.74162"
"$GPGGA,174752,2421.7808,N,08124.0526,W,1,11,1.3,16"
"##MN-00 00 54 0189 02300 5262 478098 360779 200"
"156.741667"
"$GPGGA,174757,2421.7796,N,08124.0531,W,1,11,1.3,16"
"##MN-00 00 53 0190 02301 5260 478187 360849 200"
"156.741713"
"$GPGGA,174801,2421.7787,N,08124.0533,W,1,11,1.3,16"
"##MN-00 00 54 0191 02303 5259 478267 360910 200"
"156.741759"
"$GPGGA,174804,2421.7782,N,08124.0535,W,1,11,1.3,16"
"##MN-00 00 53 0192 02302 5258 478216 360962 200"
"156.741806"
"$GPGGA,174809,2421.7768,N,08124.0538,W,1,11,1.3,16"
"##MN-00 00 57 0193 02308 5256 478167 360947 200"
"156.741852"
"$GPGGA,174813,2421.7757,N,08124.0542,W,1,11,1.3,16"
"##MN-00 00 58 0194 02314 5255 478153 360924 200"
"156.741898"
"$GPGGA,174817,2421.7748,N,08124.0545,W,1,11,1.3,16"
"##MN+00 00 56 0195 02317 5253 478303 360914 200"
"156.741944"
"$GPGGA,174821,2421.7739,N,08124.0549,W,1,11,1.3,16"
"##MN+00 00 54 0195 02314 5252 478425 360917 200"
"156.741991"
"$GPGGA,174825,2421.7729,N,08124.0554,W,1,11,1.3,16"
"##MN+00 00 54 0196 02315 5251 478552 360956 200"
"156.742037"
"$GPGGA,174829,2421.7719,N,08124.0558,W,1,11,1.3,16"
"##MN+00 00 52 0197 02312 5249 478573 360975 200"
"156.742083"
"$GPGGA,174833,2421.7710,N,08124.0563,W,1,11,1.3,16"
"##MN+00 00 53 0198 02311 5248 478524 360981 199"
"156.74213"
"$GPGGA,174837,2421.7700,N,08124.0567,W,1,11,1.3,16"
"##MN+00 00 64 0199 02313 5246 478473 360979 200"
"156.742176"
"#increment_net"
"$GPGGA,174841,2421.7689,N,08124.0571,W,1,11,1.3,16"
"##MN-00 00 60 0200 02313 5245 478505 360975 199"
"156.742222"
"$GPGGA,174845,2421.7681,N,08124.0575,W,1,11,1.3,16"
"##MN-00 00 56 0201 02311 5243 478571 360996 199"
"156.742268"
"$GPGGA,174849,2421.7671,N,08124.0579,W,1,11,1.3,16"
"##MN-00 00 55 0202 02313 5242 478536 361006 199"
"156.742315"
"$GPGGA,174853,2421.7663,N,08124.0583,W,1,11,1.3,16"
"##MN-00 00 55 0203 02310 5240 478489 361003 199"
"156.742361"
"$GPGGA,174857,2421.7654,N,08124.0589,W,1,11,1.3,16"
"##MN-00 00 55 0204 02309 5238 478453 361000 199"
"156.742407"
"$GPGGA,174901,2421.7646,N,08124.0592,W,1,11,1.3,16"
"##MN-00 00 54 0205 02309 5237 478441 360996 199"
"156.742454"
"$GPGGA,174905,2421.7637,N,08124.0596,W,1,11,1.3,16"
"##MN-00 00 54 0206 02308 5236 478434 360996 199"
"156.7425"
"$GPGGA,174909,2421.7630,N,08124.0601,W,1,11,1.3,16"
"##MN-00 00 54 0207 02309 5234 478397 360993 199"
"156.742546"
"$GPGGA,174913,2421.7623,N,08124.0604,W,1,11,1.3,16"
"##MN-00 00 55 0208 02307 5233 478352 360985 199"
"156.742593"
"$GPGGA,174917,2421.7614,N,08124.0611,W,1,11,1.3,16"
"##MN-00 00 55 0209 02306 5231 478364 360992 199"
"156.742639"
"$GPGGA,174921,2421.7607,N,08124.0615,W,1,11,1.3,16"
"##MN-00 00 55 0210 02309 5229 478399 361005 199"
"156.742685"
"$GPGGA,174925,2421.7600,N,08124.0621,W,1,11,1.3,16"
"##MN-00 00 57 0211 02314 5228 478407 361017 199"
"156.742731"
"$GPGGA,174929,2421.7594,N,08124.0626,W,1,11,1.3,16"
"##MN-00 00 57 0211 02317 5226 478471 361018 199"
"156.742778"
"$GPGGA,174933,2421.7587,N,08124.0632,W,1,11,1.3,16"
"##MN-00 00 55 0212 02315 5225 478615 361036 199"
"156.742824"
"$GPGGA,174937,2421.7579,N,08124.0637,W,1,11,1.3,16"
"##MN-00 00 55 0213 02315 5223 478627 361048 199"
"156.74287"
"$GPGGA,174941,2421.7573,N,08124.0643,W,1,11,1.3,16"
"##MN-00 00 55 0214 02313 5221 478599 361048 199"
"156.742917"
"$GPGGA,174945,2421.7566,N,08124.0647,W,1,11,1.3,16"
"##MN-00 00 55 0215 02313 5220 478546 361043 199"
"156.742963"
"$GPGGA,174949,2421.7560,N,08124.0654,W,1,11,1.3,16"
"##MN-00 00 59 0216 02311 5218 478510 361039 199"
"156.743009"
"$GPGGA,174953,2421.7552,N,08124.0658,W,1,11,1.3,16"
"##MN-00 00 54 0217 02313 5216 478534 361079 199"
"156.743056"
"$GPGGA,174957,2421.7545,N,08124.0662,W,1,11,1.3,16"
"##MN-00 00 54 0218 02311 5215 478606 361111 199"
"156.743102"
"$GPGGA,175001,2421.7537,N,08124.0668,W,1,11,1.3,16"
"##MN-00 00 57 0219 02310 5213 478690 361146 199"
"156.743148"
"$GPGGA,175005,2421.7530,N,08124.0672,W,1,11,1.3,15"
"##MN-00 00 56 0220 02310 5211 478735 361181 199"
"156.743194"
"$GPGGA,175009,2421.7523,N,08124.0677,W,1,11,1.3,15"
"##MN-00 00 55 0221 02310 5210 478744 361200 199"
"156.743241"
"$GPGGA,175013,2421.7516,N,08124.0680,W,1,11,1.3,15"
"##MN-00 00 54 0222 02310 5208 478659 361191 199"
"156.743287"
"$GPGGA,175017,2421.7509,N,08124.0686,W,1,11,1.3,15"
"##MN-00 00 58 0223 02309 5206 478507 361164 199"
"156.743333"
"$GPGGA,175021,2421.7502,N,08124.0690,W,1,11,1.3,15"
"##MN+00 00 57 0224 02308 5205 478265 361035 199"
"156.74338"
"$GPGGA,175025,2421.7497,N,08124.0693,W,1,11,1.3,15"
"##MN+00 00 56 0225 02308 5203 478032 360977 200"
"156.743426"
"$GPGGA,175029,2421.7490,N,08124.0697,W,1,11,1.3,15"
"##MN+00 00 55 0226 02309 5201 477673 360888 200"
"156.743472"
"$GPGGA,175033,2421.7482,N,08124.0701,W,1,11,1.3,15"
"##MN-00 00 56 0227 02310 5199 477410 360792 200"
"156.743519"
"$GPGGA,175037,2421.7475,N,08124.0704,W,1,11,1.3,15"
"##MN-00 00 55 0227 02308 5198 477212 360695 200"
"156.743565"
"$GPGGA,175041,2421.7467,N,08124.0708,W,1,11,1.3,15"
"##MN-00 00 56 0228 02312 5196 477134 360681 200"
"156.743611"
"$GPGGA,175045,2421.7460,N,08124.0713,W,1,11,1.3,15"
"##MN-00 00 55 0229 02312 5195 477068 360645 200"
"156.743657"
"$GPGGA,175049,2421.7451,N,08124.0719,W,1,11,1.3,15"
"##MN-00 00 56 0230 02310 5193 476992 360622 200"
"156.743704"
"$GPGGA,175053,2421.7444,N,08124.0724,W,1,11,1.3,15"
"##MN+00 00 57 0231 02310 5191 476902 360604 200"
"156.74375"
"$GPGGA,175057,2421.7439,N,08124.0728,W,1,11,1.3,15"
"##MN+00 00 55 0232 02310 5189 476856 360587 200"
"156.743796"
"$GPGGA,175101,2421.7432,N,08124.0733,W,1,11,1.3,15"
"##MN+00 00 64 0233 02314 5188 476760 360583 200"
"156.743843"
"#increment_net"
"$GPGGA,175105,2421.7425,N,08124.0735,W,1,11,1.3,15"
"##MN-00 00 60 0234 02309 5186 476759 360570 199"
"156.743889"
"$GPGGA,175109,2421.7418,N,08124.0739,W,1,11,1.3,15"
"##MN-00 00 57 0235 02311 5185 476779 360563 199"
"156.743935"
"$GPGGA,175113,2421.7412,N,08124.0744,W,1,11,1.3,15"
"##MN-00 00 55 0236 02312 5183 476739 360558 199"
"156.743982"
"$GPGGA,175117,2421.7406,N,08124.0748,W,1,11,1.3,15"
"##MN-00 00 54 0237 02312 5181 476702 360557 199"
"156.744028"
"$GPGGA,175121,2421.7399,N,08124.0751,W,1,11,1.3,15"
"##MN-00 00 54 0238 02311 5179 476663 360556 199"
"156.744074"
"$GPGGA,175125,2421.7393,N,08124.0755,W,1,11,1.3,15"
"##MN-00 00 54 0239 02313 5177 476619 360545 199"
"156.74412"
"$GPGGA,175129,2421.7385,N,08124.0760,W,1,11,1.3,15"
"##MN-00 00 53 0240 02313 5176 476568 360539 199"
"156.744167"
"$GPGGA,175133,2421.7378,N,08124.0764,W,1,11,1.3,15"
"##MN-00 00 54 0241 02311 5174 476479 360524 199"
"156.744213"
"$GPGGA,175137,2421.7372,N,08124.0770,W,1,11,1.3,15"
"##MN-00 00 53 0242 02312 5172 476443 360514 199"
"156.744259"
"$GPGGA,175141,2421.7365,N,08124.0773,W,1,11,1.3,15"
"##MN-00 00 53 0243 02311 5171 476359 360491 199"
"156.744306"
"$GPGGA,175145,2421.7359,N,08124.0778,W,1,11,1.3,15"
"##MN-00 00 54 0243 02312 5169 476307 360476 199"
"156.744363"
"$GPGGA,175149,2421.7353,N,08124.0784,W,1,11,1.3,15"
"##MN-00 00 54 0244 02311 5167 476190 360451 199"
"156.74441"
"$GPGGA,175153,2421.7347,N,08124.0788,W,1,11,1.3,15"
"##MN-00 00 53 0245 02312 5166 476063 360423 199"
"156.744456"
"$GPGGA,175157,2421.7341,N,08124.0795,W,1,11,1.3,15"
"##MN-00 00 53 0246 02313 5164 476008 360378 199"
"156.744502"
"$GPGGA,175201,2421.7336,N,08124.0800,W,1,11,1.3,15"
"##MN-00 00 53 0247 02311 5162 475906 360327 199"
"156.744549"
"$GPGGA,175205,2421.7330,N,08124.0806,W,1,11,1.3,15"
"##MN-00 00 54 0248 02308 5161 475648 360244 199"
"156.744595"
"$GPGGA,175209,2421.7327,N,08124.0809,W,1,11,1.3,15"
"##MN-00 00 54 0249 02310 5159 475441 360245 199"
"156.744641"
"$GPGGA,175213,2421.7325,N,08124.0811,W,1,11,1.3,15"
"##MN-00 00 54 0250 02309 5157 475287 360189 199"
"156.744687"
"$GPGGA,175217,2421.7318,N,08124.0817,W,1,10,1.4,15"
"##MN-00 00 55 0251 02310 5156 475185 360113 199"
"156.744734"
"$GPGGA,175221,2421.7310,N,08124.0824,W,1,11,1.3,15"
"##MN-00 00 54 0252 02308 5154 475155 360098 199"
"156.74478"
"$GPGGA,175226,2421.7302,N,08124.0831,W,1,11,1.4,15"
"##MN-00 00 54 0253 02310 5153 475107 360076 199"
"156.744826"
"$GPGGA,175229,2421.7298,N,08124.0835,W,1,10,1.4,15"
"##MN-00 00 54 0254 02310 5151 475095 360073 199"
"156.744873"
"$GPGGA,175233,2421.7294,N,08124.0838,W,1,10,1.4,15"
"##MN-00 00 54 0255 02309 5149 475188 360076 199"
"156.744919"
"$GPGGA,175237,2421.7287,N,08124.0842,W,1,10,1.4,15"
"##MN-00 00 54 0256 02308 5147 475320 360086 199"
"156.744965"
"$GPGGA,175241,2421.7281,N,08124.0845,W,1,10,1.4,15"
"##MN+00 00 54 0257 02310 5146 475416 360110 199"
"156.745012"
"$GPGGA,175246,2421.7276,N,08124.0849,W,1,10,1.4,15"
"##MN+00 00 53 0258 02312 5144 475509 360149 200"
"156.745058"
"$GPGGA,175250,2421.7271,N,08124.0852,W,1,11,1.3,16"
"##MN+00 00 54 0259 02311 5142 475488 360148 199"
"156.745104"
"$GPGGA,175254,2421.7265,N,08124.0856,W,1,9,1.3,16,"
"##MN-00 00 54 0260 02309 5141 475497 360158 199"
"156.74515"
"$GPGGA,175258,2421.7258,N,08124.0861,W,1,10,1.4,16"
"##MN-00 00 54 0261 02310 5139 475570 360167 199"
"156.745197"
"$GPGGA,175302,2421.7253,N,08124.0864,W,1,10,1.3,16"
"##MN-00 00 54 0262 02310 5138 475584 360172 199"
"156.745243"
"$GPGGA,175306,2421.7248,N,08124.0871,W,1,11,1.4,16"
"##MN-00 00 54 0262 02311 5136 475620 360189 199"
"156.745289"
"$GPGGA,175310,2421.7243,N,08124.0874,W,1,11,1.3,17"
"##MN-00 00 53 0263 02311 5134 475667 360203 199"
"156.745336"
"$GPGGA,175314,2421.7240,N,08124.0878,W,1,11,1.3,17"
"##MN+00 00 53 0264 02309 5133 475778 360245 199"
"156.745382"
"$GPGGA,175318,2421.7233,N,08124.0882,W,1,11,1.3,17"
"##MN+00 00 53 0265 02312 5131 475814 360262 198"
"156.745428"
"$GPGGA,175322,2421.7227,N,08124.0889,W,1,11,1.3,17"
"##MN+00 00 64 0266 02312 5130 475933 360290 199"
"156.745474"
"#increment_net"
"$GPGGA,175326,2421.7222,N,08124.0893,W,1,11,1.3,17"
"##MN-00 00 60 0267 02311 5128 476211 360355 200"
"156.745521"
"$GPGGA,175330,2421.7215,N,08124.0900,W,1,11,1.3,18"
"##MN-00 00 56 0268 02315 5126 476496 360425 200"
"156.745567"
"$GPGGA,175334,2421.7209,N,08124.0904,W,1,11,1.3,18"
"##MN-00 00 56 0269 02311 5125 476563 360445 200"
"156.745613"
"$GPGGA,175338,2421.7204,N,08124.0911,W,1,11,1.3,18"
"##MN-00 00 56 0270 02314 5123 476626 360448 200"
"156.74566"
"$GPGGA,175342,2421.7198,N,08124.0918,W,1,11,1.3,18"
"##MN-00 00 55 0271 02311 5121 476698 360463 200"
"156.745706"
"$GPGGA,175346,2421.7191,N,08124.0923,W,1,11,1.3,18"
"##MN-00 00 54 0272 02316 5120 476808 360489 200"
"156.745752"
"$GPGGA,175350,2421.7184,N,08124.0930,W,1,11,1.3,18"
"##MN-00 00 54 0274 02313 5118 476855 360514 200"
"156.745799"
"$GPGGA,175354,2421.7176,N,08124.0939,W,1,10,1.4,18"
"##MN-00 00 56 0275 02313 5116 476881 360512 200"
"156.745845"
"$GPGGA,175358,2421.7169,N,08124.0946,W,1,10,1.4,18"
"##MN-00 00 54 0276 02313 5115 476898 360518 200"
"156.745891"
"$GPGGA,175402,2421.7164,N,08124.0948,W,1,11,1.4,18"
"##MN-00 00 53 0277 02313 5114 476915 360528 200"
"156.745938"
"$GPGGA,175406,2421.7159,N,08124.0951,W,1,11,1.3,18"
"##MN-00 00 53 0278 02315 5112 476939 360544 200"
"156.745984"
"$GPGGA,175410,2421.7152,N,08124.0957,W,1,11,1.3,18"
"##MN-00 00 55 0279 02313 5110 476997 360546 200"
"156.74603"
"$GPGGA,175414,2421.7144,N,08124.0965,W,1,11,1.3,17"
"##MN-00 00 54 0280 02314 5109 477039 360551 200"
"156.746076"
"$GPGGA,175418,2421.7135,N,08124.0970,W,1,10,1.4,17"
"##MN-00 00 54 0281 02315 5107 477169 360586 200"
"156.746123"
"$GPGGA,175422,2421.7128,N,08124.0976,W,1,10,1.4,17"
"##MN-00 00 54 0282 02313 5106 477261 360624 200"
"156.746169"
"$GPGGA,175426,2421.7119,N,08124.0983,W,1,10,1.4,17"
"##MN-00 00 55 0283 02313 5104 477256 360627 200"
"156.746215"
"$GPGGA,175430,2421.7111,N,08124.0988,W,1,10,1.4,17"
"##MN-00 00 55 0284 02313 5103 477234 360634 200"
"156.746262"
"$GPGGA,175434,2421.7105,N,08124.0993,W,1,10,1.4,17"
"##MN-00 00 54 0285 02313 5101 477301 360655 200"
"156.746308"
"$GPGGA,175438,2421.7099,N,08124.0999,W,1,10,1.4,17"
"##MN-00 00 54 0286 02314 5100 477280 360655 200"
"156.746354"
"$GPGGA,175442,2421.7092,N,08124.1006,W,1,9,1.4,16,"
"##MN-00 00 55 0287 02313 5098 477220 360652 200"
"156.7464"
"$GPGGA,175446,2421.7083,N,08124.1012,W,1,10,1.5,16"
"##MN+00 00 54 0288 02316 5097 477111 360630 200"
"156.746447"
"$GPGGA,175450,2421.7076,N,08124.1017,W,1,10,1.4,16"
"##MN+00 00 54 0289 02314 5095 477009 360615 198"
"156.746493"
"$GPGGA,175454,2421.7067,N,08124.1026,W,1,9,1.4,16,"
"##MN+00 00 57 0290 02313 5093 476949 360583 198"
"156.746539"
"$GPGGA,175458,2421.7060,N,08124.1031,W,1,10,1.4,16"
"##MN+00 00 55 0291 02314 5092 476866 360565 198"
"156.746586"
"$GPGGA,175502,2421.7054,N,08124.1037,W,1,10,1.4,16"
"##MN+00 00 54 0292 02313 5091 476809 360562 200"
"156.746632"
"$GPGGA,175506,2421.7046,N,08124.1044,W,1,10,1.4,16"
"##MN+00 00 63 0294 02316 5089 476733 360559 200"
"156.746678"
"#increment_net"
"$GPGGA,175510,2421.7038,N,08124.1051,W,1,10,1.4,16"
"##MN-00 00 58 0294 02314 5088 476761 360556 200"
"156.746725"
"$GPGGA,175514,2421.7032,N,08124.1056,W,1,10,1.4,15"
"##MN-00 00 54 0296 02313 5087 476761 360549 200"
"156.746771"
"$GPGGA,175518,2421.7025,N,08124.1062,W,1,10,1.4,15"
"##MN-00 00 53 0297 02312 5085 476652 360539 200"
"156.746817"
"$GPGGA,175522,2421.7017,N,08124.1069,W,1,9,1.5,15,"
"##MN-00 00 53 0298 02310 5083 476437 360496 200"
"156.746863"
"$GPGGA,175526,2421.7011,N,08124.1073,W,1,10,1.4,15"
"##MN-00 00 53 0299 02312 5081 476090 360439 200"
"156.74691"
"$GPGGA,175530,2421.7006,N,08124.1077,W,1,10,1.4,15"
"##MN-00 00 53 0300 02308 5080 475717 360337 200"
"156.746956"
"$GPGGA,175534,2421.6998,N,08124.1084,W,1,9,1.5,15,"
"##MN-00 00 53 0301 02308 5079 475469 360274 200"
"156.747002"
"$GPGGA,175538,2421.6991,N,08124.1091,W,1,9,1.5,15,"
"##MN-00 00 52 0302 02306 5077 475237 360184 200"
"156.747049"
"$GPGGA,175542,2421.6984,N,08124.1098,W,1,10,1.5,15"
"##MN-00 00 53 0303 02308 5075 474961 360098 200"
"156.747095"
"$GPGGA,175546,2421.6976,N,08124.1105,W,1,10,1.4,15"
"##MN-00 00 54 0304 02305 5074 474746 360056 200"
"156.747141"
"$GPGGA,175550,2421.6975,N,08124.1103,W,1,10,1.4,15"
"##MN-00 00 54 0305 02304 5072 474587 359970 200"
"156.747188"
"$GPGGA,175554,2421.6973,N,08124.1106,W,1,10,1.4,15"
"##MN-00 00 53 0306 02304 5071 474429 359960 200"
"156.747234"
"$GPGGA,175558,2421.6969,N,08124.1110,W,1,10,1.4,16"
"##MN-00 00 54 0307 02305 5069 474314 359875 200"
"156.74728"
"$GPGGA,175602,2421.6963,N,08124.1116,W,1,10,1.4,16"
"##MN-00 00 54 0308 02308 5068 474182 359862 200"
"156.747326"
"$GPGGA,175606,2421.6958,N,08124.1120,W,1,10,1.4,16"
"##MN-00 00 55 0309 02307 5067 474212 359806 200"
"156.747373"
"$GPGGA,175610,2421.6951,N,08124.1123,W,1,10,1.4,16"
"##MN-00 00 55 0310 02307 5065 474468 359836 200"
"156.747419"
"$GPGGA,175614,2421.6945,N,08124.1128,W,1,10,1.4,17"
"##MN-00 00 55 0311 02309 5064 474683 359905 200"
"156.747477"
"$GPGGA,175618,2421.6940,N,08124.1134,W,1,10,1.4,17"
"##MN-00 00 54 0312 02313 5062 474978 359986 200"
"156.747523"
"$GPGGA,175622,2421.6933,N,08124.1139,W,1,10,1.5,17"
"##MN-00 00 53 0313 02314 5061 474998 360001 200"
"156.747569"
"$GPGGA,175626,2421.6928,N,08124.1141,W,1,10,1.4,17"
"##MN-00 00 54 0314 02313 5060 475444 360133 200"
"156.747616"
"$GPGGA,175630,2421.6926,N,08124.1142,W,1,10,1.4,17"
"##MN-00 00 56 0315 02315 5058 475794 360199 200"
"156.747662"
"$GPGGA,175634,2421.6917,N,08124.1150,W,1,9,1.4,17,"
"##MN-00 00 55 0316 02318 5057 476019 360293 200"
"156.747708"
"$GPGGA,175638,2421.6915,N,08124.1151,W,1,9,1.5,17,"
"##MN+00 00 54 0317 02320 5055 476455 360382 200"
"156.747755"
"$GPGGA,175642,2421.6911,N,08124.1153,W,1,10,1.4,17"
"##MN+00 00 55 0318 02321 5054 476641 360427 200"
"156.747801"
"$GPGGA,175646,2421.6904,N,08124.1157,W,1,9,1.4,17,"
"##MN+00 00 55 0319 02324 5052 476867 360519 200"
"156.747847"
"$GPGGA,175650,2421.6899,N,08124.1163,W,1,10,1.4,16"
"##MN-00 00 53 0320 02322 5051 477331 360648 199"
"156.747893"
"$GPGGA,175654,2421.6897,N,08124.1162,W,1,9,1.4,16,"
"##MN-00 00 52 0321 02321 5050 477322 360664 199"
"156.74794"
"$GPGGA,175658,2421.6893,N,08124.1162,W,1,10,1.4,16"
"##MN-00 00 52 0322 02318 5048 477109 360620 199"
"156.747986"
"$GPGGA,175702,2421.6890,N,08124.1162,W,1,10,1.4,16"
"##MN-00 00 53 0323 02320 5047 476819 360573 199"
"156.748032"
"$GPGGA,175707,2421.6886,N,08124.1163,W,1,10,1.4,16"
"##MN+00 00 54 0324 02322 5045 476756 360547 199"
"156.748079"
"$GPGGA,175711,2421.6882,N,08124.1164,W,1,10,1.4,16"
"##MN+00 00 53 0325 02322 5044 476927 360578 200"
"156.748125"
"$GPGGA,175715,2421.6877,N,08124.1165,W,1,10,1.4,16"
"##MN+00 00 62 0326 02330 5043 477325 360644 200"
"156.748171"
"#increment_net"
"$GPGGA,175719,2421.6873,N,08124.1167,W,1,10,1.4,16"
"##MN-00 00 60 0326 02331 5042 477866 360807 198"
"156.748218"
"$GPGGA,175722,2421.6870,N,08124.1171,W,1,10,1.4,16"
"##MN-00 00 59 0328 02333 5041 478464 361031 198"
"156.748264"
"$GPGGA,175727,2421.6865,N,08124.1173,W,1,10,1.4,16"
"##MN-00 00 55 0329 02342 5039 478807 361155 198"
"156.74831"
"$GPGGA,175731,2421.6861,N,08124.1178,W,1,10,1.4,16"
"##MN-00 00 55 0330 02350 5037 478765 361147 198"
"156.748357"
"$GPGGA,175734,2421.6857,N,08124.1181,W,1,10,1.4,16"
"##MN-00 00 55 0331 02355 5036 478759 361073 198"
"156.748403"
"$GPGGA,175739,2421.6852,N,08124.1183,W,1,10,1.4,16"
"##MN-00 00 54 0333 02359 5035 479792 361301 198"
"156.748449"
"$GPGGA,175743,2421.6846,N,08124.1189,W,1,10,1.4,16"
"##MN-00 00 51 0334 02364 5033 480411 361365 198"
"156.748495"
"$GPGGA,175746,2421.6839,N,08124.1193,W,1,10,1.4,16"
"##MN-00 00 54 0335 02358 5031 480719 361515 198"
"156.748542"
"$GPGGA,175751,2421.6835,N,08124.1196,W,1,10,1.4,16"
"##MN-00 00 54 0337 02356 5030 480744 361561 198"
"156.748588"
"$GPGGA,175755,2421.6828,N,08124.1199,W,1,10,2.0,16"
"##MN-00 00 52 0338 02358 5029 480667 361554 198"
"156.748634"
"$GPGGA,175759,2421.6822,N,08124.1203,W,1,10,1.5,16"
"##MN-00 00 52 0339 02354 5028 480515 361552 198"
"156.748681"
"$GPGGA,175803,2421.6816,N,08124.1204,W,1,10,1.4,16"
"##MN-00 00 56 0341 02349 5026 480346 361549 198"
"156.748727"
"$GPGGA,175807,2421.6811,N,08124.1204,W,1,10,1.4,16"
"##MN-00 00 54 0342 02345 5025 479756 361486 198"
"156.748773"
"$GPGGA,175811,2421.6803,N,08124.1208,W,1,9,1.5,16,"
"##MN-00 00 52 0343 02344 5024 479042 361246 198"
"156.748819"
"$GPGGA,175815,2421.6797,N,08124.1207,W,1,10,1.4,17"
"##MN-00 00 53 0345 02340 5022 478638 361098 198"
"156.748866"
"$GPGGA,175819,2421.6790,N,08124.1207,W,1,9,1.4,17,"
"##MN-00 00 54 0346 02335 5021 478698 361135 198"
"156.748912"
"$GPGGA,175823,2421.6783,N,08124.1212,W,1,9,1.4,17,"
"##MN-00 00 51 0347 02332 5020 478960 361281 198"
"156.748958"
"$GPGGA,175827,2421.6779,N,08124.1212,W,1,10,1.4,17"
"##MN-00 00 51 0349 02330 5018 478904 361304 198"
"156.749005"
"$GPGGA,175831,2421.6774,N,08124.1215,W,1,10,1.4,17"
"##MN-00 00 51 0350 02326 5017 478437 361237 198"
"156.749051"
"$GPGGA,175835,2421.6768,N,08124.1218,W,1,10,1.4,18"
"##MN-00 00 49 0351 02323 5015 477839 361039 198"
"156.749097"
"$GPGGA,175839,2421.6764,N,08124.1222,W,1,9,1.4,18,"
"##MN-00 00 50 0352 02319 5014 477235 360929 198"
"156.749144"
"$GPGGA,175843,2421.6763,N,08124.1225,W,1,10,1.4,18"
"##MN-00 00 51 0354 02315 5013 476081 360577 198"
"156.74919"
"$GPGGA,175847,2421.6756,N,08124.1229,W,1,10,1.4,18"
"##MN-00 00 50 0355 02313 5011 474754 360328 198"
"156.749236"
"$GPGGA,175851,2421.6750,N,08124.1232,W,1,10,1.4,18"
"##MN-00 00 49 0356 02312 5010 473899 360009 198"
"156.749282"
"$GPGGA,175855,2421.6743,N,08124.1239,W,1,9,1.4,18,"
"##MN-00 00 50 0358 02307 5009 472988 359695 198"
"156.749329"
"$GPGGA,175859,2421.6738,N,08124.1240,W,1,10,1.4,18"
"##MN-00 00 51 0359 02301 5007 471928 359270 198"
"156.749375"
"$GPGGA,175903,2421.6732,N,08124.1244,W,1,10,1.4,18"
"##MN-00 00 50 0360 02298 5006 471298 359131 198"
"156.749421"
"$GPGGA,175907,2421.6727,N,08124.1246,W,1,10,1.4,18"
"##MN-00 00 49 0361 02293 5005 470447 358682 198"
"156.749468"
"$GPGGA,175911,2421.6720,N,08124.1251,W,1,10,1.4,18"
"##MN-00 00 50 0362 02287 5003 469711 358480 198"
"156.749514"
"$GPGGA,175915,2421.6713,N,08124.1257,W,1,10,1.4,18"
"##MN-00 00 46 0364 02285 5003 469005 358250 198"
"156.74956"
"$GPGGA,175919,2421.6707,N,08124.1261,W,1,10,1.4,18"
"##MN-00 00 45 0365 02283 5001 468374 357999 198"
"156.749606"
"$GPGGA,175923,2421.6702,N,08124.1265,W,1,9,1.5,18,"
"##MN-00 00 45 0366 02280 5000 467583 357788 198"
"156.749653"
"$GPGGA,175927,2421.6692,N,08124.1272,W,1,10,1.4,18"
"##MN-00 00 46 0367 02272 4998 467047 357409 198"
"156.749699"
"$GPGGA,175931,2421.6684,N,08124.1279,W,1,10,1.4,18"
"##MN-00 00 46 0369 02271 4997 466700 357260 198"
"156.749745"
"$GPGGA,175935,2421.6674,N,08124.1282,W,1,10,1.4,18"
"##MN-00 00 45 0370 02263 4996 466408 357190 198"
"156.749792"
"$GPGGA,175939,2421.6669,N,08124.1284,W,1,10,1.4,18"
"##MN-00 00 44 0371 02260 4994 466105 357093 198"
"156.749838"
"$GPGGA,175943,2421.6660,N,08124.1287,W,1,10,1.4,17"
"##MN-00 00 43 0372 02256 4993 465873 356936 198"
"156.749884"
"$GPGGA,175947,2421.6655,N,08124.1290,W,1,10,1.4,17"
"##MN-00 00 45 0374 02249 4992 465672 356892 198"
"156.749931"
"$GPGGA,175951,2421.6646,N,08124.1293,W,1,10,1.4,17"
"##MN-00 00 48 0375 02241 4991 465599 356837 198"
"156.749977"
"$GPGGA,175955,2421.6638,N,08124.1296,W,1,10,1.4,17"
"##MN-00 00 46 0376 02236 4990 465489 356796 198"
"156.750023"
"$GPGGA,175959,2421.6630,N,08124.1298,W,1,10,1.4,17"
"##MN-00 00 44 0377 02233 4988 465293 356763 198"
"156.750069"
"$GPGGA,180003,2421.6624,N,08124.1301,W,1,10,1.4,17"
"##MN-00 00 44 0378 02230 4987 465007 356686 198"
"156.750116"
"$GPGGA,180007,2421.6616,N,08124.1304,W,1,10,1.4,16"
"##MN-00 00 44 0380 02223 4986 464677 356617 198"
"156.750162"
"$GPGGA,180011,2421.6608,N,08124.1305,W,1,10,1.4,16"
"##MN-00 00 44 0381 02219 4985 464332 356406 198"
"156.750208"
"$GPGGA,180015,2421.6600,N,08124.1306,W,1,10,1.4,16"
"##MN-00 00 43 0382 02212 4984 463980 356301 198"
"156.750255"
"$GPGGA,180019,2421.6592,N,08124.1308,W,1,10,1.4,16"
"##MN-00 00 43 0383 02207 4983 463842 356250 198"
"156.750301"
"$GPGGA,180023,2421.6584,N,08124.1309,W,1,10,1.4,16"
"##MN-00 00 42 0384 02201 4982 463775 356201 198"
"156.750347"
"$GPGGA,180027,2421.6576,N,08124.1311,W,1,10,1.4,16"
"##MN-00 00 41 0386 02198 4981 463743 356184 198"
"156.750394"
"$GPGGA,180031,2421.6568,N,08124.1313,W,1,10,1.4,15"
"##MN-00 00 41 0387 02192 4980 463659 356199 198"
"156.75044"
"$GPGGA,180035,2421.6559,N,08124.1315,W,1,10,1.4,15"
"##MN-00 00 40 0388 02186 4979 463342 356150 198"
"156.750486"
"$GPGGA,180039,2421.6550,N,08124.1319,W,1,10,1.4,15"
"##MN-00 00 40 0389 02183 4978 462862 355921 198"
"156.750532"
"$GPGGA,180043,2421.6543,N,08124.1317,W,1,10,1.4,15"
"##MN-00 00 39 0390 02177 4977 462368 355726 198"
"156.750579"
"$GPGGA,180047,2421.6536,N,08124.1318,W,1,10,1.4,15"
"##MN-00 00 40 0391 02170 4976 461504 355394 198"
"156.750625"
"$GPGGA,180051,2421.6529,N,08124.1320,W,1,9,1.4,16,"
"##MN-00 00 41 0392 02160 4975 461062 355228 198"
"156.750671"
"$GPGGA,180055,2421.6521,N,08124.1322,W,1,9,1.4,16,"
"##MN-00 00 40 0394 02156 4974 460874 355218 198"
"156.750729"
"$GPGGA,180059,2421.6511,N,08124.1323,W,1,9,1.4,16,"
"##MN-00 00 39 0395 02152 4973 460562 355160 198"
"156.750775"
"$GPGGA,180103,2421.6503,N,08124.1324,W,1,9,1.4,16,"
"##MN-00 00 40 0396 02144 4972 460116 355035 198"
"156.750822"
"$GPGGA,180107,2421.6493,N,08124.1326,W,1,9,1.4,16,"
"##MN-00 00 41 0397 02136 4971 459787 354972 198"
"156.750868"
"$GPGGA,180111,2421.6485,N,08124.1329,W,1,10,1.4,16"
"##MN-00 00 40 0398 02133 4971 459517 354825 198"
"156.750914"
"$GPGGA,180115,2421.6474,N,08124.1329,W,1,10,1.4,16"
"##MN-00 00 40 0399 02124 4970 459228 354722 198"
"156.750961"
"$GPGGA,180119,2421.6463,N,08124.1333,W,1,10,1.4,16"
"##MN-00 00 41 0400 02117 4969 458963 354672 198"
"156.751007"
"$GPGGA,180123,2421.6453,N,08124.1334,W,1,10,1.4,16"
"##MN-00 00 40 0402 02110 4968 458600 354597 198"
"156.751053"
"$GPGGA,180127,2421.6445,N,08124.1335,W,1,10,1.4,16"
"##MN-00 00 38 0403 02102 4968 457710 354243 198"
"156.7511"
"$GPGGA,180131,2421.6432,N,08124.1338,W,1,9,1.4,17,"
"##MN-00 00 40 0404 02093 4967 456348 353957 198"
"156.751146"
"$GPGGA,180135,2421.6417,N,08124.1344,W,1,9,1.7,16,"
"##MN-00 00 42 0405 02079 4966 455569 353521 198"
"156.751192"
"$GPGGA,180140,2421.6400,N,08124.1352,W,1,10,1.4,17"
"##MN-00 00 43 0406 02074 4965 453357 353130 198"
"156.751238"
"$GPGGA,180143,2421.6392,N,08124.1353,W,1,9,1.7,17,"
"##MN-00 00 42 0407 02064 4964 451106 352425 198"
"156.751285"
"$GPGGA,180147,2421.6380,N,08124.1358,W,1,8,1.9,17,"
"##MN-00 00 41 0409 02054 4964 449144 352030 198"
"156.751331"
"$GPGGA,180151,2421.6366,N,08124.1365,W,1,9,1.4,17,"
"##MN-00 00 42 0410 02043 4963 448279 351592 198"
"156.751377"
"$GPGGA,180155,2421.6355,N,08124.1366,W,1,10,1.4,18"
"##MN-00 00 43 0411 02031 4963 447785 351020 198"
"156.751424"
"$GPGGA,180200,2421.6338,N,08124.1368,W,1,10,1.4,18"
"##MN-00 00 45 0413 02024 4962 447373 350840 198"
"156.75147"
"$GPGGA,180203,2421.6327,N,08124.1369,W,1,10,1.4,18"
"##MN-00 00 45 0414 02015 4961 447184 350761 198"
"156.751516"
"$GPGGA,180208,2421.6304,N,08124.1376,W,1,9,1.9,19,"
"##MN-00 00 45 0415 02006 4961 447114 350659 198"
"156.751563"
"$GPGGA,180212,2421.6287,N,08124.1387,W,1,9,1.5,19,"
"##MN-00 00 45 0417 01996 4960 447096 350481 198"
"156.751609"
"$GPGGA,180216,2421.6268,N,08124.1392,W,1,9,1.5,19,"
"##MN-00 00 48 0418 01985 4959 446991 350396 198"
"156.751655"
"$GPGGA,180220,2421.6251,N,08124.1392,W,1,9,1.4,19,"
"##MN-00 00 49 0419 01978 4959 446889 350329 198"
"156.751701"
"$GPGGA,180224,2421.6236,N,08124.1393,W,1,9,1.5,19,"
"##MN-00 00 48 0421 01973 4958 446822 350314 198"
"156.751748"
"$GPGGA,180228,2421.6218,N,08124.1395,W,1,9,1.5,19,"
"##MN-00 00 47 0422 01969 4958 446716 350249 198"
"156.751794"
"$GPGGA,180232,2421.6203,N,08124.1395,W,1,9,1.5,19,"
"##MN-00 00 48 0423 01958 4958 446632 350216 198"
"156.75184"
"$GPGGA,180236,2421.6189,N,08124.1392,W,1,10,1.4,20"
"##MN-00 00 49 0425 01951 4957 446559 350180 198"
"156.751887"
"$GPGGA,180240,2421.6178,N,08124.1389,W,1,10,1.5,20"
"##MN-00 00 50 0426 01945 4957 446511 350147 198"
"156.751933"
"$GPGGA,180244,2421.6160,N,08124.1392,W,1,9,1.4,20,"
"##MN-00 00 51 0427 01937 4957 446477 350130 198"
"156.751979"
"$GPGGA,180248,2421.6146,N,08124.1389,W,1,10,1.5,20"
"##MN-00 00 51 0429 01930 4956 446438 350121 198"
"156.752025"
"$GPGGA,180252,2421.6128,N,08124.1390,W,1,10,1.4,20"
"##MN-00 00 52 0430 01920 4956 446399 350104 198"
"156.752072"
"$GPGGA,180256,2421.6113,N,08124.1388,W,1,10,1.4,19"
"##MN-00 00 50 0431 01916 4956 446361 350100 198"
"156.752118"
"$GPGGA,180300,2421.6099,N,08124.1384,W,1,10,1.4,19"
"##MN-00 00 49 0432 01907 4956 446330 350080 198"
