" Tow: 5Wm-A   RVWS/WS1406"
" Date: 06/05/2014"
" Temperature Probe #  2597    Conductivity Probe #  2870"
" Pressure Probe #  109"
" Flow Meter Calibration  4.71 (m/count)  "
"156.962824"
"$GPGGA,230620,2425.7815,N,08121.4313,W,1,10,1.5,23"
"##MN-00 00 38 0084 01864 5303 435794 925173 200"
"156.96287"
"$GPGGA,230628,2425.7771,N,08121.4291,W,1,10,1.5,23"
"##MN-00 00 19 0084 01864 5303 438654 925229 200"
"156.962917"
"$GPGGA,230632,2425.7748,N,08121.4282,W,1,10,1.5,23"
"##MN-00 00 25 0084 01864 5304 438743 925213 200"
"156.962963"
"$GPGGA,230636,2425.7726,N,08121.4270,W,1,10,1.6,23"
"##MN-00 00 36 0084 01863 5304 439334 925213 200"
"156.963009"
"$GPGGA,230640,2425.7704,N,08121.4263,W,1,10,1.5,22"
"##MN-00 00 43 0085 01864 5304 440353 850070 200"
"156.963056"
"$GPGGA,230644,2425.7688,N,08121.4256,W,1,10,1.5,22"
"##MN-00 00 47 0085 01865 5305 442705 391852 200"
"156.963102"
"$GPGGA,230648,2425.7663,N,08121.4247,W,1,10,1.5,22"
"##MN-00 00 50 0086 01865 5305 442695 348921 200"
"156.963148"
"$GPGGA,230652,2425.7646,N,08121.4240,W,1,10,1.5,22"
"##MN-00 00 49 0086 01864 5305 442722 348994 200"
"156.963194"
"$GPGGA,230656,2425.7621,N,08121.4232,W,1,10,1.5,22"
"##MN-00 00 52 0087 01864 5305 442736 348931 200"
"156.963241"
"$GPGGA,230700,2425.7601,N,08121.4225,W,1,10,1.5,21"
"##MN-00 00 49 0088 01863 5305 442757 349039 200"
"156.963287"
"$GPGGA,230704,2425.7583,N,08121.4215,W,1,10,1.6,21"
"##MN-00 00 49 0088 01864 5306 442776 349247 200"
"156.963333"
"$GPGGA,230708,2425.7565,N,08121.4208,W,1,10,1.6,21"
"##MN-00 00 51 0089 01864 5306 442769 349168 200"
"156.96338"
"$GPGGA,230712,2425.7545,N,08121.4200,W,1,10,1.6,21"
"##MN-00 00 54 0090 01865 5307 442751 349128 200"
"156.963426"
"$GPGGA,230716,2425.7526,N,08121.4192,W,1,10,1.6,21"
"##MN-00 00 54 0090 01871 5307 442740 349141 200"
"156.963472"
"$GPGGA,230720,2425.7508,N,08121.4184,W,1,10,1.6,21"
"##MN-00 00 55 0091 01876 5308 442756 349144 200"
"156.963519"
"$GPGGA,230725,2425.7486,N,08121.4173,W,1,10,1.6,21"
"##MN-00 00 54 0092 01883 5308 442724 349142 200"
"156.963565"
"$GPGGA,230729,2425.7466,N,08121.4166,W,1,9,1.5,21,"
"##MN-00 00 52 0092 01889 5308 442721 349149 200"
"156.963611"
"$GPGGA,230733,2425.7446,N,08121.4159,W,1,10,1.5,21"
"##MN-00 00 51 0093 01894 5308 442722 349134 200"
"156.963657"
"$GPGGA,230737,2425.7428,N,08121.4149,W,1,10,1.5,21"
"##MN-00 00 54 0094 01903 5308 442741 349146 200"
"156.963704"
"$GPGGA,230741,2425.7407,N,08121.4140,W,1,10,1.5,21"
"##MN-00 00 54 0094 01909 5308 442876 349165 200"
"156.96375"
"$GPGGA,230744,2425.7394,N,08121.4134,W,1,10,1.6,21"
"##MN-00 00 53 0095 01919 5309 442944 349186 200"
"156.963796"
"$GPGGA,230749,2425.7370,N,08121.4125,W,1,10,1.5,21"
"##MN-00 00 54 0096 01929 5309 443027 349224 200"
"156.963843"
"$GPGGA,230753,2425.7352,N,08121.4116,W,1,10,1.5,22"
"##MN-00 00 54 0096 01938 5309 443300 349281 200"
"156.963889"
"$GPGGA,230757,2425.7334,N,08121.4107,W,1,10,1.5,22"
"##MN-00 00 52 0097 01944 5309 443555 349319 200"
"156.963935"
"$GPGGA,230801,2425.7316,N,08121.4098,W,1,10,1.5,22"
"##MN-00 00 54 0098 01955 5310 443782 349363 200"
"156.963981"
"$GPGGA,230805,2425.7295,N,08121.4090,W,1,10,1.5,22"
"##MN-00 00 54 0098 01965 5310 443816 349345 200"
"156.964028"
"$GPGGA,230809,2425.7276,N,08121.4082,W,1,10,1.5,22"
"##MN-00 00 52 0099 01971 5310 443822 349329 200"
"156.964074"
"$GPGGA,230813,2425.7256,N,08121.4073,W,1,10,1.5,22"
"##MN-00 00 52 0100 01976 5310 443841 349326 200"
"156.96412"
"$GPGGA,230817,2425.7236,N,08121.4064,W,1,10,1.4,22"
"##MN-00 00 52 0100 01981 5311 443862 349334 200"
"156.964167"
"$GPGGA,230821,2425.7216,N,08121.4054,W,1,10,1.4,22"
"##MN-00 00 54 0101 01991 5311 443877 349333 200"
"156.964213"
"$GPGGA,230825,2425.7197,N,08121.4047,W,1,10,1.4,22"
"##MN-00 00 53 0102 01997 5311 443889 349330 200"
"156.964259"
"$GPGGA,230829,2425.7176,N,08121.4039,W,1,10,1.4,22"
"##MN-00 00 53 0102 02008 5312 443910 349336 200"
"156.964306"
"$GPGGA,230833,2425.7157,N,08121.4031,W,1,10,1.4,22"
"##MN-00 00 53 0103 02012 5312 443969 349347 200"
"156.964352"
"$GPGGA,230837,2425.7139,N,08121.4022,W,1,10,1.6,22"
"##MN-00 00 54 0104 02020 5312 444037 349385 200"
"156.964398"
"$GPGGA,230841,2425.7118,N,08121.4014,W,1,10,1.4,22"
"##MN-00 00 54 0104 02027 5312 444271 349454 200"
"156.964444"
"$GPGGA,230845,2425.7099,N,08121.4008,W,1,10,1.4,22"
"##MN-00 00 53 0105 02031 5312 444388 349501 200"
"156.964491"
"$GPGGA,230849,2425.7081,N,08121.4002,W,1,10,2.2,22"
"##MN-00 00 53 0106 02037 5313 444755 349645 200"
"156.964537"
"$GPGGA,230853,2425.7061,N,08121.3996,W,1,10,2.2,22"
"##MN-00 00 52 0106 02040 5313 445350 349798 200"
"156.964583"
"$GPGGA,230857,2425.7041,N,08121.3989,W,1,10,2.2,22"
"##MN-00 00 54 0107 02051 5313 445813 349936 200"
"156.96463"
"$GPGGA,230901,2425.7023,N,08121.3983,W,1,10,2.2,22"
"##MN-00 00 53 0108 02055 5313 446234 350055 200"
"156.964676"
"$GPGGA,230905,2425.7002,N,08121.3978,W,1,10,2.2,21"
"##MN-00 00 54 0108 02062 5313 446460 350120 200"
"156.964722"
"$GPGGA,230909,2425.6983,N,08121.3970,W,1,10,2.2,21"
"##MN-00 00 55 0109 02075 5313 446593 350141 200"
"156.964768"
"$GPGGA,230913,2425.6964,N,08121.3962,W,1,10,2.2,21"
"##MN-00 00 51 0110 02078 5313 446651 350160 200"
"156.964815"
"$GPGGA,230917,2425.6946,N,08121.3954,W,1,10,2.2,20"
"##MN-00 00 54 0110 02085 5314 446687 350166 200"
"156.964861"
"$GPGGA,230921,2425.6928,N,08121.3946,W,1,9,2.3,20,"
"##MN-00 00 54 0111 02092 5314 446713 350171 200"
"156.964907"
"$GPGGA,230925,2425.6909,N,08121.3937,W,1,9,2.3,19,"
"##MN-00 00 54 0112 02097 5314 446725 350170 200"
"156.964965"
"$GPGGA,230929,2425.6889,N,08121.3930,W,1,10,2.2,19"
"##MN-00 00 53 0113 02107 5314 446756 350175 200"
"156.965012"
"$GPGGA,230933,2425.6869,N,08121.3922,W,1,10,2.2,19"
"##MN-00 00 53 0113 02111 5314 446778 350178 200"
"156.965058"
"$GPGGA,230937,2425.6850,N,08121.3915,W,1,10,2.2,19"
"##MN-00 00 54 0114 02120 5314 446805 350175 200"
"156.965104"
"$GPGGA,230941,2425.6832,N,08121.3907,W,1,10,2.2,19"
"##MN-00 00 54 0115 02126 5314 446902 350165 200"
"156.96515"
"$GPGGA,230945,2425.6812,N,08121.3899,W,1,10,2.2,19"
"##MN-00 00 51 0115 02123 5315 447104 350178 200"
"156.965197"
"$GPGGA,230949,2425.6793,N,08121.3891,W,1,10,2.2,19"
"##MN-00 00 49 0116 02125 5315 447182 350193 200"
"156.965243"
"$GPGGA,230953,2425.6774,N,08121.3883,W,1,10,2.2,19"
"##MN+00 00 51 0117 02122 5315 447168 350205 200"
"156.965289"
"$GPGGA,230957,2425.6753,N,08121.3875,W,1,10,2.2,19"
"##MN+00 00 49 0118 02120 5315 447111 350191 200"
"156.965336"
"$GPGGA,231001,2425.6735,N,08121.3867,W,1,10,2.2,19"
"##MN+00 00 50 0119 02118 5315 447081 350185 200"
"156.965382"
"$GPGGA,231005,2425.6716,N,08121.3860,W,1,10,2.1,18"
"##MN+00 00 50 0120 02120 5315 447081 350186 200"
"156.965428"
"$GPGGA,231009,2425.6698,N,08121.3852,W,1,10,2.1,18"
"##MN+00 00 50 0121 02119 5315 447076 350185 200"
"156.965475"
"$GPGGA,231013,2425.6678,N,08121.3844,W,1,10,2.1,18"
"##MN+00 00 60 0121 02122 5315 447084 350187 200"
"156.965521"
"$GPGGA,231017,2425.6660,N,08121.3837,W,1,10,2.1,18"
"##MN-00 00 54 0122 02120 5315 447146 350198 200"
"156.965567"
"#increment_net"
"$GPGGA,231021,2425.6641,N,08121.3830,W,1,10,2.1,18"
"##MN-00 00 53 0123 02119 5315 447165 350206 200"
"156.965613"
"$GPGGA,231025,2425.6622,N,08121.3821,W,1,10,2.1,18"
"##MN-00 00 51 0124 02120 5315 447110 350196 200"
"156.96566"
"$GPGGA,231029,2425.6604,N,08121.3813,W,1,10,2.1,17"
"##MN-00 00 52 0125 02116 5315 447059 350189 200"
"156.965706"
"$GPGGA,231033,2425.6584,N,08121.3806,W,1,10,2.1,17"
"##MN-00 00 52 0126 02117 5315 447037 350190 200"
"156.965752"
"$GPGGA,231037,2425.6565,N,08121.3799,W,1,10,2.1,17"
"##MN-00 00 52 0126 02116 5315 447003 350191 200"
"156.965799"
"$GPGGA,231041,2425.6546,N,08121.3789,W,1,10,2.1,17"
"##MN-00 00 52 0127 02114 5315 446980 350192 200"
"156.965845"
"$GPGGA,231045,2425.6528,N,08121.3782,W,1,10,2.1,17"
"##MN-00 00 51 0128 02112 5315 446948 350191 200"
"156.965891"
"$GPGGA,231049,2425.6510,N,08121.3775,W,1,10,2.1,17"
"##MN-00 00 53 0129 02112 5315 446931 350190 200"
"156.965938"
"$GPGGA,231053,2425.6492,N,08121.3768,W,1,10,2.1,16"
"##MN-00 00 52 0130 02114 5315 446936 350189 200"
"156.965984"
"$GPGGA,231057,2425.6474,N,08121.3760,W,1,10,2.1,16"
"##MN-00 00 53 0131 02114 5315 446953 350189 200"
"156.96603"
"$GPGGA,231101,2425.6456,N,08121.3751,W,1,10,2.1,16"
"##MN-00 00 49 0131 02111 5315 446960 350188 200"
"156.966076"
"$GPGGA,231105,2425.6438,N,08121.3745,W,1,10,2.1,16"
"##MN-00 00 52 0132 02112 5316 446980 350190 200"
"156.966123"
"$GPGGA,231109,2425.6420,N,08121.3738,W,1,10,2.1,16"
"##MN-00 00 53 0133 02114 5315 446983 350190 200"
"156.966169"
"$GPGGA,231113,2425.6402,N,08121.3731,W,1,10,2.1,16"
"##MN-00 00 54 0134 02113 5315 446999 350193 200"
"156.966215"
"$GPGGA,231117,2425.6385,N,08121.3724,W,1,10,2.1,16"
"##MN-00 00 52 0135 02117 5315 447057 350198 200"
"156.966262"
"$GPGGA,231121,2425.6367,N,08121.3716,W,1,10,2.1,15"
"##MN-00 00 51 0136 02116 5315 447119 350198 200"
"156.966308"
"$GPGGA,231125,2425.6350,N,08121.3707,W,1,10,2.1,15"
"##MN-00 00 52 0136 02115 5315 447155 350201 200"
"156.966354"
"$GPGGA,231129,2425.6333,N,08121.3700,W,1,10,2.1,15"
"##MN-00 00 53 0137 02116 5315 447288 350237 200"
"156.9664"
"$GPGGA,231133,2425.6315,N,08121.3692,W,1,10,2.1,15"
"##MN-00 00 52 0138 02116 5315 447469 350273 200"
"156.966447"
"$GPGGA,231137,2425.6297,N,08121.3683,W,1,10,2.1,15"
"##MN-00 00 52 0139 02116 5315 447483 350279 200"
"156.966493"
"$GPGGA,231141,2425.6279,N,08121.3675,W,1,10,2.1,15"
"##MN-00 00 52 0140 02116 5315 447526 350304 200"
"156.966539"
"$GPGGA,231145,2425.6262,N,08121.3670,W,1,10,2.1,15"
"##MN-00 00 52 0141 02118 5315 447573 350310 200"
"156.966586"
"$GPGGA,231150,2425.6240,N,08121.3659,W,1,10,2.1,15"
"##MN-00 00 51 0141 02120 5315 447605 350313 200"
"156.966632"
"$GPGGA,231154,2425.6222,N,08121.3651,W,1,10,2.1,15"
"##MN-00 00 51 0142 02117 5315 447610 350321 200"
"156.966678"
"$GPGGA,231157,2425.6208,N,08121.3645,W,1,10,2.1,15"
"##MN-00 00 50 0143 02116 5315 447621 350326 200"
"156.966725"
"$GPGGA,231201,2425.6190,N,08121.3636,W,1,10,2.1,14"
"##MN-00 00 52 0144 02113 5315 447626 350331 200"
"156.966771"
"$GPGGA,231205,2425.6172,N,08121.3628,W,1,10,2.1,14"
"##MN-00 00 52 0145 02116 5315 447624 350333 200"
"156.966817"
"$GPGGA,231209,2425.6154,N,08121.3619,W,1,10,2.1,14"
"##MN+00 00 52 0145 02115 5315 447603 350328 200"
"156.966863"
"$GPGGA,231214,2425.6132,N,08121.3610,W,1,10,2.1,14"
"##MN+00 00 49 0146 02116 5315 447587 350324 200"
"156.96691"
"$GPGGA,231218,2425.6114,N,08121.3602,W,1,10,2.1,14"
"##MN+00 00 51 0147 02114 5314 447573 350323 200"
"156.966956"
"$GPGGA,231222,2425.6097,N,08121.3594,W,1,10,2.1,14"
"##MN-00 00 53 0148 02116 5314 447606 350327 200"
"156.967002"
"$GPGGA,231226,2425.6079,N,08121.3587,W,1,10,2.1,14"
"##MN-00 00 51 0149 02116 5314 447609 350333 200"
"156.967049"
"$GPGGA,231230,2425.6061,N,08121.3581,W,1,10,2.1,14"
"##MN-00 00 51 0150 02116 5314 447535 350312 200"
"156.967095"
"$GPGGA,231234,2425.6044,N,08121.3574,W,1,10,2.1,14"
"##MN-00 00 53 0151 02115 5314 447366 350282 200"
"156.967141"
"$GPGGA,231238,2425.6026,N,08121.3569,W,1,10,2.1,14"
"##MN+00 00 50 0151 02118 5314 447267 350253 200"
"156.967187"
"$GPGGA,231242,2425.6008,N,08121.3560,W,1,10,2.1,14"
"##MN+00 00 52 0152 02115 5314 447146 350240 200"
"156.967234"
"$GPGGA,231246,2425.5990,N,08121.3552,W,1,10,2.1,14"
"##MN+00 00 62 0153 02115 5314 447054 350357 200"
"156.96728"
"#increment_net"
"$GPGGA,231250,2425.5972,N,08121.3546,W,1,10,2.1,14"
"##MN-00 00 57 0154 02118 5313 447026 350211 200"
"156.967326"
"$GPGGA,231254,2425.5954,N,08121.3538,W,1,10,2.1,14"
"##MN-00 00 52 0155 02118 5313 447021 350213 200"
"156.967373"
"$GPGGA,231258,2425.5936,N,08121.3530,W,1,10,2.1,14"
"##MN-00 00 52 0156 02115 5313 446987 350210 200"
"156.967419"
"$GPGGA,231302,2425.5918,N,08121.3522,W,1,10,2.1,14"
"##MN-00 00 51 0156 02114 5313 446945 350204 200"
"156.967465"
"$GPGGA,231306,2425.5900,N,08121.3516,W,1,10,2.1,14"
"##MN-00 00 51 0157 02115 5313 446903 350202 200"
"156.967512"
"$GPGGA,231310,2425.5882,N,08121.3509,W,1,10,2.1,14"
"##MN-00 00 50 0158 02116 5313 446875 350203 200"
"156.967558"
"$GPGGA,231314,2425.5863,N,08121.3501,W,1,10,2.1,14"
"##MN-00 00 51 0159 02114 5313 446852 350201 200"
"156.967604"
"$GPGGA,231318,2425.5845,N,08121.3493,W,1,10,2.1,14"
"##MN-00 00 51 0160 02115 5312 446843 350193 200"
"156.96765"
"$GPGGA,231322,2425.5827,N,08121.3486,W,1,10,2.1,14"
"##MN-00 00 49 0161 02117 5312 446837 350190 200"
"156.967697"
"$GPGGA,231326,2425.5809,N,08121.3480,W,1,10,2.1,14"
"##MN-00 00 51 0162 02113 5312 446832 350188 200"
"156.967743"
"$GPGGA,231330,2425.5791,N,08121.3473,W,1,10,2.1,14"
"##MN-00 00 51 0162 02115 5312 446829 350187 200"
"156.967789"
"$GPGGA,231334,2425.5773,N,08121.3466,W,1,10,2.1,14"
"##MN-00 00 50 0163 02112 5312 446827 350187 200"
"156.967836"
"$GPGGA,231338,2425.5755,N,08121.3458,W,1,10,2.1,14"
"##MN-00 00 51 0164 02112 5312 446828 350187 200"
"156.967882"
"$GPGGA,231342,2425.5737,N,08121.3450,W,1,10,2.1,14"
"##MN-00 00 51 0165 02112 5312 446831 350185 200"
"156.967928"
"$GPGGA,231346,2425.5719,N,08121.3441,W,1,10,2.1,15"
"##MN-00 00 51 0166 02114 5311 446836 350664 200"
"156.967975"
"$GPGGA,231350,2425.5701,N,08121.3435,W,1,10,2.1,15"
"##MN-00 00 51 0166 02111 5311 446840 350186 200"
"156.968021"
"$GPGGA,231354,2425.5683,N,08121.3429,W,1,10,2.1,15"
"##MN-00 00 51 0167 02110 5311 446837 350186 200"
"156.968067"
"$GPGGA,231358,2425.5665,N,08121.3421,W,1,10,2.1,15"
"##MN-00 00 51 0168 02112 5311 446833 350184 200"
"156.968113"
"$GPGGA,231402,2425.5647,N,08121.3414,W,1,10,2.1,15"
"##MN-00 00 49 0169 02111 5311 446833 350185 200"
"156.96816"
"$GPGGA,231406,2425.5629,N,08121.3407,W,1,10,2.1,15"
"##MN-00 00 52 0170 02110 5310 446832 350184 200"
"156.968218"
"$GPGGA,231410,2425.5611,N,08121.3400,W,1,10,2.1,15"
"##MN-00 00 50 0170 02112 5310 446834 350184 200"
"156.968264"
"$GPGGA,231414,2425.5594,N,08121.3394,W,1,10,2.1,16"
"##MN-00 00 49 0171 02112 5311 446833 350184 200"
"156.96831"
"$GPGGA,231418,2425.5576,N,08121.3386,W,1,10,2.1,16"
"##MN-00 00 52 0172 02111 5311 446832 350183 200"
"156.968356"
"$GPGGA,231422,2425.5558,N,08121.3381,W,1,10,2.1,16"
"##MN-00 00 51 0173 02113 5310 446834 350183 200"
"156.968403"
"$GPGGA,231426,2425.5542,N,08121.3374,W,1,10,2.1,15"
"##MN-00 00 50 0174 02111 5310 446838 350184 200"
"156.968449"
"$GPGGA,231430,2425.5524,N,08121.3367,W,1,10,2.1,15"
"##MN-00 00 52 0175 02111 5310 446843 350184 200"
"156.968495"
"$GPGGA,231434,2425.5506,N,08121.3361,W,1,10,2.1,15"
"##MN-00 00 51 0175 02114 5310 446848 350185 200"
"156.968542"
"$GPGGA,231438,2425.5489,N,08121.3353,W,1,10,2.1,15"
"##MN-00 00 49 0176 02116 5310 446853 350186 200"
"156.968588"
"$GPGGA,231442,2425.5472,N,08121.3344,W,1,10,2.1,15"
"##MN+00 00 49 0177 02113 5309 446857 350186 200"
"156.968634"
"$GPGGA,231446,2425.5454,N,08121.3335,W,1,10,2.1,15"
"##MN+00 00 51 0178 02112 5309 446853 350186 200"
"156.968681"
"$GPGGA,231450,2425.5436,N,08121.3327,W,1,10,2.1,15"
"##MN+00 00 51 0179 02114 5309 446849 350185 200"
"156.968727"
"$GPGGA,231454,2425.5419,N,08121.3319,W,1,10,2.1,15"
"##MN-00 00 51 0180 02115 5309 446850 350185 200"
"156.968773"
"$GPGGA,231458,2425.5401,N,08121.3313,W,1,10,2.1,15"
"##MN-00 00 50 0180 02115 5309 446852 350185 200"
"156.968819"
"$GPGGA,231502,2425.5384,N,08121.3305,W,1,10,2.1,15"
"##MN-00 00 52 0181 02112 5309 446854 350185 200"
"156.968866"
"$GPGGA,231506,2425.5365,N,08121.3298,W,1,10,2.1,15"
"##MN+00 00 51 0182 02111 5308 446848 350185 200"
"156.968912"
"$GPGGA,231510,2425.5347,N,08121.3291,W,1,10,2.1,15"
"##MN+00 00 50 0183 02115 5308 446841 350184 200"
"156.968958"
"$GPGGA,231514,2425.5330,N,08121.3284,W,1,10,2.1,15"
"##MN+00 00 58 0184 02114 5308 446835 350182 200"
"156.969005"
"#increment_net"
"$GPGGA,231518,2425.5312,N,08121.3276,W,1,10,2.1,15"
"##MN-00 00 55 0185 02114 5308 446839 350182 200"
"156.969051"
"$GPGGA,231522,2425.5294,N,08121.3269,W,1,10,2.1,15"
"##MN-00 00 54 0185 02112 5308 446831 350181 200"
"156.969097"
"$GPGGA,231526,2425.5276,N,08121.3262,W,1,10,2.1,16"
"##MN-00 00 52 0186 02116 5308 446826 350180 200"
"156.969144"
"$GPGGA,231530,2425.5258,N,08121.3255,W,1,10,2.1,16"
"##MN-00 00 54 0187 02113 5307 446820 350179 200"
"156.96919"
"$GPGGA,231534,2425.5239,N,08121.3248,W,1,10,2.1,16"
"##MN-00 00 51 0188 02114 5307 446817 350178 200"
"156.969236"
"$GPGGA,231538,2425.5222,N,08121.3241,W,1,10,2.1,16"
"##MN-00 00 51 0189 02113 5307 446817 350178 200"
"156.969282"
"$GPGGA,231542,2425.5204,N,08121.3234,W,1,10,2.1,16"
"##MN-00 00 49 0190 02115 5307 446823 350178 200"
"156.969329"
"$GPGGA,231546,2425.5185,N,08121.3226,W,1,10,2.1,15"
"##MN-00 00 52 0191 02112 5306 446827 350179 200"
"156.969375"
"$GPGGA,231550,2425.5166,N,08121.3219,W,1,10,2.1,15"
"##MN-00 00 51 0192 02113 5306 446836 350180 200"
"156.969421"
"$GPGGA,231554,2425.5148,N,08121.3212,W,1,10,2.1,15"
"##MN-00 00 53 0193 02112 5306 446839 350181 200"
"156.969468"
"$GPGGA,231558,2425.5128,N,08121.3206,W,1,10,2.1,15"
"##MN-00 00 50 0193 02115 5306 446840 350181 200"
"156.969514"
"$GPGGA,231602,2425.5110,N,08121.3197,W,1,10,2.1,15"
"##MN-00 00 50 0194 02114 5306 446839 350181 200"
"156.96956"
"$GPGGA,231606,2425.5091,N,08121.3190,W,1,10,2.1,16"
"##MN-00 00 51 0195 02114 5306 446836 350180 200"
"156.969606"
"$GPGGA,231610,2425.5072,N,08121.3181,W,1,10,2.1,16"
"##MN-00 00 49 0196 02114 5306 446834 350180 200"
"156.969653"
"$GPGGA,231614,2425.5053,N,08121.3174,W,1,10,2.1,16"
"##MN-00 00 49 0197 02114 5305 446830 350180 200"
"156.969699"
"$GPGGA,231618,2425.5034,N,08121.3166,W,1,10,2.1,16"
"##MN-00 00 52 0198 02110 5306 446817 350180 200"
"156.969745"
"$GPGGA,231622,2425.5014,N,08121.3160,W,1,10,2.1,16"
"##MN-00 00 51 0199 02110 5305 446797 350175 200"
"156.969792"
"$GPGGA,231627,2425.4991,N,08121.3152,W,1,10,2.1,16"
"##MN-00 00 51 0200 02112 5305 446782 350246 200"
"156.969838"
"$GPGGA,231630,2425.4977,N,08121.3147,W,1,10,2.1,16"
"##MN-00 00 50 0201 02112 5305 446771 350172 200"
"156.969884"
"$GPGGA,231635,2425.4954,N,08121.3136,W,1,10,2.1,16"
"##MN-00 00 51 0202 02111 5305 446764 350171 200"
"156.969931"
"$GPGGA,231638,2425.4939,N,08121.3132,W,1,10,2.1,16"
"##MN-00 00 51 0202 02112 5305 446759 350170 200"
"156.969977"
"$GPGGA,231642,2425.4921,N,08121.3123,W,1,10,2.1,16"
"##MN-00 00 51 0203 02115 5305 446759 350169 200"
"156.970023"
"$GPGGA,231647,2425.4899,N,08121.3112,W,1,10,2.1,16"
"##MN-00 00 50 0204 02115 5305 446760 350167 200"
"156.970069"
"$GPGGA,231650,2425.4884,N,08121.3105,W,1,10,2.1,16"
"##MN-00 00 52 0205 02117 5304 446766 350167 200"
"156.970116"
"$GPGGA,231655,2425.4860,N,08121.3097,W,1,10,2.1,16"
"##MN-00 00 52 0206 02120 5304 446774 350167 200"
"156.970162"
"$GPGGA,231658,2425.4846,N,08121.3090,W,1,10,2.1,16"
"##MN-00 00 52 0207 02121 5304 446782 350167 200"
"156.970208"
"$GPGGA,231703,2425.4823,N,08121.3081,W,1,10,2.1,16"
"##MN+00 00 54 0208 02120 5304 446799 350170 200"
"156.970255"
"$GPGGA,231707,2425.4802,N,08121.3073,W,1,10,2.1,16"
"##MN+00 00 52 0209 02115 5304 446805 350281 199"
"156.970301"
"$GPGGA,231711,2425.4783,N,08121.3066,W,1,10,2.1,16"
"##MN+00 00 51 0210 02119 5304 446803 350414 199"
"156.970347"
"$GPGGA,231715,2425.4764,N,08121.3059,W,1,10,2.1,17"
"##MN-00 00 51 0211 02117 5303 446800 350206 199"
"156.970393"
"$GPGGA,231719,2425.4745,N,08121.3052,W,1,10,2.1,17"
"##MN-00 00 52 0212 02117 5303 446797 350171 200"
"156.97044"
"$GPGGA,231723,2425.4726,N,08121.3044,W,1,10,2.1,17"
"##MN+00 00 51 0212 02116 5303 446793 350170 200"
"156.970486"
"$GPGGA,231727,2425.4707,N,08121.3036,W,1,10,2.1,17"
"##MN+00 00 51 0213 02115 5303 446788 350171 200"
"156.970532"
"$GPGGA,231731,2425.4687,N,08121.3028,W,1,10,2.1,17"
"##MN+00 00 60 0215 02119 5303 446787 350168 200"
"156.970579"
"#increment_net"
"$GPGGA,231735,2425.4668,N,08121.3020,W,1,10,2.1,17"
"##MN-00 00 57 0215 02116 5303 446794 350168 199"
"156.970625"
"$GPGGA,231739,2425.4647,N,08121.3011,W,1,10,2.1,17"
"##MN-00 00 53 0216 02115 5303 446798 350170 200"
"156.970671"
"$GPGGA,231743,2425.4628,N,08121.3006,W,1,10,2.1,17"
"##MN-00 00 51 0217 02115 5302 446787 350169 200"
"156.970718"
"$GPGGA,231747,2425.4608,N,08121.2999,W,1,10,2.1,17"
"##MN-00 00 51 0218 02112 5302 446777 350168 200"
"156.970764"
"$GPGGA,231751,2425.4589,N,08121.2991,W,1,10,2.1,17"
"##MN-00 00 51 0219 02108 5302 446766 350167 200"
"156.97081"
"$GPGGA,231755,2425.4570,N,08121.2984,W,1,10,2.1,17"
"##MN-00 00 50 0220 02111 5302 446758 350167 199"
"156.970857"
"$GPGGA,231759,2425.4550,N,08121.2979,W,1,10,2.1,17"
"##MN-00 00 50 0221 02109 5302 446748 350165 199"
"156.970903"
"$GPGGA,231803,2425.4532,N,08121.2973,W,1,10,2.1,17"
"##MN-00 00 50 0222 02109 5301 446746 350165 199"
"156.970949"
"$GPGGA,231807,2425.4514,N,08121.2965,W,1,10,2.1,17"
"##MN-00 00 50 0223 02109 5301 446743 350164 199"
"156.970995"
"$GPGGA,231811,2425.4495,N,08121.2958,W,1,10,2.1,17"
"##MN-00 00 50 0224 02108 5301 446741 350164 199"
"156.971042"
"$GPGGA,231815,2425.4476,N,08121.2950,W,1,10,2.1,17"
"##MN-00 00 51 0225 02106 5301 446739 350163 200"
"156.971088"
"$GPGGA,231819,2425.4458,N,08121.2944,W,1,10,2.1,17"
"##MN-00 00 51 0226 02108 5301 446738 350163 199"
"156.971134"
"$GPGGA,231823,2425.4440,N,08121.2938,W,1,10,2.1,17"
"##MN-00 00 51 0227 02108 5301 446739 350163 199"
"156.971181"
"$GPGGA,231827,2425.4423,N,08121.2931,W,1,10,2.1,17"
"##MN-00 00 51 0228 02108 5301 446740 350162 199"
"156.971227"
"$GPGGA,231831,2425.4408,N,08121.2923,W,1,10,2.1,17"
"##MN-00 00 50 0228 02107 5301 446741 350162 199"
"156.971273"
"$GPGGA,231835,2425.4389,N,08121.2916,W,1,10,2.2,17"
"##MN-00 00 51 0229 02110 5301 446741 350162 199"
"156.971319"
"$GPGGA,231839,2425.4372,N,08121.2910,W,1,10,2.1,18"
"##MN-00 00 51 0230 02111 5301 446742 350162 199"
"156.971366"
"$GPGGA,231843,2425.4354,N,08121.2902,W,1,10,2.1,18"
"##MN-00 00 52 0231 02109 5300 446748 350162 199"
"156.971412"
"$GPGGA,231847,2425.4337,N,08121.2895,W,1,10,2.1,18"
"##MN-00 00 52 0232 02113 5300 446754 350162 199"
"156.97147"
"$GPGGA,231851,2425.4318,N,08121.2889,W,1,10,2.1,19"
"##MN-00 00 51 0233 02115 5300 446760 350162 199"
"156.971516"
"$GPGGA,231855,2425.4300,N,08121.2883,W,1,10,2.1,19"
"##MN-00 00 51 0234 02117 5300 446766 350162 199"
"156.971562"
"$GPGGA,231859,2425.4282,N,08121.2877,W,1,10,2.1,19"
"##MN-00 00 51 0235 02120 5299 446778 350162 199"
"156.971609"
"$GPGGA,231903,2425.4264,N,08121.2870,W,1,10,2.1,20"
"##MN-00 00 51 0236 02121 5299 446796 350165 199"
"156.971655"
"$GPGGA,231907,2425.4245,N,08121.2864,W,1,10,2.1,20"
"##MN+00 00 52 0237 02119 5299 446813 350166 199"
"156.971701"
"$GPGGA,231911,2425.4227,N,08121.2858,W,1,10,2.1,20"
"##MN+00 00 51 0238 02120 5299 446813 350168 199"
"156.971748"
"$GPGGA,231915,2425.4207,N,08121.2851,W,1,10,2.1,20"
"##MN+00 00 51 0239 02123 5299 446817 350168 199"
"156.971794"
"$GPGGA,231919,2425.4189,N,08121.2844,W,1,9,2.2,20,"
"##MN-00 00 50 0240 02121 5299 446823 350170 200"
"156.97184"
"$GPGGA,231923,2425.4170,N,08121.2838,W,1,10,2.1,20"
"##MN-00 00 51 0240 02121 5299 446836 350172 200"
"156.971887"
"$GPGGA,231927,2425.4153,N,08121.2830,W,1,10,2.1,20"
"##MN-00 00 50 0241 02123 5299 446838 350173 200"
"156.971933"
"$GPGGA,231931,2425.4135,N,08121.2822,W,1,10,2.1,20"
"##MN-00 00 51 0242 02121 5299 446858 350176 200"
"156.971979"
"$GPGGA,231935,2425.4118,N,08121.2815,W,1,10,2.1,20"
"##MN+00 00 49 0243 02123 5298 446894 350182 200"
"156.972025"
"$GPGGA,231939,2425.4101,N,08121.2808,W,1,10,2.1,20"
"##MN+00 00 51 0244 02122 5298 446922 350188 199"
"156.972072"
"$GPGGA,231943,2425.4083,N,08121.2802,W,1,10,2.1,20"
"##MN+00 00 61 0245 02126 5298 446983 350198 199"
"156.972118"
"$GPGGA,231947,2425.4065,N,08121.2796,W,1,9,2.1,20,"
"##MN-00 00 57 0246 02125 5298 447137 350212 199"
"156.972164"
"#increment_net"
"$GPGGA,231951,2425.4047,N,08121.2790,W,1,9,2.1,20,"
"##MN-00 00 53 0247 02131 5298 447485 350261 199"
"156.972211"
"$GPGGA,231955,2425.4029,N,08121.2783,W,1,9,2.1,20,"
"##MN-00 00 52 0248 02135 5298 447781 350341 199"
"156.972257"
"$GPGGA,231959,2425.4010,N,08121.2776,W,1,9,2.1,20,"
"##MN-00 00 52 0250 02137 5297 447885 350373 199"
"156.972303"
"$GPGGA,232003,2425.3992,N,08121.2768,W,1,9,2.1,20,"
"##MN-00 00 52 0251 02134 5297 447991 350426 199"
"156.97235"
"$GPGGA,232007,2425.3975,N,08121.2761,W,1,9,2.1,20,"
"##MN-00 00 50 0252 02129 5297 448002 350436 199"
"156.972396"
"$GPGGA,232011,2425.3956,N,08121.2755,W,1,9,2.1,20,"
"##MN-00 00 53 0254 02126 5296 447989 350436 199"
"156.972442"
"$GPGGA,232015,2425.3936,N,08121.2748,W,1,9,2.1,20,"
"##MN-00 00 51 0255 02118 5297 447983 350439 199"
"156.972488"
"$GPGGA,232019,2425.3916,N,08121.2742,W,1,9,2.1,20,"
"##MN-00 00 51 0257 02113 5296 447952 350431 199"
"156.972535"
"$GPGGA,232023,2425.3896,N,08121.2734,W,1,9,2.1,20,"
"##MN-00 00 51 0258 02107 5296 447675 350391 199"
"156.972581"
"$GPGGA,232027,2425.3877,N,08121.2727,W,1,9,2.1,20,"
"##MN-00 00 51 0259 02103 5296 447278 350319 199"
"156.972627"
"$GPGGA,232031,2425.3859,N,08121.2721,W,1,9,2.1,19,"
"##MN-00 00 51 0261 02092 5296 447060 350279 199"
"156.972674"
"$GPGGA,232035,2425.3840,N,08121.2715,W,1,9,2.1,19,"
"##MN-00 00 49 0262 02088 5296 446957 350270 199"
"156.97272"
"$GPGGA,232039,2425.3820,N,08121.2699,W,1,10,1.5,19"
"##MN-00 00 49 0263 02083 5296 446884 350245 199"
"156.972766"
"$GPGGA,232043,2425.3801,N,08121.2685,W,1,10,1.5,20"
"##MN-00 00 49 0265 02073 5296 446862 350220 199"
"156.972812"
"$GPGGA,232047,2425.3783,N,08121.2675,W,1,10,1.5,21"
"##MN-00 00 48 0266 02068 5296 446846 350203 199"
"156.972859"
"$GPGGA,232051,2425.3763,N,08121.2665,W,1,10,1.5,21"
"##MN-00 00 49 0267 02061 5296 446833 350197 199"
"156.972905"
"$GPGGA,232055,2425.3744,N,08121.2658,W,1,10,1.5,22"
"##MN-00 00 49 0269 02052 5295 446776 350174 199"
"156.972951"
"$GPGGA,232059,2425.3723,N,08121.2652,W,1,10,1.5,22"
"##MN-00 00 50 0270 02041 5295 446673 350131 199"
"156.972998"
"$GPGGA,232103,2425.3701,N,08121.2644,W,1,9,1.6,23,"
"##MN-00 00 48 0271 02037 5295 446518 350086 199"
"156.973044"
"$GPGGA,232107,2425.3682,N,08121.2636,W,1,10,1.5,23"
"##MN-00 00 49 0273 02026 5295 446354 350051 199"
"156.97309"
"$GPGGA,232111,2425.3660,N,08121.2626,W,1,10,1.5,23"
"##MN-00 00 50 0274 02016 5295 446048 349978 199"
"156.973137"
"$GPGGA,232115,2425.3642,N,08121.2618,W,1,10,1.5,23"
"##MN-00 00 50 0276 02011 5294 445423 349826 199"
"156.973183"
"$GPGGA,232119,2425.3620,N,08121.2611,W,1,10,1.5,24"
"##MN-00 00 48 0277 02003 5294 444518 349675 199"
"156.973229"
"$GPGGA,232124,2425.3595,N,08121.2600,W,1,10,1.5,24"
"##MN-00 00 49 0278 01993 5294 444150 349577 199"
"156.973276"
"$GPGGA,232128,2425.3574,N,08121.2594,W,1,10,1.5,24"
"##MN-00 00 48 0279 01988 5294 443985 349555 199"
"156.973322"
"$GPGGA,232132,2425.3555,N,08121.2587,W,1,10,1.5,24"
"##MN-00 00 47 0281 01978 5294 443911 349539 199"
"156.973368"
"$GPGGA,232135,2425.3541,N,08121.2581,W,1,10,1.5,24"
"##MN-00 00 48 0282 01972 5294 443865 349498 199"
"156.973414"
"$GPGGA,232140,2425.3516,N,08121.2573,W,1,10,1.5,24"
"##MN-00 00 45 0283 01965 5294 443814 349452 199"
"156.973461"
"$GPGGA,232143,2425.3501,N,08121.2567,W,1,10,1.5,24"
"##MN-00 00 45 0284 01955 5293 443766 349434 199"
"156.973507"
"$GPGGA,232148,2425.3474,N,08121.2558,W,1,10,1.5,24"
"##MN-00 00 47 0286 01947 5293 443723 349404 199"
"156.973553"
"$GPGGA,232152,2425.3455,N,08121.2551,W,1,10,1.5,24"
"##MN-00 00 46 0287 01941 5293 443663 349389 199"
"156.9736"
"$GPGGA,232156,2425.3436,N,08121.2543,W,1,10,1.5,24"
"##MN-00 00 44 0288 01934 5293 443539 349382 199"
"156.973646"
"$GPGGA,232200,2425.3414,N,08121.2534,W,1,10,1.5,24"
"##MN-00 00 45 0290 01920 5293 443280 349324 199"
"156.973692"
"$GPGGA,232204,2425.3396,N,08121.2527,W,1,10,1.5,24"
"##MN-00 00 50 0291 01910 5293 443098 349290 199"
"156.973738"
"$GPGGA,232208,2425.3376,N,08121.2519,W,1,10,1.5,24"
"##MN-00 00 47 0292 01902 5292 443060 349286 199"
"156.973785"
"$GPGGA,232212,2425.3356,N,08121.2512,W,1,10,1.5,24"
"##MN-00 00 47 0294 01891 5293 443054 349285 199"
"156.973831"
"$GPGGA,232216,2425.3337,N,08121.2506,W,1,10,1.5,24"
"##MN-00 00 45 0295 01883 5293 443035 349274 199"
"156.973877"
"$GPGGA,232220,2425.3316,N,08121.2499,W,1,9,1.5,25,"
"##MN-00 00 45 0296 01874 5292 443028 349271 199"
"156.973924"
"$GPGGA,232224,2425.3295,N,08121.2492,W,1,10,1.5,25"
"##MN-00 00 47 0298 01866 5292 443022 349269 199"
"156.97397"
"$GPGGA,232228,2425.3277,N,08121.2485,W,1,10,1.5,25"
"##MN-00 00 47 0299 01866 5292 443031 349270 199"
