" Tow: 5Wm-B   RVWS/WS1406"
" Date: 06/05/2014"
" Temperature Probe #  2597    Conductivity Probe #  2870"
" Pressure Probe #  109"
" Flow Meter Calibration  4.71 (m/count)  "
"156.992407"
"$GPGGA,234857,2423.5406,N,08120.6046,W,1,10,1.4,22"
"##MN-00 00 37 0084 01863 5187 446789 925271 200"
"156.992454"
"$GPGGA,234905,2423.5360,N,08120.6020,W,1,10,1.4,23"
"##MN-00 00 40 0084 01864 5187 446424 633520 200"
"156.9925"
"$GPGGA,234909,2423.5340,N,08120.6006,W,1,10,1.4,23"
"##MN-00 00 49 0085 01865 5187 445683 352489 200"
"156.992546"
"$GPGGA,234913,2423.5322,N,08120.5995,W,1,10,1.4,23"
"##MN-00 00 50 0086 01865 5188 445693 350402 200"
"156.992593"
"$GPGGA,234917,2423.5301,N,08120.5982,W,1,9,1.5,23,"
"##MN-00 00 51 0087 01865 5187 445693 350384 200"
"156.992639"
"$GPGGA,234921,2423.5282,N,08120.5968,W,1,9,1.5,22,"
"##MN-00 00 51 0087 01864 5187 445698 350256 200"
"156.992685"
"$GPGGA,234925,2423.5260,N,08120.5952,W,1,8,1.9,22,"
"##MN-00 00 51 0088 01865 5187 445679 350097 200"
"156.992731"
"$GPGGA,234929,2423.5242,N,08120.5938,W,1,9,1.5,22,"
"##MN-00 00 56 0089 01867 5187 445685 350075 200"
"156.992778"
"$GPGGA,234933,2423.5222,N,08120.5925,W,1,9,1.5,22,"
"##MN-00 00 56 0089 01868 5187 445683 350058 200"
"156.992824"
"$GPGGA,234937,2423.5204,N,08120.5912,W,1,9,1.5,22,"
"##MN-00 00 55 0090 01878 5187 445688 350057 200"
"156.99287"
"$GPGGA,234941,2423.5186,N,08120.5899,W,1,9,1.5,21,"
"##MN-00 00 55 0091 01884 5187 445679 350026 200"
"156.992917"
"$GPGGA,234945,2423.5168,N,08120.5888,W,1,9,1.5,21,"
"##MN-00 00 56 0091 01894 5187 445656 350008 200"
"156.992963"
"$GPGGA,234949,2423.5150,N,08120.5876,W,1,10,1.5,21"
"##MN-00 00 54 0092 01907 5187 445646 350000 200"
"156.993009"
"$GPGGA,234953,2423.5132,N,08120.5866,W,1,10,1.5,21"
"##MN-00 00 55 0092 01916 5187 445647 349993 200"
"156.993056"
"$GPGGA,234957,2423.5114,N,08120.5856,W,1,10,1.5,20"
"##MN-00 00 55 0093 01928 5187 445642 349987 200"
"156.993102"
"$GPGGA,235001,2423.5098,N,08120.5844,W,1,10,1.5,20"
"##MN-00 00 55 0094 01936 5187 445643 349987 200"
"156.993148"
"$GPGGA,235005,2423.5079,N,08120.5833,W,1,10,1.5,20"
"##MN-00 00 54 0094 01948 5187 445662 349986 200"
"156.993194"
"$GPGGA,235009,2423.5061,N,08120.5822,W,1,10,1.5,20"
"##MN-00 00 56 0095 01957 5187 445664 349984 200"
"156.993241"
"$GPGGA,235013,2423.5043,N,08120.5811,W,1,10,1.5,19"
"##MN-00 00 55 0095 01967 5187 445668 349979 200"
"156.993287"
"$GPGGA,235017,2423.5026,N,08120.5799,W,1,10,1.5,19"
"##MN-00 00 54 0096 01976 5188 445669 349976 200"
"156.993333"
"$GPGGA,235021,2423.5008,N,08120.5787,W,1,10,1.5,19"
"##MN-00 00 53 0097 01988 5188 445675 349977 200"
"156.99338"
"$GPGGA,235025,2423.4990,N,08120.5776,W,1,10,1.5,19"
"##MN-00 00 55 0097 01994 5188 445699 349985 200"
"156.993426"
"$GPGGA,235029,2423.4972,N,08120.5765,W,1,10,1.5,19"
"##MN-00 00 54 0098 02006 5188 445906 350058 200"
"156.993472"
"$GPGGA,235033,2423.4954,N,08120.5755,W,1,10,1.5,19"
"##MN-00 00 55 0099 02015 5188 446477 350240 200"
"156.993519"
"$GPGGA,235037,2423.4935,N,08120.5743,W,1,10,1.5,19"
"##MN-00 00 52 0099 02021 5188 447072 350396 200"
"156.993565"
"$GPGGA,235041,2423.4917,N,08120.5731,W,1,10,1.5,19"
"##MN-00 00 55 0100 02027 5188 447335 350522 200"
"156.993611"
"$GPGGA,235045,2423.4897,N,08120.5719,W,1,10,1.5,19"
"##MN-00 00 55 0100 02039 5188 447780 350626 200"
"156.993669"
"$GPGGA,235049,2423.4878,N,08120.5706,W,1,10,1.5,19"
"##MN-00 00 52 0101 02045 5188 448532 350929 200"
"156.993715"
"$GPGGA,235053,2423.4859,N,08120.5692,W,1,10,1.5,19"
"##MN-00 00 54 0102 02055 5188 449585 351326 200"
"156.993762"
"$GPGGA,235057,2423.4839,N,08120.5680,W,1,10,1.5,19"
"##MN-00 00 54 0102 02063 5189 450846 351807 200"
"156.993808"
"$GPGGA,235101,2423.4819,N,08120.5668,W,1,10,1.5,19"
"##MN-00 00 52 0103 02072 5188 452346 352337 200"
"156.993854"
"$GPGGA,235105,2423.4800,N,08120.5655,W,1,10,1.5,19"
"##MN-00 00 53 0103 02076 5188 453572 352588 200"
"156.9939"
"$GPGGA,235109,2423.4781,N,08120.5644,W,1,10,1.5,20"
"##MN-00 00 52 0104 02087 5189 453846 352650 200"
"156.993947"
"$GPGGA,235113,2423.4762,N,08120.5633,W,1,10,1.5,20"
"##MN-00 00 53 0105 02095 5189 454136 352618 200"
"156.993993"
"$GPGGA,235117,2423.4742,N,08120.5623,W,1,9,1.5,20,"
"##MN-00 00 52 0105 02097 5189 454420 352687 200"
"156.994039"
"$GPGGA,235121,2423.4720,N,08120.5607,W,1,10,1.5,20"
"##MN-00 00 54 0106 02108 5189 454493 352691 200"
"156.994086"
"$GPGGA,235125,2423.4701,N,08120.5595,W,1,10,1.9,21"
"##MN-00 00 54 0106 02117 5189 454618 352706 200"
"156.994132"
"$GPGGA,235129,2423.4683,N,08120.5586,W,1,10,1.5,21"
"##MN-00 00 54 0107 02123 5189 455034 352796 200"
"156.994178"
"$GPGGA,235133,2423.4664,N,08120.5574,W,1,10,1.5,21"
"##MN-00 00 52 0108 02133 5189 455380 352879 200"
"156.994225"
"$GPGGA,235137,2423.4646,N,08120.5564,W,1,10,1.5,21"
"##MN-00 00 51 0109 02131 5189 455497 352867 200"
"156.994271"
"$GPGGA,235141,2423.4629,N,08120.5554,W,1,10,1.5,21"
"##MN-00 00 49 0109 02127 5189 455538 352871 200"
"156.994317"
"$GPGGA,235145,2423.4613,N,08120.5543,W,1,10,1.5,22"
"##MN+00 00 49 0110 02129 5189 455576 352927 200"
"156.994363"
"$GPGGA,235149,2423.4597,N,08120.5533,W,1,10,1.5,22"
"##MN+00 00 50 0111 02128 5189 455609 352938 200"
"156.99441"
"$GPGGA,235153,2423.4581,N,08120.5524,W,1,10,1.5,22"
"##MN+00 00 50 0112 02127 5189 455618 352944 200"
"156.994456"
"$GPGGA,235157,2423.4563,N,08120.5514,W,1,10,1.5,22"
"##MN-00 00 50 0113 02131 5189 455617 352940 199"
"156.994502"
"$GPGGA,235201,2423.4546,N,08120.5507,W,1,10,1.5,22"
"##MN+00 00 49 0114 02132 5189 455617 352940 199"
"156.994549"
"$GPGGA,235205,2423.4528,N,08120.5497,W,1,10,1.5,22"
"##MN+00 00 49 0114 02134 5190 455620 352946 200"
"156.994595"
"$GPGGA,235209,2423.4511,N,08120.5487,W,1,10,1.5,22"
"##MN+00 00 60 0115 02132 5189 455634 352956 199"
"156.994641"
"$GPGGA,235213,2423.4495,N,08120.5477,W,1,10,1.5,22"
"##MN-00 00 55 0116 02133 5189 455663 352972 199"
"156.994687"
"#increment_net"
"$GPGGA,235217,2423.4480,N,08120.5468,W,1,10,1.5,22"
"##MN-00 00 51 0117 02131 5190 455663 352972 199"
"156.994734"
"$GPGGA,235221,2423.4465,N,08120.5461,W,1,10,1.5,22"
"##MN-00 00 50 0118 02132 5189 455656 352966 199"
"156.99478"
"$GPGGA,235225,2423.4451,N,08120.5453,W,1,10,1.5,22"
"##MN-00 00 51 0119 02129 5189 455648 352966 199"
"156.994826"
"$GPGGA,235229,2423.4435,N,08120.5446,W,1,10,1.5,22"
"##MN-00 00 50 0119 02132 5189 455647 352970 199"
"156.994873"
"$GPGGA,235233,2423.4418,N,08120.5439,W,1,10,1.5,21"
"##MN-00 00 50 0120 02133 5190 455645 352969 199"
"156.994919"
"$GPGGA,235237,2423.4401,N,08120.5431,W,1,10,1.5,21"
"##MN-00 00 50 0121 02130 5189 455646 352971 199"
"156.994965"
"$GPGGA,235241,2423.4386,N,08120.5423,W,1,10,1.5,21"
"##MN-00 00 50 0122 02128 5189 455636 352970 199"
"156.995012"
"$GPGGA,235245,2423.4370,N,08120.5419,W,1,10,1.5,21"
"##MN-00 00 50 0123 02132 5189 455624 352969 199"
"156.995058"
"$GPGGA,235249,2423.4354,N,08120.5410,W,1,10,1.5,21"
"##MN-00 00 49 0124 02127 5189 455606 352968 199"
"156.995104"
"$GPGGA,235253,2423.4339,N,08120.5402,W,1,10,1.5,21"
"##MN-00 00 51 0124 02128 5189 455603 352966 199"
"156.99515"
"$GPGGA,235257,2423.4323,N,08120.5394,W,1,10,1.5,21"
"##MN-00 00 52 0125 02127 5189 455604 352966 199"
"156.995197"
"$GPGGA,235301,2423.4306,N,08120.5386,W,1,10,1.5,21"
"##MN-00 00 51 0126 02127 5189 455614 352966 199"
"156.995243"
"$GPGGA,235305,2423.4292,N,08120.5381,W,1,10,1.5,21"
"##MN-00 00 50 0127 02131 5189 455621 352966 199"
"156.995289"
"$GPGGA,235309,2423.4278,N,08120.5373,W,1,10,1.5,21"
"##MN-00 00 50 0128 02128 5189 455620 352968 199"
"156.995336"
"$GPGGA,235313,2423.4263,N,08120.5366,W,1,10,1.5,21"
"##MN-00 00 49 0128 02126 5189 455613 353007 199"
"156.995382"
"$GPGGA,235317,2423.4246,N,08120.5360,W,1,10,1.5,21"
"##MN-00 00 52 0129 02126 5188 455598 352968 199"
"156.995428"
"$GPGGA,235321,2423.4231,N,08120.5353,W,1,10,1.5,21"
"##MN-00 00 51 0130 02125 5188 455601 352968 199"
"156.995474"
"$GPGGA,235325,2423.4216,N,08120.5347,W,1,10,1.5,21"
"##MN-00 00 51 0130 02130 5188 455610 352968 199"
"156.995521"
"$GPGGA,235329,2423.4198,N,08120.5343,W,1,10,1.5,21"
"##MN-00 00 51 0131 02131 5188 455627 352971 199"
"156.995567"
"$GPGGA,235334,2423.4180,N,08120.5336,W,1,10,1.5,21"
"##MN-00 00 50 0132 02129 5187 455696 352981 199"
"156.995613"
"$GPGGA,235338,2423.4163,N,08120.5328,W,1,10,1.5,21"
"##MN-00 00 51 0133 02131 5187 455753 352996 199"
"156.99566"
"$GPGGA,235342,2423.4147,N,08120.5321,W,1,10,1.5,21"
"##MN-00 00 48 0134 02133 5187 455791 353023 199"
"156.995706"
"$GPGGA,235346,2423.4133,N,08120.5315,W,1,10,1.5,21"
"##MN-00 00 48 0134 02131 5187 455899 353060 199"
"156.995752"
"$GPGGA,235350,2423.4116,N,08120.5308,W,1,10,1.5,21"
"##MN-00 00 50 0135 02128 5187 455942 353080 199"
"156.995799"
"$GPGGA,235354,2423.4099,N,08120.5300,W,1,10,1.5,21"
"##MN-00 00 51 0136 02132 5187 455990 353090 199"
"156.995845"
"$GPGGA,235358,2423.4084,N,08120.5293,W,1,10,1.5,21"
"##MN-00 00 51 0137 02132 5186 456047 353107 199"
"156.995891"
"$GPGGA,235402,2423.4070,N,08120.5287,W,1,10,1.5,21"
"##MN-00 00 49 0137 02131 5186 456147 353152 199"
"156.995938"
"$GPGGA,235406,2423.4055,N,08120.5279,W,1,10,1.5,21"
"##MN-00 00 51 0138 02129 5186 456177 353164 199"
"156.995984"
"$GPGGA,235410,2423.4039,N,08120.5273,W,1,10,1.5,21"
"##MN+00 00 52 0139 02130 5185 456184 353168 199"
"156.99603"
"$GPGGA,235414,2423.4025,N,08120.5267,W,1,10,1.5,21"
"##MN+00 00 50 0140 02131 5185 456136 353157 200"
"156.996076"
"$GPGGA,235418,2423.4010,N,08120.5261,W,1,10,1.5,21"
"##MN+00 00 52 0140 02129 5186 456124 353159 200"
"156.996123"
"$GPGGA,235422,2423.3994,N,08120.5254,W,1,10,1.5,21"
"##MN-00 00 51 0141 02133 5185 456133 353161 199"
"156.996169"
"$GPGGA,235426,2423.3980,N,08120.5246,W,1,10,1.5,21"
"##MN-00 00 51 0142 02132 5185 456137 353154 199"
"156.996215"
"$GPGGA,235430,2423.3965,N,08120.5239,W,1,10,1.5,21"
"##MN-00 00 50 0143 02133 5185 456174 353160 199"
"156.996262"
"$GPGGA,235434,2423.3949,N,08120.5233,W,1,10,1.5,21"
"##MN-00 00 51 0143 02130 5184 456188 353165 199"
"156.996308"
"$GPGGA,235438,2423.3935,N,08120.5226,W,1,10,1.5,21"
"##MN-00 00 51 0144 02129 5184 456257 353179 199"
"156.996354"
"$GPGGA,235442,2423.3920,N,08120.5219,W,1,10,1.5,21"
"##MN+00 00 52 0145 02129 5184 456351 353210 199"
"156.9964"
"$GPGGA,235446,2423.3904,N,08120.5212,W,1,10,1.5,20"
"##MN+00 00 50 0146 02132 5183 456422 353245 199"
"156.996447"
"$GPGGA,235450,2423.3888,N,08120.5205,W,1,10,1.5,20"
"##MN+00 00 58 0147 02131 5183 456491 353254 199"
"156.996493"
"$GPGGA,235454,2423.3871,N,08120.5198,W,1,10,1.5,20"
"##MN-00 00 54 0148 02129 5183 456513 353258 199"
"156.996539"
"#increment_net"
"$GPGGA,235458,2423.3853,N,08120.5191,W,1,10,1.5,20"
"##MN-00 00 48 0148 02126 5183 456509 353264 200"
"156.996586"
"$GPGGA,235502,2423.3835,N,08120.5183,W,1,10,1.5,21"
"##MN-00 00 50 0149 02120 5182 456447 353262 200"
"156.996632"
"$GPGGA,235506,2423.3815,N,08120.5176,W,1,10,1.5,21"
"##MN-00 00 49 0150 02118 5182 456284 353232 200"
"156.996678"
"$GPGGA,235510,2423.3797,N,08120.5169,W,1,10,1.5,21"
"##MN-00 00 50 0151 02116 5182 456143 353169 200"
"156.996725"
"$GPGGA,235514,2423.3776,N,08120.5162,W,1,10,1.5,21"
"##MN-00 00 51 0152 02109 5181 455976 353124 200"
"156.996771"
"$GPGGA,235518,2423.3756,N,08120.5155,W,1,10,1.5,21"
"##MN-00 00 51 0153 02107 5181 455822 353087 200"
"156.996817"
"$GPGGA,235522,2423.3736,N,08120.5150,W,1,10,1.5,21"
"##MN-00 00 51 0154 02103 5181 455722 353052 200"
"156.996875"
"$GPGGA,235526,2423.3714,N,08120.5143,W,1,10,1.5,21"
"##MN-00 00 51 0155 02099 5181 455613 353019 200"
"156.996921"
"$GPGGA,235530,2423.3693,N,08120.5137,W,1,10,1.5,21"
"##MN-00 00 52 0156 02103 5180 455525 353002 200"
"156.996968"
"$GPGGA,235534,2423.3676,N,08120.5131,W,1,10,1.5,21"
"##MN-00 00 52 0157 02102 5180 455547 352982 200"
"156.997014"
"$GPGGA,235538,2423.3654,N,08120.5124,W,1,10,1.5,21"
"##MN-00 00 52 0158 02101 5180 455592 352984 200"
"156.99706"
"$GPGGA,235542,2423.3627,N,08120.5117,W,1,10,1.5,21"
"##MN-00 00 54 0159 02100 5179 455626 352987 200"
"156.997106"
"$GPGGA,235546,2423.3605,N,08120.5110,W,1,10,1.5,21"
"##MN-00 00 56 0160 02101 5179 455659 352993 199"
"156.997153"
"$GPGGA,235550,2423.3584,N,08120.5105,W,1,10,1.5,21"
"##MN-00 00 54 0161 02104 5179 455720 353003 200"
"156.997199"
"$GPGGA,235554,2423.3560,N,08120.5099,W,1,10,1.5,21"
"##MN-00 00 54 0161 02106 5179 455751 353009 199"
"156.997245"
"$GPGGA,235558,2423.3539,N,08120.5092,W,1,10,1.7,21"
"##MN-00 00 55 0162 02108 5178 455793 353019 200"
"156.997292"
"$GPGGA,235602,2423.3516,N,08120.5085,W,1,10,1.5,21"
"##MN-00 00 55 0163 02110 5178 455910 353048 199"
"156.997338"
"$GPGGA,235606,2423.3495,N,08120.5080,W,1,10,1.5,21"
"##MN-00 00 55 0164 02112 5178 456002 353061 199"
"156.997384"
"$GPGGA,235610,2423.3474,N,08120.5074,W,1,10,1.5,21"
"##MN-00 00 55 0165 02115 5178 456102 353111 200"
"156.997431"
"$GPGGA,235614,2423.3454,N,08120.5068,W,1,10,1.5,21"
"##MN-00 00 54 0166 02116 5177 456234 353163 199"
"156.997477"
"$GPGGA,235618,2423.3432,N,08120.5063,W,1,10,1.5,21"
"##MN-00 00 55 0167 02119 5177 456414 353243 200"
"156.997523"
"$GPGGA,235622,2423.3410,N,08120.5056,W,1,9,1.5,21,"
"##MN-00 00 55 0168 02121 5177 456490 353256 200"
"156.997569"
"$GPGGA,235626,2423.3389,N,08120.5050,W,1,10,1.5,21"
"##MN-00 00 55 0169 02118 5177 456523 353266 199"
"156.997616"
"$GPGGA,235630,2423.3367,N,08120.5044,W,1,10,1.5,21"
"##MN-00 00 54 0170 02118 5176 456503 353264 199"
"156.997662"
"$GPGGA,235634,2423.3346,N,08120.5038,W,1,10,1.5,21"
"##MN-00 00 54 0171 02116 5176 456449 353255 200"
"156.997708"
"$GPGGA,235638,2423.3325,N,08120.5032,W,1,10,1.5,22"
"##MN+00 00 56 0172 02114 5175 456366 353228 199"
"156.997755"
"$GPGGA,235642,2423.3304,N,08120.5025,W,1,10,1.5,22"
"##MN+00 00 56 0173 02115 5175 456299 353211 199"
"156.997801"
"$GPGGA,235646,2423.3284,N,08120.5018,W,1,10,1.5,22"
"##MN+00 00 55 0174 02116 5174 456189 353177 199"
"156.997847"
"$GPGGA,235650,2423.3264,N,08120.5012,W,1,10,1.5,22"
"##MN-00 00 54 0175 02114 5174 456105 353150 199"
"156.997893"
"$GPGGA,235654,2423.3244,N,08120.5006,W,1,10,1.5,22"
"##MN-00 00 55 0176 02113 5174 456007 353129 199"
"156.99794"
"$GPGGA,235658,2423.3224,N,08120.5000,W,1,10,1.5,22"
"##MN-00 00 56 0177 02112 5174 455911 353111 199"
"156.997986"
"$GPGGA,235702,2423.3204,N,08120.4993,W,1,10,1.5,22"
"##MN+00 00 56 0178 02113 5173 455806 353079 199"
"156.998032"
"$GPGGA,235706,2423.3184,N,08120.4989,W,1,10,1.5,22"
"##MN+00 00 55 0179 02112 5173 455713 353052 199"
"156.998079"
"$GPGGA,235710,2423.3163,N,08120.4982,W,1,10,1.5,22"
"##MN+00 00 67 0180 02114 5173 455685 353024 199"
"156.998125"
"#increment_net"
"$GPGGA,235714,2423.3143,N,08120.4975,W,1,10,1.5,22"
"##MN-00 00 63 0181 02115 5173 455730 353022 199"
"156.998171"
"$GPGGA,235718,2423.3122,N,08120.4970,W,1,10,1.5,22"
"##MN-00 00 58 0182 02115 5172 455764 353028 199"
"156.998218"
"$GPGGA,235722,2423.3102,N,08120.4964,W,1,10,1.5,21"
"##MN-00 00 57 0183 02115 5171 455748 353018 199"
"156.998264"
"$GPGGA,235726,2423.3080,N,08120.4960,W,1,10,1.5,21"
"##MN-00 00 57 0184 02116 5171 455709 353013 199"
"156.99831"
"$GPGGA,235730,2423.3060,N,08120.4956,W,1,10,1.5,21"
"##MN-00 00 56 0186 02116 5171 455654 353001 199"
"156.998357"
"$GPGGA,235734,2423.3038,N,08120.4950,W,1,10,1.5,21"
"##MN-00 00 55 0187 02118 5170 455608 352988 199"
"156.998403"
"$GPGGA,235738,2423.3017,N,08120.4943,W,1,10,1.5,21"
"##MN-00 00 60 0188 02115 5170 455557 352976 199"
"156.998449"
"$GPGGA,235742,2423.2995,N,08120.4937,W,1,10,1.5,21"
"##MN-00 00 58 0189 02115 5170 455507 352954 199"
"156.998495"
"$GPGGA,235746,2423.2975,N,08120.4932,W,1,10,1.5,21"
"##MN-00 00 55 0190 02115 5169 455475 352948 199"
"156.998542"
"$GPGGA,235750,2423.2955,N,08120.4926,W,1,10,1.5,21"
"##MN-00 00 60 0191 02115 5169 455459 352942 199"
"156.998588"
"$GPGGA,235755,2423.2928,N,08120.4915,W,1,10,1.5,21"
"##MN-00 00 58 0192 02113 5169 455466 352939 199"
"156.998634"
"$GPGGA,235758,2423.2912,N,08120.4911,W,1,10,1.5,21"
"##MN-00 00 57 0193 02112 5168 455471 352942 199"
"156.998681"
"$GPGGA,235803,2423.2887,N,08120.4902,W,1,9,1.5,21,"
"##MN-00 00 55 0194 02115 5168 455446 352942 199"
"156.998727"
"$GPGGA,235806,2423.2872,N,08120.4897,W,1,10,1.5,21"
"##MN-00 00 57 0196 02115 5168 455403 352940 199"
"156.998773"
"$GPGGA,235811,2423.2845,N,08120.4891,W,1,10,1.5,21"
"##MN-00 00 56 0197 02115 5167 455379 352933 199"
"156.998819"
"$GPGGA,235815,2423.2825,N,08120.4885,W,1,10,1.5,21"
"##MN-00 00 55 0198 02119 5167 455385 352933 199"
"156.998866"
"$GPGGA,235818,2423.2809,N,08120.4878,W,1,10,1.5,21"
"##MN-00 00 57 0199 02119 5167 455401 352935 199"
"156.998912"
"$GPGGA,235823,2423.2784,N,08120.4870,W,1,10,1.5,21"
"##MN-00 00 59 0200 02119 5167 455406 352938 199"
"156.998958"
"$GPGGA,235827,2423.2762,N,08120.4863,W,1,9,1.5,21,"
"##MN-00 00 58 0201 02121 5166 455419 352939 199"
"156.999005"
"$GPGGA,235831,2423.2742,N,08120.4855,W,1,10,1.5,21"
"##MN-00 00 57 0202 02123 5166 455469 352947 199"
"156.999051"
"$GPGGA,235835,2423.2720,N,08120.4849,W,1,10,1.5,21"
"##MN-00 00 57 0203 02122 5166 455506 352949 199"
"156.999097"
"$GPGGA,235839,2423.2697,N,08120.4843,W,1,10,1.5,21"
"##MN-00 00 57 0204 02123 5165 455517 352952 199"
"156.999144"
"$GPGGA,235843,2423.2677,N,08120.4835,W,1,10,1.5,21"
"##MN-00 00 56 0205 02121 5165 455504 352957 199"
"156.99919"
"$GPGGA,235847,2423.2654,N,08120.4829,W,1,10,1.5,21"
"##MN+00 00 58 0207 02121 5165 455525 352963 199"
"156.999236"
"$GPGGA,235851,2423.2631,N,08120.4823,W,1,10,1.5,21"
"##MN+00 00 56 0208 02122 5165 455506 352963 198"
"156.999282"
"$GPGGA,235855,2423.2609,N,08120.4819,W,1,10,1.5,21"
"##MN+00 00 56 0209 02122 5164 455472 352961 199"
"156.999329"
"$GPGGA,235859,2423.2587,N,08120.4812,W,1,10,1.5,21"
"##MN-00 00 56 0210 02122 5163 455423 352950 199"
"156.999375"
"$GPGGA,235903,2423.2567,N,08120.4806,W,1,10,1.5,22"
"##MN-00 00 58 0211 02118 5163 455321 352925 199"
"156.999421"
"$GPGGA,235907,2423.2545,N,08120.4798,W,1,9,1.5,22,"
"##MN-00 00 55 0212 02120 5163 455255 352914 199"
"156.999468"
"$GPGGA,235911,2423.2523,N,08120.4790,W,1,10,1.5,22"
"##MN+00 00 57 0213 02119 5163 455246 352919 199"
"156.999514"
"$GPGGA,235915,2423.2501,N,08120.4783,W,1,10,1.5,22"
"##MN+00 00 57 0214 02119 5162 455250 352918 199"
"156.99956"
"$GPGGA,235919,2423.2480,N,08120.4774,W,1,10,1.5,22"
"##MN+00 00 67 0216 02125 5162 455333 352925 199"
"156.999606"
"$GPGGA,235923,2423.2458,N,08120.4764,W,1,10,1.5,22"
"##MN-00 00 61 0217 02123 5162 455435 352946 199"
"156.999653"
"#increment_net"
"$GPGGA,235927,2423.2437,N,08120.4756,W,1,10,1.5,22"
"##MN-00 00 58 0218 02120 5162 455538 352960 199"
"156.999699"
"$GPGGA,235931,2423.2417,N,08120.4750,W,1,10,1.5,22"
"##MN-00 00 57 0219 02120 5161 455546 352970 199"
"156.999745"
"$GPGGA,235935,2423.2395,N,08120.4743,W,1,10,1.5,22"
"##MN-00 00 55 0220 02120 5161 455566 352974 199"
"156.999792"
"$GPGGA,235939,2423.2375,N,08120.4737,W,1,10,1.5,22"
"##MN-00 00 54 0221 02118 5160 455574 352981 199"
"156.999838"
"$GPGGA,235943,2423.2354,N,08120.4730,W,1,10,1.5,22"
"##MN-00 00 55 0222 02119 5160 455544 352978 199"
"156.999884"
"$GPGGA,235947,2423.2334,N,08120.4721,W,1,10,1.5,22"
"##MN-00 00 55 0224 02118 5160 455519 352981 199"
"156.999931"
"$GPGGA,235951,2423.2313,N,08120.4715,W,1,10,1.5,22"
"##MN-00 00 54 0225 02119 5159 455517 352990 199"
"156.999988"
"$GPGGA,235955,2423.2294,N,08120.4709,W,1,10,1.5,22"
"##MN-00 00 55 0226 02116 5159 455502 352993 199"
"157.000069"
"$GPGGA,235959,2423.2273,N,08120.4703,W,1,10,1.5,22"
"##MN-00 00 54 0228 02118 5158 455471 352990 199"
"157.000116"
"$GPGGA,000006,2423.2238,N,08120.4692,W,1,10,1.5,21"
"##MN-00 00 56 0229 02116 5158 455540 352999 199"
"157.000162"
"$GPGGA,000010,2423.2218,N,08120.4686,W,1,10,1.5,21"
"##MN-00 00 55 0230 02117 5158 455560 353002 199"
"157.000208"
"$GPGGA,000014,2423.2199,N,08120.4680,W,1,10,1.5,21"
"##MN-00 00 55 0231 02117 5158 455569 353002 199"
"157.000255"
"$GPGGA,000018,2423.2178,N,08120.4673,W,1,10,1.5,21"
"##MN-00 00 54 0232 02116 5158 455575 353003 199"
"157.000301"
"$GPGGA,000022,2423.2159,N,08120.4666,W,1,10,1.5,21"
"##MN-00 00 55 0234 02117 5157 455580 353007 199"
"157.000347"
"$GPGGA,000026,2423.2140,N,08120.4659,W,1,10,1.5,21"
"##MN-00 00 56 0235 02118 5157 455580 353007 199"
"157.000394"
"$GPGGA,000030,2423.2121,N,08120.4652,W,1,10,1.5,21"
"##MN-00 00 57 0236 02118 5157 455596 353007 199"
"157.00044"
"$GPGGA,000034,2423.2100,N,08120.4646,W,1,10,1.5,21"
"##MN-00 00 57 0237 02120 5157 455643 353008 199"
"157.000486"
"$GPGGA,000038,2423.2081,N,08120.4639,W,1,10,1.5,21"
"##MN-00 00 56 0238 02119 5156 455713 353009 199"
"157.000532"
"$GPGGA,000042,2423.2060,N,08120.4631,W,1,9,1.5,21,"
"##MN-00 00 57 0239 02120 5156 455786 353017 199"
"157.000579"
"$GPGGA,000046,2423.2040,N,08120.4624,W,1,9,1.5,21,"
"##MN-00 00 55 0240 02119 5155 455911 353162 199"
"157.000625"
"$GPGGA,000050,2423.2021,N,08120.4617,W,1,10,1.5,21"
"##MN-00 00 57 0241 02121 5155 456060 353075 199"
"157.000671"
"$GPGGA,000054,2423.2002,N,08120.4610,W,1,10,1.5,21"
"##MN-00 00 56 0242 02120 5155 456163 353115 199"
"157.000718"
"$GPGGA,000058,2423.1982,N,08120.4604,W,1,10,1.5,21"
"##MN+00 00 55 0244 02122 5154 456288 353120 199"
"157.000764"
"$GPGGA,000102,2423.1962,N,08120.4596,W,1,10,1.5,21"
"##MN+00 00 55 0245 02121 5154 456418 353180 198"
"157.00081"
"$GPGGA,000106,2423.1941,N,08120.4590,W,1,10,1.5,21"
"##MN+00 00 55 0246 02121 5154 456500 353227 199"
"157.000856"
"$GPGGA,000110,2423.1920,N,08120.4586,W,1,10,1.5,21"
"##MN-00 00 54 0247 02121 5154 456571 353264 199"
"157.000903"
"$GPGGA,000114,2423.1900,N,08120.4582,W,1,10,1.7,21"
"##MN-00 00 53 0248 02123 5153 456597 353269 199"
"157.000949"
"$GPGGA,000118,2423.1879,N,08120.4577,W,1,10,1.5,21"
"##MN+00 00 54 0249 02122 5153 456633 353288 199"
"157.000995"
"$GPGGA,000122,2423.1859,N,08120.4572,W,1,10,1.5,21"
"##MN+00 00 55 0250 02120 5153 456644 353288 198"
"157.001042"
"$GPGGA,000126,2423.1839,N,08120.4567,W,1,10,1.5,22"
"##MN+00 00 67 0251 02124 5152 456665 353298 199"
"157.001088"
"#increment_net"
"$GPGGA,000130,2423.1818,N,08120.4560,W,1,10,1.5,22"
"##MN-00 00 64 0252 02127 5153 456694 353302 198"
"157.001134"
"$GPGGA,000134,2423.1803,N,08120.4556,W,1,9,1.5,22,"
"##MN-00 00 60 0254 02132 5152 456743 353316 199"
"157.001181"
"$GPGGA,000138,2423.1783,N,08120.4553,W,1,10,1.5,22"
"##MN-00 00 57 0255 02137 5151 456861 353362 199"
"157.001227"
"$GPGGA,000142,2423.1763,N,08120.4548,W,1,10,1.5,22"
"##MN-00 00 57 0257 02142 5151 457102 353432 199"
"157.001273"
"$GPGGA,000146,2423.1743,N,08120.4544,W,1,10,1.5,22"
"##MN-00 00 57 0258 02147 5151 457270 353487 199"
"157.001319"
"$GPGGA,000150,2423.1722,N,08120.4538,W,1,10,1.5,22"
"##MN-00 00 58 0260 02144 5150 457416 353548 198"
"157.001366"
"$GPGGA,000154,2423.1702,N,08120.4533,W,1,10,1.5,22"
"##MN-00 00 62 0261 02141 5150 457475 353564 199"
"157.001412"
"$GPGGA,000158,2423.1680,N,08120.4528,W,1,10,1.5,22"
"##MN-00 00 60 0263 02138 5149 457444 353564 199"
"157.001458"
"$GPGGA,000202,2423.1657,N,08120.4523,W,1,9,1.5,22,"
"##MN-00 00 59 0264 02138 5149 457368 353555 199"
"157.001505"
"$GPGGA,000206,2423.1634,N,08120.4517,W,1,10,1.5,22"
"##MN-00 00 58 0266 02134 5149 457301 353540 199"
"157.001551"
"$GPGGA,000210,2423.1611,N,08120.4512,W,1,10,1.5,22"
"##MN-00 00 58 0267 02133 5149 457178 353513 199"
"157.001597"
"$GPGGA,000214,2423.1588,N,08120.4507,W,1,10,1.5,22"
"##MN-00 00 58 0269 02128 5149 457086 353476 199"
"157.001644"
"$GPGGA,000218,2423.1566,N,08120.4502,W,1,9,1.7,22,"
"##MN-00 00 55 0270 02125 5148 456970 353447 199"
"157.00169"
"$GPGGA,000222,2423.1545,N,08120.4496,W,1,10,1.5,22"
"##MN-00 00 54 0272 02120 5148 456846 353400 198"
"157.001736"
"$GPGGA,000226,2423.1523,N,08120.4490,W,1,10,1.5,22"
"##MN-00 00 60 0273 02114 5148 456724 353361 199"
"157.001782"
"$GPGGA,000230,2423.1503,N,08120.4482,W,1,10,1.5,22"
"##MN-00 00 57 0275 02112 5147 456583 353307 198"
"157.001829"
"$GPGGA,000234,2423.1480,N,08120.4476,W,1,10,1.5,22"
"##MN-00 00 55 0276 02106 5147 456426 353262 199"
"157.001875"
"$GPGGA,000238,2423.1456,N,08120.4472,W,1,10,1.7,22"
"##MN-00 00 54 0277 02100 5146 456201 353186 199"
"157.001921"
"$GPGGA,000242,2423.1433,N,08120.4466,W,1,10,1.5,22"
"##MN-00 00 55 0279 02096 5146 456028 353126 198"
"157.001968"
"$GPGGA,000246,2423.1411,N,08120.4460,W,1,10,1.5,22"
"##MN-00 00 55 0280 02091 5146 455951 353130 199"
"157.002014"
"$GPGGA,000251,2423.1384,N,08120.4454,W,1,10,1.5,22"
"##MN-00 00 54 0282 02086 5145 455843 353112 199"
"157.00206"
"$GPGGA,000254,2423.1366,N,08120.4449,W,1,10,1.5,22"
"##MN-00 00 55 0283 02080 5145 455722 353141 199"
"157.002106"
"$GPGGA,000259,2423.1338,N,08120.4443,W,1,10,1.5,22"
"##MN-00 00 54 0285 02076 5145 455314 353043 199"
"157.002153"
"$GPGGA,000303,2423.1316,N,08120.4438,W,1,10,1.5,22"
"##MN-00 00 55 0286 02069 5144 455283 353042 199"
"157.002199"
"$GPGGA,000307,2423.1294,N,08120.4432,W,1,10,1.5,22"
"##MN-00 00 55 0288 02063 5144 455542 353229 199"
"157.002245"
"$GPGGA,000311,2423.1272,N,08120.4426,W,1,10,1.5,22"
"##MN-00 00 57 0289 02056 5144 455614 353280 199"
"157.002292"
"$GPGGA,000315,2423.1247,N,08120.4420,W,1,10,1.5,22"
"##MN-00 00 54 0291 02053 5144 455513 353284 198"
"157.002338"
"$GPGGA,000319,2423.1223,N,08120.4413,W,1,10,1.5,22"
"##MN-00 00 55 0292 02046 5143 455223 353220 199"
"157.002384"
"$GPGGA,000323,2423.1200,N,08120.4407,W,1,10,1.5,22"
"##MN-00 00 56 0294 02040 5143 454505 353053 199"
"157.002431"
"$GPGGA,000327,2423.1178,N,08120.4401,W,1,10,1.5,22"
"##MN-00 00 57 0295 02035 5142 453620 352753 199"
"157.002477"
"$GPGGA,000331,2423.1153,N,08120.4396,W,1,10,1.5,22"
"##MN-00 00 54 0297 02030 5142 452651 352424 198"
"157.002523"
"$GPGGA,000335,2423.1134,N,08120.4393,W,1,9,1.5,22,"
"##MN-00 00 55 0298 02024 5141 450264 351883 198"
"157.002569"
"$GPGGA,000339,2423.1110,N,08120.4385,W,1,10,1.5,22"
"##MN-00 00 57 0300 02017 5142 449268 351620 199"
"157.002616"
"$GPGGA,000343,2423.1081,N,08120.4377,W,1,10,1.5,22"
"##MN-00 00 54 0301 02014 5141 448828 351614 199"
"157.002662"
"$GPGGA,000347,2423.1063,N,08120.4374,W,1,10,1.5,23"
"##MN-00 00 57 0303 02007 5141 448268 351010 198"
"157.002708"
"$GPGGA,000351,2423.1035,N,08120.4364,W,1,10,1.5,23"
"##MN-00 00 56 0304 02002 5141 447812 350800 198"
"157.002755"
"$GPGGA,000355,2423.1012,N,08120.4358,W,1,10,1.5,23"
"##MN-00 00 54 0306 01997 5141 447278 350730 198"
"157.002801"
"$GPGGA,000359,2423.0990,N,08120.4352,W,1,10,1.5,23"
"##MN-00 00 57 0307 01988 5140 446818 350511 198"
"157.002847"
"$GPGGA,000403,2423.0967,N,08120.4346,W,1,10,1.5,23"
"##MN-00 00 55 0308 01985 5140 446583 350358 198"
"157.002894"
"$GPGGA,000407,2423.0945,N,08120.4340,W,1,10,1.5,23"
"##MN-00 00 55 0310 01980 5140 446420 350258 198"
"157.00294"
"$GPGGA,000411,2423.0922,N,08120.4333,W,1,10,1.5,23"
"##MN-00 00 53 0311 01974 5140 446524 350256 198"
"157.002986"
"$GPGGA,000415,2423.0900,N,08120.4325,W,1,10,1.5,23"
"##MN-00 00 54 0313 01968 5139 446277 350226 198"
"157.003032"
"$GPGGA,000419,2423.0878,N,08120.4319,W,1,10,1.5,22"
"##MN-00 00 52 0314 01965 5139 446176 350137 198"
"157.003079"
"$GPGGA,000423,2423.0857,N,08120.4313,W,1,10,1.5,22"
"##MN-00 00 52 0315 01960 5139 446165 350119 198"
"157.003125"
"$GPGGA,000427,2423.0835,N,08120.4305,W,1,10,1.5,22"
"##MN-00 00 53 0317 01952 5139 446189 350131 198"
"157.003171"
"$GPGGA,000431,2423.0813,N,08120.4299,W,1,10,1.5,22"
"##MN-00 00 52 0318 01946 5138 446186 350126 199"
"157.003218"
"$GPGGA,000435,2423.0789,N,08120.4291,W,1,10,1.5,22"
"##MN-00 00 51 0320 01942 5138 446194 350114 198"
"157.003264"
"$GPGGA,000439,2423.0766,N,08120.4285,W,1,9,1.5,22,"
"##MN-00 00 54 0321 01935 5138 446216 350115 198"
"157.00331"
"$GPGGA,000443,2423.0743,N,08120.4278,W,1,10,1.5,22"
"##MN-00 00 53 0323 01931 5138 446218 350115 198"
"157.003368"
"$GPGGA,000447,2423.0720,N,08120.4272,W,1,10,1.5,22"
"##MN-00 00 51 0324 01922 5138 446250 350118 199"
"157.003414"
"$GPGGA,000451,2423.0696,N,08120.4266,W,1,9,1.5,22,"
"##MN-00 00 52 0325 01912 5137 446228 350106 198"
"157.003461"
"$GPGGA,000455,2423.0674,N,08120.4259,W,1,10,1.5,22"
"##MN-00 00 54 0327 01907 5137 446193 350104 198"
"157.003507"
"$GPGGA,000459,2423.0652,N,08120.4252,W,1,10,1.5,22"
"##MN-00 00 53 0328 01899 5137 446207 350105 198"
"157.003553"
"$GPGGA,000503,2423.0629,N,08120.4245,W,1,10,1.5,22"
"##MN-00 00 49 0330 01897 5137 446232 350107 198"
"157.0036"
"$GPGGA,000507,2423.0607,N,08120.4237,W,1,10,1.5,22"
"##MN-00 00 50 0331 01887 5137 446239 350111 198"
"157.003646"
"$GPGGA,000511,2423.0582,N,08120.4230,W,1,10,1.5,22"
"##MN-00 00 51 0333 01882 5137 446236 350113 198"
