" Tow: 5Ws-A   RVWS/WS1406"
" Date: 06/05/2014"
" Temperature Probe #  2597    Conductivity Probe #  2870"
" Pressure Probe #  109"
" Flow Meter Calibration  4.71 (m/count)  "
"156.849687"
"$GPGGA,202325,2424.9951,N,08123.0434,W,1,11,1.4,16"
"##MN-00 00 53 0089 01854 5795 423576 647721 201"
"156.849734"
"$GPGGA,202333,2424.9911,N,08123.0418,W,1,11,1.4,16"
"##MN-00 00 59 0089 01852 5796 442458 348984 201"
"156.84978"
"$GPGGA,202338,2424.9888,N,08123.0408,W,1,11,1.4,16"
"##MN-00 00 53 0090 01853 5798 442485 348998 201"
"156.849826"
"$GPGGA,202342,2424.9867,N,08123.0401,W,1,11,1.4,16"
"##MN-00 00 55 0091 01855 5799 442532 349097 201"
"156.849873"
"$GPGGA,202346,2424.9848,N,08123.0392,W,1,11,1.4,16"
"##MN-00 00 58 0092 01859 5800 442540 349103 201"
"156.850012"
"$GPGGA,202353,2424.9814,N,08123.0376,W,1,11,1.4,16"
"##MN-00 00 57 0094 01887 5802 442870 349210 201"
"156.850058"
"$GPGGA,202401,2424.9774,N,08123.0359,W,1,11,1.4,16"
"##MN-00 00 60 0094 01903 5803 443470 349317 201"
"156.850104"
"$GPGGA,202405,2424.9755,N,08123.0349,W,1,11,1.4,16"
"##MN-00 00 57 0095 01912 5804 443567 349330 201"
"156.85015"
"$GPGGA,202409,2424.9736,N,08123.0337,W,1,11,1.4,16"
"##MN-00 00 58 0096 01927 5804 443672 349378 201"
"156.850197"
"$GPGGA,202413,2424.9717,N,08123.0327,W,1,11,1.4,16"
"##MN-00 00 59 0096 01938 5805 443754 349396 201"
"156.850243"
"$GPGGA,202417,2424.9698,N,08123.0317,W,1,11,1.4,16"
"##MN-00 00 60 0097 01950 5806 443803 349401 201"
"156.850289"
"$GPGGA,202422,2424.9673,N,08123.0306,W,1,11,1.4,16"
"##MN-00 00 59 0098 01965 5806 443843 349410 201"
"156.850336"
"$GPGGA,202425,2424.9659,N,08123.0299,W,1,11,1.4,16"
"##MN-00 00 57 0099 01970 5807 443889 349401 201"
"156.850382"
"$GPGGA,202429,2424.9639,N,08123.0290,W,1,11,1.4,16"
"##MN-00 00 51 0099 01969 5807 443890 349384 201"
"156.850428"
"$GPGGA,202434,2424.9615,N,08123.0279,W,1,11,1.4,15"
"##MN-00 00 51 0100 01968 5807 443886 349379 201"
"156.850475"
"$GPGGA,202438,2424.9595,N,08123.0271,W,1,11,1.4,15"
"##MN-00 00 51 0101 01968 5808 443885 349379 201"
"156.850521"
"$GPGGA,202442,2424.9576,N,08123.0262,W,1,11,1.4,15"
"##MN-00 00 52 0102 01970 5808 443890 349384 201"
"156.850567"
"$GPGGA,202446,2424.9558,N,08123.0254,W,1,11,1.4,15"
"##MN+00 00 51 0103 01970 5808 443893 349383 201"
"156.850613"
"$GPGGA,202450,2424.9541,N,08123.0244,W,1,11,1.4,15"
"##MN+00 00 51 0104 01970 5808 443897 349388 201"
"156.85066"
"$GPGGA,202454,2424.9523,N,08123.0234,W,1,11,1.4,15"
"##MN+00 00 54 0105 01968 5808 443907 349393 201"
"156.850706"
"$GPGGA,202458,2424.9505,N,08123.0226,W,1,11,1.4,15"
"##MN+00 00 51 0106 01971 5808 443911 349397 201"
"156.850752"
"$GPGGA,202502,2424.9487,N,08123.0217,W,1,11,1.4,15"
"##MN+00 00 53 0107 01971 5809 443917 349399 199"
"156.850799"
"$GPGGA,202506,2424.9467,N,08123.0207,W,1,11,1.4,15"
"##MN+00 00 60 0107 01971 5809 443917 349399 201"
"156.850845"
"$GPGGA,202510,2424.9451,N,08123.0197,W,1,11,1.4,15"
"##MN-00 00 58 0108 01971 5809 443914 349396 201"
"156.850891"
"#increment_net"
"$GPGGA,202514,2424.9433,N,08123.0187,W,1,11,1.4,15"
"##MN-00 00 55 0109 01970 5808 443923 349399 201"
"156.850938"
"$GPGGA,202518,2424.9415,N,08123.0178,W,1,11,1.4,15"
"##MN-00 00 53 0110 01970 5808 443921 349400 201"
"156.850984"
"$GPGGA,202522,2424.9398,N,08123.0170,W,1,10,1.4,15"
"##MN-00 00 58 0111 01970 5808 443931 349426 201"
"156.85103"
"$GPGGA,202526,2424.9380,N,08123.0163,W,1,11,1.4,16"
"##MN-00 00 52 0111 01971 5808 443945 349453 201"
"156.851076"
"$GPGGA,202530,2424.9364,N,08123.0153,W,1,11,1.4,16"
"##MN-00 00 52 0112 01969 5807 443944 349405 201"
"156.851123"
"$GPGGA,202534,2424.9348,N,08123.0142,W,1,11,1.4,16"
"##MN-00 00 53 0113 01969 5807 443940 349404 201"
"156.851169"
"$GPGGA,202538,2424.9330,N,08123.0132,W,1,11,1.4,16"
"##MN-00 00 52 0114 01970 5807 443931 349403 201"
"156.851215"
"$GPGGA,202542,2424.9314,N,08123.0123,W,1,11,1.4,16"
"##MN-00 00 52 0115 01970 5806 443921 349401 201"
"156.851262"
"$GPGGA,202546,2424.9297,N,08123.0112,W,1,11,1.4,16"
"##MN-00 00 53 0115 01972 5806 443915 349401 201"
"156.851308"
"$GPGGA,202550,2424.9281,N,08123.0101,W,1,11,1.4,16"
"##MN-00 00 52 0116 01972 5806 443912 349401 201"
"156.851354"
"$GPGGA,202554,2424.9264,N,08123.0089,W,1,11,1.4,16"
"##MN-00 00 52 0117 01970 5805 443905 349401 201"
"156.8514"
"$GPGGA,202558,2424.9247,N,08123.0076,W,1,11,1.4,16"
"##MN-00 00 53 0118 01968 5804 443908 349402 201"
"156.851447"
"$GPGGA,202602,2424.9234,N,08123.0069,W,1,10,1.4,16"
"##MN-00 00 54 0119 01970 5804 443907 349403 201"
"156.851493"
"$GPGGA,202606,2424.9213,N,08123.0049,W,1,11,1.4,16"
"##MN-00 00 53 0120 01969 5803 443903 349403 201"
"156.851539"
"$GPGGA,202610,2424.9196,N,08123.0036,W,1,11,1.4,16"
"##MN-00 00 54 0121 01967 5803 443903 349404 201"
"156.851586"
"$GPGGA,202614,2424.9184,N,08123.0026,W,1,11,1.4,16"
"##MN-00 00 54 0122 01967 5802 443903 349409 201"
"156.851632"
"$GPGGA,202618,2424.9162,N,08123.0010,W,1,11,1.4,16"
"##MN-00 00 52 0122 01967 5802 443906 349411 201"
"156.851678"
"$GPGGA,202622,2424.9145,N,08122.9998,W,1,11,1.4,16"
"##MN-00 00 54 0123 01970 5801 443910 349417 201"
"156.851725"
"$GPGGA,202626,2424.9128,N,08122.9986,W,1,11,1.4,17"
"##MN-00 00 52 0124 01967 5801 443908 349419 201"
"156.851771"
"$GPGGA,202630,2424.9113,N,08122.9973,W,1,11,1.4,17"
"##MN-00 00 54 0125 01967 5800 443902 349419 201"
"156.851817"
"$GPGGA,202634,2424.9097,N,08122.9961,W,1,11,1.4,17"
"##MN-00 00 53 0126 01968 5799 443904 349424 201"
"156.851863"
"$GPGGA,202638,2424.9081,N,08122.9948,W,1,11,1.4,17"
"##MN-00 00 53 0127 01970 5799 443903 349421 201"
"156.85191"
"$GPGGA,202642,2424.9065,N,08122.9934,W,1,11,1.4,17"
"##MN-00 00 53 0128 01969 5798 443906 349420 201"
"156.851956"
"$GPGGA,202646,2424.9050,N,08122.9920,W,1,11,1.4,17"
"##MN-00 00 55 0128 01969 5797 443913 349416 201"
"156.852002"
"$GPGGA,202650,2424.9032,N,08122.9905,W,1,11,1.4,17"
"##MN-00 00 54 0129 01973 5797 443921 349408 201"
"156.852049"
"$GPGGA,202654,2424.9017,N,08122.9892,W,1,11,1.4,17"
"##MN-00 00 51 0130 01972 5795 443922 349403 201"
"156.852095"
"$GPGGA,202658,2424.9001,N,08122.9881,W,1,11,1.4,17"
"##MN+00 00 54 0130 01969 5795 443936 349404 201"
"156.852141"
"$GPGGA,202702,2424.8985,N,08122.9868,W,1,11,1.4,16"
"##MN+00 00 54 0131 01974 5794 443948 349408 200"
"156.852187"
"$GPGGA,202706,2424.8969,N,08122.9857,W,1,11,1.4,16"
"##MN+00 00 54 0132 01973 5793 443946 349408 201"
"156.852245"
"$GPGGA,202710,2424.8952,N,08122.9844,W,1,11,1.4,16"
"##MN-00 00 54 0133 01972 5792 443938 349406 198"
"156.852292"
"$GPGGA,202714,2424.8936,N,08122.9833,W,1,11,1.4,16"
"##MN-00 00 52 0133 01972 5791 443929 349405 199"
"156.852338"
"$GPGGA,202718,2424.8920,N,08122.9825,W,1,11,1.4,16"
"##MN-00 00 54 0134 01971 5790 443924 349405 199"
"156.852384"
"$GPGGA,202722,2424.8902,N,08122.9815,W,1,11,1.4,16"
"##MN-00 00 53 0135 01970 5789 443920 349403 199"
"156.852431"
"$GPGGA,202726,2424.8884,N,08122.9807,W,1,11,1.4,16"
"##MN-00 00 53 0136 01971 5788 443929 349404 199"
"156.852477"
"$GPGGA,202730,2424.8867,N,08122.9798,W,1,11,1.4,16"
"##MN-00 00 54 0137 01969 5788 443924 349405 199"
"156.852523"
"$GPGGA,202734,2424.8850,N,08122.9789,W,1,11,1.4,16"
"##MN-00 00 54 0138 01972 5787 443934 349408 199"
"156.852569"
"$GPGGA,202738,2424.8833,N,08122.9783,W,1,11,1.4,17"
"##MN+00 00 52 0138 01968 5786 443933 349410 199"
"156.852616"
"$GPGGA,202742,2424.8815,N,08122.9774,W,1,11,1.4,17"
"##MN+00 00 51 0139 01969 5785 443956 349416 199"
"156.852662"
"$GPGGA,202746,2424.8797,N,08122.9765,W,1,11,1.4,17"
"##MN+00 00 61 0140 01969 5784 443959 349416 199"
"156.852708"
"#increment_net"
"$GPGGA,202750,2424.8783,N,08122.9758,W,1,11,1.4,17"
"##MN-00 00 59 0141 01966 5783 443973 349411 201"
"156.852755"
"$GPGGA,202754,2424.8766,N,08122.9751,W,1,10,1.4,17"
"##MN-00 00 54 0142 01968 5782 443978 349411 201"
"156.852801"
"$GPGGA,202758,2424.8747,N,08122.9742,W,1,10,1.5,17"
"##MN-00 00 53 0143 01967 5781 443971 349412 201"
"156.852847"
"$GPGGA,202802,2424.8730,N,08122.9734,W,1,11,1.5,17"
"##MN-00 00 52 0143 01969 5780 443973 349411 201"
"156.852894"
"$GPGGA,202806,2424.8714,N,08122.9726,W,1,10,1.4,17"
"##MN-00 00 52 0144 01966 5778 443978 349414 201"
"156.85294"
"$GPGGA,202810,2424.8698,N,08122.9719,W,1,11,1.4,17"
"##MN-00 00 52 0145 01965 5778 443982 349416 201"
"156.852986"
"$GPGGA,202814,2424.8681,N,08122.9711,W,1,11,1.4,17"
"##MN-00 00 52 0146 01966 5777 443978 349416 201"
"156.853032"
"$GPGGA,202818,2424.8663,N,08122.9702,W,1,11,1.4,17"
"##MN-00 00 52 0147 01966 5776 443972 349415 201"
"156.853079"
"$GPGGA,202822,2424.8645,N,08122.9693,W,1,11,1.4,17"
"##MN-00 00 53 0148 01965 5775 443966 349414 201"
"156.853125"
"$GPGGA,202826,2424.8628,N,08122.9688,W,1,11,1.4,17"
"##MN-00 00 53 0149 01963 5774 443960 349415 201"
"156.853171"
"$GPGGA,202830,2424.8610,N,08122.9682,W,1,11,1.4,17"
"##MN-00 00 52 0150 01963 5772 443946 349416 201"
"156.853218"
"$GPGGA,202835,2424.8588,N,08122.9672,W,1,11,1.4,17"
"##MN-00 00 53 0151 01962 5772 443940 349417 201"
"156.853264"
"$GPGGA,202838,2424.8574,N,08122.9670,W,1,11,1.4,17"
"##MN-00 00 53 0152 01963 5771 443933 349421 201"
"156.85331"
"$GPGGA,202842,2424.8555,N,08122.9663,W,1,11,1.4,17"
"##MN-00 00 51 0153 01963 5770 443931 349424 201"
"156.853357"
"$GPGGA,202846,2424.8538,N,08122.9660,W,1,11,1.4,16"
"##MN-00 00 51 0154 01963 5769 443928 349426 201"
"156.853403"
"$GPGGA,202850,2424.8521,N,08122.9654,W,1,11,1.4,16"
"##MN-00 00 52 0155 01963 5767 443927 349425 201"
"156.853449"
"$GPGGA,202854,2424.8503,N,08122.9648,W,1,11,1.4,16"
"##MN-00 00 52 0156 01960 5767 443919 349427 201"
"156.853495"
"$GPGGA,202859,2424.8481,N,08122.9644,W,1,11,1.4,16"
"##MN-00 00 52 0157 01963 5765 443921 349428 201"
"156.853542"
"$GPGGA,202903,2424.8465,N,08122.9639,W,1,11,1.4,16"
"##MN-00 00 51 0158 01962 5764 443923 349428 201"
"156.853588"
"$GPGGA,202907,2424.8445,N,08122.9632,W,1,11,1.4,16"
"##MN-00 00 52 0159 01959 5763 443923 349430 201"
"156.853634"
"$GPGGA,202911,2424.8427,N,08122.9625,W,1,11,1.4,16"
"##MN-00 00 54 0160 01962 5762 443919 349430 201"
"156.853681"
"$GPGGA,202915,2424.8407,N,08122.9616,W,1,10,1.5,15"
"##MN-00 00 54 0160 01962 5761 443931 349430 201"
"156.853727"
"$GPGGA,202919,2424.8389,N,08122.9611,W,1,11,1.4,15"
"##MN-00 00 53 0161 01961 5760 443932 349429 201"
"156.853773"
"$GPGGA,202923,2424.8372,N,08122.9606,W,1,11,1.4,15"
"##MN-00 00 54 0162 01961 5759 443930 349430 201"
"156.853819"
"$GPGGA,202927,2424.8355,N,08122.9602,W,1,11,1.4,16"
"##MN-00 00 53 0163 01960 5758 443941 349430 201"
"156.853866"
"$GPGGA,202931,2424.8338,N,08122.9597,W,1,11,1.4,16"
"##MN-00 00 53 0164 01961 5756 443938 349430 201"
"156.853912"
"$GPGGA,202935,2424.8320,N,08122.9592,W,1,11,1.4,16"
"##MN+00 00 53 0165 01959 5755 443932 349429 201"
"156.853958"
"$GPGGA,202939,2424.8303,N,08122.9589,W,1,11,1.4,17"
"##MN+00 00 53 0166 01962 5754 443934 349429 201"
"156.854005"
"$GPGGA,202943,2424.8285,N,08122.9583,W,1,11,1.4,17"
"##MN+00 00 53 0167 01960 5753 443930 349429 201"
"156.854051"
"$GPGGA,202947,2424.8267,N,08122.9577,W,1,11,1.5,17"
"##MN-00 00 52 0168 01959 5752 443919 349431 200"
"156.854097"
"$GPGGA,202951,2424.8250,N,08122.9572,W,1,11,1.4,17"
"##MN-00 00 54 0169 01960 5751 443884 349429 200"
"156.854144"
"$GPGGA,202955,2424.8233,N,08122.9567,W,1,11,1.4,17"
"##MN-00 00 53 0170 01962 5750 443863 349427 200"
"156.85419"
"$GPGGA,202959,2424.8215,N,08122.9561,W,1,11,1.4,18"
"##MN+00 00 54 0171 01959 5749 443848 349425 200"
"156.854236"
"$GPGGA,203003,2424.8197,N,08122.9553,W,1,11,1.4,18"
"##MN+00 00 54 0172 01960 5747 443843 349423 201"
"156.854282"
"$GPGGA,203007,2424.8178,N,08122.9546,W,1,11,1.4,17"
"##MN+00 00 62 0173 01962 5746 443845 349421 201"
"156.854329"
"#increment_net"
"$GPGGA,203011,2424.8161,N,08122.9540,W,1,11,1.4,17"
"##MN-00 00 62 0174 01962 5745 443844 349420 201"
"156.854375"
"$GPGGA,203015,2424.8139,N,08122.9533,W,1,10,1.4,17"
"##MN-00 00 56 0175 01962 5744 443851 349420 201"
"156.854421"
"$GPGGA,203019,2424.8122,N,08122.9527,W,1,11,1.4,17"
"##MN-00 00 54 0176 01964 5742 443850 349420 201"
"156.854468"
"$GPGGA,203023,2424.8104,N,08122.9520,W,1,11,1.4,17"
"##MN-00 00 54 0177 01963 5741 443849 349420 201"
"156.854514"
"$GPGGA,203027,2424.8085,N,08122.9515,W,1,11,1.4,17"
"##MN-00 00 52 0178 01963 5739 443846 349419 201"
"156.85456"
"$GPGGA,203031,2424.8067,N,08122.9510,W,1,11,1.4,17"
"##MN-00 00 53 0179 01965 5738 443847 349418 201"
"156.854606"
"$GPGGA,203035,2424.8049,N,08122.9505,W,1,11,1.6,17"
"##MN-00 00 52 0180 01964 5737 443845 349418 201"
"156.854653"
"$GPGGA,203039,2424.8031,N,08122.9497,W,1,10,1.6,17"
"##MN-00 00 54 0181 01964 5736 443843 349418 201"
"156.854699"
"$GPGGA,203043,2424.8013,N,08122.9491,W,1,11,1.4,17"
"##MN-00 00 52 0182 01967 5735 443851 349419 201"
"156.854745"
"$GPGGA,203047,2424.7993,N,08122.9485,W,1,11,1.4,17"
"##MN-00 00 53 0182 01965 5734 443852 349419 201"
"156.854792"
"$GPGGA,203051,2424.7974,N,08122.9479,W,1,11,1.4,17"
"##MN-00 00 53 0184 01967 5733 443846 349419 201"
"156.854838"
"$GPGGA,203055,2424.7955,N,08122.9472,W,1,11,1.3,17"
"##MN-00 00 54 0184 01965 5731 443844 349419 201"
"156.854884"
"$GPGGA,203059,2424.7935,N,08122.9466,W,1,10,1.5,17"
"##MN-00 00 53 0185 01965 5731 443843 349458 201"
"156.854931"
"$GPGGA,203103,2424.7917,N,08122.9462,W,1,11,1.3,17"
"##MN-00 00 52 0186 01965 5729 443842 349417 201"
"156.854977"
"$GPGGA,203107,2424.7898,N,08122.9458,W,1,11,1.3,17"
"##MN-00 00 55 0187 01965 5728 443837 349417 201"
"156.855023"
"$GPGGA,203111,2424.7880,N,08122.9454,W,1,10,1.4,17"
"##MN-00 00 53 0188 01966 5727 443838 349417 201"
"156.855069"
"$GPGGA,203115,2424.7862,N,08122.9450,W,1,11,1.3,18"
"##MN-00 00 52 0190 01966 5726 443839 349417 201"
"156.855116"
"$GPGGA,203119,2424.7845,N,08122.9444,W,1,11,1.3,18"
"##MN-00 00 54 0190 01962 5725 443841 349417 201"
"156.855162"
"$GPGGA,203123,2424.7829,N,08122.9439,W,1,11,1.3,18"
"##MN-00 00 54 0191 01964 5723 443868 349473 201"
"156.855208"
"$GPGGA,203127,2424.7811,N,08122.9433,W,1,11,1.3,18"
"##MN-00 00 53 0192 01967 5723 443889 349576 201"
"156.855255"
"$GPGGA,203131,2424.7795,N,08122.9426,W,1,11,1.3,18"
"##MN-00 00 52 0193 01966 5721 443891 349423 201"
"156.855301"
"$GPGGA,203135,2424.7776,N,08122.9419,W,1,11,1.3,18"
"##MN-00 00 54 0194 01964 5720 443919 349427 201"
"156.855347"
"$GPGGA,203139,2424.7760,N,08122.9412,W,1,11,1.3,18"
"##MN-00 00 53 0195 01965 5719 443931 349427 201"
"156.855393"
"$GPGGA,203143,2424.7742,N,08122.9405,W,1,11,1.3,18"
"##MN-00 00 52 0196 01967 5718 443941 349430 201"
"156.855451"
"$GPGGA,203147,2424.7728,N,08122.9400,W,1,11,1.3,18"
"##MN+00 00 52 0197 01970 5717 443944 349431 201"
"156.855498"
"$GPGGA,203151,2424.7711,N,08122.9392,W,1,11,1.3,18"
"##MN+00 00 56 0198 01970 5715 443940 349430 201"
"156.855544"
"$GPGGA,203155,2424.7692,N,08122.9384,W,1,11,1.3,18"
"##MN+00 00 52 0199 01970 5714 443973 349434 201"
"156.85559"
"$GPGGA,203159,2424.7675,N,08122.9377,W,1,11,1.3,17"
"##MN-00 00 54 0200 01970 5713 444023 349436 200"
"156.855637"
"$GPGGA,203203,2424.7656,N,08122.9370,W,1,11,1.3,17"
"##MN-00 00 54 0201 01968 5712 444124 349454 200"
"156.855683"
"$GPGGA,203207,2424.7638,N,08122.9365,W,1,11,1.3,17"
"##MN-00 00 53 0202 01969 5711 444196 349463 200"
"156.855729"
"$GPGGA,203211,2424.7620,N,08122.9359,W,1,11,1.3,17"
"##MN+00 00 50 0203 01970 5709 444223 349467 200"
"156.855775"
"$GPGGA,203215,2424.7602,N,08122.9351,W,1,11,1.3,17"
"##MN+00 00 51 0204 01968 5708 444226 349469 201"
"156.855822"
"$GPGGA,203219,2424.7584,N,08122.9344,W,1,11,1.3,17"
"##MN+00 00 60 0205 01971 5707 444249 349474 201"
"156.855868"
"#increment_net"
"$GPGGA,203223,2424.7566,N,08122.9338,W,1,10,1.5,17"
"##MN-00 00 54 0206 01969 5706 444294 349481 201"
"156.855914"
"$GPGGA,203227,2424.7548,N,08122.9331,W,1,10,1.5,17"
"##MN-00 00 52 0207 01970 5705 444370 349502 201"
"156.855961"
"$GPGGA,203231,2424.7533,N,08122.9326,W,1,11,1.3,16"
"##MN-00 00 50 0208 01970 5704 444403 349507 201"
"156.856007"
"$GPGGA,203235,2424.7512,N,08122.9319,W,1,10,1.5,16"
"##MN-00 00 50 0209 01965 5703 444386 349508 201"
"156.856053"
"$GPGGA,203239,2424.7494,N,08122.9312,W,1,10,1.3,16"
"##MN-00 00 52 0210 01964 5701 444356 349505 201"
"156.8561"
"$GPGGA,203243,2424.7477,N,08122.9306,W,1,11,1.3,16"
"##MN-00 00 51 0211 01965 5700 444349 349505 201"
"156.856146"
"$GPGGA,203247,2424.7459,N,08122.9300,W,1,10,1.3,16"
"##MN-00 00 50 0212 01965 5699 444347 349506 201"
"156.856192"
"$GPGGA,203251,2424.7443,N,08122.9296,W,1,10,1.3,16"
"##MN-00 00 52 0213 01963 5698 444330 349503 201"
"156.856238"
"$GPGGA,203255,2424.7426,N,08122.9294,W,1,10,1.5,16"
"##MN-00 00 52 0214 01964 5697 444334 349504 201"
"156.856285"
"$GPGGA,203259,2424.7411,N,08122.9290,W,1,11,1.3,16"
"##MN-00 00 51 0215 01962 5696 444331 349506 201"
"156.856331"
"$GPGGA,203303,2424.7393,N,08122.9283,W,1,10,1.3,16"
"##MN-00 00 51 0216 01963 5694 444306 349500 201"
"156.856377"
"$GPGGA,203307,2424.7376,N,08122.9277,W,1,11,1.3,16"
"##MN-00 00 52 0217 01960 5693 444286 349496 201"
"156.856424"
"$GPGGA,203311,2424.7356,N,08122.9274,W,1,11,1.3,16"
"##MN-00 00 52 0218 01960 5692 444270 349494 201"
"156.85647"
"$GPGGA,203315,2424.7341,N,08122.9265,W,1,10,1.3,16"
"##MN-00 00 52 0219 01961 5691 444262 349493 201"
"156.856516"
"$GPGGA,203319,2424.7323,N,08122.9260,W,1,11,1.6,17"
"##MN-00 00 51 0220 01960 5690 444254 349489 201"
"156.856563"
"$GPGGA,203323,2424.7309,N,08122.9253,W,1,11,1.6,17"
"##MN-00 00 52 0221 01958 5689 444209 349482 201"
"156.856609"
"$GPGGA,203327,2424.7289,N,08122.9250,W,1,11,1.3,17"
"##MN-00 00 54 0222 01958 5687 444180 349480 201"
"156.856655"
"$GPGGA,203331,2424.7271,N,08122.9245,W,1,10,1.3,17"
"##MN-00 00 53 0223 01960 5686 444180 349478 201"
"156.856701"
"$GPGGA,203336,2424.7253,N,08122.9236,W,1,11,1.3,18"
"##MN-00 00 54 0224 01966 5685 444200 349478 201"
"156.856748"
"$GPGGA,203340,2424.7236,N,08122.9229,W,1,11,1.3,18"
"##MN-00 00 52 0225 01966 5684 444258 349486 201"
"156.856794"
"$GPGGA,203343,2424.7225,N,08122.9223,W,1,11,1.3,18"
"##MN-00 00 52 0226 01965 5683 444295 349493 201"
"156.85684"
"$GPGGA,203348,2424.7204,N,08122.9217,W,1,11,1.3,18"
"##MN-00 00 54 0227 01963 5682 444273 349492 201"
"156.856887"
"$GPGGA,203352,2424.7186,N,08122.9212,W,1,11,1.3,18"
"##MN-00 00 53 0228 01965 5681 444212 349486 201"
"156.856933"
"$GPGGA,203356,2424.7168,N,08122.9206,W,1,11,1.3,19"
"##MN-00 00 52 0229 01967 5679 444204 349481 201"
"156.856979"
"$GPGGA,203400,2424.7152,N,08122.9200,W,1,11,1.3,19"
"##MN+00 00 53 0230 01965 5678 444225 349483 201"
"156.857025"
"$GPGGA,203404,2424.7133,N,08122.9191,W,1,10,1.6,19"
"##MN+00 00 52 0231 01969 5677 444262 349489 201"
"156.857072"
"$GPGGA,203408,2424.7119,N,08122.9183,W,1,9,1.6,19,"
"##MN+00 00 52 0232 01968 5676 444297 349495 200"
"156.857118"
"$GPGGA,203412,2424.7104,N,08122.9176,W,1,9,1.8,18,"
"##MN-00 00 52 0233 01967 5675 444324 349500 200"
"156.857164"
"$GPGGA,203416,2424.7089,N,08122.9167,W,1,9,1.6,18,"
"##MN-00 00 52 0234 01965 5674 444318 349500 201"
"156.857211"
"$GPGGA,203420,2424.7074,N,08122.9163,W,1,10,1.6,18"
"##MN+00 00 52 0235 01967 5673 444306 349500 201"
"156.857257"
"$GPGGA,203424,2424.7059,N,08122.9159,W,1,10,1.6,18"
"##MN+00 00 51 0236 01967 5671 444328 349507 200"
"156.857303"
"$GPGGA,203428,2424.7043,N,08122.9152,W,1,10,1.6,18"
"##MN+00 00 61 0237 01970 5670 444403 349716 200"
"156.85735"
"#increment_net"
"$GPGGA,203432,2424.7023,N,08122.9142,W,1,9,1.8,17,"
"##MN-00 00 57 0238 01972 5670 444687 349560 200"
"156.857396"
"$GPGGA,203436,2424.7005,N,08122.9131,W,1,9,1.8,17,"
"##MN-00 00 55 0239 01979 5669 444843 349612 200"
"156.857442"
"$GPGGA,203440,2424.6987,N,08122.9120,W,1,9,1.8,16,"
"##MN-00 00 54 0240 01985 5667 445210 349661 200"
"156.857488"
"$GPGGA,203444,2424.6970,N,08122.9110,W,1,9,1.8,15,"
"##MN-00 00 51 0241 01989 5666 446020 349873 200"
"156.857535"
"$GPGGA,203448,2424.6956,N,08122.9105,W,1,10,1.6,15"
"##MN-00 00 50 0243 01995 5665 446475 349989 200"
"156.857581"
"$GPGGA,203452,2424.6941,N,08122.9098,W,1,11,1.6,15"
"##MN-00 00 52 0244 01990 5664 446669 350175 200"
"156.857627"
"$GPGGA,203456,2424.6922,N,08122.9088,W,1,11,1.8,15"
"##MN-00 00 52 0245 01984 5662 446705 350142 200"
"156.857674"
"$GPGGA,203500,2424.6904,N,08122.9083,W,1,11,1.6,15"
"##MN-00 00 49 0247 01973 5661 446678 350135 200"
"156.85772"
"$GPGGA,203504,2424.6888,N,08122.9077,W,1,11,1.6,15"
"##MN-00 00 52 0248 01962 5660 445713 349949 200"
"156.857766"
"$GPGGA,203508,2424.6870,N,08122.9070,W,1,11,1.6,15"
"##MN-00 00 54 0250 01952 5659 444775 349725 200"
"156.857812"
"$GPGGA,203512,2424.6852,N,08122.9062,W,1,11,1.6,16"
"##MN-00 00 51 0251 01943 5658 444033 349562 200"
"156.857859"
"$GPGGA,203516,2424.6833,N,08122.9055,W,1,11,1.6,16"
"##MN-00 00 51 0252 01931 5657 443782 349487 200"
"156.857905"
"$GPGGA,203520,2424.6815,N,08122.9048,W,1,11,1.6,16"
"##MN-00 00 48 0254 01924 5656 443671 349487 200"
"156.857951"
"$GPGGA,203524,2424.6796,N,08122.9040,W,1,11,1.6,16"
"##MN-00 00 49 0255 01910 5654 443597 349472 200"
"156.857998"
"$GPGGA,203528,2424.6776,N,08122.9028,W,1,11,1.8,16"
"##MN-00 00 51 0256 01900 5653 443516 349413 200"
"156.858044"
"$GPGGA,203532,2424.6756,N,08122.9018,W,1,10,1.8,16"
"##MN-00 00 49 0258 01888 5652 443446 349380 200"
"156.85809"
"$GPGGA,203536,2424.6736,N,08122.9008,W,1,11,1.8,16"
"##MN-00 00 51 0259 01877 5651 443322 349364 200"
"156.858137"
"$GPGGA,203540,2424.6717,N,08122.9000,W,1,11,1.6,15"
"##MN-00 00 51 0261 01864 5650 443125 349343 200"
