" Tow: 5Ws-B   RVWS/WS1406"
" Date: 06/05/2014"
" Temperature Probe #  2597    Conductivity Probe #  2870"
" Pressure Probe #  109"
" Flow Meter Calibration  4.71 (m/count)  "
"156.873021"
"$GPGGA,205702,2422.8309,N,08122.4275,W,1,11,1.4,12"
"##MN-00 00 57 0086 01859 5493 434413 851905 200"
"156.873067"
"$GPGGA,205710,2422.8260,N,08122.4253,W,1,10,1.4,12"
"##MN-00 00 58 0087 01860 5494 445099 349770 200"
"156.873113"
"$GPGGA,205714,2422.8235,N,08122.4241,W,1,11,1.4,12"
"##MN-00 00 61 0088 01860 5494 445115 349779 200"
"156.87316"
"$GPGGA,205718,2422.8212,N,08122.4230,W,1,11,1.4,12"
"##MN-00 00 56 0089 01858 5495 445181 349798 200"
"156.873206"
"$GPGGA,205722,2422.8190,N,08122.4220,W,1,11,1.4,12"
"##MN-00 00 58 0090 01859 5495 445218 349829 200"
"156.873252"
"$GPGGA,205726,2422.8167,N,08122.4209,W,1,11,1.4,12"
"##MN-00 00 58 0091 01858 5495 445222 349830 200"
"156.873299"
"$GPGGA,205730,2422.8145,N,08122.4199,W,1,11,1.4,12"
"##MN-00 00 55 0092 01858 5496 445245 350029 200"
"156.873345"
"$GPGGA,205734,2422.8123,N,08122.4188,W,1,11,1.4,12"
"##MN-00 00 54 0092 01859 5497 445218 349846 200"
"156.873391"
"$GPGGA,205738,2422.8102,N,08122.4176,W,1,11,1.4,12"
"##MN-00 00 55 0093 01860 5497 445207 349840 200"
"156.873437"
"$GPGGA,205742,2422.8082,N,08122.4166,W,1,11,1.4,12"
"##MN-00 00 57 0094 01861 5498 445276 349849 200"
"156.873484"
"$GPGGA,205746,2422.8060,N,08122.4156,W,1,11,1.4,12"
"##MN-00 00 54 0095 01863 5498 445272 349844 200"
"156.87353"
"$GPGGA,205750,2422.8038,N,08122.4147,W,1,11,1.4,12"
"##MN-00 00 55 0096 01863 5498 445233 349834 200"
"156.873576"
"$GPGGA,205754,2422.8017,N,08122.4136,W,1,11,1.4,12"
"##MN-00 00 54 0097 01869 5498 445203 349830 200"
"156.873623"
"$GPGGA,205758,2422.7996,N,08122.4125,W,1,11,1.4,12"
"##MN-00 00 58 0098 01869 5498 445224 349833 200"
"156.873669"
"$GPGGA,205802,2422.7975,N,08122.4115,W,1,11,1.4,12"
"##MN-00 00 55 0099 01873 5498 445227 349832 200"
"156.873715"
"$GPGGA,205806,2422.7959,N,08122.4106,W,1,11,1.4,12"
"##MN-00 00 58 0099 01879 5499 445271 349835 200"
"156.873762"
"$GPGGA,205810,2422.7931,N,08122.4093,W,1,11,1.4,12"
"##MN-00 00 57 0100 01882 5499 445331 349852 200"
"156.873808"
"$GPGGA,205814,2422.7915,N,08122.4085,W,1,11,1.4,12"
"##MN-00 00 55 0101 01885 5499 445389 349872 200"
"156.873854"
"$GPGGA,205818,2422.7888,N,08122.4075,W,1,11,1.4,12"
"##MN-00 00 50 0102 01887 5500 445440 349882 200"
"156.8739"
"$GPGGA,205822,2422.7872,N,08122.4065,W,1,11,1.4,12"
"##MN-00 00 54 0103 01891 5500 445416 349877 200"
"156.873947"
"$GPGGA,205826,2422.7847,N,08122.4053,W,1,11,1.4,12"
"##MN-00 00 57 0104 01898 5500 445429 349877 200"
"156.873993"
"$GPGGA,205830,2422.7826,N,08122.4044,W,1,11,1.4,12"
"##MN-00 00 58 0105 01905 5500 445384 349868 200"
"156.874039"
"$GPGGA,205834,2422.7812,N,08122.4037,W,1,11,1.4,12"
"##MN-00 00 57 0105 01909 5500 445411 349861 200"
"156.874086"
"$GPGGA,205838,2422.7789,N,08122.4026,W,1,11,1.4,12"
"##MN-00 00 56 0106 01911 5500 445560 349894 200"
"156.874132"
"$GPGGA,205842,2422.7768,N,08122.4017,W,1,11,1.4,12"
"##MN-00 00 57 0107 01917 5501 445589 349914 200"
"156.874178"
"$GPGGA,205846,2422.7748,N,08122.4007,W,1,11,1.4,12"
"##MN-00 00 56 0108 01924 5500 445749 349958 200"
"156.874225"
"$GPGGA,205850,2422.7728,N,08122.3997,W,1,11,1.4,12"
"##MN-00 00 55 0109 01926 5500 446047 350041 200"
"156.874271"
"$GPGGA,205854,2422.7706,N,08122.3987,W,1,11,1.4,12"
"##MN-00 00 55 0110 01927 5500 446293 350082 200"
"156.874317"
"$GPGGA,205858,2422.7686,N,08122.3976,W,1,11,1.4,12"
"##MN-00 00 58 0111 01933 5500 446397 350131 200"
"156.874363"
"$GPGGA,205902,2422.7665,N,08122.3966,W,1,11,1.4,12"
"##MN-00 00 56 0111 01939 5500 446457 350140 200"
"156.87441"
"$GPGGA,205906,2422.7645,N,08122.3955,W,1,11,1.4,12"
"##MN-00 00 56 0112 01944 5500 446497 350144 200"
"156.874456"
"$GPGGA,205910,2422.7624,N,08122.3947,W,1,11,1.4,12"
"##MN-00 00 54 0113 01947 5500 446561 350165 200"
"156.874502"
"$GPGGA,205914,2422.7602,N,08122.3938,W,1,11,1.4,12"
"##MN-00 00 56 0114 01947 5500 446636 350196 200"
"156.874549"
"$GPGGA,205918,2422.7580,N,08122.3930,W,1,11,1.4,12"
"##MN-00 00 56 0115 01952 5500 446686 350204 200"
"156.874606"
"$GPGGA,205922,2422.7558,N,08122.3923,W,1,11,1.4,12"
"##MN-00 00 57 0116 01958 5500 446737 350216 200"
"156.874653"
"$GPGGA,205926,2422.7537,N,08122.3916,W,1,11,1.4,12"
"##MN-00 00 56 0117 01959 5500 446761 350224 200"
"156.874699"
"$GPGGA,205930,2422.7515,N,08122.3910,W,1,11,1.4,12"
"##MN-00 00 57 0118 01963 5500 446795 350239 201"
"156.874745"
"$GPGGA,205934,2422.7493,N,08122.3904,W,1,11,1.4,12"
"##MN-00 00 57 0119 01969 5499 446822 350250 200"
"156.874792"
"$GPGGA,205938,2422.7471,N,08122.3900,W,1,11,1.4,12"
"##MN-00 00 58 0120 01971 5499 446832 350246 200"
"156.874838"
"$GPGGA,205942,2422.7447,N,08122.3896,W,1,11,1.4,12"
"##MN+00 00 56 0121 01967 5499 446849 350258 200"
"156.874884"
"$GPGGA,205946,2422.7426,N,08122.3892,W,1,11,1.4,12"
"##MN+00 00 56 0122 01968 5499 446855 350267 200"
"156.874931"
"$GPGGA,205950,2422.7404,N,08122.3889,W,1,11,1.4,12"
"##MN+00 00 54 0123 01966 5499 446849 350266 200"
"156.874977"
"$GPGGA,205954,2422.7384,N,08122.3887,W,1,11,1.4,12"
"##MN+00 00 55 0124 01966 5499 446817 350262 200"
"156.875023"
"$GPGGA,205958,2422.7363,N,08122.3884,W,1,11,1.4,12"
"##MN+00 00 58 0125 01965 5498 446795 350258 200"
"156.875069"
"$GPGGA,210002,2422.7342,N,08122.3880,W,1,10,1.4,12"
"##MN+00 00 66 0126 01968 5498 446768 350253 200"
"156.875116"
"$GPGGA,210006,2422.7320,N,08122.3877,W,1,11,1.4,12"
"##MN-00 00 60 0127 01966 5498 446750 350247 200"
"156.875162"
"$GPGGA,210010,2422.7298,N,08122.3874,W,1,11,1.4,12"
"##MN-00 00 58 0128 01964 5498 446743 350242 200"
"156.875208"
"#increment_net"
"$GPGGA,210014,2422.7278,N,08122.3873,W,1,11,1.4,12"
"##MN-00 00 58 0129 01964 5497 446717 350233 200"
"156.875255"
"$GPGGA,210018,2422.7258,N,08122.3870,W,1,11,1.4,12"
"##MN-00 00 58 0130 01963 5497 446702 350221 200"
"156.875301"
"$GPGGA,210022,2422.7238,N,08122.3869,W,1,11,1.4,12"
"##MN-00 00 58 0131 01962 5497 446703 350220 200"
"156.875347"
"$GPGGA,210026,2422.7218,N,08122.3866,W,1,11,1.4,13"
"##MN-00 00 58 0133 01965 5496 446716 350220 200"
"156.875394"
"$GPGGA,210030,2422.7199,N,08122.3863,W,1,11,1.4,13"
"##MN-00 00 58 0134 01966 5496 446732 350224 200"
"156.87544"
"$GPGGA,210034,2422.7179,N,08122.3859,W,1,11,1.4,13"
"##MN-00 00 59 0135 01962 5496 446758 350228 200"
"156.875486"
"$GPGGA,210038,2422.7159,N,08122.3858,W,1,11,1.4,13"
"##MN-00 00 59 0136 01964 5495 446772 350235 200"
"156.875532"
"$GPGGA,210042,2422.7139,N,08122.3855,W,1,11,1.4,13"
"##MN-00 00 61 0137 01964 5495 446767 350236 200"
"156.875579"
"$GPGGA,210046,2422.7119,N,08122.3853,W,1,11,1.4,13"
"##MN-00 00 58 0138 01963 5494 446770 350238 200"
"156.875625"
"$GPGGA,210050,2422.7099,N,08122.3850,W,1,11,1.4,13"
"##MN-00 00 60 0139 01963 5494 446763 350235 200"
"156.875671"
"$GPGGA,210054,2422.7081,N,08122.3847,W,1,11,1.4,13"
"##MN-00 00 60 0140 01964 5494 446768 350235 200"
"156.875718"
"$GPGGA,210058,2422.7060,N,08122.3843,W,1,11,1.4,13"
"##MN-00 00 59 0141 01966 5493 446778 350236 200"
"156.875764"
"$GPGGA,210102,2422.7040,N,08122.3841,W,1,11,1.4,13"
"##MN-00 00 59 0142 01965 5493 446797 350241 200"
"156.87581"
"$GPGGA,210106,2422.7020,N,08122.3838,W,1,11,1.4,13"
"##MN-00 00 60 0143 01968 5493 446828 350246 200"
"156.875856"
"$GPGGA,210110,2422.6999,N,08122.3835,W,1,10,1.4,13"
"##MN-00 00 59 0144 01968 5492 446849 350258 200"
"156.875903"
"$GPGGA,210114,2422.6978,N,08122.3831,W,1,11,1.4,13"
"##MN-00 00 61 0145 01970 5492 446843 350261 200"
"156.875949"
"$GPGGA,210119,2422.6952,N,08122.3833,W,1,11,1.4,13"
"##MN-00 00 59 0146 01971 5491 446867 350262 200"
"156.875995"
"$GPGGA,210122,2422.6937,N,08122.3833,W,1,11,1.4,13"
"##MN-00 00 59 0147 01971 5491 446910 350270 200"
"156.876042"
"$GPGGA,210127,2422.6913,N,08122.3833,W,1,11,1.4,14"
"##MN-00 00 60 0148 01971 5490 446909 350276 200"
"156.876088"
"$GPGGA,210130,2422.6898,N,08122.3830,W,1,11,1.4,14"
"##MN-00 00 60 0150 01971 5489 446896 350276 200"
"156.876134"
"$GPGGA,210135,2422.6875,N,08122.3830,W,1,11,1.4,14"
"##MN-00 00 58 0151 01970 5489 446882 350274 200"
"156.876181"
"$GPGGA,210138,2422.6859,N,08122.3829,W,1,11,1.4,14"
"##MN-00 00 58 0152 01971 5489 446870 350270 200"
"156.876227"
"$GPGGA,210143,2422.6835,N,08122.3827,W,1,11,1.4,14"
"##MN-00 00 60 0153 01968 5488 446874 350269 200"
"156.876273"
"$GPGGA,210147,2422.6816,N,08122.3826,W,1,10,1.4,15"
"##MN-00 00 60 0154 01973 5488 446878 350268 200"
"156.876319"
"$GPGGA,210151,2422.6799,N,08122.3824,W,1,11,1.2,15"
"##MN+00 00 60 0155 01970 5487 446880 350269 200"
"156.876366"
"$GPGGA,210155,2422.6783,N,08122.3824,W,1,11,1.2,15"
"##MN+00 00 60 0156 01968 5487 446875 350268 200"
"156.876412"
"$GPGGA,210159,2422.6767,N,08122.3823,W,1,11,1.2,15"
"##MN+00 00 61 0157 01969 5486 446864 350265 200"
"156.876458"
"$GPGGA,210203,2422.6747,N,08122.3822,W,1,11,1.2,16"
"##MN-00 00 60 0158 01968 5486 446868 350265 200"
"156.876505"
"$GPGGA,210207,2422.6728,N,08122.3820,W,1,11,1.2,16"
"##MN-00 00 58 0159 01969 5485 446887 350271 200"
"156.876551"
"$GPGGA,210211,2422.6709,N,08122.3819,W,1,11,1.2,16"
"##MN-00 00 60 0160 01970 5485 446901 350274 200"
"156.876597"
"$GPGGA,210215,2422.6687,N,08122.3818,W,1,11,1.4,17"
"##MN-00 00 60 0162 01968 5484 446904 350274 200"
"156.876643"
"$GPGGA,210219,2422.6669,N,08122.3819,W,1,11,1.2,17"
"##MN+00 00 60 0163 01970 5484 446897 350273 200"
"156.87669"
"$GPGGA,210223,2422.6649,N,08122.3818,W,1,11,1.4,17"
"##MN+00 00 59 0164 01968 5483 446892 350271 200"
"156.876736"
"$GPGGA,210227,2422.6628,N,08122.3815,W,1,11,1.2,17"
"##MN+00 00 72 0165 01972 5483 446902 350271 200"
"156.876782"
"#increment_net"
"$GPGGA,210231,2422.6608,N,08122.3813,W,1,11,1.2,17"
"##MN-00 00 63 0166 01969 5483 446908 350272 200"
"156.876829"
"$GPGGA,210235,2422.6590,N,08122.3813,W,1,11,1.4,17"
"##MN-00 00 61 0167 01971 5482 446914 350273 200"
"156.876875"
"$GPGGA,210239,2422.6569,N,08122.3811,W,1,11,1.2,17"
"##MN-00 00 59 0168 01970 5481 446905 350272 200"
"156.876921"
"$GPGGA,210243,2422.6552,N,08122.3812,W,1,11,1.2,17"
"##MN-00 00 59 0169 01969 5480 446900 350270 200"
"156.876968"
"$GPGGA,210247,2422.6532,N,08122.3810,W,1,11,1.2,17"
"##MN-00 00 61 0170 01967 5479 446914 350272 200"
"156.877014"
"$GPGGA,210251,2422.6508,N,08122.3807,W,1,11,1.2,17"
"##MN-00 00 58 0171 01968 5479 446922 350275 200"
"156.87706"
"$GPGGA,210255,2422.6488,N,08122.3806,W,1,11,1.2,16"
"##MN-00 00 56 0172 01969 5479 446921 350275 200"
"156.877107"
"$GPGGA,210259,2422.6467,N,08122.3804,W,1,11,1.2,16"
"##MN-00 00 58 0174 01965 5478 446933 350277 200"
"156.877153"
"$GPGGA,210303,2422.6447,N,08122.3802,W,1,11,1.2,17"
"##MN-00 00 60 0175 01966 5478 446952 350283 200"
"156.877199"
"$GPGGA,210307,2422.6427,N,08122.3800,W,1,10,1.4,17"
"##MN-00 00 60 0176 01969 5477 446956 350285 200"
"156.877245"
"$GPGGA,210311,2422.6406,N,08122.3797,W,1,10,1.4,17"
"##MN-00 00 59 0177 01966 5476 446963 350286 200"
"156.877292"
"$GPGGA,210315,2422.6389,N,08122.3796,W,1,11,1.2,17"
"##MN-00 00 58 0178 01969 5476 446979 350292 200"
"156.877338"
"$GPGGA,210319,2422.6367,N,08122.3792,W,1,10,1.4,17"
"##MN-00 00 57 0179 01967 5475 446986 350295 200"
"156.877384"
"$GPGGA,210323,2422.6350,N,08122.3792,W,1,11,1.2,17"
"##MN-00 00 58 0180 01965 5475 446978 350294 200"
"156.877431"
"$GPGGA,210327,2422.6333,N,08122.3793,W,1,10,1.4,17"
"##MN-00 00 60 0181 01965 5474 446976 350293 200"
"156.877477"
"$GPGGA,210331,2422.6311,N,08122.3791,W,1,11,1.2,17"
"##MN-00 00 58 0182 01967 5474 446987 350293 200"
"156.877523"
"$GPGGA,210335,2422.6290,N,08122.3790,W,1,10,1.4,17"
"##MN-00 00 56 0184 01969 5473 447005 350298 200"
"156.877569"
"$GPGGA,210339,2422.6273,N,08122.3787,W,1,11,1.2,17"
"##MN-00 00 58 0185 01966 5472 447015 350301 200"
"156.877616"
"$GPGGA,210343,2422.6251,N,08122.3783,W,1,10,1.4,17"
"##MN-00 00 59 0186 01968 5472 447038 350308 200"
"156.877662"
"$GPGGA,210347,2422.6232,N,08122.3781,W,1,10,1.4,17"
"##MN-00 00 59 0187 01967 5471 447055 350315 200"
"156.877708"
"$GPGGA,210351,2422.6211,N,08122.3778,W,1,10,1.4,16"
"##MN-00 00 58 0188 01967 5471 447064 350320 200"
"156.877755"
"$GPGGA,210355,2422.6190,N,08122.3774,W,1,10,1.4,16"
"##MN-00 00 60 0189 01966 5470 447068 350321 200"
"156.877801"
"$GPGGA,210359,2422.6171,N,08122.3773,W,1,10,1.4,16"
"##MN-00 00 59 0190 01967 5470 447073 350323 200"
"156.877859"
"$GPGGA,210403,2422.6153,N,08122.3775,W,1,10,1.4,16"
"##MN-00 00 61 0191 01967 5469 447072 350324 200"
"156.877905"
"$GPGGA,210407,2422.6132,N,08122.3774,W,1,10,1.3,16"
"##MN+00 00 57 0192 01966 5468 447086 350329 200"
"156.877951"
"$GPGGA,210411,2422.6111,N,08122.3773,W,1,10,1.3,16"
"##MN+00 00 60 0194 01966 5468 447086 350329 200"
"156.877998"
"$GPGGA,210415,2422.6093,N,08122.3774,W,1,11,1.2,16"
"##MN+00 00 58 0195 01967 5467 447084 350327 200"
"156.878044"
"$GPGGA,210419,2422.6073,N,08122.3772,W,1,11,1.2,16"
"##MN-00 00 57 0196 01966 5467 447090 350329 200"
"156.87809"
"$GPGGA,210423,2422.6053,N,08122.3772,W,1,10,1.3,16"
"##MN-00 00 58 0197 01968 5466 447100 350330 200"
"156.878137"
"$GPGGA,210427,2422.6035,N,08122.3771,W,1,10,1.3,16"
"##MN-00 00 61 0198 01965 5465 447111 350332 200"
"156.878183"
"$GPGGA,210431,2422.6019,N,08122.3771,W,1,11,1.2,16"
"##MN+00 00 59 0199 01965 5465 447127 350340 200"
"156.878229"
"$GPGGA,210435,2422.5998,N,08122.3768,W,1,10,1.3,16"
"##MN+00 00 60 0200 01966 5464 447147 350347 200"
"156.878275"
"$GPGGA,210439,2422.5979,N,08122.3767,W,1,11,1.2,16"
"##MN+00 00 70 0201 01970 5464 447157 350350 200"
"156.878322"
"#increment_net"
"$GPGGA,210443,2422.5961,N,08122.3766,W,1,11,1.2,16"
"##MN-00 00 65 0202 01968 5463 447159 350352 200"
"156.878368"
"$GPGGA,210447,2422.5943,N,08122.3766,W,1,11,1.2,16"
"##MN-00 00 61 0204 01969 5462 447164 350354 200"
"156.878414"
"$GPGGA,210451,2422.5925,N,08122.3767,W,1,10,1.4,16"
"##MN-00 00 59 0205 01971 5461 447176 350358 200"
"156.878461"
"$GPGGA,210455,2422.5907,N,08122.3766,W,1,11,1.2,16"
"##MN-00 00 60 0206 01972 5461 447185 350360 200"
"156.878507"
"$GPGGA,210459,2422.5889,N,08122.3764,W,1,11,1.2,16"
"##MN-00 00 59 0207 01972 5459 447182 350491 200"
"156.878553"
"$GPGGA,210503,2422.5865,N,08122.3761,W,1,10,1.3,16"
"##MN-00 00 58 0208 01972 5459 447187 350377 200"
"156.8786"
"$GPGGA,210507,2422.5846,N,08122.3759,W,1,11,1.2,16"
"##MN-00 00 58 0209 01973 5459 447194 350378 200"
"156.878646"
"$GPGGA,210511,2422.5828,N,08122.3759,W,1,11,1.2,16"
"##MN-00 00 61 0211 01970 5458 447190 350376 200"
"156.878692"
"$GPGGA,210515,2422.5806,N,08122.3756,W,1,10,1.3,16"
"##MN-00 00 60 0212 01971 5457 447203 350378 200"
"156.878738"
"$GPGGA,210519,2422.5788,N,08122.3756,W,1,10,1.4,16"
"##MN-00 00 60 0213 01972 5457 447209 350379 200"
"156.878785"
"$GPGGA,210523,2422.5768,N,08122.3757,W,1,11,1.2,16"
"##MN-00 00 60 0214 01974 5456 447221 350380 200"
"156.878831"
"$GPGGA,210527,2422.5744,N,08122.3754,W,1,11,1.2,16"
"##MN-00 00 58 0215 01973 5456 447243 350384 200"
"156.878877"
"$GPGGA,210531,2422.5723,N,08122.3751,W,1,10,1.3,16"
"##MN-00 00 59 0216 01971 5455 447262 350397 200"
"156.878924"
"$GPGGA,210535,2422.5702,N,08122.3750,W,1,11,1.2,17"
"##MN-00 00 60 0218 01973 5455 447270 350404 200"
"156.87897"
"$GPGGA,210539,2422.5681,N,08122.3748,W,1,11,1.3,17"
"##MN-00 00 59 0219 01973 5454 447278 350407 200"
"156.879016"
"$GPGGA,210543,2422.5658,N,08122.3743,W,1,11,1.2,17"
"##MN-00 00 59 0220 01973 5453 447281 350407 200"
"156.879062"
"$GPGGA,210547,2422.5630,N,08122.3739,W,1,11,1.2,17"
"##MN-00 00 58 0221 01974 5453 447280 350405 200"
"156.879109"
"$GPGGA,210551,2422.5612,N,08122.3734,W,1,10,1.3,17"
"##MN-00 00 58 0222 01973 5452 447291 350409 200"
"156.879155"
"$GPGGA,210555,2422.5598,N,08122.3732,W,1,11,1.3,17"
"##MN-00 00 59 0223 01972 5451 447315 350416 200"
"156.879201"
"$GPGGA,210559,2422.5578,N,08122.3728,W,1,11,1.2,17"
"##MN-00 00 61 0225 01973 5451 447339 350422 200"
"156.879248"
"$GPGGA,210603,2422.5562,N,08122.3725,W,1,11,1.2,17"
"##MN-00 00 57 0226 01975 5450 447356 350432 200"
"156.879294"
"$GPGGA,210607,2422.5543,N,08122.3722,W,1,11,1.2,18"
"##MN-00 00 58 0227 01973 5450 447380 350439 200"
"156.87934"
"$GPGGA,210611,2422.5524,N,08122.3719,W,1,11,1.2,18"
"##MN+00 00 59 0228 01975 5449 447385 350443 200"
"156.879387"
"$GPGGA,210616,2422.5506,N,08122.3715,W,1,11,1.2,18"
"##MN+00 00 61 0229 01975 5449 447376 350442 200"
"156.879433"
"$GPGGA,210620,2422.5479,N,08122.3712,W,1,10,1.2,19"
"##MN+00 00 57 0230 01975 5448 447384 350443 200"
"156.879479"
"$GPGGA,210624,2422.5456,N,08122.3707,W,1,11,1.2,19"
"##MN-00 00 59 0231 01975 5447 447397 350451 200"
"156.879526"
"$GPGGA,210628,2422.5437,N,08122.3702,W,1,11,1.2,19"
"##MN-00 00 60 0232 01978 5446 447418 350456 200"
"156.879572"
"$GPGGA,210632,2422.5423,N,08122.3697,W,1,10,1.2,19"
"##MN-00 00 57 0234 01977 5446 447441 350466 200"
"156.879618"
"$GPGGA,210636,2422.5401,N,08122.3694,W,1,11,1.2,19"
"##MN-00 00 58 0235 01976 5446 447448 350470 200"
"156.879664"
"$GPGGA,210640,2422.5381,N,08122.3688,W,1,11,1.2,19"
"##MN+00 00 58 0236 01977 5445 447439 350468 200"
"156.879711"
"$GPGGA,210644,2422.5359,N,08122.3685,W,1,11,1.3,19"
"##MN+00 00 60 0237 01978 5445 447439 350467 200"
"156.879757"
"$GPGGA,210648,2422.5338,N,08122.3681,W,1,11,1.3,19"
"##MN+00 00 65 0238 01980 5444 447445 350469 200"
"156.879803"
"$GPGGA,210652,2422.5320,N,08122.3677,W,1,11,1.3,19"
"##MN-00 00 60 0239 01982 5444 447462 350471 200"
"156.87985"
"#increment_net"
"$GPGGA,210656,2422.5301,N,08122.3675,W,1,11,1.2,19"
"##MN-00 00 57 0240 01979 5443 447470 350475 200"
"156.879896"
"$GPGGA,210700,2422.5282,N,08122.3672,W,1,11,1.2,19"
"##MN-00 00 57 0242 01975 5442 447477 350478 200"
"156.879942"
"$GPGGA,210704,2422.5258,N,08122.3666,W,1,11,1.3,19"
"##MN-00 00 56 0243 01977 5441 447487 350483 200"
"156.879988"
"$GPGGA,210708,2422.5236,N,08122.3662,W,1,10,1.2,19"
"##MN-00 00 56 0244 01974 5441 447494 350485 200"
"156.880035"
"$GPGGA,210712,2422.5219,N,08122.3659,W,1,11,1.2,19"
"##MN-00 00 57 0245 01974 5440 447493 350484 200"
"156.880081"
"$GPGGA,210716,2422.5199,N,08122.3655,W,1,11,1.3,19"
"##MN-00 00 57 0246 01977 5439 447493 350485 200"
"156.880127"
"$GPGGA,210720,2422.5184,N,08122.3654,W,1,11,1.2,19"
"##MN-00 00 55 0247 01975 5439 447490 350482 200"
"156.880174"
"$GPGGA,210724,2422.5165,N,08122.3652,W,1,11,1.2,19"
"##MN-00 00 56 0248 01974 5438 447456 350472 200"
"156.88022"
"$GPGGA,210728,2422.5145,N,08122.3646,W,1,10,1.3,19"
"##MN-00 00 58 0249 01975 5437 447468 350477 200"
"156.880266"
"$GPGGA,210732,2422.5121,N,08122.3642,W,1,10,1.3,18"
"##MN-00 00 59 0251 01973 5437 447474 350479 200"
"156.880313"
"$GPGGA,210736,2422.5101,N,08122.3641,W,1,11,1.2,18"
"##MN-00 00 57 0252 01973 5436 447506 350487 200"
"156.880359"
"$GPGGA,210740,2422.5081,N,08122.3640,W,1,11,1.2,18"
"##MN-00 00 57 0253 01973 5436 447522 350495 200"
"156.880405"
"$GPGGA,210744,2422.5061,N,08122.3639,W,1,11,1.2,18"
"##MN-00 00 56 0254 01974 5435 447535 350500 200"
"156.880451"
"$GPGGA,210748,2422.5041,N,08122.3638,W,1,11,1.2,18"
"##MN-00 00 56 0255 01974 5435 447552 350506 200"
"156.880498"
"$GPGGA,210752,2422.5022,N,08122.3638,W,1,11,1.2,18"
"##MN-00 00 57 0256 01972 5434 447554 350510 200"
"156.880544"
"$GPGGA,210756,2422.5000,N,08122.3638,W,1,11,1.2,18"
"##MN-00 00 58 0257 01973 5434 447529 350506 200"
"156.88059"
"$GPGGA,210800,2422.4982,N,08122.3639,W,1,11,1.2,17"
"##MN-00 00 59 0259 01972 5433 447515 350501 200"
"156.880637"
"$GPGGA,210804,2422.4964,N,08122.3641,W,1,11,1.2,17"
"##MN-00 00 58 0260 01972 5432 447540 350506 200"
"156.880683"
"$GPGGA,210808,2422.4944,N,08122.3645,W,1,11,1.2,17"
"##MN-00 00 58 0261 01972 5431 447566 350514 200"
"156.880729"
"$GPGGA,210812,2422.4925,N,08122.3646,W,1,11,1.2,17"
"##MN-00 00 57 0262 01974 5431 447586 350523 200"
"156.880775"
"$GPGGA,210816,2422.4907,N,08122.3648,W,1,11,1.3,17"
"##MN-00 00 57 0263 01974 5431 447599 350530 200"
"156.880822"
"$GPGGA,210820,2422.4889,N,08122.3650,W,1,10,1.2,17"
"##MN-00 00 58 0264 01974 5430 447616 350534 200"
"156.880868"
"$GPGGA,210824,2422.4871,N,08122.3650,W,1,11,1.3,17"
"##MN-00 00 57 0265 01976 5429 447629 350540 200"
"156.880914"
"$GPGGA,210828,2422.4856,N,08122.3649,W,1,11,1.2,17"
"##MN+00 00 57 0266 01976 5429 447646 350547 200"
"156.880961"
"$GPGGA,210832,2422.4841,N,08122.3649,W,1,11,1.2,17"
"##MN+00 00 58 0268 01980 5428 447657 350553 199"
"156.881007"
"$GPGGA,210836,2422.4827,N,08122.3648,W,1,11,1.2,17"
"##MN+00 00 57 0269 01980 5427 447657 350553 199"
"156.881053"
"$GPGGA,210840,2422.4809,N,08122.3644,W,1,10,1.3,17"
"##MN-00 00 57 0270 01978 5427 447657 350556 200"
"156.881111"
"$GPGGA,210844,2422.4791,N,08122.3642,W,1,11,1.2,17"
"##MN-00 00 57 0271 01977 5426 447659 350559 200"
"156.881157"
"$GPGGA,210848,2422.4774,N,08122.3637,W,1,11,1.2,17"
"##MN+00 00 56 0272 01979 5426 447670 350562 200"
"156.881204"
"$GPGGA,210852,2422.4755,N,08122.3631,W,1,11,1.2,18"
"##MN+00 00 55 0273 01978 5425 447706 350585 200"
"156.88125"
"$GPGGA,210856,2422.4734,N,08122.3623,W,1,9,1.3,18,"
"##MN+00 00 67 0274 01981 5424 447738 350593 200"
"156.881296"
"#increment_net"
"$GPGGA,210900,2422.4711,N,08122.3616,W,1,10,1.2,18"
"##MN-00 00 62 0275 01983 5424 447753 350595 200"
"156.881343"
"$GPGGA,210904,2422.4686,N,08122.3607,W,1,11,1.7,18"
"##MN-00 00 58 0277 01992 5423 447757 350593 200"
"156.881389"
"$GPGGA,210908,2422.4666,N,08122.3598,W,1,11,1.2,18"
"##MN-00 00 60 0278 01995 5423 447769 350595 200"
"156.881435"
"$GPGGA,210912,2422.4643,N,08122.3583,W,1,10,1.3,18"
"##MN-00 00 58 0279 02000 5422 447786 350598 200"
"156.881481"
"$GPGGA,210916,2422.4621,N,08122.3568,W,1,10,1.3,18"
"##MN-00 00 58 0281 01998 5421 447811 350607 200"
"156.881528"
"$GPGGA,210920,2422.4596,N,08122.3551,W,1,11,1.3,18"
"##MN-00 00 57 0282 01994 5421 447850 350620 200"
"156.881574"
"$GPGGA,210924,2422.4574,N,08122.3534,W,1,10,1.3,18"
"##MN-00 00 59 0284 01987 5420 447877 350630 200"
"156.88162"
"$GPGGA,210928,2422.4553,N,08122.3519,W,1,11,1.2,18"
"##MN-00 00 59 0286 01978 5420 447880 350635 200"
"156.881667"
"$GPGGA,210932,2422.4528,N,08122.3505,W,1,11,1.2,18"
"##MN-00 00 56 0287 01967 5419 447844 350628 200"
"156.881713"
"$GPGGA,210936,2422.4501,N,08122.3489,W,1,11,1.2,18"
"##MN-00 00 58 0289 01960 5419 447830 350634 200"
"156.881759"
"$GPGGA,210940,2422.4475,N,08122.3474,W,1,11,1.2,18"
"##MN-00 00 56 0290 01950 5418 447813 350642 200"
"156.881806"
"$GPGGA,210944,2422.4449,N,08122.3459,W,1,11,1.2,18"
"##MN-00 00 58 0292 01941 5417 447743 350621 200"
"156.881852"
"$GPGGA,210948,2422.4423,N,08122.3442,W,1,10,1.3,18"
"##MN-00 00 60 0293 01929 5417 447588 350554 200"
"156.881898"
"$GPGGA,210952,2422.4397,N,08122.3425,W,1,10,1.2,18"
"##MN-00 00 64 0295 01918 5416 447415 350486 200"
"156.881944"
"$GPGGA,210956,2422.4371,N,08122.3409,W,1,10,1.2,18"
"##MN-00 00 62 0297 01909 5416 447222 350449 200"
"156.881991"
"$GPGGA,211000,2422.4348,N,08122.3395,W,1,11,1.2,18"
"##MN-00 00 61 0298 01900 5415 446991 350355 200"
"156.882037"
"$GPGGA,211004,2422.4324,N,08122.3378,W,1,10,1.2,18"
"##MN-00 00 63 0300 01890 5414 446815 350314 200"
"156.882083"
"$GPGGA,211008,2422.4299,N,08122.3359,W,1,10,1.2,17"
"##MN-00 00 60 0301 01881 5414 446735 350367 200"
"156.88213"
"$GPGGA,211012,2422.4274,N,08122.3343,W,1,11,1.2,17"
"##MN-00 00 61 0303 01876 5413 446654 350414 200"
"156.882176"
"$GPGGA,211016,2422.4252,N,08122.3328,W,1,11,1.2,17"
"##MN-00 00 58 0304 01868 5412 446640 350431 200"
"156.882222"
"$GPGGA,211020,2422.4231,N,08122.3313,W,1,11,1.2,17"
"##MN-00 00 54 0306 01865 5412 446614 350430 200"
