" Tow: L10s-A   RVWS/WS1406"
" Date: 06/08/2014"
" Temperature Probe #  2597    Conductivity Probe #  2870"
" Pressure Probe #  109"
" Flow Meter Calibration  4.71 (m/count)  "
"160.01206"
"$GPGGA,001714,2500.1884,N,08018.6224,W,1,9,1.6,17,"
"##MN-00 00 60 0095 01872 5571 426459 682983 197"
"160.012106"
"$GPGGA,001723,2500.1885,N,08018.6149,W,1,9,1.6,17,"
"##MN-00 00 60 0096 01880 5571 429336 345107 197"
"160.012153"
"$GPGGA,001727,2500.1885,N,08018.6116,W,1,9,1.6,17,"
"##MN-00 00 60 0097 01884 5572 430195 345247 197"
"160.012199"
"$GPGGA,001731,2500.1885,N,08018.6084,W,1,9,1.6,17,"
"##MN-00 00 60 0098 01891 5572 430999 345564 197"
"160.012245"
"$GPGGA,001735,2500.1885,N,08018.6052,W,1,9,1.6,17,"
"##MN-00 00 60 0099 01903 5572 432241 345855 197"
"160.012292"
"$GPGGA,001739,2500.1885,N,08018.6021,W,1,9,1.6,16,"
"##MN-00 00 60 0100 01907 5573 433292 346309 197"
"160.012338"
"$GPGGA,001743,2500.1886,N,08018.5989,W,1,9,1.6,16,"
"##MN-00 00 59 0101 01917 5573 434667 346621 197"
"160.012384"
"$GPGGA,001747,2500.1886,N,08018.5959,W,1,9,1.6,16,"
"##MN-00 00 58 0102 01925 5573 435775 347185 197"
"160.012431"
"$GPGGA,001751,2500.1889,N,08018.5928,W,1,9,1.6,16,"
"##MN-00 00 57 0102 01933 5573 437276 347562 197"
"160.012477"
"$GPGGA,001755,2500.1890,N,08018.5898,W,1,9,1.6,15,"
"##MN-00 00 57 0103 01941 5574 439096 348019 197"
"160.012523"
"$GPGGA,001759,2500.1893,N,08018.5868,W,1,9,1.6,15,"
"##MN-00 00 57 0104 01948 5574 440524 348463 197"
"160.012569"
"$GPGGA,001803,2500.1895,N,08018.5837,W,1,9,1.6,14,"
"##MN-00 00 56 0105 01956 5574 441977 348569 197"
"160.012616"
"$GPGGA,001807,2500.1897,N,08018.5808,W,1,9,1.6,14,"
"##MN-00 00 55 0106 01962 5575 442897 349010 197"
"160.012662"
"$GPGGA,001811,2500.1897,N,08018.5778,W,1,9,1.6,13,"
"##MN-00 00 56 0106 01970 5575 443661 349213 197"
"160.012708"
"$GPGGA,001815,2500.1899,N,08018.5749,W,1,9,1.6,13,"
"##MN-00 00 53 0107 01972 5575 444193 349655 197"
"160.012755"
"$GPGGA,001819,2500.1900,N,08018.5720,W,1,9,1.6,13,"
"##MN-00 00 51 0108 01973 5575 444633 349961 197"
"160.012801"
"$GPGGA,001823,2500.1901,N,08018.5690,W,1,8,1.7,12,"
"##MN-00 00 52 0109 01973 5576 444828 350193 197"
"160.012847"
"$GPGGA,001827,2500.1906,N,08018.5663,W,1,9,2.1,12,"
"##MN-00 00 52 0110 01975 5576 444935 350294 197"
"160.012894"
"$GPGGA,001831,2500.1908,N,08018.5635,W,1,8,1.6,12,"
"##MN-00 00 51 0111 01975 5576 445002 350303 197"
"160.01294"
"$GPGGA,001835,2500.1908,N,08018.5605,W,1,8,1.7,12,"
"##MN-00 00 51 0111 01978 5576 445033 350369 197"
"160.012986"
"$GPGGA,001839,2500.1910,N,08018.5578,W,1,9,1.6,12,"
"##MN-00 00 51 0112 01979 5576 445059 350376 197"
"160.013032"
"$GPGGA,001843,2500.1913,N,08018.5551,W,1,9,1.6,12,"
"##MN-00 00 49 0113 01979 5576 445107 350272 197"
"160.013079"
"$GPGGA,001847,2500.1915,N,08018.5526,W,1,9,1.6,12,"
"##MN-00 00 48 0114 01978 5576 445131 350422 197"
"160.013125"
"$GPGGA,001851,2500.1917,N,08018.5502,W,1,9,1.6,12,"
"##MN-00 00 48 0115 01974 5576 445152 350006 197"
"160.013171"
"$GPGGA,001855,2500.1919,N,08018.5479,W,1,9,1.6,12,"
"##MN-00 00 49 0116 01974 5576 445163 349864 197"
"160.013218"
"$GPGGA,001859,2500.1920,N,08018.5457,W,1,9,1.6,12,"
"##MN-00 00 49 0117 01976 5576 445161 350418 197"
"160.013264"
"$GPGGA,001903,2500.1922,N,08018.5436,W,1,9,1.6,12,"
"##MN-00 00 49 0117 01978 5576 445155 350477 197"
"160.01331"
"$GPGGA,001907,2500.1923,N,08018.5417,W,1,9,1.6,12,"
"##MN-00 00 49 0118 01981 5576 445163 350470 197"
"160.013356"
"$GPGGA,001911,2500.1923,N,08018.5398,W,1,8,1.7,12,"
"##MN-00 00 49 0119 01983 5576 445199 350489 197"
"160.013403"
"$GPGGA,001915,2500.1922,N,08018.5379,W,1,8,1.7,12,"
"##MN-00 00 48 0120 01986 5576 445225 350496 197"
"160.013449"
"$GPGGA,001919,2500.1920,N,08018.5361,W,1,8,1.7,12,"
"##MN-00 00 45 0120 01985 5576 445253 350496 197"
"160.013495"
"$GPGGA,001923,2500.1920,N,08018.5344,W,1,9,1.6,11,"
"##MN-00 00 44 0121 01982 5576 445280 350505 197"
"160.013542"
"$GPGGA,001927,2500.1918,N,08018.5328,W,1,9,1.6,11,"
"##MN-00 00 44 0122 01982 5576 445278 350528 197"
"160.013588"
"$GPGGA,001931,2500.1915,N,08018.5309,W,1,8,1.7,11,"
"##MN-00 00 43 0123 01976 5576 445274 350526 197"
"160.013634"
"$GPGGA,001935,2500.1908,N,08018.5291,W,1,8,1.7,11,"
"##MN-00 00 42 0123 01974 5575 445241 350527 197"
"160.013681"
"$GPGGA,001939,2500.1904,N,08018.5273,W,1,9,1.6,11,"
"##MN-00 00 42 0124 01970 5575 445203 350513 197"
"160.013727"
"$GPGGA,001943,2500.1899,N,08018.5253,W,1,9,1.6,11,"
"##MN-00 00 44 0125 01968 5575 445129 350482 197"
"160.013773"
"$GPGGA,001947,2500.1893,N,08018.5236,W,1,9,1.6,11,"
"##MN-00 00 45 0126 01964 5575 445028 350457 197"
"160.013819"
"$GPGGA,001951,2500.1887,N,08018.5214,W,1,9,1.6,11,"
"##MN-00 00 45 0127 01962 5574 444868 350425 197"
"160.013866"
"$GPGGA,001955,2500.1881,N,08018.5190,W,1,9,1.6,12,"
"##MN-00 00 46 0128 01957 5574 444722 350400 197"
"160.013912"
"$GPGGA,001959,2500.1876,N,08018.5163,W,1,9,1.6,12,"
"##MN-00 00 48 0128 01954 5574 444445 350334 197"
"160.013958"
"$GPGGA,002003,2500.1871,N,08018.5136,W,1,8,2.1,12,"
"##MN-00 00 48 0129 01950 5573 443999 350284 197"
"160.014016"
"$GPGGA,002007,2500.1863,N,08018.5104,W,1,9,1.6,13,"
"##MN-00 00 49 0130 01948 5573 443551 350179 197"
"160.014063"
"$GPGGA,002011,2500.1855,N,08018.5071,W,1,9,1.6,13,"
"##MN-00 00 50 0131 01945 5573 443110 349971 197"
"160.014109"
"$GPGGA,002015,2500.1850,N,08018.5037,W,1,9,1.6,14,"
"##MN-00 00 51 0132 01942 5572 442870 349825 197"
"160.014155"
"$GPGGA,002019,2500.1843,N,08018.5003,W,1,9,1.6,15,"
"##MN-00 00 51 0133 01940 5572 442612 349760 197"
"160.014201"
"$GPGGA,002023,2500.1839,N,08018.4969,W,1,9,1.6,15,"
"##MN-00 00 52 0134 01938 5571 442439 349797 197"
"160.014248"
"$GPGGA,002027,2500.1832,N,08018.4935,W,1,9,1.6,16,"
"##MN-00 00 53 0135 01938 5571 442266 349808 197"
"160.014294"
"$GPGGA,002031,2500.1828,N,08018.4901,W,1,9,1.6,16,"
"##MN-00 00 54 0136 01939 5571 442071 349688 197"
"160.01434"
"$GPGGA,002035,2500.1824,N,08018.4867,W,1,9,1.6,16,"
"##MN-00 00 54 0137 01940 5570 441939 349653 197"
"160.014387"
"$GPGGA,002039,2500.1822,N,08018.4834,W,1,9,1.6,16,"
"##MN-00 00 54 0138 01942 5570 441785 349581 197"
"160.014433"
"$GPGGA,002043,2500.1821,N,08018.4803,W,1,9,1.6,16,"
"##MN-00 00 55 0139 01941 5569 441757 349472 197"
"160.014479"
"$GPGGA,002047,2500.1820,N,08018.4771,W,1,9,1.6,16,"
"##MN-00 00 56 0140 01941 5569 441808 349425 197"
"160.014525"
"$GPGGA,002051,2500.1820,N,08018.4740,W,1,8,1.6,15,"
"##MN-00 00 55 0141 01943 5568 441848 349413 197"
"160.014572"
"$GPGGA,002056,2500.1821,N,08018.4702,W,1,9,1.6,15,"
"##MN-00 00 55 0142 01946 5568 441871 349394 197"
"160.014618"
"$GPGGA,002059,2500.1821,N,08018.4679,W,1,9,1.6,15,"
"##MN-00 00 55 0143 01948 5568 441972 349397 197"
"160.014664"
"$GPGGA,002104,2500.1819,N,08018.4641,W,1,9,1.6,15,"
"##MN-00 00 56 0144 01948 5567 442097 349405 197"
"160.014711"
"$GPGGA,002108,2500.1817,N,08018.4610,W,1,9,1.6,15,"
"##MN-00 00 56 0145 01948 5567 442235 349422 197"
"160.014757"
"$GPGGA,002111,2500.1816,N,08018.4587,W,1,9,1.6,14,"
"##MN-00 00 56 0146 01952 5566 442326 349456 197"
"160.014803"
"$GPGGA,002115,2500.1816,N,08018.4556,W,1,9,1.6,14,"
"##MN-00 00 56 0147 01953 5566 442423 349464 197"
"160.01485"
"$GPGGA,002120,2500.1810,N,08018.4514,W,1,9,1.6,14,"
"##MN-00 00 55 0148 01953 5566 442541 349510 197"
"160.014896"
"$GPGGA,002124,2500.1805,N,08018.4482,W,1,9,1.6,14,"
"##MN-00 00 55 0149 01952 5565 442637 349544 197"
"160.014942"
"$GPGGA,002128,2500.1801,N,08018.4450,W,1,9,1.6,14,"
"##MN-00 00 55 0150 01956 5564 442725 349562 197"
"160.014988"
"$GPGGA,002132,2500.1799,N,08018.4419,W,1,9,1.6,14,"
"##MN-00 00 55 0151 01955 5564 442864 349572 197"
"160.015035"
"$GPGGA,002136,2500.1798,N,08018.4388,W,1,9,1.6,14,"
"##MN-00 00 55 0152 01956 5564 442931 349635 197"
"160.015081"
"$GPGGA,002140,2500.1796,N,08018.4358,W,1,9,2.1,15,"
"##MN-00 00 54 0153 01956 5563 442977 349644 197"
"160.015127"
"$GPGGA,002144,2500.1796,N,08018.4331,W,1,9,1.6,15,"
"##MN-00 00 55 0154 01958 5563 443065 349647 197"
"160.015174"
"$GPGGA,002148,2500.1796,N,08018.4302,W,1,9,1.6,14,"
"##MN-00 00 55 0155 01960 5563 443188 349651 197"
"160.01522"
"$GPGGA,002152,2500.1793,N,08018.4271,W,1,9,1.6,14,"
"##MN-00 00 55 0156 01963 5562 443335 349758 197"
"160.015266"
"$GPGGA,002156,2500.1789,N,08018.4240,W,1,8,1.7,14,"
"##MN-00 00 55 0157 01967 5561 443464 349774 197"
"160.015313"
"$GPGGA,002200,2500.1786,N,08018.4210,W,1,8,1.7,14,"
"##MN-00 00 55 0158 01965 5561 443569 349783 197"
"160.015359"
"$GPGGA,002204,2500.1785,N,08018.4179,W,1,8,1.7,13,"
"##MN+00 00 55 0159 01965 5560 443639 349806 197"
"160.015405"
"$GPGGA,002208,2500.1782,N,08018.4149,W,1,8,1.7,13,"
"##MN+00 00 54 0160 01968 5560 443654 349822 197"
"160.015451"
"$GPGGA,002212,2500.1781,N,08018.4119,W,1,8,1.7,12,"
"##MN+00 00 54 0161 01968 5559 443649 349815 197"
"160.015498"
"$GPGGA,002216,2500.1779,N,08018.4089,W,1,8,1.7,12,"
"##MN+00 00 54 0162 01968 5558 443632 349830 197"
"160.015544"
"$GPGGA,002220,2500.1776,N,08018.4059,W,1,8,1.7,12,"
"##MN+00 00 55 0163 01968 5558 443639 349845 197"
"160.01559"
"$GPGGA,002224,2500.1774,N,08018.4030,W,1,8,1.7,12,"
"##MN+00 00 62 0164 01968 5558 443612 349844 197"
"160.015637"
"#increment_net"
"$GPGGA,002228,2500.1772,N,08018.4001,W,1,8,1.7,12,"
"##MN-00 00 56 0165 01967 5557 443612 349863 197"
"160.015683"
"$GPGGA,002232,2500.1770,N,08018.3972,W,1,8,1.7,12,"
"##MN-00 00 53 0166 01966 5557 443607 349854 197"
"160.015729"
"$GPGGA,002236,2500.1769,N,08018.3944,W,1,8,1.7,12,"
"##MN-00 00 52 0167 01966 5556 443582 349855 197"
"160.015775"
"$GPGGA,002240,2500.1765,N,08018.3916,W,1,8,1.7,12,"
"##MN-00 00 52 0168 01966 5556 443449 349845 197"
"160.015822"
"$GPGGA,002244,2500.1763,N,08018.3888,W,1,8,1.7,12,"
"##MN-00 00 52 0169 01964 5555 443335 349823 197"
"160.015868"
"$GPGGA,002248,2500.1760,N,08018.3860,W,1,8,1.7,12,"
"##MN-00 00 52 0170 01963 5555 443277 349785 197"
"160.015914"
"$GPGGA,002252,2500.1758,N,08018.3832,W,1,8,1.7,12,"
"##MN-00 00 53 0171 01964 5554 443296 349794 197"
"160.015961"
"$GPGGA,002256,2500.1756,N,08018.3804,W,1,8,1.7,12,"
"##MN-00 00 52 0172 01962 5553 443320 349799 197"
"160.016007"
"$GPGGA,002300,2500.1753,N,08018.3775,W,1,8,1.7,12,"
"##MN-00 00 53 0173 01964 5553 443391 349797 197"
"160.016053"
"$GPGGA,002304,2500.1752,N,08018.3746,W,1,8,1.7,12,"
"##MN-00 00 52 0174 01962 5552 443465 349806 197"
"160.0161"
"$GPGGA,002308,2500.1749,N,08018.3718,W,1,8,1.7,12,"
"##MN-00 00 52 0174 01962 5552 443543 349826 197"
"160.016146"
"$GPGGA,002312,2500.1747,N,08018.3689,W,1,8,1.7,12,"
"##MN-00 00 52 0175 01963 5551 443609 349845 197"
"160.016192"
"$GPGGA,002316,2500.1743,N,08018.3660,W,1,8,1.7,12,"
"##MN-00 00 53 0176 01962 5550 443647 349848 197"
"160.016238"
"$GPGGA,002320,2500.1741,N,08018.3631,W,1,8,1.7,12,"
"##MN-00 00 53 0177 01961 5550 443685 349860 197"
"160.016285"
"$GPGGA,002324,2500.1740,N,08018.3601,W,1,8,1.7,12,"
"##MN-00 00 54 0178 01959 5549 443692 349865 197"
"160.016331"
"$GPGGA,002328,2500.1738,N,08018.3580,W,1,8,1.7,12,"
"##MN-00 00 53 0179 01961 5549 443622 349862 197"
"160.016377"
"$GPGGA,002332,2500.1735,N,08018.3550,W,1,8,1.7,12,"
"##MN-00 00 53 0180 01960 5548 443511 349842 197"
"160.016424"
"$GPGGA,002336,2500.1734,N,08018.3520,W,1,8,1.7,12,"
"##MN-00 00 54 0181 01963 5547 443523 349833 197"
"160.01647"
"$GPGGA,002340,2500.1731,N,08018.3483,W,1,8,1.7,12,"
"##MN-00 00 54 0182 01964 5547 443680 349852 197"
"160.016516"
"$GPGGA,002344,2500.1730,N,08018.3453,W,1,8,1.7,12,"
"##MN-00 00 54 0183 01964 5546 443766 349875 197"
"160.016563"
"$GPGGA,002348,2500.1728,N,08018.3424,W,1,8,1.7,12,"
"##MN-00 00 54 0184 01967 5546 443829 349891 197"
"160.016609"
"$GPGGA,002352,2500.1727,N,08018.3393,W,1,8,1.7,12,"
"##MN-00 00 54 0185 01967 5545 443885 349890 197"
"160.016655"
"$GPGGA,002356,2500.1727,N,08018.3363,W,1,8,1.7,12,"
"##MN-00 00 54 0186 01966 5545 443949 349885 197"
"160.016701"
"$GPGGA,002400,2500.1724,N,08018.3332,W,1,8,1.7,12,"
"##MN-00 00 54 0187 01963 5544 443981 349927 197"
"160.016748"
"$GPGGA,002404,2500.1723,N,08018.3301,W,1,8,1.7,12,"
"##MN-00 00 54 0188 01963 5544 443984 349935 197"
"160.016794"
"$GPGGA,002408,2500.1723,N,08018.3271,W,1,8,1.7,11,"
"##MN+00 00 54 0189 01967 5543 443862 349940 197"
"160.01684"
"$GPGGA,002412,2500.1722,N,08018.3242,W,1,8,1.7,11,"
"##MN+00 00 54 0190 01965 5543 443731 349910 197"
"160.016887"
"$GPGGA,002416,2500.1720,N,08018.3213,W,1,8,1.7,11,"
"##MN+00 00 54 0191 01965 5542 443714 349893 197"
"160.016933"
"$GPGGA,002420,2500.1719,N,08018.3184,W,1,8,1.7,11,"
"##MN-00 00 54 0192 01966 5541 443733 349888 197"
"160.016979"
"$GPGGA,002424,2500.1717,N,08018.3154,W,1,8,1.7,11,"
"##MN-00 00 54 0193 01964 5541 443813 349894 197"
"160.017025"
"$GPGGA,002428,2500.1716,N,08018.3124,W,1,8,1.7,11,"
"##MN-00 00 54 0194 01963 5540 443818 349913 197"
"160.017072"
"$GPGGA,002432,2500.1716,N,08018.3094,W,1,8,1.7,11,"
"##MN+00 00 54 0195 01962 5540 443759 349915 197"
"160.017118"
"$GPGGA,002436,2500.1714,N,08018.3064,W,1,8,1.7,11,"
"##MN+00 00 54 0196 01966 5539 443678 349899 197"
"160.017164"
"$GPGGA,002440,2500.1713,N,08018.3035,W,1,8,1.7,11,"
"##MN+00 00 66 0197 01969 5539 443555 349861 197"
"160.017211"
"$GPGGA,002444,2500.1712,N,08018.3005,W,1,8,1.7,11,"
"##MN-00 00 59 0198 01965 5538 443509 349832 196"
"160.017269"
"#increment_net"
"$GPGGA,002448,2500.1712,N,08018.2975,W,1,8,1.7,11,"
"##MN-00 00 55 0199 01966 5537 443483 349832 196"
"160.017315"
"$GPGGA,002452,2500.1709,N,08018.2946,W,1,8,1.7,11,"
"##MN-00 00 54 0200 01965 5536 443471 349819 196"
"160.017361"
"$GPGGA,002456,2500.1709,N,08018.2917,W,1,8,1.7,11,"
"##MN-00 00 53 0201 01963 5535 443463 349819 196"
"160.017407"
"$GPGGA,002500,2500.1707,N,08018.2887,W,1,8,1.7,11,"
"##MN-00 00 52 0202 01964 5535 443465 349818 196"
"160.017454"
"$GPGGA,002504,2500.1705,N,08018.2858,W,1,8,1.7,11,"
"##MN-00 00 52 0203 01964 5535 443506 349817 196"
"160.0175"
"$GPGGA,002508,2500.1703,N,08018.2829,W,1,8,1.7,11,"
"##MN-00 00 52 0204 01965 5534 443539 349815 196"
"160.017546"
"$GPGGA,002512,2500.1702,N,08018.2800,W,1,8,1.7,10,"
"##MN-00 00 53 0205 01962 5533 443567 349821 196"
"160.017593"
"$GPGGA,002516,2500.1702,N,08018.2771,W,1,8,1.7,10,"
"##MN-00 00 52 0206 01965 5533 443587 349823 196"
"160.017639"
"$GPGGA,002520,2500.1700,N,08018.2741,W,1,8,1.7,10,"
"##MN-00 00 52 0207 01964 5532 443609 349833 196"
"160.017685"
"$GPGGA,002525,2500.1698,N,08018.2705,W,1,8,1.7,10,"
"##MN-00 00 52 0208 01964 5531 443623 349841 196"
"160.017731"
"$GPGGA,002529,2500.1698,N,08018.2677,W,1,8,1.7,10,"
"##MN-00 00 53 0209 01964 5531 443637 349842 196"
"160.017778"
"$GPGGA,002532,2500.1698,N,08018.2656,W,1,8,1.7,11,"
"##MN-00 00 52 0210 01964 5530 443655 349840 196"
"160.017824"
"$GPGGA,002536,2500.1698,N,08018.2627,W,1,8,1.7,11,"
"##MN-00 00 53 0211 01964 5530 443679 349838 196"
"160.01787"
"$GPGGA,002540,2500.1695,N,08018.2598,W,1,8,1.7,11,"
"##MN-00 00 53 0212 01963 5529 443697 349850 196"
"160.017917"
"$GPGGA,002544,2500.1694,N,08018.2570,W,1,8,1.7,11,"
"##MN-00 00 52 0213 01965 5529 443709 349854 196"
"160.017963"
"$GPGGA,002549,2500.1692,N,08018.2533,W,1,8,1.7,12,"
"##MN-00 00 52 0214 01965 5528 443707 349856 196"
"160.018009"
"$GPGGA,002553,2500.1691,N,08018.2504,W,1,8,1.7,12,"
"##MN-00 00 53 0215 01964 5527 443684 349852 196"
"160.018056"
"$GPGGA,002557,2500.1689,N,08018.2475,W,1,8,1.7,12,"
"##MN-00 00 53 0216 01966 5527 443674 349851 196"
"160.018102"
"$GPGGA,002601,2500.1689,N,08018.2446,W,1,8,1.7,12,"
"##MN-00 00 52 0217 01964 5526 443647 349848 196"
"160.018148"
"$GPGGA,002605,2500.1686,N,08018.2418,W,1,8,1.7,12,"
"##MN-00 00 52 0218 01967 5525 443524 349826 196"
"160.018194"
"$GPGGA,002609,2500.1684,N,08018.2390,W,1,8,1.7,12,"
"##MN-00 00 53 0219 01967 5525 443400 349802 196"
"160.018241"
"$GPGGA,002613,2500.1682,N,08018.2362,W,1,8,1.7,13,"
"##MN-00 00 53 0219 01967 5524 443342 349785 196"
"160.018287"
"$GPGGA,002617,2500.1682,N,08018.2335,W,1,8,1.7,13,"
"##MN-00 00 52 0220 01967 5523 443323 349769 196"
"160.018333"
"$GPGGA,002621,2500.1679,N,08018.2308,W,1,7,2.0,13,"
"##MN+00 00 52 0221 01967 5523 443411 349757 196"
"160.01838"
"$GPGGA,002625,2500.1676,N,08018.2281,W,1,8,1.7,12,"
"##MN+00 00 52 0222 01968 5523 443436 349752 196"
"160.018426"
"$GPGGA,002629,2500.1674,N,08018.2254,W,1,8,1.7,12,"
"##MN+00 00 53 0223 01968 5522 443382 349758 197"
"160.018472"
"$GPGGA,002633,2500.1673,N,08018.2227,W,1,8,1.7,12,"
"##MN-00 00 52 0224 01967 5521 443335 349752 197"
"160.018519"
"$GPGGA,002637,2500.1673,N,08018.2200,W,1,8,1.7,12,"
"##MN-00 00 52 0225 01969 5521 443429 349744 197"
"160.018565"
"$GPGGA,002641,2500.1671,N,08018.2173,W,1,8,1.7,12,"
"##MN-00 00 52 0226 01969 5521 443573 349746 197"
"160.018611"
"$GPGGA,002645,2500.1669,N,08018.2147,W,1,8,1.7,12,"
"##MN-00 00 52 0227 01967 5520 443662 349768 197"
"160.018657"
"$GPGGA,002649,2500.1667,N,08018.2121,W,1,8,1.7,12,"
"##MN+00 00 52 0228 01971 5519 443703 349787 197"
"160.018704"
"$GPGGA,002653,2500.1665,N,08018.2096,W,1,8,1.7,12,"
"##MN+00 00 52 0229 01970 5518 443746 349781 196"
"160.01875"
"$GPGGA,002657,2500.1664,N,08018.2070,W,1,8,1.7,12,"
"##MN+00 00 62 0230 01974 5518 443794 349803 196"
"160.018796"
"#increment_net"
"$GPGGA,002701,2500.1656,N,08018.2048,W,1,8,1.7,12,"
"##MN-00 00 58 0231 01972 5517 443851 349823 196"
"160.018843"
"$GPGGA,002705,2500.1655,N,08018.2021,W,1,7,1.7,12,"
"##MN-00 00 53 0232 01973 5516 443936 349839 196"
"160.018889"
"$GPGGA,002709,2500.1655,N,08018.1993,W,1,7,1.7,12,"
"##MN-00 00 51 0233 01972 5516 443943 349844 196"
"160.018935"
"$GPGGA,002713,2500.1647,N,08018.1974,W,1,8,1.7,13,"
"##MN-00 00 51 0234 01971 5515 443930 349838 196"
"160.018981"
"$GPGGA,002717,2500.1644,N,08018.1951,W,1,8,1.7,13,"
"##MN-00 00 51 0235 01972 5514 443910 349829 196"
"160.019028"
"$GPGGA,002721,2500.1639,N,08018.1926,W,1,7,1.7,13,"
"##MN-00 00 51 0236 01972 5514 443899 349826 196"
"160.019074"
"$GPGGA,002725,2500.1637,N,08018.1905,W,1,8,1.7,14,"
"##MN-00 00 51 0237 01971 5514 443893 349826 196"
"160.01912"
"$GPGGA,002729,2500.1635,N,08018.1882,W,1,8,1.7,14,"
"##MN-00 00 50 0237 01972 5513 443889 349833 196"
"160.019167"
"$GPGGA,002733,2500.1631,N,08018.1859,W,1,8,1.7,15,"
"##MN-00 00 51 0238 01971 5512 443892 349831 196"
"160.019213"
"$GPGGA,002737,2500.1629,N,08018.1833,W,1,8,1.7,15,"
"##MN-00 00 50 0239 01973 5512 443900 349837 196"
"160.019259"
"$GPGGA,002741,2500.1626,N,08018.1808,W,1,8,1.7,16,"
"##MN-00 00 51 0240 01973 5511 443969 349851 196"
"160.019306"
"$GPGGA,002745,2500.1620,N,08018.1782,W,1,8,1.7,16,"
"##MN-00 00 50 0241 01972 5511 444111 349874 196"
"160.019352"
"$GPGGA,002749,2500.1616,N,08018.1757,W,1,8,1.7,16,"
"##MN-00 00 50 0242 01973 5510 444247 349913 196"
"160.019398"
"$GPGGA,002753,2500.1612,N,08018.1731,W,1,8,1.7,16,"
"##MN-00 00 50 0243 01972 5510 444294 349915 196"
"160.019444"
"$GPGGA,002757,2500.1608,N,08018.1705,W,1,8,1.7,16,"
"##MN-00 00 50 0244 01972 5509 444305 349906 196"
"160.019491"
"$GPGGA,002801,2500.1604,N,08018.1680,W,1,8,1.7,16,"
"##MN-00 00 51 0245 01973 5508 444314 349899 196"
"160.019537"
"$GPGGA,002805,2500.1598,N,08018.1654,W,1,8,1.7,16,"
"##MN-00 00 50 0246 01972 5508 444339 349883 196"
"160.019583"
"$GPGGA,002809,2500.1593,N,08018.1628,W,1,7,2.0,15,"
"##MN-00 00 50 0247 01971 5507 444367 349883 196"
"160.01963"
"$GPGGA,002813,2500.1586,N,08018.1601,W,1,8,1.7,15,"
"##MN-00 00 50 0248 01972 5506 444365 349883 196"
"160.019676"
"$GPGGA,002817,2500.1583,N,08018.1574,W,1,8,1.7,15,"
"##MN-00 00 50 0249 01973 5506 444340 349867 196"
"160.019722"
"$GPGGA,002821,2500.1579,N,08018.1548,W,1,8,1.7,14,"
"##MN-00 00 50 0250 01970 5505 444265 349857 196"
"160.019769"
"$GPGGA,002825,2500.1576,N,08018.1521,W,1,7,2.1,14,"
"##MN-00 00 50 0251 01967 5505 444174 349843 196"
"160.019815"
"$GPGGA,002829,2500.1570,N,08018.1496,W,1,8,1.7,14,"
"##MN-00 00 51 0252 01968 5504 444154 349839 196"
"160.019861"
"$GPGGA,002833,2500.1565,N,08018.1471,W,1,8,1.7,14,"
"##MN+00 00 51 0253 01968 5504 444086 349824 196"
"160.019907"
"$GPGGA,002837,2500.1561,N,08018.1444,W,1,8,1.7,14,"
"##MN+00 00 51 0254 01969 5503 444001 349789 197"
"160.019954"
"$GPGGA,002841,2500.1555,N,08018.1419,W,1,8,1.7,14,"
"##MN+00 00 51 0255 01968 5503 443963 349775 197"
"160.02"
"$GPGGA,002845,2500.1550,N,08018.1392,W,1,8,1.7,14,"
"##MN-00 00 51 0256 01966 5502 443932 349764 195"
"160.020046"
"$GPGGA,002849,2500.1546,N,08018.1365,W,1,8,1.7,14,"
"##MN-00 00 51 0257 01968 5502 443899 349767 195"
"160.020093"
"$GPGGA,002853,2500.1541,N,08018.1336,W,1,7,2.0,14,"
"##MN-00 00 51 0258 01964 5501 443854 349768 195"
"160.020139"
"$GPGGA,002857,2500.1539,N,08018.1306,W,1,8,1.7,14,"
"##MN+00 00 51 0259 01967 5500 443805 349751 195"
"160.020185"
"$GPGGA,002901,2500.1539,N,08018.1277,W,1,8,1.7,15,"
"##MN+00 00 51 0260 01964 5499 443719 349732 196"
"160.020231"
"$GPGGA,002905,2500.1535,N,08018.1246,W,1,7,2.0,15,"
"##MN+00 00 63 0261 01966 5499 443325 349639 196"
"160.020278"
"$GPGGA,002909,2500.1532,N,08018.1215,W,1,8,1.7,15,"
"##MN-00 00 58 0262 01966 5499 443146 349536 196"
"160.020324"
"#increment_net"
"$GPGGA,002913,2500.1534,N,08018.1186,W,1,8,1.7,15,"
"##MN-00 00 55 0263 01966 5498 443033 349496 196"
"160.02037"
"$GPGGA,002917,2500.1532,N,08018.1155,W,1,8,1.7,15,"
"##MN-00 00 53 0264 01964 5497 442738 349465 196"
"160.020417"
"$GPGGA,002921,2500.1526,N,08018.1122,W,1,7,2.0,15,"
"##MN-00 00 52 0265 01965 5497 442308 349339 196"
"160.020463"
"$GPGGA,002925,2500.1521,N,08018.1088,W,1,7,2.0,15,"
"##MN-00 00 52 0266 01963 5496 442029 349200 196"
"160.020521"
"$GPGGA,002929,2500.1515,N,08018.1054,W,1,7,2.0,15,"
"##MN-00 00 52 0267 01961 5495 441770 349108 196"
"160.020567"
"$GPGGA,002933,2500.1515,N,08018.1022,W,1,8,1.7,14,"
"##MN-00 00 52 0268 01963 5495 441520 349064 196"
"160.020613"
"$GPGGA,002937,2500.1515,N,08018.0990,W,1,8,1.7,14,"
"##MN-00 00 52 0270 01962 5494 441386 349051 196"
"160.02066"
"$GPGGA,002941,2500.1514,N,08018.0958,W,1,8,1.7,14,"
"##MN-00 00 52 0271 01966 5494 441332 348982 196"
"160.020706"
"$GPGGA,002945,2500.1514,N,08018.0927,W,1,8,1.7,14,"
"##MN-00 00 53 0272 01964 5493 441343 348979 196"
"160.020752"
"$GPGGA,002949,2500.1513,N,08018.0895,W,1,8,1.7,14,"
"##MN-00 00 52 0273 01966 5493 441430 348978 196"
"160.020799"
"$GPGGA,002953,2500.1512,N,08018.0862,W,1,8,1.7,14,"
"##MN-00 00 52 0274 01966 5493 441543 348985 196"
"160.020845"
"$GPGGA,002957,2500.1510,N,08018.0829,W,1,8,1.7,14,"
"##MN-00 00 53 0275 01965 5492 441685 349015 196"
"160.020891"
"$GPGGA,003001,2500.1510,N,08018.0797,W,1,8,1.7,13,"
"##MN-00 00 53 0276 01963 5491 441879 349032 196"
"160.020937"
"$GPGGA,003005,2500.1508,N,08018.0766,W,1,8,1.7,13,"
"##MN-00 00 52 0277 01962 5491 441987 349071 196"
"160.020984"
"$GPGGA,003009,2500.1508,N,08018.0733,W,1,8,1.7,13,"
"##MN-00 00 52 0278 01963 5490 441909 349063 196"
"160.02103"
"$GPGGA,003013,2500.1507,N,08018.0701,W,1,8,1.7,13,"
"##MN-00 00 52 0279 01964 5489 441855 349054 196"
"160.021076"
"$GPGGA,003018,2500.1507,N,08018.0662,W,1,8,1.7,13,"
"##MN-00 00 53 0280 01963 5489 441963 349064 196"
"160.021123"
"$GPGGA,003022,2500.1507,N,08018.0631,W,1,8,1.7,13,"
"##MN-00 00 53 0281 01964 5489 442136 349068 196"
"160.021169"
"$GPGGA,003026,2500.1505,N,08018.0599,W,1,8,1.7,13,"
"##MN-00 00 52 0282 01964 5488 442341 349130 196"
"160.021215"
"$GPGGA,003029,2500.1506,N,08018.0575,W,1,8,1.7,13,"
"##MN-00 00 52 0283 01963 5488 442378 349172 196"
"160.021262"
"$GPGGA,003033,2500.1504,N,08018.0545,W,1,8,1.7,13,"
"##MN-00 00 53 0284 01966 5487 442363 349166 196"
"160.021308"
"$GPGGA,003037,2500.1503,N,08018.0514,W,1,8,1.7,13,"
"##MN+00 00 52 0285 01965 5486 442595 349202 196"
"160.021354"
"$GPGGA,003041,2500.1503,N,08018.0484,W,1,8,1.7,12,"
"##MN+00 00 52 0286 01965 5486 442810 349238 196"
"160.0214"
"$GPGGA,003045,2500.1503,N,08018.0454,W,1,8,1.7,12,"
"##MN+00 00 52 0287 01968 5486 442831 349267 196"
"160.021447"
"$GPGGA,003050,2500.1506,N,08018.0419,W,1,8,1.7,12,"
"##MN-00 00 52 0288 01966 5485 442753 349287 196"
"160.021493"
"$GPGGA,003054,2500.1507,N,08018.0392,W,1,8,1.7,12,"
"##MN-00 00 52 0290 01967 5485 442700 349288 196"
"160.021539"
"$GPGGA,003058,2500.1507,N,08018.0364,W,1,8,1.7,13,"
"##MN-00 00 52 0291 01968 5484 442869 349336 196"
"160.021586"
"$GPGGA,003102,2500.1506,N,08018.0335,W,1,8,1.6,13,"
"##MN+00 00 52 0292 01970 5484 442999 349336 196"
"160.021632"
"$GPGGA,003106,2500.1504,N,08018.0307,W,1,8,1.6,13,"
"##MN+00 00 52 0293 01971 5483 442994 349354 195"
"160.021678"
"$GPGGA,003110,2500.1503,N,08018.0278,W,1,8,1.6,13,"
"##MN+00 00 63 0294 01973 5483 442885 349343 195"
"160.021725"
"$GPGGA,003114,2500.1502,N,08018.0250,W,1,8,1.6,13,"
"##MN-00 00 59 0295 01976 5482 442888 349329 196"
"160.021771"
"#increment_net"
"$GPGGA,003118,2500.1499,N,08018.0222,W,1,8,1.6,13,"
"##MN-00 00 56 0296 01980 5482 443018 349351 196"
"160.021817"
"$GPGGA,003122,2500.1497,N,08018.0195,W,1,8,1.6,13,"
"##MN-00 00 51 0297 01989 5481 443148 349398 196"
"160.021863"
"$GPGGA,003126,2500.1496,N,08018.0167,W,1,8,1.6,13,"
"##MN-00 00 50 0298 01994 5481 443370 349443 196"
"160.02191"
"$GPGGA,003130,2500.1492,N,08018.0140,W,1,8,1.6,13,"
"##MN-00 00 49 0300 02000 5480 443511 349444 196"
"160.021956"
"$GPGGA,003134,2500.1488,N,08018.0113,W,1,8,1.6,13,"
"##MN-00 00 48 0301 02004 5480 443599 349488 196"
"160.022002"
"$GPGGA,003138,2500.1485,N,08018.0093,W,1,8,1.6,13,"
"##MN-00 00 45 0302 02007 5479 443671 349552 196"
"160.022049"
"$GPGGA,003142,2500.1480,N,08018.0059,W,1,8,1.6,12,"
"##MN-00 00 46 0304 02003 5479 443822 349598 196"
"160.022095"
"$GPGGA,003146,2500.1476,N,08018.0039,W,1,8,1.6,12,"
"##MN-00 00 48 0305 01993 5479 443802 349593 196"
"160.022141"
"$GPGGA,003150,2500.1471,N,08018.0004,W,1,8,1.6,12,"
"##MN-00 00 46 0306 01985 5478 443631 349563 196"
"160.022188"
"$GPGGA,003154,2500.1467,N,08017.9976,W,1,8,1.6,12,"
"##MN-00 00 46 0307 01978 5477 443415 349519 196"
"160.022234"
"$GPGGA,003158,2500.1461,N,08017.9949,W,1,8,1.6,12,"
"##MN-00 00 45 0309 01973 5477 443232 349474 196"
"160.02228"
"$GPGGA,003202,2500.1456,N,08017.9922,W,1,8,1.6,12,"
"##MN-00 00 45 0310 01966 5477 443032 349434 196"
"160.022326"
"$GPGGA,003206,2500.1450,N,08017.9895,W,1,8,1.6,12,"
"##MN-00 00 45 0311 01956 5476 442819 349379 196"
"160.022373"
"$GPGGA,003210,2500.1445,N,08017.9866,W,1,8,1.6,11,"
"##MN-00 00 46 0313 01947 5475 442309 349227 196"
"160.022419"
"$GPGGA,003214,2500.1439,N,08017.9837,W,1,8,1.6,11,"
"##MN-00 00 47 0314 01940 5475 441764 349033 196"
"160.022465"
"$GPGGA,003218,2500.1433,N,08017.9808,W,1,8,1.6,11,"
"##MN-00 00 46 0316 01934 5474 441287 348928 196"
"160.022512"
"$GPGGA,003222,2500.1428,N,08017.9779,W,1,8,1.6,11,"
"##MN-00 00 47 0317 01925 5474 440767 348843 196"
"160.022558"
"$GPGGA,003226,2500.1418,N,08017.9755,W,1,8,1.6,11,"
"##MN-00 00 46 0318 01913 5474 439630 348336 196"
"160.022604"
"$GPGGA,003230,2500.1409,N,08017.9732,W,1,8,1.6,11,"
"##MN-00 00 47 0320 01904 5473 438982 348187 196"
"160.02265"
"$GPGGA,003234,2500.1402,N,08017.9704,W,1,8,1.6,12,"
"##MN-00 00 48 0321 01894 5473 438710 348047 196"
"160.022697"
"$GPGGA,003238,2500.1398,N,08017.9674,W,1,7,2.1,12,"
"##MN-00 00 49 0322 01885 5472 438248 347805 196"
"160.022743"
"$GPGGA,003242,2500.1389,N,08017.9643,W,1,8,1.6,12,"
"##MN-00 00 49 0324 01878 5472 437399 347519 196"
"160.022789"
"$GPGGA,003246,2500.1382,N,08017.9611,W,1,8,1.6,12,"
"##MN-00 00 48 0325 01868 5472 435404 346874 196"
"160.022836"
"$GPGGA,003250,2500.1378,N,08017.9578,W,1,8,1.6,12,"
"##MN-00 00 51 0327 01864 5471 432844 346003 196"
"160.022882"
"$GPGGA,003254,2500.1374,N,08017.9547,W,1,7,1.6,12,"
"##MN-00 00 54 0328 01862 5470 431236 345608 196"
"160.022928"
"$GPGGA,003258,2500.1370,N,08017.9514,W,1,7,2.1,12,"
"##MN-00 00 55 0329 01860 5470 430302 345363 196"
"160.022975"
"$GPGGA,003302,2500.1366,N,08017.9482,W,1,7,2.1,12,"
"##MN-00 00 58 0330 01861 5469 430109 345997 196"
"160.023021"
"$GPGGA,003306,2500.1362,N,08017.9450,W,1,7,2.1,12,"
"##MN-00 00 56 0331 01860 5469 435388 600268 196"
"160.023067"
"$GPGGA,003310,2500.1358,N,08017.9417,W,1,7,2.1,12,"
"##MN-00 00 49 0331 01860 5469 441454 806013 196"
"160.023113"
"$GPGGA,003314,2500.1353,N,08017.9384,W,1,7,2.1,12,"
"##MN-00 00 38 0331 01860 5469 446126 863535 196"
"160.02316"
"$GPGGA,003318,2500.1348,N,08017.9351,W,1,7,2.1,12,"
"##MN-00 00 37 0331 01861 5468 448948 732495 196"
"160.023206"
"$GPGGA,003322,2500.1344,N,08017.9317,W,1,7,2.1,12,"
"##MN-00 00 32 0331 01861 5468 450693 856639 196"
"160.023252"
"$GPGGA,003326,2500.1337,N,08017.9284,W,1,7,2.1,12,"
"##MN-00 00 36 0331 01860 5467 452228 905324 196"
"160.023299"
"$GPGGA,003330,2500.1341,N,08017.9256,W,1,8,1.6,12,"
"##MN-00 00 31 0331 01861 5467 453453 906022 196"
"160.023345"
"$GPGGA,003334,2500.1339,N,08017.9223,W,1,8,1.6,13,"
"##MN-00 00 27 0331 01859 5467 454038 907761 196"
"160.023391"
"$GPGGA,003338,2500.1335,N,08017.9189,W,1,8,1.6,14,"
"##MN-00 00 36 0331 01862 5466 454698 910154 196"
"160.023438"
"$GPGGA,003342,2500.1328,N,08017.9154,W,1,8,1.6,14,"
"##MN-00 00 46 0331 01861 5466 454501 910190 196"
