" Tow: L10s-B   RVWS/WS1406"
" Date: 06/08/2014"
" Temperature Probe #  2597    Conductivity Probe #  2870"
" Pressure Probe #  109"
" Flow Meter Calibration  4.71 (m/count)  "
"160.040324"
"$GPGGA,005757,2500.0676,N,08015.9072,W,1,8,1.9,15,"
"##MN-00 00 48 0088 01863 5415 452602 862567 196"
"160.04037"
"$GPGGA,005804,2500.0674,N,08015.9053,W,1,9,1.5,15,"
"##MN-00 00 53 0089 01862 5414 430259 345690 196"
"160.040417"
"$GPGGA,005808,2500.0672,N,08015.9043,W,1,9,1.5,15,"
"##MN-00 00 55 0090 01864 5415 430037 345621 196"
"160.040463"
"$GPGGA,005812,2500.0668,N,08015.9031,W,1,9,1.5,15,"
"##MN-00 00 57 0091 01862 5414 430343 345655 196"
"160.040509"
"$GPGGA,005816,2500.0665,N,08015.9019,W,1,9,1.5,15,"
"##MN-00 00 58 0091 01860 5414 430250 345545 196"
"160.040556"
"$GPGGA,005821,2500.0661,N,08015.9001,W,1,9,1.5,15,"
"##MN-00 00 56 0092 01862 5414 430131 345566 196"
"160.040602"
"$GPGGA,005824,2500.0658,N,08015.8991,W,1,9,1.5,15,"
"##MN-00 00 54 0093 01861 5413 429966 345487 196"
"160.040648"
"$GPGGA,005828,2500.0655,N,08015.8975,W,1,9,1.5,15,"
"##MN-00 00 54 0094 01862 5413 429831 345414 196"
"160.040694"
"$GPGGA,005832,2500.0652,N,08015.8958,W,1,9,1.5,15,"
"##MN-00 00 54 0095 01862 5413 429769 345432 196"
"160.040741"
"$GPGGA,005836,2500.0648,N,08015.8941,W,1,9,1.5,15,"
"##MN-00 00 56 0096 01861 5413 429860 345411 196"
"160.040787"
"$GPGGA,005841,2500.0641,N,08015.8918,W,1,9,1.5,15,"
"##MN-00 00 54 0097 01862 5413 429815 345386 196"
"160.040833"
"$GPGGA,005845,2500.0637,N,08015.8900,W,1,9,1.5,15,"
"##MN-00 00 55 0098 01863 5413 429708 345337 196"
"160.04088"
"$GPGGA,005849,2500.0633,N,08015.8882,W,1,9,1.5,15,"
"##MN-00 00 56 0099 01861 5414 429684 345328 196"
"160.040926"
"$GPGGA,005853,2500.0627,N,08015.8864,W,1,9,1.5,15,"
"##MN-00 00 57 0100 01863 5414 429751 345330 196"
"160.040972"
"$GPGGA,005857,2500.0621,N,08015.8847,W,1,8,1.9,15,"
"##MN-00 00 55 0101 01859 5414 429840 345338 196"
"160.041019"
"$GPGGA,005901,2500.0622,N,08015.8829,W,1,9,1.5,15,"
"##MN-00 00 56 0102 01863 5414 430437 345421 196"
"160.041065"
"$GPGGA,005905,2500.0616,N,08015.8811,W,1,9,1.5,15,"
"##MN-00 00 56 0103 01863 5414 431116 345650 196"
"160.041111"
"$GPGGA,005909,2500.0609,N,08015.8794,W,1,9,1.5,15,"
"##MN-00 00 57 0103 01864 5414 431829 345756 196"
"160.041157"
"$GPGGA,005913,2500.0602,N,08015.8775,W,1,9,1.5,15,"
"##MN-00 00 57 0104 01867 5414 432430 345926 196"
"160.041204"
"$GPGGA,005917,2500.0594,N,08015.8755,W,1,9,1.5,15,"
"##MN-00 00 57 0105 01869 5414 433214 345990 196"
"160.04125"
"$GPGGA,005921,2500.0589,N,08015.8736,W,1,9,1.5,15,"
"##MN-00 00 57 0106 01874 5414 433676 346226 196"
"160.041296"
"$GPGGA,005925,2500.0582,N,08015.8717,W,1,9,1.5,14,"
"##MN-00 00 56 0107 01873 5415 433970 346270 196"
"160.041343"
"$GPGGA,005929,2500.0576,N,08015.8696,W,1,9,1.5,14,"
"##MN-00 00 57 0108 01877 5415 434298 346536 196"
"160.041389"
"$GPGGA,005933,2500.0569,N,08015.8676,W,1,9,1.5,14,"
"##MN-00 00 57 0109 01881 5415 434562 346642 196"
"160.041435"
"$GPGGA,005937,2500.0564,N,08015.8655,W,1,9,1.5,13,"
"##MN-00 00 57 0110 01884 5415 434814 346767 196"
"160.041481"
"$GPGGA,005941,2500.0557,N,08015.8634,W,1,9,1.5,13,"
"##MN-00 00 57 0111 01888 5416 435045 346813 196"
"160.041528"
"$GPGGA,005945,2500.0553,N,08015.8611,W,1,9,1.5,13,"
"##MN-00 00 57 0112 01890 5416 435183 346805 196"
"160.041574"
"$GPGGA,005949,2500.0549,N,08015.8588,W,1,8,1.9,12,"
"##MN-00 00 57 0113 01898 5416 435307 346894 196"
"160.04162"
"$GPGGA,005953,2500.0546,N,08015.8564,W,1,9,1.5,12,"
"##MN-00 00 57 0114 01899 5416 435381 346908 196"
"160.041667"
"$GPGGA,005957,2500.0544,N,08015.8541,W,1,9,1.5,12,"
"##MN-00 00 57 0114 01903 5417 435524 346952 196"
"160.041713"
"$GPGGA,010001,2500.0540,N,08015.8515,W,1,9,1.5,12,"
"##MN-00 00 58 0115 01907 5417 435854 347035 196"
"160.041759"
"$GPGGA,010005,2500.0536,N,08015.8490,W,1,9,1.5,12,"
"##MN-00 00 57 0116 01910 5417 436320 347121 196"
"160.041806"
"$GPGGA,010009,2500.0533,N,08015.8464,W,1,9,1.5,12,"
"##MN-00 00 57 0117 01914 5417 436609 347219 196"
"160.041852"
"$GPGGA,010013,2500.0531,N,08015.8438,W,1,9,1.5,12,"
"##MN-00 00 57 0118 01915 5418 436864 347340 196"
"160.041898"
"$GPGGA,010017,2500.0527,N,08015.8412,W,1,9,1.5,12,"
"##MN-00 00 57 0119 01918 5419 437037 347403 196"
"160.041944"
"$GPGGA,010021,2500.0524,N,08015.8385,W,1,9,1.5,12,"
"##MN-00 00 57 0120 01922 5418 437228 347352 196"
"160.041991"
"$GPGGA,010025,2500.0518,N,08015.8359,W,1,9,1.5,13,"
"##MN-00 00 57 0121 01924 5419 437383 347443 196"
"160.042037"
"$GPGGA,010029,2500.0513,N,08015.8333,W,1,9,1.5,13,"
"##MN-00 00 57 0122 01930 5419 437479 347579 196"
"160.042083"
"$GPGGA,010033,2500.0506,N,08015.8307,W,1,9,1.5,13,"
"##MN-00 00 57 0123 01932 5419 437527 347607 196"
"160.04213"
"$GPGGA,010037,2500.0501,N,08015.8280,W,1,9,1.5,13,"
"##MN-00 00 58 0124 01934 5419 437576 347637 196"
"160.042176"
"$GPGGA,010041,2500.0496,N,08015.8254,W,1,9,1.5,13,"
"##MN-00 00 58 0125 01938 5420 437615 347602 196"
"160.042222"
"$GPGGA,010045,2500.0491,N,08015.8227,W,1,9,1.5,13,"
"##MN-00 00 58 0126 01942 5420 437651 347612 196"
"160.042269"
"$GPGGA,010049,2500.0485,N,08015.8199,W,1,9,1.5,13,"
"##MN-00 00 58 0127 01946 5420 437672 347641 196"
"160.042315"
"$GPGGA,010053,2500.0480,N,08015.8172,W,1,9,1.5,13,"
"##MN-00 00 58 0128 01949 5421 437713 347649 196"
"160.042361"
"$GPGGA,010057,2500.0477,N,08015.8144,W,1,9,1.5,13,"
"##MN-00 00 58 0129 01953 5421 437796 347677 196"
"160.042407"
"$GPGGA,010101,2500.0471,N,08015.8117,W,1,9,1.5,13,"
"##MN-00 00 58 0130 01957 5421 437859 347709 196"
"160.042454"
"$GPGGA,010105,2500.0467,N,08015.8089,W,1,9,1.5,13,"
"##MN-00 00 58 0131 01961 5421 437886 347744 196"
"160.0425"
"$GPGGA,010109,2500.0464,N,08015.8061,W,1,9,1.5,13,"
"##MN-00 00 58 0132 01965 5421 437958 347727 196"
"160.042546"
"$GPGGA,010113,2500.0461,N,08015.8032,W,1,9,1.5,13,"
"##MN-00 00 57 0133 01967 5421 438075 347766 196"
"160.042593"
"$GPGGA,010117,2500.0459,N,08015.8004,W,1,9,1.5,13,"
"##MN-00 00 56 0134 01970 5422 438159 347763 196"
"160.042639"
"$GPGGA,010121,2500.0458,N,08015.7976,W,1,9,1.5,13,"
"##MN-00 00 56 0135 01971 5422 438204 347737 196"
"160.042685"
"$GPGGA,010125,2500.0455,N,08015.7947,W,1,9,1.5,13,"
"##MN-00 00 56 0136 01972 5422 438215 347772 196"
"160.042731"
"$GPGGA,010129,2500.0454,N,08015.7919,W,1,9,1.5,13,"
"##MN+00 00 56 0137 01971 5422 438232 347781 196"
"160.042778"
"$GPGGA,010133,2500.0454,N,08015.7890,W,1,9,1.5,13,"
"##MN+00 00 56 0138 01973 5422 438240 347777 196"
"160.042824"
"$GPGGA,010137,2500.0454,N,08015.7861,W,1,8,1.6,13,"
"##MN+00 00 56 0139 01978 5423 438217 347805 195"
"160.04287"
"$GPGGA,010141,2500.0453,N,08015.7834,W,1,8,1.6,13,"
"##MN-00 00 55 0140 01978 5423 438170 347795 195"
"160.042917"
"$GPGGA,010145,2500.0454,N,08015.7804,W,1,9,1.5,13,"
"##MN+00 00 55 0141 01980 5423 438140 347785 195"
"160.042963"
"$GPGGA,010149,2500.0454,N,08015.7775,W,1,9,1.5,13,"
"##MN+00 00 55 0142 01982 5423 438139 347773 195"
"160.043009"
"$GPGGA,010153,2500.0452,N,08015.7746,W,1,9,1.5,13,"
"##MN+00 00 62 0142 01988 5423 438156 347758 194"
"160.043056"
"#increment_net"
"$GPGGA,010157,2500.0452,N,08015.7717,W,1,9,1.5,13,"
"##MN-00 00 57 0143 01988 5424 438195 347749 195"
"160.043102"
"$GPGGA,010201,2500.0452,N,08015.7690,W,1,9,1.5,13,"
"##MN-00 00 54 0144 01985 5424 438250 347745 195"
"160.043148"
"$GPGGA,010205,2500.0454,N,08015.7662,W,1,9,1.5,14,"
"##MN-00 00 52 0145 01985 5424 438299 347762 195"
"160.043194"
"$GPGGA,010209,2500.0457,N,08015.7636,W,1,9,1.5,14,"
"##MN-00 00 51 0146 01986 5425 438332 347776 195"
"160.043241"
"$GPGGA,010213,2500.0459,N,08015.7611,W,1,9,1.5,14,"
"##MN-00 00 50 0147 01987 5425 438360 347781 195"
"160.043287"
"$GPGGA,010217,2500.0462,N,08015.7586,W,1,9,1.5,14,"
"##MN-00 00 51 0148 01985 5425 438382 347798 195"
"160.043333"
"$GPGGA,010221,2500.0465,N,08015.7560,W,1,9,1.5,14,"
"##MN-00 00 51 0149 01983 5425 438399 347801 195"
"160.043391"
"$GPGGA,010225,2500.0468,N,08015.7534,W,1,9,1.5,14,"
"##MN-00 00 50 0150 01984 5425 438404 347799 195"
"160.043438"
"$GPGGA,010229,2500.0470,N,08015.7509,W,1,9,1.5,14,"
"##MN-00 00 51 0150 01983 5425 438397 347805 195"
"160.043484"
"$GPGGA,010233,2500.0473,N,08015.7485,W,1,9,1.5,14,"
"##MN-00 00 50 0151 01985 5426 438397 347800 195"
"160.04353"
"$GPGGA,010237,2500.0475,N,08015.7460,W,1,9,1.5,14,"
"##MN-00 00 50 0152 01981 5425 438387 347797 195"
"160.043576"
"$GPGGA,010241,2500.0477,N,08015.7434,W,1,7,2.0,14,"
"##MN-00 00 50 0153 01983 5426 438384 347793 195"
"160.043623"
"$GPGGA,010245,2500.0483,N,08015.7409,W,1,9,1.5,14,"
"##MN-00 00 50 0154 01980 5426 438392 347790 195"
"160.043669"
"$GPGGA,010249,2500.0490,N,08015.7384,W,1,9,1.5,14,"
"##MN-00 00 50 0155 01981 5426 438408 347785 195"
"160.043715"
"$GPGGA,010253,2500.0491,N,08015.7359,W,1,9,1.5,14,"
"##MN-00 00 49 0156 01982 5426 438430 347795 195"
"160.043762"
"$GPGGA,010257,2500.0495,N,08015.7336,W,1,9,1.5,14,"
"##MN-00 00 49 0156 01980 5427 438441 347794 195"
"160.043808"
"$GPGGA,010301,2500.0497,N,08015.7314,W,1,9,1.5,15,"
"##MN-00 00 50 0157 01979 5426 438453 347793 195"
"160.043854"
"$GPGGA,010305,2500.0498,N,08015.7292,W,1,9,1.5,15,"
"##MN-00 00 49 0158 01979 5427 438464 347793 195"
"160.0439"
"$GPGGA,010309,2500.0499,N,08015.7270,W,1,9,1.5,15,"
"##MN-00 00 49 0159 01978 5427 438475 347795 195"
"160.043947"
"$GPGGA,010313,2500.0501,N,08015.7248,W,1,9,1.5,15,"
"##MN-00 00 49 0160 01977 5427 438478 347791 195"
"160.043993"
"$GPGGA,010317,2500.0501,N,08015.7226,W,1,9,1.5,15,"
"##MN-00 00 49 0161 01978 5427 438489 347796 195"
"160.044039"
"$GPGGA,010322,2500.0502,N,08015.7199,W,1,9,1.5,15,"
"##MN-00 00 49 0161 01977 5427 438512 347827 195"
"160.044086"
"$GPGGA,010326,2500.0502,N,08015.7177,W,1,9,1.5,15,"
"##MN-00 00 49 0162 01974 5427 438533 347837 195"
"160.044132"
"$GPGGA,010330,2500.0502,N,08015.7156,W,1,9,1.5,15,"
"##MN+00 00 48 0163 01973 5428 438556 347850 195"
"160.044178"
"$GPGGA,010333,2500.0502,N,08015.7141,W,1,9,1.5,14,"
"##MN+00 00 49 0164 01974 5428 438576 347856 194"
"160.044225"
"$GPGGA,010338,2500.0502,N,08015.7115,W,1,9,1.5,14,"
"##MN+00 00 50 0165 01977 5428 438580 347858 194"
"160.044271"
"$GPGGA,010342,2500.0503,N,08015.7095,W,1,9,1.5,14,"
"##MN-00 00 49 0165 01976 5428 438600 347861 195"
"160.044317"
"$GPGGA,010346,2500.0505,N,08015.7075,W,1,9,1.5,14,"
"##MN-00 00 49 0166 01976 5428 438646 347870 195"
"160.044363"
"$GPGGA,010350,2500.0505,N,08015.7055,W,1,9,1.5,13,"
"##MN-00 00 48 0167 01977 5428 438680 347876 195"
"160.04441"
"$GPGGA,010354,2500.0504,N,08015.7035,W,1,9,1.5,13,"
"##MN-00 00 49 0168 01977 5428 438693 347877 195"
"160.044456"
"$GPGGA,010358,2500.0504,N,08015.7015,W,1,9,1.5,13,"
"##MN-00 00 49 0168 01978 5428 438695 347871 195"
"160.044502"
"$GPGGA,010402,2500.0504,N,08015.6995,W,1,9,1.5,13,"
"##MN-00 00 48 0169 01977 5428 438655 347867 195"
"160.044549"
"$GPGGA,010406,2500.0502,N,08015.6974,W,1,9,1.5,13,"
"##MN-00 00 48 0170 01976 5428 438593 347861 195"
"160.044595"
"$GPGGA,010410,2500.0502,N,08015.6953,W,1,9,1.5,13,"
"##MN+00 00 48 0171 01977 5429 438516 347839 195"
"160.044641"
"$GPGGA,010414,2500.0502,N,08015.6932,W,1,9,1.5,12,"
"##MN+00 00 48 0172 01978 5429 438451 347824 195"
"160.044687"
"$GPGGA,010418,2500.0501,N,08015.6909,W,1,9,1.5,12,"
"##MN+00 00 57 0173 01978 5429 438423 347803 195"
"160.044734"
"#increment_net"
"$GPGGA,010422,2500.0499,N,08015.6887,W,1,9,1.5,12,"
"##MN-00 00 54 0173 01976 5429 438413 347796 194"
"160.04478"
"$GPGGA,010426,2500.0499,N,08015.6864,W,1,9,1.5,12,"
"##MN-00 00 49 0174 01974 5429 438377 347803 195"
"160.044826"
"$GPGGA,010430,2500.0498,N,08015.6840,W,1,9,1.5,12,"
"##MN-00 00 48 0175 01975 5428 438251 347783 195"
"160.044873"
"$GPGGA,010434,2500.0498,N,08015.6816,W,1,9,1.5,12,"
"##MN-00 00 48 0176 01969 5429 438185 347754 195"
"160.044919"
"$GPGGA,010438,2500.0497,N,08015.6793,W,1,9,1.5,12,"
"##MN-00 00 48 0177 01970 5429 438127 347724 195"
"160.044965"
"$GPGGA,010442,2500.0497,N,08015.6769,W,1,9,1.5,12,"
"##MN-00 00 47 0178 01968 5429 438097 347703 195"
"160.045012"
"$GPGGA,010446,2500.0499,N,08015.6745,W,1,9,1.5,12,"
"##MN-00 00 48 0178 01971 5429 438094 347686 194"
"160.045058"
"$GPGGA,010450,2500.0501,N,08015.6720,W,1,9,1.5,12,"
"##MN-00 00 48 0179 01966 5429 438086 347691 194"
"160.045104"
"$GPGGA,010454,2500.0501,N,08015.6696,W,1,9,1.5,12,"
"##MN-00 00 48 0180 01969 5430 438094 347670 195"
"160.04515"
"$GPGGA,010458,2500.0502,N,08015.6672,W,1,9,1.5,12,"
"##MN-00 00 49 0181 01969 5429 438114 347672 194"
"160.045197"
"$GPGGA,010502,2500.0504,N,08015.6648,W,1,9,1.5,12,"
"##MN-00 00 48 0182 01969 5430 438122 347671 195"
"160.045243"
"$GPGGA,010506,2500.0505,N,08015.6623,W,1,9,1.5,12,"
"##MN-00 00 48 0183 01967 5429 438133 347670 194"
"160.045289"
"$GPGGA,010510,2500.0506,N,08015.6598,W,1,9,1.5,12,"
"##MN-00 00 49 0183 01966 5430 438147 347682 195"
"160.045336"
"$GPGGA,010514,2500.0506,N,08015.6571,W,1,8,1.5,12,"
"##MN-00 00 49 0184 01969 5430 438165 347674 194"
"160.045382"
"$GPGGA,010518,2500.0506,N,08015.6543,W,1,9,1.5,12,"
"##MN-00 00 48 0185 01965 5430 438183 347679 194"
"160.045428"
"$GPGGA,010522,2500.0506,N,08015.6517,W,1,9,1.5,12,"
"##MN-00 00 49 0186 01965 5430 438201 347686 194"
"160.045475"
"$GPGGA,010526,2500.0506,N,08015.6491,W,1,9,1.5,12,"
"##MN-00 00 49 0187 01966 5430 438201 347689 194"
"160.045521"
"$GPGGA,010530,2500.0506,N,08015.6466,W,1,9,1.5,12,"
"##MN-00 00 49 0188 01965 5430 438191 347688 194"
"160.045567"
"$GPGGA,010534,2500.0506,N,08015.6440,W,1,9,1.5,12,"
"##MN-00 00 49 0189 01967 5430 438179 347685 194"
"160.045613"
"$GPGGA,010538,2500.0508,N,08015.6413,W,1,9,1.9,12,"
"##MN-00 00 49 0189 01966 5430 438174 347685 194"
"160.04566"
"$GPGGA,010542,2500.0513,N,08015.6387,W,1,9,1.5,13,"
"##MN-00 00 49 0190 01965 5431 438168 347677 194"
"160.045706"
"$GPGGA,010546,2500.0516,N,08015.6362,W,1,9,1.5,13,"
"##MN-00 00 48 0191 01966 5431 438149 347675 194"
"160.045752"
"$GPGGA,010550,2500.0517,N,08015.6338,W,1,9,1.5,14,"
"##MN-00 00 49 0192 01964 5431 438122 347669 194"
"160.045799"
"$GPGGA,010554,2500.0517,N,08015.6314,W,1,9,1.5,14,"
"##MN-00 00 49 0193 01965 5431 438105 347663 194"
"160.045845"
"$GPGGA,010558,2500.0517,N,08015.6291,W,1,9,1.5,14,"
"##MN+00 00 49 0194 01964 5431 438085 347659 194"
"160.045891"
"$GPGGA,010602,2500.0517,N,08015.6267,W,1,9,1.5,15,"
"##MN+00 00 49 0195 01964 5431 438077 347667 195"
"160.045937"
"$GPGGA,010606,2500.0517,N,08015.6243,W,1,9,1.5,15,"
"##MN+00 00 49 0195 01965 5431 438072 347665 195"
"160.045984"
"$GPGGA,010610,2500.0515,N,08015.6220,W,1,9,1.5,15,"
"##MN-00 00 49 0196 01965 5431 438065 347679 195"
"160.04603"
"$GPGGA,010614,2500.0515,N,08015.6196,W,1,8,1.5,15,"
"##MN-00 00 49 0197 01966 5431 438058 347687 195"
"160.046076"
"$GPGGA,010618,2500.0517,N,08015.6171,W,1,9,1.5,14,"
"##MN-00 00 49 0198 01966 5431 438040 347663 195"
"160.046123"
"$GPGGA,010622,2500.0517,N,08015.6147,W,1,9,1.5,14,"
"##MN-00 00 49 0199 01966 5431 438001 347649 195"
"160.046169"
"$GPGGA,010626,2500.0518,N,08015.6123,W,1,9,1.5,14,"
"##MN+00 00 49 0200 01965 5431 437977 347640 195"
"160.046215"
"$GPGGA,010630,2500.0517,N,08015.6098,W,1,9,1.5,14,"
"##MN+00 00 49 0201 01963 5431 437965 347634 194"
"160.046262"
"$GPGGA,010634,2500.0517,N,08015.6072,W,1,9,1.5,14,"
"##MN+00 00 59 0202 01970 5432 437962 347629 194"
"160.046308"
"#increment_net"
"$GPGGA,010638,2500.0517,N,08015.6046,W,1,9,1.5,14,"
"##MN-00 00 55 0202 01965 5432 437961 347630 194"
"160.046354"
"$GPGGA,010642,2500.0517,N,08015.6019,W,1,9,1.5,14,"
"##MN-00 00 52 0203 01964 5432 437947 347623 195"
"160.0464"
"$GPGGA,010646,2500.0517,N,08015.5993,W,1,9,1.5,13,"
"##MN-00 00 50 0204 01964 5432 437918 347605 195"
"160.046447"
"$GPGGA,010650,2500.0519,N,08015.5967,W,1,9,1.5,13,"
"##MN-00 00 49 0205 01963 5432 437904 347603 195"
"160.046493"
"$GPGGA,010654,2500.0520,N,08015.5940,W,1,9,1.5,13,"
"##MN-00 00 49 0206 01962 5432 437900 347599 195"
"160.046551"
"$GPGGA,010658,2500.0520,N,08015.5914,W,1,9,1.5,13,"
"##MN-00 00 49 0207 01963 5432 437904 347597 195"
"160.046597"
"$GPGGA,010702,2500.0521,N,08015.5888,W,1,9,1.5,13,"
"##MN-00 00 49 0208 01963 5432 437911 347595 195"
"160.046644"
"$GPGGA,010706,2500.0524,N,08015.5861,W,1,9,1.5,12,"
"##MN-00 00 49 0209 01961 5432 437926 347593 195"
"160.04669"
"$GPGGA,010710,2500.0525,N,08015.5834,W,1,9,1.5,12,"
"##MN-00 00 49 0210 01962 5432 437968 347592 195"
"160.046736"
"$GPGGA,010714,2500.0526,N,08015.5808,W,1,9,1.5,12,"
"##MN-00 00 49 0211 01960 5432 438017 347583 194"
"160.046782"
"$GPGGA,010718,2500.0527,N,08015.5782,W,1,9,1.5,12,"
"##MN-00 00 49 0211 01961 5432 438045 347591 195"
"160.046829"
"$GPGGA,010722,2500.0529,N,08015.5757,W,1,9,1.5,12,"
"##MN-00 00 50 0212 01962 5432 438058 347592 195"
"160.046875"
"$GPGGA,010726,2500.0531,N,08015.5732,W,1,9,1.5,12,"
"##MN-00 00 50 0213 01966 5432 438069 347593 195"
"160.046921"
"$GPGGA,010730,2500.0534,N,08015.5706,W,1,8,1.5,12,"
"##MN-00 00 49 0214 01967 5432 438110 347599 194"
"160.046968"
"$GPGGA,010734,2500.0537,N,08015.5681,W,1,9,1.5,12,"
"##MN-00 00 49 0215 01969 5433 438153 347616 194"
"160.047014"
"$GPGGA,010738,2500.0538,N,08015.5656,W,1,9,1.5,13,"
"##MN-00 00 49 0216 01966 5433 438194 347617 194"
"160.04706"
"$GPGGA,010742,2500.0539,N,08015.5632,W,1,9,1.5,13,"
"##MN-00 00 49 0217 01968 5433 438231 347631 194"
"160.047106"
"$GPGGA,010746,2500.0541,N,08015.5607,W,1,9,1.5,13,"
"##MN-00 00 49 0218 01969 5433 438269 347642 194"
"160.047153"
"$GPGGA,010750,2500.0541,N,08015.5582,W,1,9,1.5,14,"
"##MN-00 00 49 0219 01968 5433 438266 347643 194"
"160.047199"
"$GPGGA,010754,2500.0541,N,08015.5558,W,1,9,1.5,14,"
"##MN-00 00 49 0219 01969 5433 438254 347655 194"
"160.047245"
"$GPGGA,010759,2500.0542,N,08015.5527,W,1,9,1.5,14,"
"##MN-00 00 49 0220 01971 5433 438236 347651 194"
"160.047292"
"$GPGGA,010802,2500.0542,N,08015.5508,W,1,9,1.5,14,"
"##MN-00 00 49 0221 01972 5433 438211 347652 194"
"160.047338"
"$GPGGA,010807,2500.0542,N,08015.5477,W,1,9,1.5,14,"
"##MN-00 00 49 0222 01970 5433 438199 347649 194"
"160.047384"
"$GPGGA,010811,2500.0542,N,08015.5452,W,1,9,1.5,14,"
"##MN+00 00 48 0223 01971 5434 438172 347642 194"
"160.047431"
"$GPGGA,010814,2500.0540,N,08015.5434,W,1,9,1.5,14,"
"##MN+00 00 49 0224 01971 5433 438138 347634 194"
"160.047477"
"$GPGGA,010819,2500.0542,N,08015.5402,W,1,9,1.5,14,"
"##MN+00 00 48 0225 01972 5434 438124 347634 194"
"160.047523"
"$GPGGA,010823,2500.0542,N,08015.5378,W,1,9,1.5,14,"
"##MN-00 00 48 0226 01972 5433 438116 347624 194"
"160.047569"
"$GPGGA,010827,2500.0542,N,08015.5352,W,1,9,1.5,14,"
"##MN-00 00 48 0227 01972 5434 438088 347620 195"
"160.047616"
"$GPGGA,010831,2500.0542,N,08015.5328,W,1,9,1.5,14,"
"##MN-00 00 49 0227 01970 5434 438059 347617 195"
"160.047662"
"$GPGGA,010835,2500.0542,N,08015.5302,W,1,9,1.5,14,"
"##MN-00 00 48 0228 01970 5433 438054 347592 195"
"160.047708"
"$GPGGA,010839,2500.0542,N,08015.5277,W,1,9,1.5,14,"
"##MN+00 00 48 0229 01969 5434 438053 347578 195"
"160.047755"
"$GPGGA,010843,2500.0542,N,08015.5252,W,1,9,1.5,14,"
"##MN+00 00 48 0230 01970 5434 438021 347576 195"
"160.047801"
"$GPGGA,010847,2500.0542,N,08015.5227,W,1,9,1.5,14,"
"##MN+00 00 58 0231 01973 5434 438001 347570 194"
"160.047847"
"#increment_net"
"$GPGGA,010851,2500.0542,N,08015.5202,W,1,9,1.5,14,"
"##MN-00 00 54 0232 01971 5434 437992 347573 194"
"160.047894"
"$GPGGA,010855,2500.0543,N,08015.5177,W,1,9,1.5,14,"
"##MN-00 00 52 0233 01971 5434 438003 347572 194"
"160.04794"
"$GPGGA,010859,2500.0543,N,08015.5153,W,1,9,1.5,13,"
"##MN-00 00 49 0234 01971 5434 438000 347571 194"
"160.047986"
"$GPGGA,010903,2500.0543,N,08015.5130,W,1,9,1.5,13,"
"##MN-00 00 49 0235 01972 5434 437961 347569 194"
"160.048032"
"$GPGGA,010907,2500.0543,N,08015.5105,W,1,9,1.5,13,"
"##MN-00 00 49 0236 01970 5434 437939 347568 194"
"160.048079"
"$GPGGA,010911,2500.0542,N,08015.5081,W,1,9,1.5,13,"
"##MN-00 00 48 0237 01970 5434 437948 347567 194"
"160.048125"
"$GPGGA,010915,2500.0542,N,08015.5057,W,1,9,1.5,13,"
"##MN-00 00 48 0238 01971 5434 437983 347563 194"
"160.048171"
"$GPGGA,010919,2500.0542,N,08015.5033,W,1,9,1.5,13,"
"##MN-00 00 48 0239 01972 5434 438015 347559 194"
"160.048218"
"$GPGGA,010923,2500.0542,N,08015.5008,W,1,9,1.5,13,"
"##MN-00 00 48 0239 01972 5434 438036 347563 194"
"160.048264"
"$GPGGA,010927,2500.0542,N,08015.4984,W,1,9,1.5,13,"
"##MN-00 00 48 0240 01970 5434 438040 347566 194"
"160.04831"
"$GPGGA,010931,2500.0542,N,08015.4959,W,1,9,1.5,13,"
"##MN-00 00 48 0241 01971 5435 438036 347566 194"
"160.048356"
"$GPGGA,010935,2500.0545,N,08015.4935,W,1,9,1.5,13,"
"##MN-00 00 48 0242 01969 5435 438031 347567 194"
"160.048403"
"$GPGGA,010939,2500.0546,N,08015.4910,W,1,8,1.5,13,"
"##MN-00 00 48 0243 01973 5435 438027 347570 194"
"160.048449"
"$GPGGA,010943,2500.0546,N,08015.4886,W,1,9,1.5,13,"
"##MN-00 00 48 0244 01971 5435 438026 347570 194"
"160.048495"
"$GPGGA,010947,2500.0549,N,08015.4861,W,1,9,1.5,13,"
"##MN-00 00 48 0245 01970 5435 438040 347569 194"
"160.048542"
"$GPGGA,010951,2500.0549,N,08015.4837,W,1,9,1.5,13,"
"##MN-00 00 48 0246 01971 5435 438069 347572 194"
"160.048588"
"$GPGGA,010955,2500.0549,N,08015.4813,W,1,9,1.5,13,"
"##MN-00 00 48 0247 01971 5435 438124 347580 194"
"160.048634"
"$GPGGA,010959,2500.0551,N,08015.4788,W,1,9,1.5,13,"
"##MN-00 00 48 0248 01972 5435 438219 347594 194"
"160.048681"
"$GPGGA,011003,2500.0551,N,08015.4764,W,1,9,1.5,13,"
"##MN-00 00 48 0249 01970 5435 438301 347596 194"
"160.048727"
"$GPGGA,011007,2500.0551,N,08015.4740,W,1,9,1.5,13,"
"##MN-00 00 48 0250 01972 5435 438354 347604 194"
"160.048773"
"$GPGGA,011011,2500.0551,N,08015.4716,W,1,9,1.5,13,"
"##MN-00 00 48 0251 01971 5435 438394 347626 194"
"160.048819"
"$GPGGA,011015,2500.0551,N,08015.4692,W,1,9,1.5,13,"
"##MN-00 00 48 0251 01974 5435 438418 347643 194"
"160.048866"
"$GPGGA,011019,2500.0551,N,08015.4668,W,1,9,1.5,13,"
"##MN-00 00 48 0252 01971 5435 438443 347678 194"
"160.048912"
"$GPGGA,011023,2500.0549,N,08015.4645,W,1,9,1.5,13,"
"##MN+00 00 48 0253 01972 5435 438460 347682 194"
"160.048958"
"$GPGGA,011027,2500.0549,N,08015.4622,W,1,9,1.5,13,"
"##MN+00 00 48 0254 01971 5435 438498 347694 194"
"160.049005"
"$GPGGA,011031,2500.0549,N,08015.4599,W,1,9,1.5,12,"
"##MN+00 00 48 0255 01971 5435 438539 347706 194"
"160.049051"
"$GPGGA,011035,2500.0547,N,08015.4577,W,1,9,1.5,12,"
"##MN-00 00 48 0256 01973 5436 438556 347699 194"
"160.049097"
"$GPGGA,011039,2500.0547,N,08015.4555,W,1,9,1.5,12,"
"##MN-00 00 48 0257 01971 5436 438556 347699 194"
"160.049144"
"$GPGGA,011043,2500.0546,N,08015.4533,W,1,9,1.5,12,"
"##MN-00 00 48 0258 01971 5435 438522 347697 194"
"160.04919"
"$GPGGA,011047,2500.0546,N,08015.4511,W,1,9,1.5,12,"
"##MN+00 00 48 0259 01974 5436 438505 347722 194"
"160.049236"
"$GPGGA,011051,2500.0544,N,08015.4490,W,1,8,1.9,12,"
"##MN+00 00 48 0260 01974 5436 438492 347713 194"
"160.049282"
"$GPGGA,011055,2500.0542,N,08015.4471,W,1,9,1.5,12,"
"##MN+00 00 58 0261 01976 5436 438482 347687 194"
"160.049329"
"#increment_net"
"$GPGGA,011059,2500.0542,N,08015.4450,W,1,8,1.9,12,"
"##MN-00 00 55 0262 01977 5436 438482 347685 194"
"160.049375"
"$GPGGA,011103,2500.0540,N,08015.4429,W,1,8,1.9,12,"
"##MN-00 00 51 0263 01981 5436 438484 347685 194"
"160.049421"
"$GPGGA,011107,2500.0538,N,08015.4410,W,1,9,1.5,12,"
"##MN-00 00 47 0264 01985 5436 438489 347678 194"
"160.049468"
"$GPGGA,011111,2500.0536,N,08015.4392,W,1,9,1.5,12,"
"##MN-00 00 46 0265 01992 5436 438605 347685 194"
"160.049514"
"$GPGGA,011115,2500.0535,N,08015.4372,W,1,9,1.5,12,"
"##MN-00 00 44 0266 01991 5436 438879 347752 194"
"160.04956"
"$GPGGA,011119,2500.0533,N,08015.4350,W,1,9,1.5,13,"
"##MN-00 00 43 0268 01986 5436 439613 347903 194"
"160.049606"
"$GPGGA,011123,2500.0531,N,08015.4329,W,1,9,1.5,13,"
"##MN-00 00 42 0269 01982 5436 439470 347966 194"
"160.049664"
"$GPGGA,011127,2500.0529,N,08015.4307,W,1,9,1.5,13,"
"##MN-00 00 42 0270 01975 5436 439010 347871 194"
"160.049711"
"$GPGGA,011131,2500.0527,N,08015.4283,W,1,9,1.5,14,"
"##MN-00 00 42 0271 01971 5436 438691 347803 194"
"160.049757"
"$GPGGA,011135,2500.0527,N,08015.4260,W,1,9,1.5,14,"
"##MN-00 00 41 0273 01962 5436 438315 347706 194"
"160.049803"
"$GPGGA,011139,2500.0524,N,08015.4238,W,1,9,1.5,14,"
"##MN-00 00 41 0274 01957 5436 438117 347690 194"
"160.04985"
"$GPGGA,011143,2500.0523,N,08015.4216,W,1,9,1.5,13,"
"##MN-00 00 42 0275 01950 5436 437967 347600 194"
"160.049896"
"$GPGGA,011147,2500.0523,N,08015.4189,W,1,9,1.5,13,"
"##MN-00 00 41 0277 01942 5436 437860 347565 194"
"160.049942"
"$GPGGA,011151,2500.0522,N,08015.4166,W,1,9,1.5,13,"
"##MN-00 00 42 0278 01934 5436 437699 347533 194"
"160.049988"
"$GPGGA,011155,2500.0519,N,08015.4145,W,1,9,1.5,13,"
"##MN-00 00 41 0279 01926 5436 437518 347465 194"
"160.050035"
"$GPGGA,011159,2500.0515,N,08015.4125,W,1,9,1.5,13,"
"##MN-00 00 42 0280 01916 5436 437358 347429 194"
"160.050081"
"$GPGGA,011203,2500.0515,N,08015.4103,W,1,9,1.5,13,"
"##MN-00 00 42 0282 01907 5436 437264 347446 194"
"160.050127"
"$GPGGA,011207,2500.0511,N,08015.4083,W,1,9,1.5,13,"
"##MN-00 00 43 0283 01900 5436 437154 347391 194"
"160.050174"
"$GPGGA,011211,2500.0508,N,08015.4063,W,1,9,1.5,13,"
"##MN-00 00 42 0284 01891 5436 437041 347349 194"
"160.05022"
"$GPGGA,011215,2500.0507,N,08015.4041,W,1,9,1.5,13,"
"##MN-00 00 43 0285 01885 5436 436767 347248 194"
"160.050266"
"$GPGGA,011219,2500.0506,N,08015.4016,W,1,8,2.0,12,"
"##MN-00 00 43 0287 01876 5436 436523 347192 194"
"160.050312"
"$GPGGA,011223,2500.0504,N,08015.3996,W,1,9,1.5,12,"
"##MN-00 00 42 0288 01866 5436 435731 347080 194"
"160.050359"
"$GPGGA,011227,2500.0501,N,08015.3974,W,1,9,1.5,12,"
"##MN-00 00 43 0290 01863 5436 434218 346737 194"
"160.050405"
"$GPGGA,011231,2500.0500,N,08015.3952,W,1,9,1.5,12,"
"##MN-00 00 43 0291 01863 5436 432309 346294 194"
"160.050451"
"$GPGGA,011236,2500.0499,N,08015.3921,W,1,9,1.5,12,"
"##MN-00 00 47 0292 01862 5436 430761 345791 194"
"160.050498"
"$GPGGA,011239,2500.0499,N,08015.3902,W,1,9,1.5,12,"
"##MN-00 00 52 0293 01862 5437 430649 345383 194"
"160.050544"
"$GPGGA,011243,2500.0498,N,08015.3876,W,1,9,1.5,12,"
"##MN-00 00 49 0293 01862 5437 438567 450123 194"
"160.05059"
"$GPGGA,011247,2500.0496,N,08015.3850,W,1,9,1.5,12,"
"##MN-00 00 44 0293 01860 5437 446411 829020 194"
"160.050637"
"$GPGGA,011251,2500.0495,N,08015.3824,W,1,9,1.5,12,"
"##MN-00 00 43 0293 01861 5437 450211 886728 194"
