" Tow: L11s-A   RVWS/WS1406"
" Date: 06/08/2014"
" Temperature Probe #  2597    Conductivity Probe #  2870"
" Pressure Probe #  109"
" Flow Meter Calibration  4.71 (m/count)  "
"160.239792"
"$GPGGA,054510,2506.6015,N,08013.3049,W,1,9,1.9,21,"
"##MN-00 00 26 0084 01864 4970 452424 922426 196"
"160.239838"
"$GPGGA,054518,2506.6019,N,08013.2972,W,1,9,1.9,21,"
"##MN-00 00 38 0084 01864 4970 449267 926537 196"
"160.239884"
"$GPGGA,054522,2506.6021,N,08013.2933,W,1,9,1.9,20,"
"##MN-00 00 44 0084 01861 4971 448181 926538 196"
"160.239931"
"$GPGGA,054526,2506.6022,N,08013.2896,W,1,9,1.9,20,"
"##MN-00 00 48 0084 01865 4972 446858 926538 196"
"160.239977"
"$GPGGA,054530,2506.6023,N,08013.2858,W,1,9,1.9,20,"
"##MN-00 00 46 0085 01864 4972 443922 668351 196"
"160.240023"
"$GPGGA,054534,2506.6026,N,08013.2821,W,1,9,1.9,20,"
"##MN-00 00 51 0085 01867 4973 433485 347374 196"
"160.240069"
"$GPGGA,054538,2506.6028,N,08013.2785,W,1,9,1.9,20,"
"##MN-00 00 52 0086 01865 4974 433419 346890 196"
"160.240116"
"$GPGGA,054542,2506.6028,N,08013.2749,W,1,9,1.9,19,"
"##MN-00 00 52 0087 01867 4975 433337 346691 196"
"160.240162"
"$GPGGA,054546,2506.6030,N,08013.2714,W,1,9,1.9,19,"
"##MN-00 00 55 0087 01869 4975 433259 346502 196"
"160.240208"
"$GPGGA,054550,2506.6032,N,08013.2679,W,1,9,1.9,19,"
"##MN-00 00 53 0088 01873 4975 433251 346521 196"
"160.240255"
"$GPGGA,054554,2506.6033,N,08013.2644,W,1,9,1.9,19,"
"##MN-00 00 54 0089 01877 4976 433319 346527 196"
"160.240301"
"$GPGGA,054558,2506.6037,N,08013.2610,W,1,9,1.9,18,"
"##MN-00 00 54 0090 01879 4976 433581 346640 196"
"160.240347"
"$GPGGA,054602,2506.6040,N,08013.2576,W,1,9,1.9,18,"
"##MN-00 00 55 0091 01886 4977 433761 346668 196"
"160.240394"
"$GPGGA,054606,2506.6041,N,08013.2541,W,1,9,1.9,18,"
"##MN-00 00 54 0091 01891 4977 434245 346752 196"
"160.24044"
"$GPGGA,054610,2506.6044,N,08013.2508,W,1,9,1.9,18,"
"##MN-00 00 54 0092 01893 4978 435072 346916 196"
"160.240486"
"$GPGGA,054614,2506.6048,N,08013.2475,W,1,9,1.9,18,"
"##MN-00 00 54 0093 01900 4978 436078 347234 196"
"160.240532"
"$GPGGA,054618,2506.6051,N,08013.2442,W,1,9,2.1,18,"
"##MN-00 00 54 0094 01905 4979 437610 347540 196"
"160.240579"
"$GPGGA,054622,2506.6055,N,08013.2411,W,1,8,2.1,18,"
"##MN-00 00 54 0095 01911 4979 439268 348090 196"
"160.240625"
"$GPGGA,054626,2506.6056,N,08013.2380,W,1,8,2.1,18,"
"##MN-00 00 52 0095 01916 4980 439929 348443 196"
"160.240671"
"$GPGGA,054630,2506.6059,N,08013.2349,W,1,8,2.1,18,"
"##MN-00 00 54 0096 01920 4980 440674 348783 196"
"160.240718"
"$GPGGA,054634,2506.6062,N,08013.2319,W,1,8,2.1,17,"
"##MN-00 00 52 0097 01922 4981 441334 348984 196"
"160.240764"
"$GPGGA,054638,2506.6064,N,08013.2289,W,1,8,2.1,17,"
"##MN-00 00 53 0098 01928 4982 441751 349028 196"
"160.24081"
"$GPGGA,054642,2506.6062,N,08013.2258,W,1,8,2.1,17,"
"##MN-00 00 54 0099 01934 4982 442064 349033 196"
"160.240856"
"$GPGGA,054646,2506.6059,N,08013.2227,W,1,9,2.2,17,"
"##MN-00 00 53 0099 01939 4983 442724 349378 196"
"160.240903"
"$GPGGA,054650,2506.6056,N,08013.2203,W,1,9,2.2,17,"
"##MN-00 00 54 0100 01943 4984 443290 349532 196"
"160.240949"
"$GPGGA,054654,2506.6059,N,08013.2178,W,1,8,1.9,18,"
"##MN-00 00 54 0101 01950 4985 443461 349543 196"
"160.240995"
"$GPGGA,054658,2506.6061,N,08013.2157,W,1,8,1.9,18,"
"##MN-00 00 54 0102 01956 4986 443524 349525 196"
"160.241042"
"$GPGGA,054703,2506.6060,N,08013.2122,W,1,9,1.9,19,"
"##MN-00 00 54 0103 01963 4986 443688 349650 196"
"160.241088"
"$GPGGA,054707,2506.6059,N,08013.2099,W,1,8,1.9,19,"
"##MN-00 00 54 0103 01967 4987 443793 349676 196"
"160.241134"
"$GPGGA,054711,2506.6061,N,08013.2065,W,1,8,2.1,20,"
"##MN-00 00 54 0104 01972 4988 443854 349724 196"
"160.241181"
"$GPGGA,054715,2506.6060,N,08013.2032,W,1,8,2.2,21,"
"##MN-00 00 53 0105 01978 4988 444070 349803 196"
"160.241227"
"$GPGGA,054718,2506.6061,N,08013.2012,W,1,9,1.9,21,"
"##MN-00 00 53 0106 01981 4989 444387 349864 196"
"160.241273"
"$GPGGA,054722,2506.6059,N,08013.1985,W,1,9,1.9,21,"
"##MN-00 00 54 0106 01985 4990 444637 349904 196"
"160.241319"
"$GPGGA,054727,2506.6059,N,08013.1944,W,1,9,1.9,22,"
"##MN-00 00 52 0107 01986 4991 444840 349980 196"
"160.241366"
"$GPGGA,054731,2506.6059,N,08013.1916,W,1,9,1.9,22,"
"##MN-00 00 51 0108 01984 4992 444922 350041 196"
"160.241412"
"$GPGGA,054735,2506.6059,N,08013.1891,W,1,9,1.9,22,"
"##MN-00 00 50 0109 01986 4993 444943 350086 196"
"160.241458"
"$GPGGA,054739,2506.6059,N,08013.1864,W,1,9,1.9,22,"
"##MN-00 00 51 0110 01984 4993 444931 350116 196"
"160.241505"
"$GPGGA,054743,2506.6059,N,08013.1837,W,1,9,1.8,21,"
"##MN-00 00 50 0111 01986 4994 444909 350125 196"
"160.241551"
"$GPGGA,054747,2506.6059,N,08013.1811,W,1,8,1.8,21,"
"##MN-00 00 52 0112 01986 4995 444891 350131 196"
"160.241597"
"$GPGGA,054751,2506.6058,N,08013.1784,W,1,9,1.9,21,"
"##MN-00 00 51 0113 01985 4996 444869 350136 196"
"160.241644"
"$GPGGA,054755,2506.6057,N,08013.1759,W,1,9,1.8,21,"
"##MN-00 00 51 0114 01985 4997 444813 350135 196"
"160.24169"
"$GPGGA,054759,2506.6055,N,08013.1735,W,1,9,1.8,20,"
"##MN+00 00 51 0114 01986 4998 444710 350116 196"
"160.241736"
"$GPGGA,054803,2506.6059,N,08013.1710,W,1,9,1.8,20,"
"##MN+00 00 51 0115 01987 4999 444551 350082 196"
"160.241782"
"$GPGGA,054807,2506.6059,N,08013.1683,W,1,8,1.9,20,"
"##MN+00 00 51 0116 01988 4999 444473 350059 196"
"160.241829"
"$GPGGA,054811,2506.6059,N,08013.1657,W,1,8,1.9,19,"
"##MN-00 00 51 0117 01989 5000 444398 350019 196"
"160.241875"
"$GPGGA,054815,2506.6059,N,08013.1630,W,1,9,1.8,19,"
"##MN-00 00 51 0118 01986 5001 444377 350008 196"
"160.241921"
"$GPGGA,054819,2506.6055,N,08013.1603,W,1,9,1.8,19,"
"##MN-00 00 51 0119 01989 5001 444347 349993 196"
"160.241968"
"$GPGGA,054823,2506.6051,N,08013.1584,W,1,8,2.1,19,"
"##MN+00 00 50 0120 01984 5002 444330 349992 196"
"160.242014"
"$GPGGA,054827,2506.6051,N,08013.1560,W,1,9,1.8,19,"
"##MN+00 00 49 0121 01983 5003 444288 349991 195"
"160.24206"
"$GPGGA,054831,2506.6055,N,08013.1538,W,1,9,1.8,19,"
"##MN+00 00 58 0122 01986 5004 444215 349958 196"
"160.242106"
"#increment_net"
"$GPGGA,054835,2506.6055,N,08013.1513,W,1,9,1.8,19,"
"##MN-00 00 54 0122 01985 5005 444170 349953 196"
"160.242153"
"$GPGGA,054839,2506.6055,N,08013.1490,W,1,9,1.8,19,"
"##MN-00 00 51 0123 01986 5006 444164 349933 196"
"160.242199"
"$GPGGA,054843,2506.6054,N,08013.1467,W,1,9,1.8,19,"
"##MN-00 00 50 0124 01983 5007 444162 349930 196"
"160.242245"
"$GPGGA,054847,2506.6051,N,08013.1443,W,1,9,1.8,19,"
"##MN-00 00 49 0125 01981 5007 444159 349921 196"
"160.242292"
"$GPGGA,054851,2506.6051,N,08013.1418,W,1,9,1.8,19,"
"##MN-00 00 49 0126 01985 5008 444157 349920 196"
"160.242338"
"$GPGGA,054855,2506.6051,N,08013.1394,W,1,9,1.8,19,"
"##MN-00 00 50 0126 01981 5009 444155 349922 196"
"160.242384"
"$GPGGA,054859,2506.6050,N,08013.1370,W,1,9,1.8,19,"
"##MN-00 00 50 0127 01982 5010 444153 349920 196"
"160.242431"
"$GPGGA,054903,2506.6051,N,08013.1347,W,1,9,1.8,19,"
"##MN-00 00 49 0128 01982 5011 444151 349919 196"
"160.242477"
"$GPGGA,054907,2506.6051,N,08013.1323,W,1,9,1.8,19,"
"##MN-00 00 50 0129 01982 5012 444149 349919 196"
"160.242523"
"$GPGGA,054911,2506.6052,N,08013.1299,W,1,9,1.8,19,"
"##MN-00 00 49 0130 01981 5012 444154 349922 196"
"160.242581"
"$GPGGA,054915,2506.6053,N,08013.1275,W,1,9,1.8,19,"
"##MN-00 00 50 0131 01983 5013 444156 349924 196"
"160.242627"
"$GPGGA,054919,2506.6053,N,08013.1251,W,1,9,1.8,19,"
"##MN-00 00 49 0131 01983 5014 444160 349931 196"
"160.242674"
"$GPGGA,054923,2506.6053,N,08013.1228,W,1,9,1.8,18,"
"##MN-00 00 50 0132 01984 5015 444161 349932 196"
"160.24272"
"$GPGGA,054927,2506.6053,N,08013.1204,W,1,9,1.8,18,"
"##MN-00 00 49 0133 01984 5015 444159 349932 196"
"160.242766"
"$GPGGA,054931,2506.6055,N,08013.1181,W,1,9,1.8,18,"
"##MN-00 00 50 0134 01986 5016 444154 349932 196"
"160.242812"
"$GPGGA,054935,2506.6057,N,08013.1157,W,1,9,1.8,18,"
"##MN-00 00 49 0135 01986 5017 444149 349930 196"
"160.242859"
"$GPGGA,054939,2506.6057,N,08013.1133,W,1,9,1.8,18,"
"##MN-00 00 50 0135 01983 5018 444157 349929 196"
"160.242905"
"$GPGGA,054943,2506.6058,N,08013.1110,W,1,9,1.8,18,"
"##MN-00 00 50 0136 01986 5019 444168 349933 196"
"160.242951"
"$GPGGA,054947,2506.6059,N,08013.1087,W,1,9,1.8,18,"
"##MN-00 00 49 0137 01986 5019 444169 349936 196"
"160.242998"
"$GPGGA,054951,2506.6059,N,08013.1063,W,1,9,1.8,18,"
"##MN-00 00 50 0138 01984 5020 444141 349931 196"
"160.243044"
"$GPGGA,054955,2506.6060,N,08013.1039,W,1,9,1.8,17,"
"##MN-00 00 49 0139 01986 5021 444105 349923 196"
"160.24309"
"$GPGGA,054959,2506.6062,N,08013.1016,W,1,9,1.8,17,"
"##MN-00 00 50 0139 01985 5022 444084 349919 196"
"160.243137"
"$GPGGA,055003,2506.6062,N,08013.0993,W,1,9,1.8,17,"
"##MN-00 00 49 0140 01985 5023 444063 349915 196"
"160.243183"
"$GPGGA,055007,2506.6065,N,08013.0970,W,1,9,1.8,17,"
"##MN-00 00 49 0141 01985 5024 444012 349908 196"
"160.243229"
"$GPGGA,055011,2506.6065,N,08013.0946,W,1,9,1.8,17,"
"##MN-00 00 49 0142 01986 5025 443958 349890 196"
"160.243275"
"$GPGGA,055015,2506.6066,N,08013.0923,W,1,9,1.8,17,"
"##MN-00 00 49 0143 01986 5025 443883 349858 196"
"160.243322"
"$GPGGA,055019,2506.6066,N,08013.0900,W,1,9,1.8,17,"
"##MN+00 00 49 0143 01985 5026 443832 349854 196"
"160.243368"
"$GPGGA,055023,2506.6066,N,08013.0877,W,1,9,1.8,17,"
"##MN+00 00 49 0144 01987 5027 443850 349839 195"
"160.243414"
"$GPGGA,055027,2506.6067,N,08013.0853,W,1,9,1.8,17,"
"##MN+00 00 49 0145 01988 5028 443855 349836 194"
"160.243461"
"$GPGGA,055031,2506.6068,N,08013.0831,W,1,9,1.8,17,"
"##MN-00 00 49 0146 01986 5029 443825 349833 195"
"160.243507"
"$GPGGA,055035,2506.6069,N,08013.0809,W,1,9,1.8,17,"
"##MN-00 00 49 0147 01985 5030 443793 349819 195"
"160.243553"
"$GPGGA,055039,2506.6070,N,08013.0786,W,1,9,1.8,17,"
"##MN-00 00 49 0147 01986 5030 443774 349805 195"
"160.2436"
"$GPGGA,055043,2506.6072,N,08013.0765,W,1,9,1.8,17,"
"##MN-00 00 49 0148 01989 5031 443763 349798 195"
"160.243646"
"$GPGGA,055047,2506.6072,N,08013.0742,W,1,9,1.8,17,"
"##MN+00 00 49 0149 01986 5032 443751 349800 195"
"160.243692"
"$GPGGA,055051,2506.6073,N,08013.0719,W,1,9,1.8,17,"
"##MN+00 00 48 0150 01985 5033 443702 349793 195"
"160.243738"
"$GPGGA,055055,2506.6072,N,08013.0696,W,1,9,1.8,17,"
"##MN+00 00 57 0151 01984 5033 443593 349744 195"
"160.243785"
"#increment_net"
"$GPGGA,055059,2506.6072,N,08013.0675,W,1,9,1.8,16,"
"##MN-00 00 51 0152 01978 5034 443528 349737 195"
"160.243831"
"$GPGGA,055103,2506.6070,N,08013.0653,W,1,9,1.8,16,"
"##MN-00 00 48 0152 01974 5034 443366 349726 195"
"160.243877"
"$GPGGA,055107,2506.6070,N,08013.0631,W,1,9,1.8,16,"
"##MN-00 00 49 0153 01973 5035 443197 349673 195"
"160.243924"
"$GPGGA,055111,2506.6070,N,08013.0609,W,1,9,1.8,16,"
"##MN-00 00 49 0154 01975 5036 443018 349653 195"
"160.24397"
"$GPGGA,055115,2506.6070,N,08013.0587,W,1,9,1.8,16,"
"##MN-00 00 48 0155 01975 5037 442951 349627 195"
"160.244016"
"$GPGGA,055119,2506.6070,N,08013.0565,W,1,9,1.8,16,"
"##MN-00 00 48 0156 01973 5038 442904 349569 195"
"160.244063"
"$GPGGA,055123,2506.6070,N,08013.0543,W,1,9,1.8,16,"
"##MN-00 00 48 0156 01973 5039 442873 349558 195"
"160.244109"
"$GPGGA,055127,2506.6072,N,08013.0521,W,1,9,1.8,16,"
"##MN-00 00 49 0157 01976 5040 442823 349528 195"
"160.244155"
"$GPGGA,055131,2506.6072,N,08013.0499,W,1,9,1.8,16,"
"##MN-00 00 51 0158 01979 5041 442811 349513 195"
"160.244201"
"$GPGGA,055135,2506.6072,N,08013.0475,W,1,9,1.8,16,"
"##MN-00 00 51 0159 01983 5042 442841 349530 195"
"160.244248"
"$GPGGA,055139,2506.6072,N,08013.0452,W,1,9,1.8,16,"
"##MN-00 00 47 0159 01981 5043 442949 349538 195"
"160.244294"
"$GPGGA,055143,2506.6071,N,08013.0436,W,1,9,1.8,16,"
"##MN-00 00 47 0160 01981 5043 442996 349548 195"
"160.24434"
"$GPGGA,055147,2506.6072,N,08013.0407,W,1,9,1.8,16,"
"##MN-00 00 48 0161 01980 5044 443002 349552 195"
"160.244387"
"$GPGGA,055152,2506.6073,N,08013.0379,W,1,9,1.8,16,"
"##MN-00 00 48 0162 01980 5045 443087 349562 195"
"160.244433"
"$GPGGA,055155,2506.6071,N,08013.0362,W,1,9,1.8,16,"
"##MN-00 00 48 0163 01980 5046 443203 349572 195"
"160.244479"
"$GPGGA,055200,2506.6071,N,08013.0335,W,1,9,1.8,16,"
"##MN-00 00 48 0164 01980 5047 443314 349604 195"
"160.244525"
"$GPGGA,055203,2506.6072,N,08013.0318,W,1,9,1.8,16,"
"##MN-00 00 48 0164 01980 5047 443445 349647 195"
"160.244572"
"$GPGGA,055207,2506.6071,N,08013.0296,W,1,9,1.8,16,"
"##MN-00 00 48 0165 01981 5048 443555 349671 195"
"160.244618"
"$GPGGA,055211,2506.6073,N,08013.0274,W,1,9,1.8,16,"
"##MN-00 00 48 0166 01979 5049 443639 349681 195"
"160.244664"
"$GPGGA,055216,2506.6073,N,08013.0245,W,1,9,1.8,16,"
"##MN-00 00 49 0167 01980 5050 443656 349738 195"
"160.244711"
"$GPGGA,055220,2506.6073,N,08013.0223,W,1,9,1.8,16,"
"##MN-00 00 49 0168 01980 5051 443658 349752 195"
"160.244757"
"$GPGGA,055224,2506.6073,N,08013.0201,W,1,9,1.8,16,"
"##MN-00 00 48 0169 01982 5051 443673 349739 195"
"160.244803"
"$GPGGA,055228,2506.6073,N,08013.0179,W,1,9,1.8,16,"
"##MN-00 00 49 0169 01980 5052 443725 349769 195"
"160.24485"
"$GPGGA,055232,2506.6073,N,08013.0157,W,1,9,1.8,16,"
"##MN-00 00 48 0170 01978 5053 443764 349786 195"
"160.244896"
"$GPGGA,055236,2506.6073,N,08013.0136,W,1,9,1.8,16,"
"##MN-00 00 49 0171 01981 5054 443757 349798 195"
"160.244942"
"$GPGGA,055240,2506.6073,N,08013.0114,W,1,9,1.8,16,"
"##MN-00 00 48 0172 01981 5055 443736 349791 195"
"160.244988"
"$GPGGA,055244,2506.6073,N,08013.0091,W,1,9,1.8,16,"
"##MN-00 00 49 0173 01978 5056 443778 349792 195"
"160.245035"
"$GPGGA,055248,2506.6073,N,08013.0070,W,1,9,1.8,16,"
"##MN+00 00 49 0174 01979 5056 443833 349810 195"
"160.245081"
"$GPGGA,055252,2506.6073,N,08013.0048,W,1,9,1.8,16,"
"##MN+00 00 49 0174 01980 5057 443911 349825 195"
"160.245127"
"$GPGGA,055256,2506.6074,N,08013.0027,W,1,8,1.8,16,"
"##MN+00 00 49 0175 01980 5058 443991 349839 195"
"160.245174"
"$GPGGA,055300,2506.6075,N,08013.0004,W,1,9,1.8,16,"
"##MN-00 00 49 0176 01981 5059 444054 349860 195"
"160.24522"
"$GPGGA,055304,2506.6075,N,08012.9982,W,1,9,1.8,16,"
"##MN-00 00 48 0177 01981 5060 444075 349881 195"
"160.245266"
"$GPGGA,055308,2506.6075,N,08012.9959,W,1,9,1.8,16,"
"##MN-00 00 49 0178 01980 5061 444080 349886 195"
"160.245312"
"$GPGGA,055312,2506.6075,N,08012.9937,W,1,9,1.8,16,"
"##MN+00 00 48 0178 01981 5061 444123 349901 195"
"160.245359"
"$GPGGA,055316,2506.6075,N,08012.9915,W,1,9,1.8,16,"
"##MN+00 00 48 0179 01981 5062 444143 349919 194"
"160.245405"
"$GPGGA,055320,2506.6075,N,08012.9893,W,1,9,1.8,16,"
"##MN+00 00 57 0180 01984 5063 444116 349920 194"
"160.245451"
"#increment_net"
"$GPGGA,055324,2506.6077,N,08012.9873,W,1,9,1.8,16,"
"##MN-00 00 54 0181 01982 5064 444180 349937 194"
"160.245498"
"$GPGGA,055328,2506.6077,N,08012.9852,W,1,9,1.8,16,"
"##MN-00 00 50 0182 01983 5065 444285 349971 194"
"160.245544"
"$GPGGA,055332,2506.6076,N,08012.9831,W,1,9,1.8,16,"
"##MN-00 00 49 0183 01981 5065 444323 349991 194"
"160.24559"
"$GPGGA,055336,2506.6077,N,08012.9810,W,1,9,1.8,16,"
"##MN-00 00 48 0183 01981 5066 444338 349987 194"
"160.245637"
"$GPGGA,055340,2506.6076,N,08012.9788,W,1,9,1.8,16,"
"##MN-00 00 47 0184 01981 5067 444370 349995 194"
"160.245683"
"$GPGGA,055344,2506.6076,N,08012.9766,W,1,9,1.8,16,"
"##MN-00 00 47 0185 01981 5068 444405 350011 194"
"160.245741"
"$GPGGA,055348,2506.6076,N,08012.9745,W,1,9,1.8,16,"
"##MN-00 00 46 0186 01981 5068 444413 350031 194"
"160.245787"
"$GPGGA,055352,2506.6074,N,08012.9724,W,1,9,1.8,16,"
"##MN-00 00 47 0187 01980 5069 444406 350036 194"
"160.245833"
"$GPGGA,055356,2506.6074,N,08012.9701,W,1,9,1.8,16,"
"##MN-00 00 47 0188 01981 5070 444403 350036 194"
"160.24588"
"$GPGGA,055400,2506.6073,N,08012.9680,W,1,9,1.8,16,"
"##MN-00 00 46 0188 01983 5071 444402 350038 194"
"160.245926"
"$GPGGA,055404,2506.6073,N,08012.9658,W,1,9,1.8,16,"
"##MN-00 00 46 0189 01981 5071 444395 350040 194"
"160.245972"
"$GPGGA,055408,2506.6071,N,08012.9636,W,1,9,1.8,16,"
"##MN-00 00 46 0190 01982 5072 444382 350039 194"
"160.246019"
"$GPGGA,055412,2506.6070,N,08012.9614,W,1,9,1.8,16,"
"##MN-00 00 46 0191 01981 5073 444384 350042 194"
"160.246065"
"$GPGGA,055416,2506.6069,N,08012.9592,W,1,9,1.8,16,"
"##MN-00 00 46 0192 01981 5074 444404 350048 194"
"160.246111"
"$GPGGA,055420,2506.6069,N,08012.9571,W,1,9,1.8,16,"
"##MN-00 00 47 0193 01982 5075 444418 350052 194"
"160.246157"
"$GPGGA,055424,2506.6069,N,08012.9549,W,1,9,1.7,16,"
"##MN-00 00 47 0193 01983 5075 444440 350058 194"
"160.246204"
"$GPGGA,055428,2506.6069,N,08012.9527,W,1,9,1.7,16,"
"##MN-00 00 47 0194 01980 5076 444467 350059 194"
"160.24625"
"$GPGGA,055432,2506.6069,N,08012.9506,W,1,9,1.7,16,"
"##MN-00 00 46 0195 01983 5077 444481 350067 194"
"160.246296"
"$GPGGA,055436,2506.6069,N,08012.9484,W,1,9,1.7,16,"
"##MN-00 00 46 0196 01982 5078 444482 350071 194"
"160.246343"
"$GPGGA,055440,2506.6072,N,08012.9462,W,1,9,1.7,16,"
"##MN-00 00 46 0197 01981 5078 444468 350072 194"
"160.246389"
"$GPGGA,055444,2506.6073,N,08012.9440,W,1,9,1.7,16,"
"##MN-00 00 46 0198 01982 5079 444456 350072 194"
"160.246435"
"$GPGGA,055448,2506.6071,N,08012.9418,W,1,9,1.7,16,"
"##MN-00 00 46 0198 01982 5080 444441 350072 194"
"160.246481"
"$GPGGA,055452,2506.6071,N,08012.9398,W,1,9,1.8,17,"
"##MN-00 00 46 0199 01981 5080 444425 350066 194"
"160.246528"
"$GPGGA,055456,2506.6071,N,08012.9377,W,1,9,1.8,17,"
"##MN-00 00 47 0200 01980 5081 444383 350048 194"
"160.246574"
"$GPGGA,055500,2506.6073,N,08012.9353,W,1,9,1.7,17,"
"##MN-00 00 46 0201 01980 5082 444260 350015 194"
"160.24662"
"$GPGGA,055504,2506.6073,N,08012.9330,W,1,9,1.7,17,"
"##MN+00 00 47 0202 01982 5083 444226 350009 194"
"160.246667"
"$GPGGA,055508,2506.6074,N,08012.9308,W,1,9,1.8,17,"
"##MN+00 00 47 0203 01980 5084 444233 350005 194"
"160.246713"
"$GPGGA,055512,2506.6074,N,08012.9287,W,1,8,1.7,17,"
"##MN+00 00 47 0203 01983 5084 444265 350004 194"
"160.246759"
"$GPGGA,055516,2506.6073,N,08012.9266,W,1,9,1.7,17,"
"##MN-00 00 47 0204 01979 5085 444318 350014 195"
"160.246806"
"$GPGGA,055520,2506.6075,N,08012.9245,W,1,9,1.7,17,"
"##MN-00 00 47 0205 01981 5085 444354 350034 195"
"160.246852"
"$GPGGA,055524,2506.6077,N,08012.9222,W,1,9,1.7,17,"
"##MN-00 00 47 0206 01982 5086 444374 350046 195"
"160.246898"
"$GPGGA,055528,2506.6077,N,08012.9200,W,1,9,1.7,17,"
"##MN+00 00 47 0207 01983 5087 444381 350051 195"
"160.246944"
"$GPGGA,055532,2506.6078,N,08012.9178,W,1,9,1.7,17,"
"##MN+00 00 47 0208 01983 5088 444399 350052 194"
"160.246991"
"$GPGGA,055536,2506.6078,N,08012.9157,W,1,9,1.7,17,"
"##MN+00 00 56 0208 01985 5088 444399 350053 194"
"160.247037"
"#increment_net"
"$GPGGA,055540,2506.6077,N,08012.9136,W,1,9,1.7,17,"
"##MN-00 00 53 0209 01984 5089 444405 350055 195"
"160.247083"
"$GPGGA,055544,2506.6077,N,08012.9113,W,1,9,1.7,17,"
"##MN-00 00 50 0210 01986 5090 444397 350057 195"
"160.24713"
"$GPGGA,055548,2506.6077,N,08012.9091,W,1,9,1.7,17,"
"##MN-00 00 48 0211 01982 5091 444379 350054 195"
"160.247176"
"$GPGGA,055552,2506.6077,N,08012.9069,W,1,9,1.7,17,"
"##MN-00 00 47 0212 01983 5091 444344 350049 195"
"160.247222"
"$GPGGA,055556,2506.6078,N,08012.9046,W,1,9,1.7,16,"
"##MN-00 00 46 0213 01984 5092 444312 350035 195"
"160.247269"
"$GPGGA,055600,2506.6079,N,08012.9024,W,1,9,1.7,16,"
"##MN-00 00 46 0213 01982 5093 444310 350034 195"
"160.247315"
"$GPGGA,055604,2506.6080,N,08012.9003,W,1,9,1.7,16,"
"##MN-00 00 46 0214 01983 5093 444312 350033 195"
"160.247361"
"$GPGGA,055608,2506.6080,N,08012.8981,W,1,9,1.7,16,"
"##MN-00 00 46 0215 01984 5094 444337 350038 195"
"160.247407"
"$GPGGA,055612,2506.6080,N,08012.8959,W,1,9,1.7,16,"
"##MN-00 00 46 0216 01981 5095 444328 350040 195"
"160.247454"
"$GPGGA,055616,2506.6080,N,08012.8937,W,1,9,1.7,16,"
"##MN-00 00 46 0217 01984 5096 444339 350038 195"
"160.2475"
"$GPGGA,055620,2506.6079,N,08012.8915,W,1,9,1.7,16,"
"##MN-00 00 46 0218 01981 5096 444368 350043 195"
"160.247546"
"$GPGGA,055624,2506.6077,N,08012.8893,W,1,9,1.7,16,"
"##MN-00 00 46 0218 01982 5097 444400 350054 195"
"160.247593"
"$GPGGA,055628,2506.6077,N,08012.8870,W,1,9,1.7,16,"
"##MN-00 00 46 0219 01983 5098 444414 350056 195"
"160.247639"
"$GPGGA,055632,2506.6077,N,08012.8849,W,1,9,1.7,16,"
"##MN-00 00 46 0220 01982 5099 444420 350064 195"
"160.247685"
"$GPGGA,055636,2506.6077,N,08012.8827,W,1,9,1.7,16,"
"##MN-00 00 46 0221 01982 5099 444394 350062 195"
"160.247731"
"$GPGGA,055640,2506.6077,N,08012.8806,W,1,9,1.7,16,"
"##MN-00 00 46 0222 01982 5100 444280 350025 195"
"160.247778"
"$GPGGA,055644,2506.6077,N,08012.8784,W,1,9,1.7,16,"
"##MN-00 00 46 0223 01982 5100 444081 349991 195"
"160.247824"
"$GPGGA,055649,2506.6074,N,08012.8757,W,1,9,1.7,16,"
"##MN-00 00 46 0224 01983 5101 443974 349965 195"
"160.24787"
"$GPGGA,055653,2506.6075,N,08012.8735,W,1,9,1.7,16,"
"##MN-00 00 46 0224 01982 5102 443910 349970 195"
"160.247917"
"$GPGGA,055657,2506.6074,N,08012.8713,W,1,9,1.7,15,"
"##MN-00 00 46 0225 01984 5103 443884 349946 195"
"160.247963"
"$GPGGA,055701,2506.6074,N,08012.8691,W,1,9,1.7,15,"
"##MN-00 00 46 0226 01983 5103 443883 349939 195"
"160.248009"
"$GPGGA,055705,2506.6073,N,08012.8669,W,1,9,1.7,15,"
"##MN-00 00 46 0227 01983 5104 443936 349937 195"
"160.248056"
"$GPGGA,055709,2506.6073,N,08012.8647,W,1,9,1.7,15,"
"##MN-00 00 46 0228 01983 5105 444041 349949 195"
"160.248102"
"$GPGGA,055713,2506.6073,N,08012.8626,W,1,9,1.7,15,"
"##MN-00 00 46 0229 01982 5105 444123 349963 195"
"160.248148"
"$GPGGA,055717,2506.6073,N,08012.8605,W,1,9,1.7,14,"
"##MN+00 00 46 0229 01983 5106 444209 349984 195"
"160.248194"
"$GPGGA,055721,2506.6073,N,08012.8584,W,1,9,1.7,14,"
"##MN+00 00 46 0230 01982 5106 444232 349999 194"
"160.248241"
"$GPGGA,055725,2506.6073,N,08012.8562,W,1,9,1.7,14,"
"##MN+00 00 46 0231 01982 5107 444210 350000 194"
"160.248287"
"$GPGGA,055729,2506.6073,N,08012.8540,W,1,9,1.7,14,"
"##MN-00 00 46 0232 01982 5108 444199 350002 195"
"160.248333"
"$GPGGA,055733,2506.6073,N,08012.8519,W,1,9,1.7,14,"
"##MN-00 00 46 0233 01980 5109 444185 350002 195"
"160.24838"
"$GPGGA,055737,2506.6073,N,08012.8498,W,1,9,1.7,14,"
"##MN-00 00 46 0234 01981 5109 444176 349994 195"
"160.248426"
"$GPGGA,055741,2506.6073,N,08012.8477,W,1,9,1.7,13,"
"##MN+00 00 46 0235 01982 5110 444172 349995 195"
"160.248472"
"$GPGGA,055745,2506.6071,N,08012.8455,W,1,9,1.7,13,"
"##MN+00 00 46 0235 01982 5110 444167 349997 194"
"160.248519"
"$GPGGA,055749,2506.6073,N,08012.8435,W,1,9,1.7,13,"
"##MN+00 00 55 0236 01983 5111 444214 350010 194"
"160.248565"
"#increment_net"
"$GPGGA,055753,2506.6072,N,08012.8413,W,1,9,1.7,13,"
"##MN-00 00 54 0237 01983 5112 444254 350023 194"
"160.248611"
"$GPGGA,055757,2506.6070,N,08012.8391,W,1,9,1.7,13,"
"##MN-00 00 50 0238 01989 5112 444279 350030 195"
"160.248657"
"$GPGGA,055801,2506.6069,N,08012.8369,W,1,9,1.7,13,"
"##MN-00 00 46 0240 01994 5113 444308 350043 194"
"160.248704"
"$GPGGA,055805,2506.6068,N,08012.8349,W,1,9,1.7,13,"
"##MN-00 00 44 0241 01997 5114 444375 350061 195"
"160.24875"
"$GPGGA,055809,2506.6068,N,08012.8328,W,1,9,1.7,13,"
"##MN-00 00 42 0242 02002 5114 444532 350082 194"
"160.248796"
"$GPGGA,055813,2506.6066,N,08012.8306,W,1,9,1.7,13,"
"##MN-00 00 41 0243 02005 5115 444649 350136 194"
"160.248843"
"$GPGGA,055817,2506.6064,N,08012.8285,W,1,9,1.7,13,"
"##MN-00 00 41 0244 02004 5115 444751 350185 194"
"160.248889"
"$GPGGA,055821,2506.6062,N,08012.8263,W,1,9,1.7,13,"
"##MN-00 00 41 0245 02004 5116 444783 350203 194"
"160.248935"
"$GPGGA,055825,2506.6061,N,08012.8241,W,1,9,1.7,13,"
"##MN-00 00 41 0246 01994 5116 444795 350210 194"
"160.248993"
"$GPGGA,055829,2506.6059,N,08012.8220,W,1,8,1.7,14,"
"##MN-00 00 41 0248 01984 5117 444806 350223 194"
"160.249039"
"$GPGGA,055833,2506.6060,N,08012.8199,W,1,9,1.7,14,"
"##MN-00 00 41 0249 01980 5118 444739 350219 194"
"160.249086"
"$GPGGA,055837,2506.6061,N,08012.8178,W,1,9,1.7,14,"
"##MN-00 00 40 0250 01971 5118 444657 350199 194"
"160.249132"
"$GPGGA,055841,2506.6061,N,08012.8155,W,1,8,1.9,14,"
"##MN-00 00 39 0251 01965 5119 444515 350165 194"
"160.249178"
"$GPGGA,055845,2506.6059,N,08012.8133,W,1,9,1.7,15,"
"##MN-00 00 41 0253 01955 5120 444222 350090 194"
"160.249225"
"$GPGGA,055849,2506.6057,N,08012.8110,W,1,8,1.9,15,"
"##MN-00 00 41 0254 01948 5120 443553 349928 194"
"160.249271"
"$GPGGA,055853,2506.6055,N,08012.8088,W,1,8,1.9,15,"
"##MN-00 00 40 0255 01937 5121 442503 349692 194"
"160.249317"
"$GPGGA,055857,2506.6053,N,08012.8066,W,1,9,1.7,15,"
"##MN-00 00 41 0256 01930 5122 441814 349537 194"
"160.249363"
"$GPGGA,055901,2506.6051,N,08012.8044,W,1,9,1.7,15,"
"##MN-00 00 41 0257 01920 5122 441247 349396 194"
"160.24941"
"$GPGGA,055905,2506.6049,N,08012.8022,W,1,9,1.7,15,"
"##MN-00 00 42 0259 01913 5123 439352 348845 194"
"160.249456"
"$GPGGA,055909,2506.6046,N,08012.8000,W,1,9,1.9,15,"
"##MN-00 00 42 0260 01901 5123 436577 348081 194"
"160.249502"
"$GPGGA,055913,2506.6044,N,08012.7977,W,1,9,1.7,16,"
"##MN-00 00 41 0261 01893 5124 435303 347527 194"
"160.249549"
"$GPGGA,055917,2506.6040,N,08012.7955,W,1,9,1.9,16,"
"##MN-00 00 40 0262 01884 5125 434607 347215 194"
"160.249595"
"$GPGGA,055921,2506.6037,N,08012.7932,W,1,9,1.9,16,"
"##MN-00 00 40 0263 01878 5125 434327 347222 194"
"160.249641"
"$GPGGA,055925,2506.6033,N,08012.7909,W,1,9,1.9,16,"
"##MN-00 00 39 0264 01867 5126 434110 346948 194"
"160.249687"
"$GPGGA,055929,2506.6032,N,08012.7888,W,1,8,1.7,16,"
"##MN-00 00 40 0265 01867 5126 433997 346771 194"
"160.249734"
"$GPGGA,055933,2506.6030,N,08012.7865,W,1,9,1.7,16,"
"##MN-00 00 40 0266 01864 5127 433952 346721 194"
"160.24978"
"$GPGGA,055937,2506.6028,N,08012.7843,W,1,9,1.7,16,"
"##MN-00 00 36 0267 01865 5128 433935 346692 194"
"160.249826"
"$GPGGA,055941,2506.6026,N,08012.7826,W,1,9,1.7,16,"
"##MN-00 00 42 0268 01864 5128 433951 346687 194"
"160.249873"
"$GPGGA,055945,2506.6022,N,08012.7799,W,1,9,1.7,16,"
"##MN-00 00 40 0269 01865 5129 440149 553634 194"
"160.249919"
"$GPGGA,055949,2506.6019,N,08012.7776,W,1,9,1.7,16,"
"##MN-00 00 36 0269 01864 5130 453674 835649 194"
"160.249965"
"$GPGGA,055953,2506.6017,N,08012.7752,W,1,9,1.7,17,"
"##MN-00 00 34 0269 01864 5130 459736 831001 194"
"160.250012"
"$GPGGA,055957,2506.6012,N,08012.7729,W,1,9,1.7,17,"
"##MN-00 00 36 0269 01864 5131 462468 894387 194"
