" Tow: L11s-B   RVWS/WS1406"
" Date: 06/08/2014"
" Temperature Probe #  2597    Conductivity Probe #  2870"
" Pressure Probe #  109"
" Flow Meter Calibration  4.71 (m/count)  "
"160.261007"
"$GPGGA,061543,2506.6417,N,08011.3474,W,1,9,1.6,19,"
"##MN-00 00 30 0084 01859 5143 457275 913035 195"
"160.261053"
"$GPGGA,061551,2506.6421,N,08011.3394,W,1,9,1.6,19,"
"##MN-00 00 34 0084 01858 5144 450903 923854 195"
"160.2611"
"$GPGGA,061555,2506.6426,N,08011.3355,W,1,9,1.6,19,"
"##MN-00 00 35 0084 01859 5146 450882 923952 195"
"160.261146"
"$GPGGA,061559,2506.6420,N,08011.3319,W,1,8,1.8,19,"
"##MN-00 00 49 0084 01860 5147 450124 924114 195"
"160.261192"
"$GPGGA,061603,2506.6423,N,08011.3282,W,1,7,2.0,19,"
"##MN-00 00 45 0084 01858 5148 448519 828604 195"
"160.261238"
"$GPGGA,061607,2506.6420,N,08011.3245,W,1,9,1.6,19,"
"##MN-00 00 48 0085 01859 5149 433636 348088 195"
"160.261285"
"$GPGGA,061611,2506.6424,N,08011.3211,W,1,9,1.6,20,"
"##MN-00 00 51 0085 01863 5151 433303 346864 195"
"160.261331"
"$GPGGA,061615,2506.6431,N,08011.3175,W,1,9,1.6,20,"
"##MN-00 00 51 0086 01862 5152 433064 346658 195"
"160.261377"
"$GPGGA,061619,2506.6434,N,08011.3142,W,1,9,1.6,20,"
"##MN-00 00 55 0086 01862 5153 433094 346699 195"
"160.261424"
"$GPGGA,061623,2506.6435,N,08011.3108,W,1,9,1.6,20,"
"##MN-00 00 53 0087 01863 5154 433040 346583 195"
"160.26147"
"$GPGGA,061627,2506.6438,N,08011.3075,W,1,8,1.8,21,"
"##MN-00 00 55 0088 01864 5156 432999 346666 195"
"160.261516"
"$GPGGA,061631,2506.6438,N,08011.3041,W,1,9,1.6,21,"
"##MN-00 00 55 0089 01864 5156 432996 346601 195"
"160.261563"
"$GPGGA,061635,2506.6438,N,08011.3007,W,1,9,1.6,21,"
"##MN-00 00 55 0090 01870 5157 432955 346583 195"
"160.261609"
"$GPGGA,061639,2506.6441,N,08011.2976,W,1,7,1.9,21,"
"##MN-00 00 54 0091 01874 5158 432961 346584 195"
"160.261655"
"$GPGGA,061643,2506.6442,N,08011.2943,W,1,9,1.6,21,"
"##MN-00 00 54 0091 01881 5159 432928 346492 195"
"160.261701"
"$GPGGA,061647,2506.6448,N,08011.2914,W,1,8,1.8,21,"
"##MN-00 00 54 0092 01882 5160 432963 346471 195"
"160.261748"
"$GPGGA,061651,2506.6450,N,08011.2884,W,1,9,1.6,21,"
"##MN-00 00 54 0093 01886 5161 433230 346543 195"
"160.261794"
"$GPGGA,061655,2506.6452,N,08011.2853,W,1,9,1.6,21,"
"##MN-00 00 55 0094 01891 5162 433270 346572 195"
"160.26184"
"$GPGGA,061659,2506.6452,N,08011.2821,W,1,9,1.6,21,"
"##MN-00 00 54 0095 01897 5163 433343 346572 195"
"160.261887"
"$GPGGA,061703,2506.6448,N,08011.2788,W,1,9,1.6,21,"
"##MN-00 00 55 0096 01900 5163 433354 346564 195"
"160.261933"
"$GPGGA,061707,2506.6445,N,08011.2756,W,1,9,1.6,21,"
"##MN-00 00 55 0096 01904 5164 433388 346582 195"
"160.261979"
"$GPGGA,061711,2506.6446,N,08011.2726,W,1,8,1.8,21,"
"##MN-00 00 55 0097 01908 5165 433453 346586 195"
"160.262025"
"$GPGGA,061715,2506.6445,N,08011.2695,W,1,8,1.8,21,"
"##MN-00 00 54 0098 01912 5165 433624 346613 195"
"160.262072"
"$GPGGA,061719,2506.6440,N,08011.2662,W,1,8,1.7,21,"
"##MN-00 00 55 0099 01916 5166 434090 346709 195"
"160.262118"
"$GPGGA,061724,2506.6441,N,08011.2622,W,1,9,1.7,22,"
"##MN-00 00 55 0100 01919 5167 434585 346832 195"
"160.262164"
"$GPGGA,061727,2506.6442,N,08011.2601,W,1,9,1.6,22,"
"##MN-00 00 56 0101 01922 5168 435031 347027 195"
"160.262211"
"$GPGGA,061731,2506.6447,N,08011.2573,W,1,9,1.6,22,"
"##MN-00 00 55 0102 01928 5169 435446 347131 195"
"160.262257"
"$GPGGA,061735,2506.6449,N,08011.2543,W,1,8,1.7,22,"
"##MN-00 00 56 0103 01932 5169 435675 347287 195"
"160.262303"
"$GPGGA,061739,2506.6451,N,08011.2513,W,1,9,1.6,21,"
"##MN-00 00 55 0103 01935 5170 436570 347489 195"
"160.26235"
"$GPGGA,061743,2506.6456,N,08011.2485,W,1,9,1.6,21,"
"##MN-00 00 55 0104 01939 5171 436752 347618 195"
"160.262396"
"$GPGGA,061747,2506.6460,N,08011.2456,W,1,9,1.6,21,"
"##MN-00 00 56 0105 01943 5172 436926 347631 195"
"160.262442"
"$GPGGA,061752,2506.6466,N,08011.2421,W,1,8,2.0,21,"
"##MN-00 00 56 0106 01951 5173 437209 347755 195"
"160.262488"
"$GPGGA,061756,2506.6467,N,08011.2392,W,1,9,1.6,21,"
"##MN-00 00 55 0107 01954 5173 437422 347777 195"
"160.262535"
"$GPGGA,061800,2506.6469,N,08011.2364,W,1,9,1.6,21,"
"##MN-00 00 56 0108 01959 5174 437574 347893 195"
"160.262581"
"$GPGGA,061803,2506.6468,N,08011.2342,W,1,9,1.6,21,"
"##MN-00 00 56 0109 01965 5175 437607 347937 195"
"160.262627"
"$GPGGA,061808,2506.6467,N,08011.2305,W,1,8,1.7,20,"
"##MN-00 00 56 0110 01969 5176 437684 347932 195"
"160.262674"
"$GPGGA,061812,2506.6470,N,08011.2278,W,1,9,1.7,20,"
"##MN-00 00 56 0111 01975 5177 437755 347971 195"
"160.26272"
"$GPGGA,061816,2506.6471,N,08011.2253,W,1,8,1.6,20,"
"##MN-00 00 56 0112 01978 5178 437803 347976 195"
"160.262766"
"$GPGGA,061820,2506.6469,N,08011.2224,W,1,9,2.0,20,"
"##MN-00 00 54 0113 01977 5178 437857 347974 195"
"160.262812"
"$GPGGA,061824,2506.6471,N,08011.2199,W,1,7,1.6,20,"
"##MN-00 00 52 0114 01975 5179 438007 348032 195"
"160.262859"
"$GPGGA,061828,2506.6474,N,08011.2175,W,1,9,1.6,20,"
"##MN-00 00 56 0114 01975 5180 437995 348058 195"
"160.262905"
"$GPGGA,061832,2506.6475,N,08011.2149,W,1,8,1.6,20,"
"##MN-00 00 54 0115 01976 5181 437932 348061 195"
"160.262951"
"$GPGGA,061836,2506.6475,N,08011.2122,W,1,9,1.6,21,"
"##MN-00 00 54 0116 01978 5181 437949 348064 195"
"160.262998"
"$GPGGA,061840,2506.6477,N,08011.2096,W,1,9,1.6,21,"
"##MN-00 00 54 0117 01982 5182 438003 348074 195"
"160.263044"
"$GPGGA,061844,2506.6478,N,08011.2071,W,1,8,1.6,21,"
"##MN-00 00 55 0118 01982 5183 438055 348092 195"
"160.26309"
"$GPGGA,061848,2506.6480,N,08011.2045,W,1,8,1.6,21,"
"##MN-00 00 53 0119 01985 5184 438094 348101 195"
"160.263137"
"$GPGGA,061852,2506.6481,N,08011.2019,W,1,9,1.6,21,"
"##MN-00 00 53 0120 01985 5184 438151 348110 195"
"160.263183"
"$GPGGA,061856,2506.6484,N,08011.1991,W,1,9,1.6,20,"
"##MN-00 00 53 0121 01989 5185 438184 348125 195"
"160.263229"
"$GPGGA,061900,2506.6486,N,08011.1965,W,1,8,1.6,20,"
"##MN-00 00 52 0122 01989 5186 438199 348138 195"
"160.263275"
"$GPGGA,061904,2506.6491,N,08011.1941,W,1,9,1.6,20,"
"##MN-00 00 51 0123 01986 5187 438218 348142 195"
"160.263322"
"$GPGGA,061908,2506.6495,N,08011.1914,W,1,9,1.6,20,"
"##MN-00 00 51 0124 01988 5188 438222 348148 195"
"160.263368"
"$GPGGA,061912,2506.6499,N,08011.1889,W,1,8,1.6,20,"
"##MN-00 00 52 0124 01990 5188 438203 348150 195"
"160.263414"
"$GPGGA,061916,2506.6501,N,08011.1867,W,1,9,1.7,20,"
"##MN-00 00 51 0125 01991 5189 438209 348154 195"
"160.263461"
"$GPGGA,061920,2506.6505,N,08011.1845,W,1,9,1.6,20,"
"##MN-00 00 51 0126 01992 5190 438247 348160 195"
"160.263507"
"$GPGGA,061924,2506.6509,N,08011.1822,W,1,9,1.6,20,"
"##MN-00 00 51 0127 01994 5191 438301 348171 195"
"160.263553"
"$GPGGA,061928,2506.6511,N,08011.1797,W,1,9,1.6,20,"
"##MN-00 00 50 0128 01994 5191 438364 348192 195"
"160.263611"
"$GPGGA,061932,2506.6516,N,08011.1774,W,1,7,1.6,20,"
"##MN-00 00 50 0129 01994 5192 438389 348195 195"
"160.263657"
"$GPGGA,061936,2506.6521,N,08011.1747,W,1,8,1.6,20,"
"##MN-00 00 48 0129 01996 5193 438345 348193 195"
"160.263704"
"$GPGGA,061940,2506.6524,N,08011.1728,W,1,8,1.6,19,"
"##MN-00 00 49 0130 01996 5193 438271 348182 195"
"160.26375"
"$GPGGA,061944,2506.6528,N,08011.1715,W,1,8,1.6,19,"
"##MN-00 00 48 0131 01995 5194 438230 348172 195"
"160.263796"
"$GPGGA,061948,2506.6534,N,08011.1693,W,1,8,1.6,19,"
"##MN-00 00 49 0132 01992 5195 438230 348169 195"
"160.263843"
"$GPGGA,061952,2506.6543,N,08011.1674,W,1,9,1.7,19,"
"##MN-00 00 48 0133 01991 5195 438255 348173 195"
"160.263889"
"$GPGGA,061956,2506.6548,N,08011.1651,W,1,9,1.6,19,"
"##MN-00 00 47 0133 01989 5196 438279 348178 195"
"160.263935"
"$GPGGA,062000,2506.6553,N,08011.1627,W,1,9,1.6,20,"
"##MN-00 00 46 0134 01987 5197 438285 348180 195"
"160.263981"
"$GPGGA,062004,2506.6554,N,08011.1604,W,1,9,1.6,20,"
"##MN-00 00 46 0135 01989 5198 438262 348175 195"
"160.264028"
"$GPGGA,062008,2506.6560,N,08011.1582,W,1,8,1.7,19,"
"##MN-00 00 48 0136 01988 5199 438281 348179 195"
"160.264074"
"$GPGGA,062012,2506.6567,N,08011.1561,W,1,9,1.6,19,"
"##MN-00 00 48 0137 01988 5199 438286 348181 195"
"160.26412"
"$GPGGA,062016,2506.6572,N,08011.1538,W,1,9,1.6,19,"
"##MN-00 00 47 0137 01993 5200 438308 348186 195"
"160.264167"
"$GPGGA,062020,2506.6575,N,08011.1516,W,1,9,1.6,19,"
"##MN-00 00 47 0138 01991 5201 438348 348195 195"
"160.264213"
"$GPGGA,062024,2506.6579,N,08011.1494,W,1,9,1.6,19,"
"##MN-00 00 46 0139 01991 5201 438356 348194 195"
"160.264259"
"$GPGGA,062028,2506.6583,N,08011.1473,W,1,9,1.6,19,"
"##MN-00 00 46 0140 01991 5202 438355 348196 195"
"160.264306"
"$GPGGA,062032,2506.6586,N,08011.1452,W,1,8,1.7,19,"
"##MN-00 00 46 0140 01993 5203 438380 348204 195"
"160.264352"
"$GPGGA,062036,2506.6590,N,08011.1432,W,1,8,1.7,19,"
"##MN-00 00 46 0141 01992 5204 438444 348211 195"
"160.264398"
"$GPGGA,062040,2506.6594,N,08011.1411,W,1,9,1.7,19,"
"##MN-00 00 44 0142 01989 5204 438533 348216 195"
"160.264444"
"$GPGGA,062044,2506.6597,N,08011.1391,W,1,8,1.7,19,"
"##MN-00 00 44 0143 01984 5205 438472 348231 195"
"160.264491"
"$GPGGA,062048,2506.6601,N,08011.1372,W,1,8,1.6,19,"
"##MN-00 00 44 0144 01978 5206 438299 348208 195"
"160.264537"
"$GPGGA,062052,2506.6604,N,08011.1353,W,1,9,1.6,19,"
"##MN-00 00 45 0144 01976 5206 438194 348187 195"
"160.264583"
"$GPGGA,062056,2506.6606,N,08011.1334,W,1,9,1.6,19,"
"##MN-00 00 45 0145 01975 5207 438164 348171 195"
"160.26463"
"$GPGGA,062100,2506.6608,N,08011.1316,W,1,9,1.6,19,"
"##MN-00 00 45 0146 01976 5208 438158 348171 195"
"160.264676"
"$GPGGA,062104,2506.6611,N,08011.1305,W,1,9,1.6,19,"
"##MN+00 00 46 0147 01974 5208 438155 348174 195"
"160.264722"
"$GPGGA,062108,2506.6612,N,08011.1289,W,1,9,1.6,19,"
"##MN+00 00 46 0148 01972 5209 438142 348175 195"
"160.264769"
"$GPGGA,062112,2506.6612,N,08011.1273,W,1,9,1.7,19,"
"##MN+00 00 45 0148 01970 5210 438094 348171 195"
"160.264815"
"$GPGGA,062116,2506.6613,N,08011.1257,W,1,9,1.7,19,"
"##MN-00 00 46 0149 01967 5211 438016 348153 193"
"160.264861"
"$GPGGA,062120,2506.6610,N,08011.1241,W,1,9,1.6,19,"
"##MN-00 00 46 0150 01964 5211 437932 348144 193"
"160.264907"
"$GPGGA,062124,2506.6605,N,08011.1225,W,1,9,1.7,19,"
"##MN-00 00 49 0151 01967 5212 437884 348113 193"
"160.264954"
"$GPGGA,062128,2506.6598,N,08011.1208,W,1,8,1.7,19,"
"##MN-00 00 49 0152 01965 5213 437880 348111 193"
"160.265"
"$GPGGA,062132,2506.6591,N,08011.1193,W,1,8,1.7,19,"
"##MN-00 00 50 0153 01964 5214 437885 348114 193"
"160.265046"
"$GPGGA,062136,2506.6583,N,08011.1179,W,1,8,1.7,19,"
"##MN-00 00 51 0154 01961 5214 437886 348110 193"
"160.265093"
"$GPGGA,062140,2506.6576,N,08011.1164,W,1,9,1.7,19,"
"##MN-00 00 51 0155 01956 5215 437870 348111 193"
"160.265139"
"$GPGGA,062144,2506.6572,N,08011.1149,W,1,9,1.6,19,"
"##MN-00 00 53 0156 01955 5216 437853 348113 193"
"160.265185"
"$GPGGA,062148,2506.6565,N,08011.1134,W,1,9,1.6,19,"
"##MN-00 00 54 0157 01953 5216 437847 348111 193"
"160.265231"
"$GPGGA,062152,2506.6557,N,08011.1119,W,1,9,1.6,19,"
"##MN-00 00 55 0158 01952 5217 437844 348114 193"
"160.265278"
"$GPGGA,062156,2506.6548,N,08011.1101,W,1,9,1.6,19,"
"##MN-00 00 55 0159 01949 5218 437815 348112 193"
"160.265324"
"$GPGGA,062200,2506.6541,N,08011.1081,W,1,9,1.6,19,"
"##MN-00 00 57 0160 01950 5218 437779 348106 193"
"160.26537"
"$GPGGA,062205,2506.6539,N,08011.1056,W,1,9,1.6,20,"
"##MN-00 00 57 0161 01949 5219 437757 348099 193"
"160.265417"
"$GPGGA,062208,2506.6534,N,08011.1040,W,1,9,1.7,20,"
"##MN-00 00 58 0162 01951 5220 437752 348097 193"
"160.265463"
"$GPGGA,062212,2506.6530,N,08011.1019,W,1,9,1.6,20,"
"##MN-00 00 58 0164 01952 5220 437744 348091 193"
"160.265509"
"$GPGGA,062216,2506.6523,N,08011.0996,W,1,8,1.6,20,"
"##MN-00 00 58 0165 01953 5221 437717 348089 193"
"160.265556"
"$GPGGA,062220,2506.6514,N,08011.0972,W,1,9,1.6,20,"
"##MN-00 00 57 0166 01952 5222 437723 348081 193"
"160.265602"
"$GPGGA,062224,2506.6507,N,08011.0947,W,1,9,1.6,21,"
"##MN-00 00 59 0167 01953 5222 437753 348082 193"
"160.265648"
"$GPGGA,062228,2506.6502,N,08011.0924,W,1,8,1.7,21,"
"##MN-00 00 58 0168 01956 5223 437773 348082 193"
"160.265694"
"$GPGGA,062232,2506.6497,N,08011.0901,W,1,9,1.7,21,"
"##MN-00 00 58 0169 01955 5224 437785 348082 193"
"160.265741"
"$GPGGA,062237,2506.6488,N,08011.0870,W,1,9,1.6,21,"
"##MN-00 00 58 0170 01958 5224 437784 348084 193"
"160.265787"
"$GPGGA,062241,2506.6478,N,08011.0845,W,1,9,1.6,21,"
"##MN-00 00 58 0171 01959 5225 437771 348082 193"
"160.265833"
"$GPGGA,062245,2506.6474,N,08011.0822,W,1,9,1.6,21,"
"##MN-00 00 60 0172 01956 5226 437763 348082 193"
"160.26588"
"$GPGGA,062249,2506.6464,N,08011.0797,W,1,9,1.6,21,"
"##MN-00 00 59 0174 01956 5227 437753 348077 193"
"160.265926"
"$GPGGA,062253,2506.6457,N,08011.0772,W,1,9,1.6,21,"
"##MN-00 00 60 0175 01958 5227 437740 348064 193"
"160.265972"
"$GPGGA,062257,2506.6449,N,08011.0747,W,1,9,1.6,21,"
"##MN-00 00 60 0176 01958 5228 437753 348058 193"
"160.266019"
"$GPGGA,062301,2506.6441,N,08011.0722,W,1,9,1.6,21,"
"##MN-00 00 61 0177 01959 5228 437780 348063 193"
"160.266065"
"$GPGGA,062305,2506.6433,N,08011.0696,W,1,8,1.6,20,"
"##MN-00 00 59 0178 01963 5229 437803 348066 193"
"160.266111"
"$GPGGA,062309,2506.6425,N,08011.0670,W,1,9,1.6,20,"
"##MN-00 00 60 0179 01963 5230 437816 348069 193"
"160.266157"
"$GPGGA,062313,2506.6418,N,08011.0645,W,1,9,1.6,20,"
"##MN-00 00 60 0180 01966 5230 437826 348070 193"
"160.266204"
"$GPGGA,062317,2506.6410,N,08011.0618,W,1,9,1.6,20,"
"##MN-00 00 60 0182 01966 5231 437829 348075 193"
"160.26625"
"$GPGGA,062321,2506.6402,N,08011.0591,W,1,9,1.6,19,"
"##MN-00 00 60 0183 01967 5232 437830 348077 193"
"160.266296"
"$GPGGA,062325,2506.6396,N,08011.0570,W,1,9,1.6,19,"
"##MN-00 00 60 0184 01967 5233 437848 348076 193"
"160.266343"
"$GPGGA,062329,2506.6386,N,08011.0537,W,1,9,1.6,19,"
"##MN-00 00 59 0185 01968 5233 437871 348084 193"
"160.266389"
"$GPGGA,062333,2506.6380,N,08011.0510,W,1,9,1.6,19,"
"##MN-00 00 60 0186 01968 5234 437880 348087 193"
"160.266435"
"$GPGGA,062337,2506.6373,N,08011.0483,W,1,9,1.6,18,"
"##MN-00 00 60 0188 01967 5235 437884 348089 193"
"160.266481"
"$GPGGA,062341,2506.6366,N,08011.0455,W,1,9,1.6,18,"
"##MN+00 00 60 0189 01968 5236 437891 348092 193"
"160.266528"
"$GPGGA,062345,2506.6360,N,08011.0429,W,1,8,1.6,18,"
"##MN+00 00 60 0190 01967 5236 437893 348093 194"
"160.266574"
"$GPGGA,062349,2506.6355,N,08011.0402,W,1,9,1.6,18,"
"##MN+00 00 69 0191 01969 5237 437884 348096 195"
"160.26662"
"#increment_net"
"$GPGGA,062353,2506.6351,N,08011.0377,W,1,7,1.9,18,"
"##MN-00 00 61 0192 01968 5238 437908 348107 195"
"160.266667"
"$GPGGA,062357,2506.6345,N,08011.0348,W,1,9,1.6,18,"
"##MN-00 00 59 0193 01966 5238 437921 348117 195"
"160.266713"
"$GPGGA,062401,2506.6342,N,08011.0319,W,1,9,1.6,18,"
"##MN-00 00 58 0195 01963 5239 437886 348116 195"
"160.266759"
"$GPGGA,062405,2506.6339,N,08011.0289,W,1,9,1.6,18,"
"##MN-00 00 58 0196 01962 5240 437835 348114 195"
"160.266817"
"$GPGGA,062409,2506.6337,N,08011.0260,W,1,9,1.6,18,"
"##MN-00 00 59 0197 01964 5240 437756 348085 195"
"160.266863"
"$GPGGA,062413,2506.6334,N,08011.0231,W,1,9,1.6,18,"
"##MN-00 00 59 0198 01966 5241 437753 348078 195"
"160.26691"
"$GPGGA,062417,2506.6331,N,08011.0202,W,1,9,1.6,19,"
"##MN-00 00 60 0199 01965 5241 437812 348079 195"
"160.266956"
"$GPGGA,062421,2506.6327,N,08011.0172,W,1,9,1.6,19,"
"##MN-00 00 59 0200 01965 5242 437913 348084 195"
"160.267002"
"$GPGGA,062425,2506.6323,N,08011.0142,W,1,9,1.6,19,"
"##MN-00 00 60 0201 01968 5243 437979 348118 195"
"160.267049"
"$GPGGA,062429,2506.6319,N,08011.0112,W,1,9,1.6,19,"
"##MN-00 00 60 0202 01967 5243 438012 348120 195"
"160.267095"
"$GPGGA,062433,2506.6315,N,08011.0081,W,1,9,1.6,19,"
"##MN-00 00 58 0204 01968 5244 438009 348121 195"
"160.267141"
"$GPGGA,062437,2506.6310,N,08011.0049,W,1,9,1.6,19,"
"##MN-00 00 60 0205 01968 5245 438012 348138 195"
"160.267187"
"$GPGGA,062441,2506.6306,N,08011.0017,W,1,9,1.6,19,"
"##MN-00 00 59 0206 01970 5245 438030 348147 195"
"160.267234"
"$GPGGA,062445,2506.6302,N,08010.9985,W,1,9,1.6,18,"
"##MN-00 00 60 0207 01970 5246 438049 348146 195"
"160.26728"
"$GPGGA,062449,2506.6301,N,08010.9953,W,1,9,1.6,18,"
"##MN-00 00 60 0208 01970 5247 438073 348155 195"
"160.267326"
"$GPGGA,062453,2506.6297,N,08010.9922,W,1,9,1.6,18,"
"##MN-00 00 60 0209 01972 5247 438074 348159 195"
"160.267373"
"$GPGGA,062457,2506.6294,N,08010.9890,W,1,9,1.6,18,"
"##MN-00 00 60 0210 01972 5248 437987 348151 195"
"160.267419"
"$GPGGA,062501,2506.6293,N,08010.9857,W,1,9,1.6,17,"
"##MN-00 00 59 0211 01970 5248 437922 348141 195"
"160.267465"
"$GPGGA,062505,2506.6292,N,08010.9826,W,1,9,1.6,17,"
"##MN-00 00 59 0213 01971 5249 437932 348141 195"
"160.267512"
"$GPGGA,062509,2506.6290,N,08010.9794,W,1,9,1.6,17,"
"##MN-00 00 60 0214 01972 5250 438018 348147 195"
"160.267558"
"$GPGGA,062513,2506.6288,N,08010.9763,W,1,9,1.6,17,"
"##MN-00 00 60 0215 01971 5251 438107 348155 195"
"160.267604"
"$GPGGA,062517,2506.6288,N,08010.9733,W,1,9,1.6,17,"
"##MN-00 00 59 0216 01970 5251 438145 348163 195"
"160.26765"
"$GPGGA,062521,2506.6286,N,08010.9702,W,1,9,1.6,17,"
"##MN-00 00 60 0217 01972 5252 438167 348176 195"
"160.267697"
"$GPGGA,062525,2506.6283,N,08010.9671,W,1,9,1.6,16,"
"##MN-00 00 60 0218 01972 5253 438195 348199 195"
"160.267743"
"$GPGGA,062529,2506.6281,N,08010.9640,W,1,9,1.6,16,"
"##MN+00 00 60 0219 01973 5253 438203 348217 195"
"160.267789"
"$GPGGA,062533,2506.6283,N,08010.9611,W,1,9,1.6,16,"
"##MN+00 00 60 0220 01974 5254 438193 348215 194"
"160.267836"
"$GPGGA,062537,2506.6283,N,08010.9581,W,1,9,1.6,16,"
"##MN+00 00 60 0221 01975 5255 438185 348212 195"
"160.267882"
"$GPGGA,062541,2506.6282,N,08010.9550,W,1,9,1.6,16,"
"##MN-00 00 59 0222 01977 5255 438172 348211 195"
"160.267928"
"$GPGGA,062545,2506.6281,N,08010.9519,W,1,9,1.6,16,"
"##MN-00 00 60 0224 01975 5256 438155 348211 195"
"160.267975"
"$GPGGA,062549,2506.6276,N,08010.9488,W,1,9,1.6,16,"
"##MN-00 00 58 0225 01974 5256 438149 348207 195"
"160.268021"
"$GPGGA,062553,2506.6278,N,08010.9458,W,1,9,1.6,16,"
"##MN+00 00 59 0226 01975 5257 438143 348207 195"
"160.268067"
"$GPGGA,062557,2506.6279,N,08010.9429,W,1,9,1.6,16,"
"##MN+00 00 59 0227 01977 5258 438142 348206 194"
"160.268113"
"$GPGGA,062601,2506.6275,N,08010.9398,W,1,9,1.6,16,"
"##MN+00 00 71 0228 01977 5258 438155 348208 194"
"160.26816"
"#increment_net"
"$GPGGA,062605,2506.6272,N,08010.9366,W,1,9,1.6,17,"
"##MN-00 00 64 0229 01976 5258 438193 348215 194"
"160.268206"
"$GPGGA,062609,2506.6268,N,08010.9335,W,1,9,1.6,17,"
"##MN-00 00 61 0230 01975 5259 438205 348217 195"
"160.268252"
"$GPGGA,062613,2506.6265,N,08010.9302,W,1,9,1.6,17,"
"##MN-00 00 60 0232 01975 5259 438204 348218 195"
"160.268299"
"$GPGGA,062617,2506.6264,N,08010.9270,W,1,9,1.6,17,"
"##MN-00 00 59 0233 01976 5260 438188 348215 195"
"160.268345"
"$GPGGA,062621,2506.6265,N,08010.9237,W,1,9,1.6,17,"
"##MN-00 00 58 0234 01975 5261 438169 348212 195"
"160.268391"
"$GPGGA,062625,2506.6268,N,08010.9203,W,1,9,1.6,17,"
"##MN-00 00 59 0235 01972 5262 438128 348208 195"
"160.268438"
"$GPGGA,062629,2506.6267,N,08010.9170,W,1,8,1.7,17,"
"##MN-00 00 58 0236 01973 5262 438051 348202 195"
"160.268484"
"$GPGGA,062633,2506.6264,N,08010.9138,W,1,8,1.7,17,"
"##MN-00 00 58 0237 01975 5263 437952 348181 195"
"160.26853"
"$GPGGA,062637,2506.6263,N,08010.9108,W,1,9,1.6,17,"
"##MN-00 00 59 0238 01973 5263 437851 348157 195"
"160.268576"
"$GPGGA,062641,2506.6261,N,08010.9077,W,1,9,1.6,17,"
"##MN-00 00 58 0240 01973 5264 437784 348150 194"
"160.268623"
"$GPGGA,062645,2506.6261,N,08010.9045,W,1,9,1.6,17,"
"##MN-00 00 58 0241 01975 5265 437748 348147 195"
"160.268669"
"$GPGGA,062649,2506.6264,N,08010.9011,W,1,9,1.6,17,"
"##MN-00 00 59 0242 01973 5265 437759 348131 195"
"160.268715"
"$GPGGA,062653,2506.6264,N,08010.8980,W,1,9,1.6,17,"
"##MN-00 00 58 0243 01973 5266 437746 348098 194"
"160.268762"
"$GPGGA,062657,2506.6264,N,08010.8948,W,1,9,1.6,17,"
"##MN-00 00 58 0244 01976 5266 437755 348074 194"
"160.268808"
"$GPGGA,062701,2506.6264,N,08010.8916,W,1,9,1.6,17,"
"##MN-00 00 59 0245 01975 5267 437751 348081 194"
"160.268854"
"$GPGGA,062705,2506.6263,N,08010.8884,W,1,9,1.6,17,"
"##MN-00 00 58 0246 01975 5268 437741 348081 194"
"160.2689"
"$GPGGA,062710,2506.6261,N,08010.8846,W,1,9,1.6,17,"
"##MN-00 00 58 0247 01974 5268 437743 348077 194"
"160.268947"
"$GPGGA,062713,2506.6260,N,08010.8824,W,1,9,1.6,17,"
"##MN-00 00 59 0249 01976 5269 437793 348074 194"
"160.268993"
"$GPGGA,062718,2506.6256,N,08010.8785,W,1,9,1.6,17,"
"##MN-00 00 58 0250 01976 5269 437909 348093 194"
"160.269039"
"$GPGGA,062722,2506.6256,N,08010.8755,W,1,9,1.6,17,"
"##MN-00 00 58 0251 01978 5270 437971 348124 194"
"160.269086"
"$GPGGA,062726,2506.6254,N,08010.8725,W,1,9,1.6,17,"
"##MN-00 00 59 0252 01976 5270 438001 348131 194"
"160.269132"
"$GPGGA,062730,2506.6254,N,08010.8695,W,1,9,1.6,17,"
"##MN-00 00 58 0253 01980 5271 438028 348135 194"
"160.269178"
"$GPGGA,062734,2506.6251,N,08010.8666,W,1,9,1.6,17,"
"##MN-00 00 57 0254 01981 5272 438054 348145 194"
"160.269225"
"$GPGGA,062738,2506.6250,N,08010.8636,W,1,9,1.6,17,"
"##MN+00 00 58 0255 01976 5272 438083 348169 194"
"160.269271"
"$GPGGA,062742,2506.6250,N,08010.8607,W,1,9,1.6,16,"
"##MN+00 00 58 0256 01977 5273 438115 348180 194"
"160.269317"
"$GPGGA,062746,2506.6248,N,08010.8578,W,1,9,1.6,16,"
"##MN+00 00 58 0258 01978 5273 438156 348191 195"
"160.269363"
"$GPGGA,062750,2506.6247,N,08010.8549,W,1,9,1.6,16,"
"##MN-00 00 58 0259 01978 5274 438179 348205 194"
"160.26941"
"$GPGGA,062754,2506.6246,N,08010.8519,W,1,9,1.6,16,"
"##MN-00 00 58 0260 01978 5275 438199 348219 194"
"160.269456"
"$GPGGA,062758,2506.6245,N,08010.8490,W,1,9,1.6,16,"
"##MN-00 00 58 0261 01977 5275 438223 348229 194"
"160.269502"
"$GPGGA,062802,2506.6243,N,08010.8461,W,1,9,1.6,16,"
"##MN+00 00 58 0262 01979 5275 438251 348233 194"
"160.269549"
"$GPGGA,062806,2506.6243,N,08010.8431,W,1,9,1.6,16,"
"##MN+00 00 58 0263 01979 5276 438268 348243 194"
"160.269595"
"$GPGGA,062810,2506.6241,N,08010.8402,W,1,9,1.6,16,"
"##MN+00 00 72 0264 01983 5277 438273 348254 194"
"160.269641"
"#increment_net"
"$GPGGA,062814,2506.6238,N,08010.8372,W,1,9,1.6,16,"
"##MN-00 00 63 0265 01984 5277 438278 348252 194"
"160.269687"
"$GPGGA,062818,2506.6236,N,08010.8342,W,1,9,1.6,16,"
"##MN-00 00 57 0266 01980 5278 438280 348254 194"
"160.269734"
"$GPGGA,062822,2506.6236,N,08010.8312,W,1,9,1.6,16,"
"##MN-00 00 57 0268 01980 5278 438258 348260 194"
"160.26978"
"$GPGGA,062826,2506.6235,N,08010.8282,W,1,9,1.6,16,"
"##MN-00 00 56 0269 01978 5279 438247 348260 194"
"160.269826"
"$GPGGA,062830,2506.6232,N,08010.8251,W,1,9,1.6,16,"
"##MN-00 00 57 0270 01975 5280 438258 348263 194"
"160.269873"
"$GPGGA,062834,2506.6232,N,08010.8221,W,1,9,1.6,15,"
"##MN-00 00 56 0271 01974 5280 438227 348257 194"
"160.269919"
"$GPGGA,062838,2506.6229,N,08010.8192,W,1,9,1.6,15,"
"##MN-00 00 56 0272 01973 5281 438085 348232 194"
"160.269965"
"$GPGGA,062842,2506.6228,N,08010.8162,W,1,9,1.6,15,"
"##MN-00 00 57 0274 01973 5281 437960 348190 194"
"160.270012"
"$GPGGA,062846,2506.6229,N,08010.8133,W,1,9,1.6,15,"
"##MN-00 00 56 0275 01976 5282 437955 348180 194"
"160.270069"
"$GPGGA,062850,2506.6229,N,08010.8104,W,1,9,1.6,15,"
"##MN-00 00 56 0276 01975 5282 438002 348180 194"
"160.270116"
"$GPGGA,062854,2506.6230,N,08010.8074,W,1,9,1.6,15,"
"##MN-00 00 56 0277 01974 5283 438045 348192 194"
"160.270162"
"$GPGGA,062858,2506.6231,N,08010.8044,W,1,9,1.6,15,"
"##MN-00 00 56 0278 01974 5283 438067 348198 194"
"160.270208"
"$GPGGA,062902,2506.6231,N,08010.8013,W,1,9,1.6,15,"
"##MN-00 00 56 0279 01975 5284 438065 348200 194"
"160.270255"
"$GPGGA,062906,2506.6231,N,08010.7983,W,1,8,1.7,15,"
"##MN-00 00 55 0280 01977 5284 438101 348202 194"
"160.270301"
"$GPGGA,062910,2506.6230,N,08010.7952,W,1,8,1.7,15,"
"##MN-00 00 56 0281 01975 5285 438150 348215 194"
"160.270347"
"$GPGGA,062914,2506.6228,N,08010.7922,W,1,8,1.7,15,"
"##MN-00 00 56 0282 01976 5286 438104 348216 194"
"160.270394"
"$GPGGA,062918,2506.6228,N,08010.7891,W,1,8,1.7,14,"
"##MN-00 00 56 0284 01974 5286 438074 348210 194"
"160.27044"
"$GPGGA,062922,2506.6227,N,08010.7862,W,1,8,1.7,14,"
"##MN-00 00 57 0285 01974 5286 438070 348211 194"
"160.270486"
"$GPGGA,062926,2506.6225,N,08010.7833,W,1,8,1.7,14,"
"##MN-00 00 57 0286 01975 5287 438092 348212 194"
"160.270532"
"$GPGGA,062930,2506.6223,N,08010.7804,W,1,8,1.7,14,"
"##MN-00 00 56 0287 01974 5288 438103 348214 194"
"160.270579"
"$GPGGA,062934,2506.6223,N,08010.7773,W,1,8,1.7,14,"
"##MN-00 00 56 0288 01977 5288 438070 348214 194"
"160.270625"
"$GPGGA,062938,2506.6224,N,08010.7744,W,1,8,1.7,13,"
"##MN-00 00 56 0289 01975 5289 438046 348202 194"
"160.270671"
"$GPGGA,062942,2506.6224,N,08010.7713,W,1,8,1.7,13,"
"##MN+00 00 56 0290 01974 5289 438051 348198 194"
"160.270718"
"$GPGGA,062946,2506.6223,N,08010.7684,W,1,8,1.7,13,"
"##MN+00 00 55 0292 01974 5290 438059 348200 194"
"160.270764"
"$GPGGA,062950,2506.6223,N,08010.7653,W,1,8,1.7,14,"
"##MN+00 00 55 0293 01975 5290 438064 348198 194"
"160.27081"
"$GPGGA,062954,2506.6225,N,08010.7623,W,1,8,1.7,14,"
"##MN-00 00 56 0294 01976 5291 438055 348194 194"
"160.270856"
"$GPGGA,062958,2506.6225,N,08010.7592,W,1,8,1.7,14,"
"##MN-00 00 56 0295 01976 5291 438045 348190 194"
"160.270903"
"$GPGGA,063002,2506.6225,N,08010.7562,W,1,8,1.7,14,"
"##MN+00 00 55 0296 01975 5292 438046 348188 194"
"160.270949"
"$GPGGA,063006,2506.6225,N,08010.7532,W,1,8,1.7,14,"
"##MN+00 00 56 0297 01976 5292 438047 348187 193"
"160.270995"
"$GPGGA,063010,2506.6225,N,08010.7502,W,1,8,1.7,14,"
"##MN+00 00 69 0298 01978 5293 438039 348185 194"
"160.271042"
"#increment_net"
"$GPGGA,063014,2506.6225,N,08010.7472,W,1,8,1.7,14,"
"##MN-00 00 62 0299 01978 5293 438045 348185 193"
"160.271088"
"$GPGGA,063018,2506.6225,N,08010.7441,W,1,8,1.7,14,"
"##MN-00 00 58 0301 01978 5293 438040 348184 193"
"160.271134"
"$GPGGA,063022,2506.6225,N,08010.7410,W,1,8,1.7,14,"
"##MN-00 00 58 0302 01976 5294 438000 348176 193"
"160.271181"
"$GPGGA,063026,2506.6225,N,08010.7379,W,1,8,1.7,14,"
"##MN-00 00 56 0303 01975 5294 437941 348155 193"
"160.271227"
"$GPGGA,063030,2506.6225,N,08010.7348,W,1,8,1.7,14,"
"##MN-00 00 56 0304 01973 5295 437880 348137 193"
"160.271273"
"$GPGGA,063034,2506.6224,N,08010.7318,W,1,8,1.7,14,"
"##MN-00 00 56 0305 01976 5295 437799 348118 193"
"160.271319"
"$GPGGA,063038,2506.6225,N,08010.7287,W,1,8,1.7,14,"
"##MN-00 00 57 0306 01975 5296 437716 348089 193"
"160.271366"
"$GPGGA,063042,2506.6225,N,08010.7258,W,1,8,1.7,14,"
"##MN-00 00 56 0308 01974 5297 437652 348058 193"
"160.271412"
"$GPGGA,063046,2506.6225,N,08010.7227,W,1,8,1.7,15,"
"##MN-00 00 56 0309 01977 5297 437629 348058 193"
"160.271458"
"$GPGGA,063050,2506.6225,N,08010.7197,W,1,8,1.7,15,"
"##MN-00 00 56 0310 01974 5298 437624 348045 193"
"160.271505"
"$GPGGA,063054,2506.6225,N,08010.7167,W,1,8,1.7,15,"
"##MN-00 00 56 0311 01975 5298 437610 348045 193"
"160.271551"
"$GPGGA,063058,2506.6225,N,08010.7137,W,1,8,1.7,15,"
"##MN-00 00 56 0312 01975 5299 437593 348037 193"
"160.271597"
"$GPGGA,063102,2506.6225,N,08010.7106,W,1,8,1.7,15,"
"##MN-00 00 56 0313 01975 5299 437580 348030 193"
"160.271644"
"$GPGGA,063106,2506.6225,N,08010.7074,W,1,8,1.7,15,"
"##MN-00 00 57 0315 01975 5300 437576 348030 193"
"160.27169"
"$GPGGA,063110,2506.6225,N,08010.7044,W,1,8,1.7,15,"
"##MN-00 00 56 0316 01976 5300 437581 348028 193"
"160.271736"
"$GPGGA,063114,2506.6223,N,08010.7014,W,1,8,1.7,15,"
"##MN-00 00 56 0317 01976 5301 437598 348029 193"
"160.271782"
"$GPGGA,063118,2506.6222,N,08010.6984,W,1,8,1.7,15,"
"##MN-00 00 56 0318 01976 5301 437609 348030 193"
"160.271829"
"$GPGGA,063122,2506.6221,N,08010.6961,W,1,8,1.7,15,"
"##MN-00 00 56 0319 01975 5301 437614 348029 193"
"160.271875"
"$GPGGA,063126,2506.6221,N,08010.6923,W,1,8,1.7,15,"
"##MN-00 00 57 0320 01975 5302 437615 348029 193"
"160.271921"
"$GPGGA,063130,2506.6221,N,08010.6893,W,1,8,1.7,15,"
"##MN-00 00 56 0321 01975 5303 437607 348027 193"
"160.271968"
"$GPGGA,063134,2506.6219,N,08010.6870,W,1,8,1.7,15,"
"##MN-00 00 55 0323 01976 5303 437589 348026 193"
"160.272014"
"$GPGGA,063139,2506.6217,N,08010.6826,W,1,8,1.7,15,"
"##MN+00 00 56 0324 01975 5304 437580 348026 193"
"160.27206"
"$GPGGA,063142,2506.6219,N,08010.6803,W,1,7,1.7,15,"
"##MN+00 00 56 0325 01974 5304 437586 348025 193"
"160.272106"
"$GPGGA,063147,2506.6225,N,08010.6765,W,1,7,2.1,15,"
"##MN+00 00 56 0326 01976 5305 437588 348025 193"
"160.272153"
"$GPGGA,063150,2506.6225,N,08010.6743,W,1,8,2.1,15,"
"##MN-00 00 56 0327 01976 5305 437585 348025 193"
"160.272199"
"$GPGGA,063155,2506.6225,N,08010.6705,W,1,8,1.7,15,"
"##MN-00 00 56 0328 01976 5305 437580 348026 193"
"160.272245"
"$GPGGA,063159,2506.6225,N,08010.6675,W,1,8,1.7,15,"
"##MN-00 00 55 0330 01977 5306 437576 348024 193"
"160.272292"
"$GPGGA,063203,2506.6228,N,08010.6647,W,1,7,1.8,15,"
"##MN+00 00 56 0331 01975 5307 437574 348024 193"
"160.272338"
"$GPGGA,063207,2506.6232,N,08010.6622,W,1,8,1.7,16,"
"##MN+00 00 55 0332 01977 5307 437574 348022 193"
"160.272384"
"$GPGGA,063211,2506.6235,N,08010.6594,W,1,8,1.7,16,"
"##MN+00 00 70 0333 01980 5308 437587 348023 193"
"160.272431"
"#increment_net"
"$GPGGA,063215,2506.6236,N,08010.6565,W,1,7,2.1,17,"
"##MN-00 00 65 0334 01983 5308 437615 348028 193"
"160.272477"
"$GPGGA,063219,2506.6232,N,08010.6535,W,1,8,1.7,17,"
"##MN-00 00 60 0336 01987 5309 437648 348035 193"
"160.272523"
"$GPGGA,063223,2506.6226,N,08010.6504,W,1,8,1.7,17,"
"##MN-00 00 60 0337 01995 5309 437717 348058 193"
"160.272569"
"$GPGGA,063227,2506.6223,N,08010.6474,W,1,8,1.7,17,"
"##MN-00 00 58 0339 02000 5309 437855 348084 193"
"160.272616"
"$GPGGA,063231,2506.6221,N,08010.6443,W,1,8,1.7,17,"
"##MN-00 00 56 0340 02004 5309 438071 348152 193"
"160.272662"
"$GPGGA,063235,2506.6223,N,08010.6412,W,1,8,1.7,18,"
"##MN-00 00 56 0341 02001 5310 438259 348237 193"
"160.272708"
"$GPGGA,063239,2506.6221,N,08010.6380,W,1,8,1.7,18,"
"##MN-00 00 55 0343 02003 5310 438252 348232 193"
"160.272755"
"$GPGGA,063243,2506.6216,N,08010.6349,W,1,8,1.7,18,"
"##MN-00 00 56 0344 02000 5311 438195 348220 193"
"160.272801"
"$GPGGA,063247,2506.6214,N,08010.6316,W,1,8,1.7,18,"
"##MN-00 00 56 0346 01999 5311 438136 348202 193"
"160.272847"
"$GPGGA,063251,2506.6212,N,08010.6284,W,1,8,1.7,18,"
"##MN-00 00 55 0347 01996 5312 438012 348177 193"
"160.272894"
"$GPGGA,063255,2506.6209,N,08010.6251,W,1,8,1.7,18,"
"##MN-00 00 57 0349 01994 5312 437934 348145 193"
"160.27294"
"$GPGGA,063259,2506.6207,N,08010.6218,W,1,7,1.8,18,"
"##MN-00 00 55 0350 01992 5312 437875 348142 193"
"160.272986"
"$GPGGA,063303,2506.6204,N,08010.6186,W,1,7,1.8,17,"
"##MN-00 00 55 0351 01988 5313 437813 348114 193"
"160.273032"
"$GPGGA,063307,2506.6200,N,08010.6152,W,1,8,1.7,17,"
"##MN-00 00 55 0353 01988 5314 437710 348070 193"
"160.273079"
"$GPGGA,063311,2506.6197,N,08010.6116,W,1,8,1.7,17,"
"##MN-00 00 55 0354 01984 5314 437631 348046 193"
"160.273125"
"$GPGGA,063315,2506.6196,N,08010.6081,W,1,8,1.7,17,"
"##MN-00 00 54 0356 01981 5315 437564 348023 193"
"160.273171"
"$GPGGA,063319,2506.6195,N,08010.6047,W,1,8,1.7,17,"
"##MN-00 00 54 0357 01977 5315 437494 347993 193"
"160.273218"
"$GPGGA,063323,2506.6192,N,08010.6012,W,1,8,1.7,17,"
"##MN-00 00 54 0359 01975 5316 437421 347973 193"
"160.273264"
"$GPGGA,063327,2506.6190,N,08010.5979,W,1,8,1.7,17,"
"##MN-00 00 54 0360 01973 5316 437378 347957 193"
"160.273322"
"$GPGGA,063331,2506.6189,N,08010.5944,W,1,8,1.7,17,"
"##MN-00 00 56 0362 01971 5317 437372 347954 193"
"160.273368"
"$GPGGA,063335,2506.6185,N,08010.5908,W,1,8,1.7,16,"
"##MN-00 00 55 0363 01967 5317 437363 347955 193"
"160.273414"
"$GPGGA,063339,2506.6184,N,08010.5873,W,1,8,1.7,16,"
"##MN-00 00 55 0365 01962 5317 437311 347942 193"
"160.273461"
"$GPGGA,063343,2506.6179,N,08010.5838,W,1,8,1.7,16,"
"##MN-00 00 54 0366 01961 5318 437265 347915 193"
"160.273507"
"$GPGGA,063347,2506.6178,N,08010.5803,W,1,8,1.7,16,"
"##MN-00 00 54 0368 01957 5318 437224 347905 193"
"160.273553"
"$GPGGA,063351,2506.6176,N,08010.5767,W,1,8,1.7,16,"
"##MN-00 00 56 0369 01953 5319 437189 347897 193"
"160.2736"
"$GPGGA,063355,2506.6174,N,08010.5732,W,1,8,1.7,16,"
"##MN-00 00 54 0371 01952 5320 437138 347887 193"
"160.273646"
"$GPGGA,063359,2506.6172,N,08010.5697,W,1,8,1.7,16,"
"##MN-00 00 56 0372 01948 5320 436970 347859 193"
"160.273692"
"$GPGGA,063403,2506.6172,N,08010.5663,W,1,8,1.7,16,"
"##MN-00 00 55 0374 01945 5320 436805 347818 193"
"160.273738"
"$GPGGA,063407,2506.6174,N,08010.5627,W,1,8,1.7,16,"
"##MN-00 00 55 0375 01943 5321 436716 347769 193"
"160.273785"
"$GPGGA,063411,2506.6174,N,08010.5589,W,1,8,1.7,16,"
"##MN-00 00 55 0377 01937 5321 436718 347753 193"
"160.273831"
"$GPGGA,063415,2506.6174,N,08010.5551,W,1,8,1.7,16,"
"##MN-00 00 54 0378 01937 5322 436727 347751 193"
"160.273877"
"$GPGGA,063419,2506.6172,N,08010.5514,W,1,8,1.7,16,"
"##MN-00 00 55 0380 01930 5322 436714 347732 193"
"160.273924"
"$GPGGA,063423,2506.6172,N,08010.5478,W,1,8,1.7,16,"
"##MN-00 00 56 0381 01926 5322 436460 347692 193"
"160.27397"
"$GPGGA,063427,2506.6174,N,08010.5442,W,1,8,1.7,16,"
"##MN-00 00 56 0383 01919 5323 435826 347596 193"
"160.274016"
"$GPGGA,063431,2506.6174,N,08010.5405,W,1,8,1.7,17,"
"##MN-00 00 57 0384 01914 5323 435376 347436 193"
"160.274062"
"$GPGGA,063435,2506.6176,N,08010.5370,W,1,8,1.7,17,"
"##MN-00 00 56 0386 01910 5324 434783 347291 193"
"160.274109"
"$GPGGA,063439,2506.6175,N,08010.5335,W,1,8,1.7,17,"
"##MN-00 00 56 0387 01902 5324 433950 346922 193"
"160.274155"
"$GPGGA,063443,2506.6174,N,08010.5299,W,1,8,1.7,17,"
"##MN-00 00 55 0389 01898 5325 433290 346766 193"
"160.274201"
"$GPGGA,063447,2506.6174,N,08010.5261,W,1,8,1.7,17,"
"##MN-00 00 54 0390 01895 5325 432744 346501 193"
"160.274248"
"$GPGGA,063451,2506.6173,N,08010.5226,W,1,8,1.7,17,"
"##MN-00 00 56 0392 01886 5326 432625 346496 193"
"160.274294"
"$GPGGA,063455,2506.6171,N,08010.5191,W,1,8,1.7,17,"
"##MN-00 00 56 0393 01880 5326 432619 346454 193"
"160.27434"
"$GPGGA,063459,2506.6169,N,08010.5156,W,1,8,1.7,17,"
"##MN-00 00 54 0394 01879 5326 432563 346457 193"
"160.274387"
"$GPGGA,063503,2506.6167,N,08010.5121,W,1,8,1.7,17,"
"##MN-00 00 54 0396 01872 5327 432521 346414 193"
"160.274433"
"$GPGGA,063507,2506.6167,N,08010.5085,W,1,8,1.7,17,"
"##MN-00 00 52 0397 01865 5327 432492 346344 193"
"160.274479"
"$GPGGA,063511,2506.6166,N,08010.5049,W,1,8,1.7,17,"
"##MN-00 00 52 0399 01863 5328 432494 346321 193"
"160.274525"
"$GPGGA,063515,2506.6163,N,08010.5012,W,1,8,1.7,17,"
"##MN-00 00 54 0400 01862 5328 432520 346322 193"
"160.274572"
"$GPGGA,063519,2506.6163,N,08010.4985,W,1,8,1.7,17,"
"##MN-00 00 53 0402 01862 5329 432510 346414 193"
"160.274618"
"$GPGGA,063523,2506.6160,N,08010.4938,W,1,8,1.7,17,"
"##MN-00 00 52 0403 01861 5329 432553 346322 193"
"160.274664"
"$GPGGA,063527,2506.6156,N,08010.4898,W,1,7,1.8,17,"
"##MN-00 00 54 0404 01861 5330 432540 346315 193"
"160.274711"
"$GPGGA,063531,2506.6156,N,08010.4863,W,1,8,1.7,17,"
"##MN-00 00 53 0406 01860 5330 432527 346320 193"
"160.274757"
"$GPGGA,063535,2506.6156,N,08010.4828,W,1,8,1.7,17,"
"##MN-00 00 54 0407 01860 5331 432565 346321 193"
"160.274803"
"$GPGGA,063539,2506.6155,N,08010.4790,W,1,8,1.7,17,"
"##MN-00 00 58 0408 01860 5331 432656 346396 193"
"160.27485"
"$GPGGA,063543,2506.6152,N,08010.4752,W,1,8,1.7,17,"
"##MN-00 00 58 0409 01860 5332 433203 362006 193"
"160.274896"
"$GPGGA,063547,2506.6151,N,08010.4716,W,1,8,1.7,17,"
"##MN-00 00 51 0410 01860 5333 442954 690398 193"
"160.274942"
"$GPGGA,063551,2506.6151,N,08010.4680,W,1,8,1.7,17,"
"##MN-00 00 54 0410 01860 5333 456294 769156 193"
"160.274988"
"$GPGGA,063555,2506.6149,N,08010.4642,W,1,8,1.7,17,"
"##MN-00 00 39 0410 01859 5334 467250 673436 193"
"160.275035"
"$GPGGA,063559,2506.6145,N,08010.4602,W,1,8,1.7,17,"
"##MN-00 00 43 0410 01861 5334 471149 726247 193"
