" Tow: L12s-A   RVWS/WS1406"
" Date: 06/09/2014"
" Temperature Probe #  2597    Conductivity Probe #  2870"
" Pressure Probe #  109"
" Flow Meter Calibration  4.71 (m/count)  "
"160.516944"
"$GPGGA,122415,2516.1373,N,08006.1525,W,1,9,1.7,15,"
"##MN-00 00 90 0410 01859 5361 000040 048569 192"
"160.516991"
"$GPGGA,122423,2516.1393,N,08006.1503,W,1,9,1.7,15,"
"##MN-00 00 90 0410 01857 5361 411198 926435 192"
"160.51809"
"$GPGGA,122555,2516.1535,N,08006.1424,W,1,9,1.7,20,"
"##MN-00 00 27 0410 01861 5365 412340 926432 192"
"160.518137"
"$GPGGA,122602,2516.1549,N,08006.1428,W,1,9,1.7,20,"
"##MN-00 00 25 0410 01860 5365 421827 926427 192"
"160.518183"
"$GPGGA,122606,2516.1556,N,08006.1432,W,1,9,1.7,20,"
"##MN-00 00 22 0410 01861 5366 423311 926426 192"
"160.518229"
"$GPGGA,122611,2516.1563,N,08006.1438,W,1,8,1.9,19,"
"##MN-00 00 19 0410 01860 5366 424499 926427 192"
"160.518275"
"$GPGGA,122615,2516.1572,N,08006.1445,W,1,9,1.7,19,"
"##MN-00 00 21 0410 01860 5366 425599 926425 192"
"160.518322"
"$GPGGA,122618,2516.1579,N,08006.1449,W,1,9,1.7,19,"
"##MN-00 00 25 0410 01860 5366 427161 926390 192"
"160.518368"
"$GPGGA,122623,2516.1589,N,08006.1453,W,1,9,1.7,19,"
"##MN-00 00 28 0410 01863 5366 432782 353353 192"
"160.518414"
"$GPGGA,122627,2516.1600,N,08006.1460,W,1,9,1.7,19,"
"##MN-00 00 36 0410 01862 5367 433710 347009 192"
"160.518461"
"$GPGGA,122631,2516.1611,N,08006.1464,W,1,9,1.7,19,"
"##MN-00 00 40 0411 01862 5367 433695 347057 192"
"160.518507"
"$GPGGA,122635,2516.1624,N,08006.1470,W,1,9,1.7,19,"
"##MN-00 00 42 0412 01862 5368 433701 346505 192"
"160.518553"
"$GPGGA,122639,2516.1637,N,08006.1477,W,1,9,1.7,19,"
"##MN-00 00 45 0412 01861 5367 433724 346427 192"
"160.5186"
"$GPGGA,122643,2516.1648,N,08006.1483,W,1,8,1.9,18,"
"##MN-00 00 45 0413 01862 5368 433717 346435 192"
"160.518646"
"$GPGGA,122647,2516.1662,N,08006.1489,W,1,8,1.9,18,"
"##MN-00 00 46 0414 01861 5368 433717 346464 192"
"160.518692"
"$GPGGA,122651,2516.1678,N,08006.1492,W,1,8,1.9,18,"
"##MN-00 00 48 0414 01862 5368 433716 346463 192"
"160.518738"
"$GPGGA,122655,2516.1694,N,08006.1497,W,1,8,1.9,17,"
"##MN-00 00 49 0415 01864 5369 433732 346491 192"
"160.518785"
"$GPGGA,122659,2516.1708,N,08006.1503,W,1,9,1.7,17,"
"##MN-00 00 51 0415 01872 5369 433761 346509 192"
"160.518831"
"$GPGGA,122703,2516.1720,N,08006.1514,W,1,9,1.7,17,"
"##MN-00 00 51 0416 01882 5369 433800 346521 192"
"160.518877"
"$GPGGA,122707,2516.1733,N,08006.1521,W,1,9,1.7,17,"
"##MN-00 00 51 0416 01895 5370 433823 346521 192"
"160.518924"
"$GPGGA,122711,2516.1745,N,08006.1526,W,1,9,1.7,17,"
"##MN-00 00 50 0417 01905 5370 433836 346524 192"
"160.51897"
"$GPGGA,122715,2516.1759,N,08006.1532,W,1,9,1.7,18,"
"##MN-00 00 49 0418 01910 5370 433957 346586 192"
"160.519016"
"$GPGGA,122719,2516.1774,N,08006.1537,W,1,9,1.7,18,"
"##MN-00 00 49 0418 01920 5371 435360 347123 192"
"160.519063"
"$GPGGA,122723,2516.1788,N,08006.1543,W,1,9,1.7,18,"
"##MN-00 00 49 0419 01929 5371 436518 347604 192"
"160.519109"
"$GPGGA,122727,2516.1801,N,08006.1547,W,1,9,1.7,18,"
"##MN-00 00 49 0419 01937 5371 437263 347818 192"
"160.519155"
"$GPGGA,122731,2516.1814,N,08006.1553,W,1,9,1.7,18,"
"##MN-00 00 49 0420 01944 5372 437509 347885 192"
"160.519201"
"$GPGGA,122735,2516.1828,N,08006.1557,W,1,9,1.7,18,"
"##MN-00 00 49 0421 01953 5372 437582 347902 192"
"160.519248"
"$GPGGA,122739,2516.1843,N,08006.1562,W,1,9,1.7,18,"
"##MN-00 00 48 0421 01961 5372 437874 347903 192"
"160.519294"
"$GPGGA,122743,2516.1859,N,08006.1566,W,1,9,1.7,18,"
"##MN-00 00 48 0422 01968 5372 438102 347989 192"
"160.51934"
"$GPGGA,122747,2516.1874,N,08006.1572,W,1,9,1.7,18,"
"##MN-00 00 48 0423 01976 5373 438429 348062 192"
"160.519387"
"$GPGGA,122751,2516.1889,N,08006.1575,W,1,9,1.7,18,"
"##MN-00 00 48 0423 01984 5373 438577 348076 192"
"160.519433"
"$GPGGA,122755,2516.1904,N,08006.1579,W,1,8,1.9,18,"
"##MN-00 00 46 0424 01988 5373 438662 348100 192"
"160.519479"
"$GPGGA,122759,2516.1915,N,08006.1586,W,1,9,1.7,19,"
"##MN-00 00 44 0424 01985 5374 438844 348095 192"
"160.519525"
"$GPGGA,122803,2516.1928,N,08006.1590,W,1,9,1.7,19,"
"##MN-00 00 44 0425 01988 5375 438904 348130 192"
"160.519572"
"$GPGGA,122807,2516.1942,N,08006.1594,W,1,9,1.7,19,"
"##MN-00 00 44 0426 01987 5375 438976 348129 192"
"160.519618"
"$GPGGA,122811,2516.1960,N,08006.1592,W,1,9,1.7,19,"
"##MN-00 00 44 0427 01988 5375 438956 348108 192"
"160.519664"
"$GPGGA,122815,2516.1975,N,08006.1594,W,1,8,1.9,19,"
"##MN-00 00 44 0427 01986 5376 438967 348130 192"
"160.519711"
"$GPGGA,122819,2516.1986,N,08006.1601,W,1,9,1.7,19,"
"##MN-00 00 44 0428 01984 5376 438981 348136 192"
"160.519757"
"$GPGGA,122823,2516.1998,N,08006.1607,W,1,9,1.7,19,"
"##MN-00 00 44 0429 01984 5376 438989 348150 192"
"160.519803"
"$GPGGA,122827,2516.2012,N,08006.1611,W,1,9,1.7,19,"
"##MN-00 00 44 0430 01984 5376 438991 348158 192"
"160.51985"
"$GPGGA,122831,2516.2025,N,08006.1613,W,1,9,1.7,19,"
"##MN-00 00 44 0430 01983 5377 438943 348144 192"
"160.519896"
"$GPGGA,122835,2516.2038,N,08006.1616,W,1,9,1.7,19,"
"##MN-00 00 45 0431 01981 5377 438896 348128 191"
"160.519942"
"$GPGGA,122839,2516.2051,N,08006.1618,W,1,9,1.7,18,"
"##MN-00 00 45 0432 01981 5378 438860 348116 192"
"160.519988"
"$GPGGA,122843,2516.2063,N,08006.1621,W,1,9,1.7,18,"
"##MN+00 00 45 0433 01979 5378 438824 348112 192"
"160.520035"
"$GPGGA,122847,2516.2074,N,08006.1626,W,1,9,1.7,18,"
"##MN+00 00 45 0434 01980 5378 438799 348102 191"
"160.520081"
"$GPGGA,122851,2516.2085,N,08006.1628,W,1,9,1.7,18,"
"##MN+00 00 46 0434 01977 5378 438769 348093 191"
"160.520127"
"$GPGGA,122855,2516.2096,N,08006.1631,W,1,9,1.7,18,"
"##MN+00 00 46 0435 01977 5379 438752 348081 191"
"160.520174"
"$GPGGA,122859,2516.2108,N,08006.1636,W,1,9,1.7,17,"
"##MN+00 00 46 0436 01975 5379 438735 348076 191"
"160.52022"
"$GPGGA,122903,2516.2119,N,08006.1640,W,1,9,1.7,17,"
"##MN+00 00 53 0437 01976 5379 438729 348073 191"
"160.520266"
"#increment_net"
"$GPGGA,122907,2516.2130,N,08006.1642,W,1,9,1.7,17,"
"##MN-00 00 50 0438 01974 5380 438720 348065 191"
"160.520313"
"$GPGGA,122911,2516.2142,N,08006.1647,W,1,9,1.7,17,"
"##MN-00 00 47 0438 01973 5380 438716 348062 191"
"160.520359"
"$GPGGA,122915,2516.2153,N,08006.1649,W,1,9,1.7,17,"
"##MN-00 00 46 0439 01971 5380 438712 348059 191"
"160.520405"
"$GPGGA,122919,2516.2164,N,08006.1652,W,1,9,1.7,17,"
"##MN-00 00 47 0440 01968 5381 438711 348054 191"
"160.520451"
"$GPGGA,122923,2516.2174,N,08006.1655,W,1,9,1.7,16,"
"##MN-00 00 47 0441 01968 5381 438709 348052 191"
"160.520498"
"$GPGGA,122927,2516.2186,N,08006.1659,W,1,9,1.7,16,"
"##MN-00 00 48 0442 01968 5382 438708 348044 191"
"160.520544"
"$GPGGA,122931,2516.2197,N,08006.1662,W,1,9,1.7,16,"
"##MN-00 00 49 0442 01970 5382 438710 348037 191"
"160.52059"
"$GPGGA,122935,2516.2210,N,08006.1666,W,1,9,1.7,16,"
"##MN-00 00 49 0443 01969 5382 438715 348038 191"
"160.520637"
"$GPGGA,122939,2516.2222,N,08006.1669,W,1,9,1.7,16,"
"##MN-00 00 50 0444 01973 5382 438723 348035 191"
"160.520683"
"$GPGGA,122943,2516.2232,N,08006.1676,W,1,9,1.7,15,"
"##MN-00 00 49 0445 01974 5382 438731 348033 191"
"160.520729"
"$GPGGA,122947,2516.2243,N,08006.1681,W,1,9,1.7,15,"
"##MN-00 00 49 0445 01973 5383 438741 348028 191"
"160.520775"
"$GPGGA,122951,2516.2253,N,08006.1687,W,1,9,1.7,15,"
"##MN-00 00 48 0446 01971 5383 438742 348029 191"
"160.520822"
"$GPGGA,122955,2516.2265,N,08006.1692,W,1,9,1.7,16,"
"##MN-00 00 49 0447 01973 5383 438743 348019 191"
"160.520868"
"$GPGGA,122959,2516.2276,N,08006.1698,W,1,9,1.7,16,"
"##MN-00 00 49 0448 01972 5384 438745 348011 191"
"160.520914"
"$GPGGA,123003,2516.2287,N,08006.1702,W,1,9,1.7,16,"
"##MN-00 00 49 0449 01972 5384 438754 348008 191"
"160.520961"
"$GPGGA,123007,2516.2298,N,08006.1705,W,1,9,1.7,16,"
"##MN-00 00 49 0450 01969 5384 438757 348000 191"
"160.521007"
"$GPGGA,123011,2516.2309,N,08006.1709,W,1,9,1.7,16,"
"##MN-00 00 49 0450 01972 5384 438758 348007 191"
"160.521053"
"$GPGGA,123015,2516.2322,N,08006.1711,W,1,9,1.7,16,"
"##MN-00 00 49 0451 01971 5385 438760 348005 191"
"160.5211"
"$GPGGA,123019,2516.2334,N,08006.1714,W,1,9,1.7,16,"
"##MN-00 00 49 0452 01972 5385 438760 347998 191"
"160.521146"
"$GPGGA,123023,2516.2345,N,08006.1716,W,1,9,1.7,16,"
"##MN-00 00 49 0453 01972 5385 438761 347994 191"
"160.521192"
"$GPGGA,123027,2516.2358,N,08006.1719,W,1,9,1.7,16,"
"##MN-00 00 49 0454 01973 5385 438765 347995 191"
"160.521238"
"$GPGGA,123031,2516.2370,N,08006.1721,W,1,9,1.7,16,"
"##MN-00 00 49 0454 01973 5385 438766 347995 191"
"160.521285"
"$GPGGA,123035,2516.2384,N,08006.1723,W,1,9,1.7,16,"
"##MN-00 00 49 0455 01973 5386 438766 347991 191"
"160.521331"
"$GPGGA,123039,2516.2397,N,08006.1727,W,1,9,1.7,16,"
"##MN-00 00 49 0456 01975 5386 438772 347984 191"
"160.521377"
"$GPGGA,123043,2516.2410,N,08006.1728,W,1,9,1.7,16,"
"##MN-00 00 49 0457 01973 5386 438780 347977 191"
"160.521424"
"$GPGGA,123047,2516.2421,N,08006.1730,W,1,9,1.6,16,"
"##MN-00 00 49 0458 01974 5386 438782 347971 191"
"160.52147"
"$GPGGA,123051,2516.2434,N,08006.1734,W,1,9,1.6,16,"
"##MN-00 00 49 0459 01974 5387 438784 347968 191"
"160.521528"
"$GPGGA,123055,2516.2446,N,08006.1735,W,1,9,1.6,16,"
"##MN+00 00 49 0459 01973 5387 438790 347964 191"
"160.521574"
"$GPGGA,123059,2516.2457,N,08006.1738,W,1,9,1.6,16,"
"##MN+00 00 49 0460 01973 5387 438795 347963 191"
"160.52162"
"$GPGGA,123103,2516.2470,N,08006.1741,W,1,9,1.6,16,"
"##MN+00 00 49 0461 01974 5387 438796 347955 191"
"160.521667"
"$GPGGA,123108,2516.2485,N,08006.1743,W,1,9,1.6,16,"
"##MN-00 00 49 0462 01974 5388 438798 347949 191"
"160.521713"
"$GPGGA,123112,2516.2497,N,08006.1746,W,1,9,1.6,16,"
"##MN-00 00 49 0463 01974 5388 438804 347946 191"
"160.521759"
"$GPGGA,123115,2516.2507,N,08006.1747,W,1,9,1.6,15,"
"##MN-00 00 49 0463 01975 5388 438810 347940 191"
"160.521806"
"$GPGGA,123119,2516.2518,N,08006.1750,W,1,9,1.6,15,"
"##MN-00 00 49 0464 01974 5388 438813 347937 191"
"160.521852"
"$GPGGA,123124,2516.2535,N,08006.1752,W,1,9,1.6,15,"
"##MN+00 00 49 0465 01975 5388 438817 347932 191"
"160.521898"
"$GPGGA,123128,2516.2547,N,08006.1755,W,1,9,1.6,15,"
"##MN+00 00 49 0466 01975 5389 438821 347929 191"
"160.521944"
"$GPGGA,123132,2516.2560,N,08006.1759,W,1,8,1.6,15,"
"##MN+00 00 57 0467 01977 5389 438823 347918 191"
"160.521991"
"#increment_net"
"$GPGGA,123136,2516.2574,N,08006.1760,W,1,8,1.9,15,"
"##MN-00 00 54 0467 01973 5389 438824 347904 191"
"160.522037"
"$GPGGA,123140,2516.2587,N,08006.1762,W,1,8,1.9,14,"
"##MN-00 00 50 0468 01974 5389 438828 347879 191"
"160.522083"
"$GPGGA,123144,2516.2601,N,08006.1763,W,1,7,1.9,14,"
"##MN-00 00 49 0469 01973 5389 438830 347874 191"
"160.52213"
"$GPGGA,123148,2516.2612,N,08006.1767,W,1,8,1.9,14,"
"##MN-00 00 48 0470 01972 5390 438832 347872 191"
"160.522176"
"$GPGGA,123152,2516.2626,N,08006.1770,W,1,8,1.9,14,"
"##MN-00 00 48 0471 01972 5390 438830 347861 191"
"160.522222"
"$GPGGA,123156,2516.2637,N,08006.1774,W,1,8,1.9,14,"
"##MN-00 00 47 0471 01972 5390 438837 347848 191"
"160.522269"
"$GPGGA,123200,2516.2651,N,08006.1777,W,1,8,2.0,14,"
"##MN-00 00 47 0472 01971 5390 438845 347842 191"
"160.522315"
"$GPGGA,123204,2516.2665,N,08006.1778,W,1,8,1.9,14,"
"##MN-00 00 47 0473 01972 5391 438845 347830 191"
"160.522361"
"$GPGGA,123208,2516.2677,N,08006.1781,W,1,8,1.9,14,"
"##MN-00 00 47 0474 01972 5390 438847 347818 191"
"160.522407"
"$GPGGA,123212,2516.2691,N,08006.1783,W,1,8,1.9,14,"
"##MN-00 00 47 0475 01971 5391 438850 347808 191"
"160.522454"
"$GPGGA,123216,2516.2704,N,08006.1786,W,1,8,1.9,14,"
"##MN-00 00 47 0475 01973 5391 438853 347806 191"
"160.5225"
"$GPGGA,123220,2516.2716,N,08006.1790,W,1,8,1.9,14,"
"##MN-00 00 47 0476 01974 5392 438850 347796 191"
"160.522546"
"$GPGGA,123224,2516.2728,N,08006.1795,W,1,8,1.6,14,"
"##MN-00 00 47 0477 01975 5392 438844 347800 191"
"160.522593"
"$GPGGA,123228,2516.2742,N,08006.1796,W,1,8,1.9,15,"
"##MN-00 00 48 0478 01974 5392 438842 347793 191"
"160.522639"
"$GPGGA,123232,2516.2753,N,08006.1804,W,1,9,1.6,15,"
"##MN-00 00 47 0479 01973 5392 438847 347770 191"
"160.522685"
"$GPGGA,123236,2516.2767,N,08006.1805,W,1,8,1.9,15,"
"##MN-00 00 47 0480 01974 5392 438858 347722 191"
"160.522731"
"$GPGGA,123240,2516.2781,N,08006.1809,W,1,9,1.6,15,"
"##MN-00 00 47 0480 01973 5392 438871 347707 191"
"160.522778"
"$GPGGA,123244,2516.2793,N,08006.1810,W,1,8,1.9,16,"
"##MN-00 00 47 0481 01974 5393 438878 347692 191"
"160.522824"
"$GPGGA,123248,2516.2807,N,08006.1813,W,1,9,1.9,16,"
"##MN-00 00 47 0482 01971 5393 438877 347674 191"
"160.52287"
"$GPGGA,123252,2516.2818,N,08006.1817,W,1,8,1.9,16,"
"##MN-00 00 47 0483 01972 5393 438878 347677 191"
"160.522917"
"$GPGGA,123256,2516.2831,N,08006.1821,W,1,8,1.9,15,"
"##MN-00 00 47 0484 01972 5393 438879 347701 191"
"160.522963"
"$GPGGA,123300,2516.2843,N,08006.1825,W,1,8,1.9,15,"
"##MN-00 00 47 0484 01972 5393 438880 347678 191"
"160.523009"
"$GPGGA,123304,2516.2856,N,08006.1828,W,1,8,1.9,15,"
"##MN-00 00 47 0485 01971 5393 438884 347652 191"
"160.523056"
"$GPGGA,123308,2516.2868,N,08006.1832,W,1,8,1.9,14,"
"##MN-00 00 47 0486 01972 5393 438884 347643 191"
"160.523102"
"$GPGGA,123312,2516.2880,N,08006.1835,W,1,8,1.9,14,"
"##MN-00 00 47 0487 01972 5394 438886 347624 191"
"160.523148"
"$GPGGA,123316,2516.2893,N,08006.1839,W,1,7,1.8,14,"
"##MN+00 00 47 0488 01972 5394 438887 347605 191"
"160.523194"
"$GPGGA,123320,2516.2904,N,08006.1843,W,1,8,1.9,14,"
"##MN+00 00 47 0488 01971 5394 438886 347593 191"
"160.523241"
"$GPGGA,123324,2516.2915,N,08006.1848,W,1,8,1.6,14,"
"##MN+00 00 47 0489 01973 5394 438886 347558 191"
"160.523287"
"$GPGGA,123328,2516.2930,N,08006.1850,W,1,8,1.9,14,"
"##MN-00 00 47 0490 01975 5395 438886 347538 191"
"160.523333"
"$GPGGA,123332,2516.2940,N,08006.1858,W,1,8,1.6,14,"
"##MN-00 00 47 0491 01971 5395 438884 347521 191"
"160.52338"
"$GPGGA,123336,2516.2952,N,08006.1862,W,1,9,1.9,14,"
"##MN-00 00 47 0492 01976 5395 438875 347493 191"
"160.523426"
"$GPGGA,123340,2516.2965,N,08006.1864,W,1,9,1.9,14,"
"##MN-00 00 47 0492 01972 5395 438870 347467 191"
"160.523472"
"$GPGGA,123344,2516.2973,N,08006.1872,W,1,9,1.6,15,"
"##MN-00 00 47 0493 01974 5395 438875 347467 191"
"160.523519"
"$GPGGA,123348,2516.2984,N,08006.1876,W,1,9,1.6,15,"
"##MN-00 00 46 0494 01973 5395 438887 347459 191"
"160.523565"
"$GPGGA,123352,2516.2995,N,08006.1882,W,1,9,1.6,15,"
"##MN-00 00 46 0495 01974 5395 438891 347455 191"
"160.523611"
"$GPGGA,123356,2516.3008,N,08006.1886,W,1,9,1.6,16,"
"##MN+00 00 46 0496 01972 5396 438891 347444 191"
"160.523657"
"$GPGGA,123400,2516.3017,N,08006.1887,W,1,9,1.6,16,"
"##MN+00 00 47 0496 01974 5396 438889 347442 191"
"160.523704"
"$GPGGA,123404,2516.3035,N,08006.1886,W,1,8,1.6,16,"
"##MN+00 00 56 0497 01976 5396 438888 347427 191"
"160.52375"
"#increment_net"
"$GPGGA,123408,2516.3049,N,08006.1889,W,1,9,1.9,16,"
"##MN-00 00 53 0498 01975 5396 438887 347421 191"
"160.523796"
"$GPGGA,123412,2516.3063,N,08006.1890,W,1,8,1.6,16,"
"##MN-00 00 50 0499 01973 5396 438889 347417 191"
"160.523843"
"$GPGGA,123416,2516.3077,N,08006.1892,W,1,9,1.6,16,"
"##MN-00 00 48 0500 01974 5396 438890 347431 191"
"160.523889"
"$GPGGA,123420,2516.3091,N,08006.1892,W,1,8,1.9,16,"
"##MN-00 00 47 0501 01975 5397 438894 347425 191"
"160.523935"
"$GPGGA,123424,2516.3100,N,08006.1898,W,1,9,1.6,16,"
"##MN-00 00 46 0501 01972 5397 438903 347425 191"
"160.523981"
"$GPGGA,123428,2516.3114,N,08006.1898,W,1,8,1.9,16,"
"##MN-00 00 46 0502 01973 5397 438910 347420 191"
"160.524028"
"$GPGGA,123432,2516.3125,N,08006.1905,W,1,9,1.6,16,"
"##MN-00 00 46 0503 01973 5397 438916 347417 191"
"160.524074"
"$GPGGA,123436,2516.3138,N,08006.1907,W,1,8,1.6,17,"
"##MN-00 00 46 0504 01971 5397 438915 347433 191"
"160.52412"
"$GPGGA,123440,2516.3149,N,08006.1910,W,1,9,1.6,17,"
"##MN-00 00 46 0505 01971 5397 438915 347407 191"
"160.524167"
"$GPGGA,123444,2516.3160,N,08006.1912,W,1,9,1.6,17,"
"##MN-00 00 46 0506 01973 5397 438919 347401 191"
"160.524213"
"$GPGGA,123448,2516.3171,N,08006.1915,W,1,9,1.6,17,"
"##MN-00 00 46 0506 01973 5397 438918 347396 191"
"160.524259"
"$GPGGA,123452,2516.3182,N,08006.1918,W,1,9,1.6,17,"
"##MN-00 00 46 0507 01973 5398 438923 347394 191"
"160.524306"
"$GPGGA,123456,2516.3194,N,08006.1920,W,1,9,1.9,18,"
"##MN-00 00 46 0508 01971 5398 438925 347400 191"
"160.524352"
"$GPGGA,123500,2516.3205,N,08006.1922,W,1,9,1.6,18,"
"##MN-00 00 46 0509 01971 5398 438928 347404 191"
"160.524398"
"$GPGGA,123504,2516.3219,N,08006.1923,W,1,8,1.9,18,"
"##MN-00 00 46 0510 01970 5398 438929 347407 191"
"160.524444"
"$GPGGA,123508,2516.3233,N,08006.1922,W,1,9,1.9,18,"
"##MN-00 00 46 0511 01971 5398 438929 347401 191"
"160.524491"
"$GPGGA,123512,2516.3246,N,08006.1923,W,1,9,2.2,18,"
"##MN-00 00 46 0511 01973 5398 438928 347400 191"
"160.524537"
"$GPGGA,123516,2516.3257,N,08006.1927,W,1,9,1.6,18,"
"##MN-00 00 46 0512 01972 5399 438925 347400 191"
"160.524583"
"$GPGGA,123520,2516.3270,N,08006.1931,W,1,9,1.6,18,"
"##MN-00 00 46 0513 01971 5399 438912 347404 191"
"160.52463"
"$GPGGA,123524,2516.3283,N,08006.1937,W,1,9,1.6,18,"
"##MN-00 00 46 0514 01972 5399 438909 347405 191"
"160.524676"
"$GPGGA,123528,2516.3297,N,08006.1943,W,1,9,1.6,18,"
"##MN-00 00 46 0515 01972 5399 438910 347404 191"
"160.524722"
"$GPGGA,123532,2516.3308,N,08006.1945,W,1,9,1.6,18,"
"##MN-00 00 46 0516 01972 5399 438918 347407 191"
"160.52478"
"$GPGGA,123536,2516.3320,N,08006.1949,W,1,9,1.6,19,"
"##MN-00 00 46 0516 01972 5399 438922 347406 191"
"160.524826"
"$GPGGA,123540,2516.3333,N,08006.1954,W,1,9,1.6,19,"
"##MN-00 00 46 0517 01973 5399 438925 347409 191"
"160.524873"
"$GPGGA,123545,2516.3349,N,08006.1957,W,1,9,1.6,19,"
"##MN-00 00 46 0518 01973 5400 438927 347405 191"
"160.524919"
"$GPGGA,123549,2516.3360,N,08006.1960,W,1,9,1.6,19,"
"##MN-00 00 46 0519 01972 5400 438931 347399 191"
"160.524965"
"$GPGGA,123553,2516.3373,N,08006.1963,W,1,9,1.6,19,"
"##MN-00 00 46 0520 01972 5400 438936 347403 191"
"160.525012"
"$GPGGA,123557,2516.3385,N,08006.1966,W,1,9,1.6,20,"
"##MN-00 00 46 0521 01973 5400 438938 347407 191"
"160.525058"
"$GPGGA,123600,2516.3393,N,08006.1969,W,1,9,1.6,20,"
"##MN+00 00 46 0521 01971 5400 438937 347405 191"
"160.525104"
"$GPGGA,123605,2516.3409,N,08006.1972,W,1,9,1.6,20,"
"##MN+00 00 46 0522 01972 5401 438936 347405 191"
"160.52515"
"$GPGGA,123609,2516.3421,N,08006.1973,W,1,9,1.6,20,"
"##MN+00 00 46 0523 01972 5401 438949 347415 191"
"160.525197"
"$GPGGA,123613,2516.3435,N,08006.1976,W,1,9,1.6,20,"
"##MN+00 00 46 0524 01970 5401 438949 347438 191"
"160.525243"
"$GPGGA,123617,2516.3447,N,08006.1978,W,1,9,1.6,20,"
"##MN+00 00 46 0525 01971 5401 438949 347455 191"
"160.525289"
"$GPGGA,123621,2516.3458,N,08006.1980,W,1,9,1.6,20,"
"##MN+00 00 55 0526 01975 5401 438952 347443 191"
"160.525336"
"#increment_net"
"$GPGGA,123625,2516.3470,N,08006.1983,W,1,9,1.6,20,"
"##MN-00 00 52 0526 01972 5401 438953 347433 191"
"160.525382"
"$GPGGA,123629,2516.3481,N,08006.1984,W,1,9,1.6,20,"
"##MN-00 00 49 0527 01972 5401 438960 347428 191"
"160.525428"
"$GPGGA,123633,2516.3492,N,08006.1987,W,1,9,1.6,20,"
"##MN-00 00 48 0528 01972 5401 438963 347428 191"
"160.525475"
"$GPGGA,123637,2516.3504,N,08006.1991,W,1,9,1.6,20,"
"##MN-00 00 47 0529 01974 5402 438960 347428 191"
"160.525521"
"$GPGGA,123641,2516.3515,N,08006.1994,W,1,9,1.6,19,"
"##MN-00 00 46 0530 01974 5402 438956 347430 191"
"160.525567"
"$GPGGA,123645,2516.3526,N,08006.1996,W,1,9,1.6,19,"
"##MN-00 00 46 0531 01972 5402 438955 347424 191"
"160.525613"
"$GPGGA,123649,2516.3539,N,08006.1998,W,1,9,1.6,19,"
"##MN-00 00 46 0532 01972 5401 438956 347416 191"
"160.52566"
"$GPGGA,123653,2516.3550,N,08006.2001,W,1,8,2.2,19,"
"##MN-00 00 46 0533 01972 5402 438955 347412 191"
"160.525706"
"$GPGGA,123657,2516.3566,N,08006.2003,W,1,9,1.6,18,"
"##MN-00 00 46 0533 01973 5402 438959 347407 191"
"160.525752"
"$GPGGA,123701,2516.3576,N,08006.2005,W,1,8,2.2,18,"
"##MN-00 00 46 0534 01971 5402 438965 347414 191"
"160.525799"
"$GPGGA,123705,2516.3587,N,08006.2008,W,1,8,2.2,18,"
"##MN-00 00 46 0535 01971 5402 438967 347415 191"
"160.525845"
"$GPGGA,123709,2516.3601,N,08006.2009,W,1,8,2.2,17,"
"##MN-00 00 46 0536 01971 5402 438968 347400 191"
"160.525891"
"$GPGGA,123713,2516.3615,N,08006.2013,W,1,9,1.6,17,"
"##MN-00 00 46 0537 01972 5402 438971 347456 191"
"160.525938"
"$GPGGA,123717,2516.3633,N,08006.2017,W,1,9,1.6,17,"
"##MN-00 00 46 0538 01972 5403 438970 347464 191"
"160.525984"
"$GPGGA,123721,2516.3642,N,08006.2018,W,1,9,1.6,17,"
"##MN-00 00 46 0539 01971 5403 438970 347467 191"
"160.52603"
"$GPGGA,123725,2516.3653,N,08006.2020,W,1,9,1.6,17,"
"##MN-00 00 46 0539 01972 5403 438975 347474 191"
"160.526076"
"$GPGGA,123729,2516.3663,N,08006.2020,W,1,9,1.6,17,"
"##MN-00 00 46 0540 01971 5403 438977 347474 191"
"160.526123"
"$GPGGA,123733,2516.3674,N,08006.2021,W,1,9,1.6,17,"
"##MN-00 00 46 0541 01971 5403 438984 347473 191"
"160.526169"
"$GPGGA,123737,2516.3692,N,08006.2025,W,1,9,1.6,17,"
"##MN-00 00 46 0542 01972 5403 438988 347478 191"
"160.526215"
"$GPGGA,123741,2516.3705,N,08006.2026,W,1,9,1.6,17,"
"##MN-00 00 46 0543 01974 5403 438988 347481 191"
"160.526262"
"$GPGGA,123745,2516.3714,N,08006.2026,W,1,9,1.6,17,"
"##MN-00 00 46 0544 01972 5403 438985 347475 191"
"160.526308"
"$GPGGA,123749,2516.3725,N,08006.2027,W,1,9,1.6,17,"
"##MN-00 00 46 0545 01971 5403 438986 347462 191"
"160.526354"
"$GPGGA,123753,2516.3736,N,08006.2028,W,1,9,1.6,17,"
"##MN-00 00 46 0546 01972 5403 438985 347443 191"
"160.5264"
"$GPGGA,123757,2516.3746,N,08006.2029,W,1,9,1.6,17,"
"##MN+00 00 46 0546 01972 5403 438989 347433 191"
"160.526447"
"$GPGGA,123801,2516.3757,N,08006.2031,W,1,9,1.6,17,"
"##MN+00 00 46 0547 01971 5404 438995 347433 191"
"160.526493"
"$GPGGA,123805,2516.3767,N,08006.2032,W,1,9,1.6,17,"
"##MN+00 00 46 0548 01971 5404 439000 347433 191"
"160.526539"
"$GPGGA,123809,2516.3779,N,08006.2034,W,1,9,1.6,17,"
"##MN-00 00 46 0549 01969 5404 439005 347427 190"
"160.526586"
"$GPGGA,123813,2516.3790,N,08006.2034,W,1,8,1.6,17,"
"##MN-00 00 46 0550 01970 5404 439006 347421 191"
"160.526632"
"$GPGGA,123817,2516.3803,N,08006.2037,W,1,9,2.2,17,"
"##MN-00 00 46 0551 01973 5404 439004 347412 191"
"160.526678"
"$GPGGA,123821,2516.3810,N,08006.2036,W,1,8,2.2,16,"
"##MN+00 00 46 0552 01970 5404 439000 347408 191"
"160.526725"
"$GPGGA,123825,2516.3811,N,08006.2034,W,1,9,1.6,16,"
"##MN+00 00 46 0552 01971 5404 439002 347416 191"
"160.526771"
"$GPGGA,123829,2516.3819,N,08006.2035,W,1,9,1.6,16,"
"##MN+00 00 56 0553 01973 5405 439006 347414 191"
"160.526817"
"#increment_net"
"$GPGGA,123833,2516.3833,N,08006.2038,W,1,9,1.6,15,"
"##MN-00 00 54 0554 01974 5405 439015 347418 191"
"160.526863"
"$GPGGA,123837,2516.3844,N,08006.2039,W,1,9,1.6,15,"
"##MN-00 00 50 0555 01977 5405 439019 347421 191"
"160.52691"
"$GPGGA,123841,2516.3861,N,08006.2043,W,1,9,1.6,15,"
"##MN-00 00 46 0557 01985 5405 439025 347422 191"
"160.526956"
"$GPGGA,123845,2516.3873,N,08006.2045,W,1,8,2.2,15,"
"##MN-00 00 44 0558 01988 5405 439037 347425 191"
"160.527002"
"$GPGGA,123849,2516.3884,N,08006.2048,W,1,9,1.6,15,"
"##MN-00 00 43 0559 01991 5405 439072 347443 191"
"160.527049"
"$GPGGA,123853,2516.3897,N,08006.2050,W,1,9,1.6,15,"
"##MN-00 00 42 0560 01994 5405 439199 347462 191"
"160.527095"
"$GPGGA,123857,2516.3908,N,08006.2053,W,1,9,1.6,15,"
"##MN-00 00 40 0561 01997 5405 439428 347508 191"
"160.527141"
"$GPGGA,123901,2516.3920,N,08006.2056,W,1,9,1.6,15,"
"##MN-00 00 39 0562 02000 5405 439852 347530 191"
"160.527188"
"$GPGGA,123905,2516.3931,N,08006.2060,W,1,9,1.6,15,"
"##MN-00 00 38 0563 02002 5406 440273 347632 191"
"160.527234"
"$GPGGA,123909,2516.3941,N,08006.2063,W,1,9,1.6,15,"
"##MN-00 00 37 0564 02003 5406 440527 347732 191"
"160.52728"
"$GPGGA,123913,2516.3952,N,08006.2065,W,1,9,1.6,15,"
"##MN-00 00 37 0565 02000 5405 440727 347828 191"
"160.527326"
"$GPGGA,123917,2516.3966,N,08006.2070,W,1,9,1.6,15,"
"##MN-00 00 37 0567 01994 5405 440800 347963 191"
"160.527373"
"$GPGGA,123921,2516.3974,N,08006.2071,W,1,8,2.2,15,"
"##MN-00 00 38 0568 01987 5405 440015 347828 191"
"160.527419"
"$GPGGA,123925,2516.3988,N,08006.2075,W,1,9,1.6,16,"
"##MN-00 00 38 0569 01978 5406 439551 347749 191"
"160.527465"
"$GPGGA,123929,2516.4001,N,08006.2078,W,1,8,2.2,16,"
"##MN-00 00 39 0570 01971 5406 439235 347615 191"
"160.527512"
"$GPGGA,123933,2516.4010,N,08006.2081,W,1,9,1.6,16,"
"##MN-00 00 38 0571 01964 5405 439136 347611 191"
"160.527558"
"$GPGGA,123937,2516.4018,N,08006.2082,W,1,9,1.6,16,"
"##MN-00 00 39 0573 01956 5406 439035 347559 191"
"160.527604"
"$GPGGA,123941,2516.4025,N,08006.2085,W,1,9,1.6,17,"
"##MN-00 00 40 0574 01949 5406 438944 347517 191"
"160.52765"
"$GPGGA,123945,2516.4035,N,08006.2088,W,1,9,1.6,17,"
"##MN-00 00 39 0575 01943 5406 438673 347451 191"
"160.527697"
"$GPGGA,123949,2516.4046,N,08006.2092,W,1,8,2.2,17,"
"##MN-00 00 39 0576 01935 5406 438446 347322 191"
"160.527743"
"$GPGGA,123953,2516.4057,N,08006.2095,W,1,9,1.6,17,"
"##MN-00 00 40 0577 01925 5406 438258 347275 191"
"160.527789"
"$GPGGA,123957,2516.4068,N,08006.2099,W,1,9,1.6,17,"
"##MN-00 00 40 0578 01922 5406 438144 347213 191"
"160.527836"
"$GPGGA,124001,2516.4075,N,08006.2102,W,1,9,1.6,17,"
"##MN-00 00 40 0580 01911 5406 437912 347165 191"
"160.527882"
"$GPGGA,124005,2516.4086,N,08006.2103,W,1,9,1.6,17,"
"##MN-00 00 39 0581 01903 5406 436494 346903 191"
"160.527928"
"$GPGGA,124009,2516.4090,N,08006.2104,W,1,9,1.6,17,"
"##MN-00 00 39 0582 01895 5407 435262 346506 191"
"160.527986"
"$GPGGA,124013,2516.4100,N,08006.2107,W,1,9,1.6,17,"
"##MN-00 00 39 0583 01888 5406 434449 346343 191"
"160.528032"
"$GPGGA,124017,2516.4108,N,08006.2110,W,1,8,2.1,17,"
"##MN-00 00 39 0584 01881 5406 434047 346185 191"
"160.528079"
"$GPGGA,124022,2516.4118,N,08006.2113,W,1,9,1.6,17,"
"##MN-00 00 39 0586 01875 5407 433725 346031 191"
"160.528125"
"$GPGGA,124026,2516.4128,N,08006.2117,W,1,9,2.1,16,"
"##MN-00 00 40 0587 01868 5407 433563 345847 191"
"160.528171"
"$GPGGA,124030,2516.4137,N,08006.2120,W,1,8,1.6,16,"
"##MN-00 00 39 0588 01862 5407 433498 345844 191"
