" Tow: L12s-B   RVWS/WS1406"
" Date: 06/09/2014"
" Temperature Probe #  2597    Conductivity Probe #  2870"
" Pressure Probe #  109"
" Flow Meter Calibration  4.71 (m/count)  "
"160.541088"
"$GPGGA,124035,2516.4153,N,08006.2124,W,1,9,1.6,16,"
"##MN-00 00 90 0599 01856 5507 434702 870145 191"
"160.541134"
"$GPGGA,125910,2516.0773,N,08004.5655,W,1,9,2.0,18,"
"##MN-00 00 90 0599 01856 5508 424558 926596 191"
"160.541181"
"$GPGGA,125914,2516.0760,N,08004.5658,W,1,8,1.6,19,"
"##MN-00 00 90 0599 01856 5508 424932 926594 191"
"160.541227"
"$GPGGA,125918,2516.0755,N,08004.5658,W,1,9,1.6,19,"
"##MN-00 00 90 0599 01858 5508 423980 926592 191"
"160.541273"
"$GPGGA,125922,2516.0748,N,08004.5658,W,1,9,1.4,19,"
"##MN-00 00 90 0599 01857 5508 423692 926591 191"
"160.541319"
"$GPGGA,125926,2516.0742,N,08004.5659,W,1,9,1.4,19,"
"##MN-00 00 90 0599 01856 5508 424234 926589 191"
"160.541366"
"$GPGGA,125930,2516.0737,N,08004.5661,W,1,9,1.4,19,"
"##MN-00 00 90 0599 01855 5508 425288 926588 191"
"160.541412"
"$GPGGA,125934,2516.0731,N,08004.5666,W,1,9,1.4,19,"
"##MN-00 00 90 0599 01858 5509 426870 926586 191"
"160.541458"
"$GPGGA,125938,2516.0726,N,08004.5672,W,1,9,1.4,19,"
"##MN-00 00 90 0599 01856 5509 427754 926584 191"
"160.541505"
"$GPGGA,125942,2516.0720,N,08004.5677,W,1,9,1.4,19,"
"##MN-00 00 90 0599 01855 5509 428368 926583 191"
"160.541551"
"$GPGGA,125946,2516.0713,N,08004.5684,W,1,9,1.4,19,"
"##MN-00 00 90 0599 01856 5509 428683 926581 191"
"160.541597"
"$GPGGA,125950,2516.0708,N,08004.5691,W,1,9,1.4,18,"
"##MN-00 00 90 0599 01858 5509 428919 926581 191"
"160.541644"
"$GPGGA,125954,2516.0701,N,08004.5698,W,1,9,1.4,18,"
"##MN-00 00 90 0599 01857 5509 428988 926580 191"
"160.54169"
"$GPGGA,125958,2516.0694,N,08004.5706,W,1,9,1.4,18,"
"##MN-00 00 90 0599 01856 5509 429382 926581 191"
"160.541736"
"$GPGGA,130002,2516.0687,N,08004.5715,W,1,9,1.4,17,"
"##MN-00 00 90 0599 01856 5509 430015 926582 191"
"160.541782"
"$GPGGA,130006,2516.0681,N,08004.5724,W,1,9,1.4,17,"
"##MN-00 00 90 0599 01857 5510 430035 926583 191"
"160.541829"
"$GPGGA,130010,2516.0674,N,08004.5735,W,1,9,1.4,17,"
"##MN-00 00 90 0599 01857 5509 430078 926584 191"
"160.541875"
"$GPGGA,130014,2516.0667,N,08004.5746,W,1,9,1.4,16,"
"##MN-00 00 90 0599 01857 5510 429807 926586 191"
"160.541933"
"$GPGGA,130018,2516.0661,N,08004.5759,W,1,8,1.6,16,"
"##MN-00 00 90 0599 01858 5510 430964 926587 191"
"160.541979"
"$GPGGA,130023,2516.0654,N,08004.5773,W,1,9,1.4,16,"
"##MN-00 00 90 0599 01856 5510 431605 926588 191"
"160.542025"
"$GPGGA,130026,2516.0660,N,08004.5784,W,1,8,2.2,16,"
"##MN-00 00 90 0599 01855 5510 431203 926590 191"
"160.542072"
"$GPGGA,130031,2516.0656,N,08004.5798,W,1,8,1.6,17,"
"##MN-00 00 90 0599 01856 5510 432503 926590 191"
"160.542118"
"$GPGGA,130035,2516.0648,N,08004.5810,W,1,8,1.6,17,"
"##MN-00 00 90 0599 01857 5511 433099 926591 191"
"160.542164"
"$GPGGA,130039,2516.0645,N,08004.5821,W,1,9,1.4,18,"
"##MN-00 00 90 0599 01857 5511 433080 926592 191"
"160.542211"
"$GPGGA,130042,2516.0639,N,08004.5827,W,1,8,1.4,18,"
"##MN-00 00 90 0599 01858 5511 433089 926593 191"
"160.542257"
"$GPGGA,130046,2516.0633,N,08004.5838,W,1,8,1.4,18,"
"##MN-00 00 90 0599 01856 5511 433024 926594 191"
"160.542303"
"$GPGGA,130051,2516.0629,N,08004.5849,W,1,8,1.4,18,"
"##MN-00 00 90 0599 01858 5511 432746 926594 191"
"160.54235"
"$GPGGA,130055,2516.0621,N,08004.5860,W,1,8,1.6,19,"
"##MN-00 00 90 0599 01856 5511 432504 926595 191"
"160.542396"
"$GPGGA,130059,2516.0613,N,08004.5871,W,1,8,1.6,19,"
"##MN-00 00 90 0599 01856 5512 433126 926595 191"
"160.542442"
"$GPGGA,130103,2516.0607,N,08004.5881,W,1,9,1.4,19,"
"##MN-00 00 90 0599 01856 5512 432702 926594 191"
"160.542488"
"$GPGGA,130107,2516.0601,N,08004.5889,W,1,9,1.4,19,"
"##MN-00 00 90 0599 01857 5512 432883 926592 191"
"160.542535"
"$GPGGA,130111,2516.0593,N,08004.5897,W,1,9,1.4,19,"
"##MN-00 00 90 0599 01856 5513 432665 926590 191"
"160.542581"
"$GPGGA,130115,2516.0585,N,08004.5905,W,1,9,1.4,19,"
"##MN-00 00 90 0599 01856 5513 432965 926588 191"
"160.542627"
"$GPGGA,130119,2516.0578,N,08004.5914,W,1,9,1.4,18,"
"##MN-00 00 90 0599 01858 5513 433195 926587 191"
"160.542674"
"$GPGGA,130123,2516.0568,N,08004.5922,W,1,9,1.4,18,"
"##MN-00 00 90 0599 01856 5513 432233 926577 191"
"160.54272"
"$GPGGA,130127,2516.0560,N,08004.5928,W,1,9,1.4,18,"
"##MN-00 00 90 0599 01857 5513 430942 926572 191"
"160.54294"
"$GPGGA,130143,2516.0528,N,08004.5944,W,1,8,1.8,18,"
"##MN-00 00 90 0599 01856 5514 429937 926570 191"
"160.542986"
"$GPGGA,130150,2516.0507,N,08004.5954,W,1,9,1.4,18,"
"##MN-00 00 90 0599 01857 5514 431124 926570 191"
"160.543032"
"$GPGGA,130154,2516.0499,N,08004.5954,W,1,9,2.0,18,"
"##MN-00 00 90 0599 01856 5515 431702 926570 191"
"160.543079"
"$GPGGA,130158,2516.0489,N,08004.5955,W,1,8,1.6,17,"
"##MN-00 00 90 0599 01858 5515 431444 926571 191"
"160.543125"
"$GPGGA,130202,2516.0485,N,08004.5951,W,1,8,1.8,17,"
"##MN-00 00 90 0599 01855 5515 431028 926570 191"
"160.543171"
"$GPGGA,130206,2516.0477,N,08004.5947,W,1,8,2.0,17,"
"##MN-00 00 90 0599 01858 5516 431010 926570 191"
"160.543218"
"$GPGGA,130210,2516.0473,N,08004.5941,W,1,7,2.0,17,"
"##MN-00 00 90 0599 01857 5516 430883 926571 191"
"160.543264"
"$GPGGA,130214,2516.0468,N,08004.5935,W,1,9,1.4,17,"
"##MN-00 00 90 0599 01859 5516 430404 926572 191"
"160.54331"
"$GPGGA,130218,2516.0460,N,08004.5930,W,1,8,1.8,17,"
"##MN-00 00 90 0599 01856 5516 430037 926571 191"
"160.543356"
"$GPGGA,130222,2516.0450,N,08004.5928,W,1,8,1.8,17,"
"##MN-00 00 90 0599 01857 5516 429973 926572 191"
"160.543403"
"$GPGGA,130226,2516.0436,N,08004.5928,W,1,9,1.4,17,"
"##MN-00 00 90 0599 01855 5517 429149 926572 191"
"160.543449"
"$GPGGA,130230,2516.0425,N,08004.5926,W,1,9,1.4,17,"
"##MN-00 00 90 0599 01857 5517 428047 926573 191"
"160.543495"
"$GPGGA,130234,2516.0416,N,08004.5920,W,1,9,1.4,18,"
"##MN-00 00 90 0599 01856 5517 426227 926574 191"
"160.543542"
"$GPGGA,130238,2516.0412,N,08004.5911,W,1,8,1.8,18,"
"##MN-00 00 90 0599 01856 5517 424291 926574 191"
"160.543588"
"$GPGGA,130242,2516.0405,N,08004.5902,W,1,8,1.8,18,"
"##MN-00 00 90 0599 01858 5518 423924 926576 191"
"160.543634"
"$GPGGA,130246,2516.0395,N,08004.5894,W,1,8,1.8,18,"
"##MN-00 00 90 0599 01856 5518 422074 926576 191"
"160.543681"
"$GPGGA,130250,2516.0387,N,08004.5885,W,1,7,1.8,18,"
"##MN-00 00 89 0599 01856 5518 420248 926363 191"
"160.543727"
"$GPGGA,130254,2516.0378,N,08004.5873,W,1,8,1.8,18,"
"##MN-00 00 86 0599 01856 5518 418722 926307 191"
"160.543773"
"$GPGGA,130258,2516.0369,N,08004.5862,W,1,8,1.8,18,"
"##MN-00 00 76 0599 01857 5519 418270 926309 191"
"160.543819"
"$GPGGA,130302,2516.0360,N,08004.5849,W,1,8,1.8,18,"
"##MN-00 00 71 0599 01856 5519 418537 926262 191"
"160.543866"
"$GPGGA,130306,2516.0350,N,08004.5837,W,1,8,1.8,18,"
"##MN-00 00 57 0599 01857 5519 419085 926260 191"
"160.543912"
"$GPGGA,130310,2516.0341,N,08004.5824,W,1,8,2.0,18,"
"##MN-00 00 44 0599 01857 5520 419234 926273 191"
"160.543958"
"$GPGGA,130314,2516.0332,N,08004.5811,W,1,8,1.8,18,"
"##MN-00 00 34 0599 01858 5520 419813 926280 191"
"160.544005"
"$GPGGA,130318,2516.0323,N,08004.5798,W,1,7,1.8,18,"
"##MN-00 00 32 0599 01857 5520 420871 926299 191"
"160.544051"
"$GPGGA,130322,2516.0315,N,08004.5783,W,1,8,1.8,18,"
"##MN-00 00 32 0599 01855 5521 422117 926321 191"
"160.544097"
"$GPGGA,130326,2516.0308,N,08004.5768,W,1,7,1.8,18,"
"##MN-00 00 30 0599 01857 5521 422984 926343 191"
"160.544144"
"$GPGGA,130330,2516.0301,N,08004.5751,W,1,8,1.8,18,"
"##MN-00 00 33 0599 01860 5522 424141 926344 191"
"160.54419"
"$GPGGA,130334,2516.0296,N,08004.5735,W,1,8,1.8,18,"
"##MN-00 00 37 0599 01859 5522 426226 926344 191"
"160.544236"
"$GPGGA,130338,2516.0290,N,08004.5719,W,1,8,2.0,18,"
"##MN-00 00 45 0599 01855 5522 427654 926343 191"
"160.544282"
"$GPGGA,130342,2516.0284,N,08004.5704,W,1,8,1.8,18,"
"##MN-00 00 49 0600 01858 5523 433947 360960 191"
"160.54434"
"$GPGGA,130346,2516.0277,N,08004.5688,W,1,8,1.8,18,"
"##MN-00 00 55 0601 01858 5523 435047 347017 191"
"160.544387"
"$GPGGA,130350,2516.0271,N,08004.5671,W,1,8,1.8,18,"
"##MN-00 00 59 0602 01857 5523 435038 347012 191"
"160.544433"
"$GPGGA,130354,2516.0266,N,08004.5655,W,1,8,1.8,18,"
"##MN-00 00 60 0603 01858 5523 435095 346928 191"
"160.544479"
"$GPGGA,130358,2516.0262,N,08004.5637,W,1,8,1.8,18,"
"##MN-00 00 60 0604 01857 5524 435219 346917 191"
"160.544525"
"$GPGGA,130402,2516.0260,N,08004.5620,W,1,8,1.8,18,"
"##MN-00 00 61 0605 01857 5524 435297 346878 191"
"160.544572"
"$GPGGA,130406,2516.0259,N,08004.5604,W,1,8,1.8,18,"
"##MN-00 00 61 0607 01856 5524 435307 346919 191"
"160.544618"
"$GPGGA,130410,2516.0259,N,08004.5587,W,1,8,1.8,18,"
"##MN-00 00 61 0608 01861 5525 435327 346897 191"
"160.544664"
"$GPGGA,130414,2516.0259,N,08004.5570,W,1,8,1.8,18,"
"##MN-00 00 61 0609 01867 5525 435347 346901 191"
"160.544711"
"$GPGGA,130419,2516.0261,N,08004.5549,W,1,8,1.8,17,"
"##MN-00 00 60 0610 01873 5525 435385 346899 191"
"160.544757"
"$GPGGA,130422,2516.0264,N,08004.5536,W,1,8,1.8,17,"
"##MN-00 00 60 0611 01879 5526 435411 346881 191"
"160.544803"
"$GPGGA,130427,2516.0266,N,08004.5516,W,1,8,1.8,17,"
"##MN-00 00 60 0611 01886 5526 435433 346863 191"
"160.54485"
"$GPGGA,130431,2516.0271,N,08004.5499,W,1,8,1.8,17,"
"##MN-00 00 60 0612 01899 5526 435448 346848 191"
"160.544896"
"$GPGGA,130435,2516.0275,N,08004.5483,W,1,8,1.8,16,"
"##MN-00 00 60 0613 01908 5527 435484 346858 191"
"160.544942"
"$GPGGA,130439,2516.0278,N,08004.5466,W,1,8,1.8,16,"
"##MN-00 00 59 0614 01915 5527 435510 346865 191"
"160.544988"
"$GPGGA,130443,2516.0282,N,08004.5450,W,1,8,1.8,16,"
"##MN-00 00 58 0615 01925 5527 435582 346877 191"
"160.545035"
"$GPGGA,130447,2516.0286,N,08004.5433,W,1,8,1.8,16,"
"##MN-00 00 58 0616 01933 5528 435695 346885 191"
"160.545081"
"$GPGGA,130451,2516.0292,N,08004.5418,W,1,8,1.8,15,"
"##MN-00 00 58 0616 01943 5528 435768 346895 191"
"160.545127"
"$GPGGA,130455,2516.0296,N,08004.5401,W,1,8,1.8,15,"
"##MN-00 00 57 0617 01950 5528 435882 346941 191"
"160.545174"
"$GPGGA,130459,2516.0300,N,08004.5385,W,1,8,1.8,15,"
"##MN-00 00 58 0618 01961 5529 436028 347008 191"
"160.54522"
"$GPGGA,130503,2516.0307,N,08004.5369,W,1,8,1.8,15,"
"##MN-00 00 57 0619 01970 5529 436380 347143 191"
"160.545266"
"$GPGGA,130507,2516.0311,N,08004.5353,W,1,8,1.8,14,"
"##MN-00 00 57 0620 01977 5529 436665 347144 191"
"160.545312"
"$GPGGA,130511,2516.0316,N,08004.5341,W,1,8,1.8,14,"
"##MN-00 00 57 0620 01989 5529 436901 347197 191"
"160.545359"
"$GPGGA,130515,2516.0324,N,08004.5324,W,1,8,2.0,14,"
"##MN-00 00 56 0621 01997 5529 437071 347344 191"
"160.545405"
"$GPGGA,130519,2516.0332,N,08004.5310,W,1,8,1.8,14,"
"##MN-00 00 56 0622 02007 5530 437211 347349 191"
"160.545451"
"$GPGGA,130523,2516.0339,N,08004.5295,W,1,8,1.8,14,"
"##MN-00 00 55 0623 02010 5530 437283 347328 191"
"160.545498"
"$GPGGA,130527,2516.0345,N,08004.5280,W,1,8,1.8,15,"
"##MN-00 00 52 0623 02010 5530 437360 347356 191"
"160.545544"
"$GPGGA,130531,2516.0350,N,08004.5265,W,1,7,2.0,15,"
"##MN-00 00 51 0624 02009 5530 437394 347422 191"
"160.54559"
"$GPGGA,130535,2516.0357,N,08004.5250,W,1,8,1.8,15,"
"##MN-00 00 51 0625 02006 5530 437410 347446 191"
"160.545637"
"$GPGGA,130539,2516.0363,N,08004.5234,W,1,7,2.0,15,"
"##MN-00 00 51 0626 02001 5530 437424 347460 191"
"160.545683"
"$GPGGA,130543,2516.0369,N,08004.5219,W,1,7,2.0,14,"
"##MN-00 00 51 0627 02002 5531 437430 347433 191"
"160.545729"
"$GPGGA,130547,2516.0378,N,08004.5205,W,1,8,1.8,14,"
"##MN-00 00 51 0628 02000 5531 437436 347454 191"
"160.545775"
"$GPGGA,130551,2516.0385,N,08004.5190,W,1,8,1.8,14,"
"##MN-00 00 51 0629 01998 5531 437429 347469 191"
"160.545822"
"$GPGGA,130555,2516.0392,N,08004.5175,W,1,8,1.8,14,"
"##MN-00 00 51 0630 01996 5531 437421 347457 191"
"160.545868"
"$GPGGA,130559,2516.0401,N,08004.5159,W,1,7,1.9,14,"
"##MN-00 00 50 0631 01991 5531 437409 347447 191"
"160.545914"
"$GPGGA,130603,2516.0410,N,08004.5144,W,1,7,1.9,14,"
"##MN-00 00 50 0632 01987 5531 437404 347450 191"
"160.545961"
"$GPGGA,130607,2516.0416,N,08004.5130,W,1,7,2.0,14,"
"##MN-00 00 50 0633 01985 5531 437393 347451 191"
"160.546007"
"$GPGGA,130611,2516.0423,N,08004.5117,W,1,8,1.8,14,"
"##MN-00 00 49 0634 01983 5531 437370 347445 191"
"160.546053"
"$GPGGA,130615,2516.0428,N,08004.5103,W,1,7,1.9,14,"
"##MN-00 00 50 0635 01980 5531 437338 347449 191"
"160.5461"
"$GPGGA,130619,2516.0434,N,08004.5089,W,1,8,1.8,15,"
"##MN-00 00 49 0636 01975 5532 437298 347451 191"
"160.546146"
"$GPGGA,130623,2516.0441,N,08004.5074,W,1,8,1.8,15,"
"##MN-00 00 51 0637 01975 5532 437253 347452 191"
"160.546192"
"$GPGGA,130627,2516.0451,N,08004.5059,W,1,8,1.8,15,"
"##MN-00 00 51 0638 01975 5531 437209 347455 191"
"160.546238"
"$GPGGA,130631,2516.0459,N,08004.5044,W,1,8,1.8,15,"
"##MN-00 00 51 0639 01976 5532 437182 347425 191"
"160.546285"
"$GPGGA,130635,2516.0466,N,08004.5029,W,1,8,1.8,15,"
"##MN-00 00 51 0640 01977 5532 437184 347368 191"
"160.546331"
"$GPGGA,130639,2516.0475,N,08004.5015,W,1,8,1.8,15,"
"##MN-00 00 50 0640 01978 5532 437209 347374 191"
"160.546377"
"$GPGGA,130643,2516.0484,N,08004.5000,W,1,8,1.8,15,"
"##MN-00 00 50 0641 01976 5532 437238 347374 191"
"160.546424"
"$GPGGA,130647,2516.0490,N,08004.4984,W,1,7,2.0,15,"
"##MN-00 00 50 0642 01979 5532 437252 347394 191"
"160.54647"
"$GPGGA,130651,2516.0499,N,08004.4973,W,1,8,1.8,16,"
"##MN-00 00 51 0643 01976 5532 437248 347425 191"
"160.546516"
"$GPGGA,130655,2516.0506,N,08004.4961,W,1,8,1.9,16,"
"##MN+00 00 51 0644 01976 5532 437244 347391 191"
"160.546563"
"$GPGGA,130659,2516.0512,N,08004.4947,W,1,7,2.0,16,"
"##MN+00 00 50 0645 01977 5532 437246 347404 191"
"160.546609"
"$GPGGA,130703,2516.0517,N,08004.4932,W,1,8,1.8,17,"
"##MN+00 00 50 0646 01975 5532 437253 347418 191"
"160.546655"
"$GPGGA,130707,2516.0524,N,08004.4919,W,1,8,1.9,17,"
"##MN+00 00 50 0647 01975 5532 437254 347434 190"
"160.546701"
"$GPGGA,130711,2516.0531,N,08004.4905,W,1,8,1.9,17,"
"##MN+00 00 51 0647 01975 5532 437254 347404 190"
"160.546748"
"$GPGGA,130715,2516.0538,N,08004.4892,W,1,8,1.9,17,"
"##MN+00 00 51 0648 01976 5532 437257 347392 190"
"160.546794"
"$GPGGA,130719,2516.0544,N,08004.4877,W,1,8,1.9,17,"
"##MN-00 00 57 0649 01979 5532 437268 347395 190"
"160.54684"
"$GPGGA,130723,2516.0549,N,08004.4862,W,1,8,1.9,17,"
"##MN-00 00 53 0650 01978 5532 437277 347412 190"
"160.546887"
"$GPGGA,130727,2516.0556,N,08004.4847,W,1,8,1.9,17,"
"##MN-00 00 50 0651 01975 5532 437281 347422 190"
"160.546933"
"#increment_net"
"$GPGGA,130731,2516.0563,N,08004.4833,W,1,8,1.9,17,"
"##MN-00 00 49 0652 01973 5532 437281 347390 190"
"160.546979"
"$GPGGA,130735,2516.0571,N,08004.4817,W,1,7,2.0,17,"
"##MN-00 00 49 0653 01972 5532 437271 347364 190"
"160.547025"
"$GPGGA,130739,2516.0584,N,08004.4807,W,1,8,1.9,17,"
"##MN-00 00 49 0653 01971 5532 437265 347378 190"
"160.547072"
"$GPGGA,130743,2516.0592,N,08004.4794,W,1,8,1.9,17,"
"##MN-00 00 50 0654 01973 5532 437264 347390 190"
"160.547118"
"$GPGGA,130747,2516.0600,N,08004.4780,W,1,8,1.9,17,"
"##MN-00 00 50 0655 01971 5532 437262 347390 190"
"160.547164"
"$GPGGA,130751,2516.0609,N,08004.4767,W,1,7,1.9,17,"
"##MN-00 00 50 0656 01972 5532 437259 347346 190"
"160.547211"
"$GPGGA,130755,2516.0616,N,08004.4754,W,1,8,1.9,17,"
"##MN-00 00 50 0657 01972 5532 437253 347347 190"
"160.547257"
"$GPGGA,130759,2516.0624,N,08004.4741,W,1,8,1.9,17,"
"##MN-00 00 50 0658 01973 5532 437250 347370 190"
"160.547303"
"$GPGGA,130803,2516.0632,N,08004.4728,W,1,8,1.9,17,"
"##MN-00 00 50 0658 01970 5532 437238 347325 190"
"160.54735"
"$GPGGA,130807,2516.0638,N,08004.4716,W,1,8,1.9,17,"
"##MN-00 00 49 0659 01973 5532 437229 347324 190"
"160.547396"
"$GPGGA,130811,2516.0643,N,08004.4704,W,1,8,1.9,17,"
"##MN-00 00 49 0660 01969 5532 437220 347334 190"
"160.547442"
"$GPGGA,130815,2516.0650,N,08004.4692,W,1,8,1.9,17,"
"##MN-00 00 49 0661 01972 5532 437216 347360 190"
"160.547488"
"$GPGGA,130819,2516.0658,N,08004.4679,W,1,8,1.9,17,"
"##MN-00 00 49 0662 01972 5532 437213 347378 190"
"160.547535"
"$GPGGA,130823,2516.0664,N,08004.4667,W,1,8,1.9,17,"
"##MN-00 00 49 0663 01971 5532 437216 347354 190"
"160.547593"
"$GPGGA,130827,2516.0671,N,08004.4654,W,1,8,1.9,17,"
"##MN-00 00 49 0663 01971 5532 437232 347283 190"
"160.547639"
"$GPGGA,130831,2516.0679,N,08004.4642,W,1,8,1.9,17,"
"##MN-00 00 49 0664 01972 5531 437253 347294 190"
"160.547685"
"$GPGGA,130835,2516.0686,N,08004.4629,W,1,8,1.9,17,"
"##MN-00 00 50 0665 01970 5532 437276 347311 190"
"160.547731"
"$GPGGA,130839,2516.0693,N,08004.4617,W,1,8,1.9,17,"
"##MN-00 00 50 0666 01973 5531 437280 347327 190"
"160.547778"
"$GPGGA,130843,2516.0701,N,08004.4605,W,1,8,1.9,17,"
"##MN-00 00 50 0667 01972 5531 437276 347325 190"
"160.547824"
"$GPGGA,130847,2516.0708,N,08004.4592,W,1,8,1.9,17,"
"##MN-00 00 50 0668 01969 5531 437267 347256 190"
"160.54787"
"$GPGGA,130852,2516.0718,N,08004.4576,W,1,8,1.9,17,"
"##MN-00 00 50 0668 01971 5531 437267 347278 190"
"160.547917"
"$GPGGA,130856,2516.0726,N,08004.4563,W,1,8,1.9,17,"
"##MN-00 00 50 0669 01971 5531 437270 347317 190"
"160.547963"
"$GPGGA,130859,2516.0732,N,08004.4554,W,1,8,1.9,17,"
"##MN-00 00 49 0670 01969 5531 437283 347341 190"
"160.548009"
"$GPGGA,130904,2516.0741,N,08004.4538,W,1,8,1.9,17,"
"##MN-00 00 50 0671 01972 5531 437299 347300 190"
"160.548056"
"$GPGGA,130908,2516.0750,N,08004.4525,W,1,8,1.9,17,"
"##MN-00 00 49 0672 01968 5530 437306 347242 190"
"160.548102"
"$GPGGA,130912,2516.0757,N,08004.4512,W,1,8,1.9,17,"
"##MN-00 00 50 0673 01972 5531 437312 347259 190"
"160.548148"
"$GPGGA,130916,2516.0764,N,08004.4499,W,1,8,1.9,17,"
"##MN+00 00 50 0673 01972 5531 437332 347306 190"
"160.548194"
"$GPGGA,130920,2516.0770,N,08004.4487,W,1,8,1.9,17,"
"##MN+00 00 50 0674 01970 5531 437351 347347 190"
"160.548241"
"$GPGGA,130924,2516.0777,N,08004.4474,W,1,8,1.9,17,"
"##MN+00 00 50 0675 01970 5530 437361 347359 190"
"160.548287"
"$GPGGA,130928,2516.0784,N,08004.4462,W,1,8,1.9,17,"
"##MN-00 00 50 0676 01970 5530 437359 347290 190"
"160.548333"
"$GPGGA,130932,2516.0791,N,08004.4450,W,1,8,1.9,17,"
"##MN-00 00 50 0677 01973 5530 437335 347350 190"
"160.54838"
"$GPGGA,130936,2516.0797,N,08004.4438,W,1,8,1.9,17,"
"##MN-00 00 50 0678 01971 5531 437312 347338 190"
"160.548426"
"$GPGGA,130940,2516.0804,N,08004.4425,W,1,8,1.9,16,"
"##MN-00 00 51 0679 01972 5530 437292 347271 190"
"160.548472"
"$GPGGA,130944,2516.0811,N,08004.4412,W,1,8,1.9,16,"
"##MN+00 00 50 0679 01969 5530 437266 347198 190"
"160.548518"
"$GPGGA,130948,2516.0817,N,08004.4400,W,1,8,1.9,16,"
"##MN+00 00 50 0680 01969 5530 437245 347203 190"
"160.548565"
"$GPGGA,130952,2516.0824,N,08004.4387,W,1,8,1.9,16,"
"##MN+00 00 50 0681 01967 5530 437230 347248 190"
"160.548611"
"$GPGGA,130956,2516.0831,N,08004.4375,W,1,8,1.9,16,"
"##MN-00 00 60 0682 01971 5530 437230 347268 190"
"160.548657"
"#increment_net"
"$GPGGA,131000,2516.0840,N,08004.4363,W,1,8,1.9,16,"
"##MN-00 00 55 0683 01971 5529 437263 347184 190"
"160.548704"
"$GPGGA,131004,2516.0846,N,08004.4350,W,1,8,1.9,16,"
"##MN-00 00 51 0684 01968 5529 437312 347152 190"
"160.54875"
"$GPGGA,131008,2516.0853,N,08004.4338,W,1,8,1.9,16,"
"##MN-00 00 50 0685 01967 5529 437340 347193 190"
"160.548796"
"$GPGGA,131012,2516.0860,N,08004.4326,W,1,8,1.9,16,"
"##MN-00 00 49 0685 01969 5529 437358 347242 190"
"160.548843"
"$GPGGA,131016,2516.0869,N,08004.4313,W,1,8,1.9,15,"
"##MN-00 00 49 0686 01969 5529 437370 347164 190"
"160.548889"
"$GPGGA,131020,2516.0876,N,08004.4301,W,1,8,1.9,15,"
"##MN-00 00 49 0687 01969 5529 437377 347175 190"
"160.548935"
"$GPGGA,131024,2516.0884,N,08004.4290,W,1,8,1.9,15,"
"##MN-00 00 49 0688 01968 5529 437378 347219 190"
"160.548981"
"$GPGGA,131028,2516.0891,N,08004.4278,W,1,8,1.9,15,"
"##MN-00 00 49 0689 01968 5529 437378 347152 190"
"160.549028"
"$GPGGA,131032,2516.0899,N,08004.4266,W,1,8,1.9,15,"
"##MN-00 00 49 0690 01968 5529 437378 347245 190"
"160.549074"
"$GPGGA,131036,2516.0906,N,08004.4254,W,1,8,1.9,15,"
"##MN-00 00 49 0691 01969 5528 437392 347137 190"
"160.54912"
"$GPGGA,131040,2516.0914,N,08004.4242,W,1,8,1.9,15,"
"##MN-00 00 49 0691 01966 5529 437411 347215 190"
"160.549167"
"$GPGGA,131044,2516.0921,N,08004.4233,W,1,7,1.9,15,"
"##MN-00 00 48 0692 01965 5528 437440 347182 190"
"160.549213"
"$GPGGA,131048,2516.0929,N,08004.4223,W,1,8,1.9,15,"
"##MN-00 00 49 0693 01969 5528 437469 347175 190"
"160.549259"
"$GPGGA,131052,2516.0936,N,08004.4210,W,1,7,1.9,15,"
"##MN-00 00 49 0694 01967 5528 437484 347269 190"
"160.549306"
"$GPGGA,131056,2516.0943,N,08004.4197,W,1,8,2.1,15,"
"##MN-00 00 49 0695 01969 5528 437500 347152 190"
"160.549352"
"$GPGGA,131100,2516.0950,N,08004.4186,W,1,7,2.1,15,"
"##MN-00 00 49 0696 01968 5528 437508 347215 190"
"160.549398"
"$GPGGA,131104,2516.0960,N,08004.4178,W,1,8,1.9,15,"
"##MN-00 00 49 0696 01969 5528 437517 347191 190"
"160.549444"
"$GPGGA,131108,2516.0968,N,08004.4166,W,1,8,1.9,15,"
"##MN-00 00 49 0697 01971 5528 437516 347270 190"
"160.549491"
"$GPGGA,131112,2516.0975,N,08004.4154,W,1,8,1.9,15,"
"##MN-00 00 49 0698 01969 5527 437511 347164 190"
"160.549537"
"$GPGGA,131116,2516.0985,N,08004.4142,W,1,8,1.9,15,"
"##MN-00 00 49 0699 01969 5527 437501 347264 190"
"160.549583"
"$GPGGA,131120,2516.0993,N,08004.4132,W,1,8,1.9,15,"
"##MN-00 00 49 0700 01969 5527 437493 347165 190"
"160.54963"
"$GPGGA,131124,2516.1000,N,08004.4119,W,1,8,2.1,15,"
"##MN-00 00 49 0701 01970 5527 437489 347253 190"
"160.549676"
"$GPGGA,131128,2516.1008,N,08004.4107,W,1,8,1.9,15,"
"##MN-00 00 49 0701 01970 5527 437472 347157 190"
"160.549722"
"$GPGGA,131132,2516.1015,N,08004.4096,W,1,8,1.9,15,"
"##MN-00 00 49 0702 01968 5526 437455 347155 190"
"160.549769"
"$GPGGA,131136,2516.1026,N,08004.4085,W,1,7,1.9,15,"
"##MN-00 00 49 0703 01970 5527 437438 347162 190"
"160.549815"
"$GPGGA,131140,2516.1033,N,08004.4075,W,1,8,1.9,15,"
"##MN+00 00 49 0704 01970 5527 437428 347232 190"
"160.549861"
"$GPGGA,131144,2516.1043,N,08004.4064,W,1,8,1.9,15,"
"##MN+00 00 48 0705 01970 5526 437422 347119 190"
"160.549907"
"$GPGGA,131148,2516.1051,N,08004.4055,W,1,8,1.9,15,"
"##MN+00 00 49 0706 01970 5526 437417 347209 190"
"160.549954"
"$GPGGA,131152,2516.1059,N,08004.4046,W,1,7,2.1,15,"
"##MN-00 00 49 0706 01971 5526 437412 347241 190"
"160.55"
"$GPGGA,131156,2516.1068,N,08004.4040,W,1,8,1.9,15,"
"##MN-00 00 49 0707 01969 5526 437407 347081 190"
"160.550046"
"$GPGGA,131200,2516.1076,N,08004.4031,W,1,8,1.9,15,"
"##MN-00 00 48 0708 01969 5526 437401 347128 190"
"160.550093"
"$GPGGA,131204,2516.1083,N,08004.4022,W,1,8,1.9,16,"
"##MN-00 00 49 0709 01969 5526 437396 347211 190"
"160.550139"
"$GPGGA,131208,2516.1091,N,08004.4011,W,1,8,1.9,16,"
"##MN+00 00 49 0710 01968 5525 437392 347143 190"
"160.550185"
"$GPGGA,131212,2516.1100,N,08004.4000,W,1,8,1.9,16,"
"##MN+00 00 49 0711 01968 5525 437390 347112 190"
"160.550231"
"$GPGGA,131216,2516.1108,N,08004.3989,W,1,8,1.9,17,"
"##MN+00 00 49 0712 01970 5525 437388 347197 189"
"160.550278"
"$GPGGA,131220,2516.1116,N,08004.3978,W,1,8,1.9,17,"
"##MN-00 00 59 0712 01971 5525 437387 347092 190"
"160.550324"
"#increment_net"
"$GPGGA,131224,2516.1123,N,08004.3969,W,1,8,1.9,17,"
"##MN-00 00 55 0713 01969 5525 437394 347158 190"
"160.55037"
"$GPGGA,131228,2516.1129,N,08004.3959,W,1,8,1.9,17,"
"##MN-00 00 51 0714 01970 5525 437400 347139 190"
"160.550417"
"$GPGGA,131232,2516.1135,N,08004.3951,W,1,8,1.9,17,"
"##MN-00 00 49 0715 01968 5524 437402 347175 190"
"160.550463"
"$GPGGA,131236,2516.1142,N,08004.3941,W,1,8,1.9,17,"
"##MN-00 00 49 0716 01968 5524 437400 347147 190"
"160.550509"
"$GPGGA,131240,2516.1149,N,08004.3932,W,1,8,1.9,17,"
"##MN-00 00 48 0717 01966 5524 437398 347234 190"
"160.550556"
"$GPGGA,131244,2516.1155,N,08004.3923,W,1,8,1.9,17,"
"##MN-00 00 48 0718 01968 5524 437394 347108 190"
"160.550602"
"$GPGGA,131248,2516.1159,N,08004.3913,W,1,7,1.9,17,"
"##MN-00 00 48 0719 01968 5524 437382 347218 190"
"160.550648"
"$GPGGA,131252,2516.1166,N,08004.3904,W,1,7,1.9,16,"
"##MN-00 00 48 0719 01968 5524 437368 347115 190"
"160.550694"
"$GPGGA,131256,2516.1171,N,08004.3895,W,1,8,1.9,16,"
"##MN-00 00 48 0720 01968 5524 437360 347189 190"
"160.550741"
"$GPGGA,131300,2516.1180,N,08004.3886,W,1,8,2.1,16,"
"##MN-00 00 48 0721 01968 5523 437362 347083 190"
"160.550787"
"$GPGGA,131304,2516.1189,N,08004.3878,W,1,8,1.9,16,"
"##MN-00 00 48 0722 01969 5523 437360 347199 190"
"160.550845"
"$GPGGA,131308,2516.1196,N,08004.3870,W,1,8,1.9,16,"
"##MN-00 00 48 0723 01969 5523 437362 347039 190"
"160.550891"
"$GPGGA,131312,2516.1203,N,08004.3863,W,1,8,1.9,16,"
"##MN-00 00 48 0724 01969 5523 437361 347171 190"
"160.550937"
"$GPGGA,131316,2516.1210,N,08004.3854,W,1,7,1.9,15,"
"##MN-00 00 48 0725 01968 5523 437364 347025 190"
"160.550984"
"$GPGGA,131320,2516.1217,N,08004.3850,W,1,8,1.9,15,"
"##MN-00 00 48 0726 01968 5523 437363 347152 190"
"160.55103"
"$GPGGA,131325,2516.1235,N,08004.3838,W,1,7,2.1,15,"
"##MN-00 00 48 0726 01969 5523 437359 347007 190"
"160.551076"
"$GPGGA,131328,2516.1242,N,08004.3833,W,1,8,2.1,16,"
"##MN-00 00 48 0727 01968 5523 437354 347173 190"
"160.551123"
"$GPGGA,131332,2516.1250,N,08004.3826,W,1,8,1.9,16,"
"##MN-00 00 48 0728 01969 5523 437345 347008 190"
"160.551169"
"$GPGGA,131337,2516.1261,N,08004.3817,W,1,8,1.9,16,"
"##MN-00 00 48 0729 01971 5522 437334 347166 190"
"160.551215"
"$GPGGA,131341,2516.1270,N,08004.3812,W,1,8,1.9,17,"
"##MN-00 00 48 0730 01969 5522 437326 347012 190"
"160.551262"
"$GPGGA,131345,2516.1277,N,08004.3806,W,1,8,1.9,17,"
"##MN-00 00 47 0731 01969 5522 437315 347097 190"
"160.551308"
"$GPGGA,131349,2516.1283,N,08004.3801,W,1,7,1.9,17,"
"##MN-00 00 48 0731 01969 5522 437275 346992 190"
"160.551354"
"$GPGGA,131353,2516.1292,N,08004.3795,W,1,7,1.9,17,"
"##MN-00 00 47 0732 01969 5522 437248 347134 190"
"160.5514"
"$GPGGA,131357,2516.1299,N,08004.3789,W,1,7,1.9,17,"
"##MN-00 00 47 0733 01969 5521 437235 346991 190"
"160.551447"
"$GPGGA,131401,2516.1307,N,08004.3783,W,1,7,1.9,17,"
"##MN-00 00 47 0734 01972 5522 437234 347154 190"
"160.551493"
"$GPGGA,131405,2516.1312,N,08004.3777,W,1,8,1.9,17,"
"##MN-00 00 47 0735 01971 5521 437230 346974 190"
"160.551539"
"$GPGGA,131409,2516.1321,N,08004.3771,W,1,8,1.9,16,"
"##MN-00 00 48 0736 01971 5521 437212 347117 190"
"160.551586"
"$GPGGA,131413,2516.1328,N,08004.3764,W,1,8,1.9,16,"
"##MN-00 00 47 0737 01967 5521 437193 346968 190"
"160.551632"
"$GPGGA,131417,2516.1335,N,08004.3758,W,1,8,1.9,16,"
"##MN+00 00 48 0737 01970 5521 437181 347086 190"
"160.551678"
"$GPGGA,131421,2516.1343,N,08004.3750,W,1,7,2.1,16,"
"##MN+00 00 47 0738 01970 5521 437173 346930 189"
"160.551725"
"$GPGGA,131425,2516.1353,N,08004.3745,W,1,7,1.9,15,"
"##MN+00 00 48 0739 01971 5520 437161 347104 190"
"160.551771"
"$GPGGA,131429,2516.1364,N,08004.3740,W,1,8,1.9,15,"
"##MN+00 00 47 0740 01970 5520 437151 346933 189"
"160.551817"
"$GPGGA,131433,2516.1373,N,08004.3734,W,1,8,1.9,15,"
"##MN+00 00 48 0741 01971 5520 437140 346998 190"
"160.551863"
"$GPGGA,131437,2516.1380,N,08004.3728,W,1,7,1.9,15,"
"##MN+00 00 47 0742 01970 5520 437139 347027 189"
"160.55191"
"$GPGGA,131441,2516.1391,N,08004.3720,W,1,8,1.9,15,"
"##MN-00 00 57 0743 01975 5520 437147 346972 190"
"160.551956"
"$GPGGA,131445,2516.1400,N,08004.3714,W,1,8,1.9,15,"
"##MN-00 00 54 0743 01973 5520 437158 347059 190"
"160.552002"
"#increment_net"
"$GPGGA,131449,2516.1408,N,08004.3709,W,1,8,1.9,15,"
"##MN-00 00 51 0744 01973 5520 437175 346937 190"
"160.552049"
"$GPGGA,131453,2516.1415,N,08004.3704,W,1,7,1.9,15,"
"##MN-00 00 49 0745 01974 5520 437169 347050 190"
"160.552095"
"$GPGGA,131457,2516.1422,N,08004.3699,W,1,8,1.9,14,"
"##MN-00 00 48 0746 01972 5519 437153 346995 190"
"160.552141"
"$GPGGA,131501,2516.1429,N,08004.3694,W,1,8,1.9,14,"
"##MN-00 00 48 0747 01970 5519 437135 346986 190"
"160.552187"
"$GPGGA,131505,2516.1437,N,08004.3689,W,1,8,1.9,14,"
"##MN-00 00 48 0748 01970 5519 437129 346991 190"
"160.552234"
"$GPGGA,131509,2516.1444,N,08004.3684,W,1,8,1.9,14,"
"##MN-00 00 47 0749 01970 5519 437084 346931 190"
"160.55228"
"$GPGGA,131513,2516.1452,N,08004.3679,W,1,8,1.9,13,"
"##MN-00 00 47 0750 01969 5519 437063 347023 190"
"160.552326"
"$GPGGA,131517,2516.1459,N,08004.3674,W,1,8,1.9,13,"
"##MN-00 00 47 0751 01970 5518 437059 347016 190"
"160.552373"
"$GPGGA,131521,2516.1467,N,08004.3669,W,1,8,1.9,13,"
"##MN-00 00 48 0752 01971 5518 437038 346963 190"
"160.552419"
"$GPGGA,131525,2516.1474,N,08004.3665,W,1,8,1.9,13,"
"##MN-00 00 47 0753 01968 5518 437005 347030 190"
"160.552465"
"$GPGGA,131529,2516.1481,N,08004.3660,W,1,8,1.9,13,"
"##MN-00 00 48 0753 01967 5518 437001 347000 190"
"160.552512"
"$GPGGA,131533,2516.1489,N,08004.3655,W,1,8,1.9,13,"
"##MN-00 00 48 0754 01968 5518 436992 346940 190"
"160.552558"
"$GPGGA,131537,2516.1496,N,08004.3651,W,1,8,1.9,12,"
"##MN-00 00 48 0755 01969 5518 436989 346969 190"
"160.552604"
"$GPGGA,131541,2516.1505,N,08004.3646,W,1,8,1.9,12,"
"##MN-00 00 48 0756 01966 5518 437008 347032 190"
"160.55265"
"$GPGGA,131545,2516.1512,N,08004.3643,W,1,8,1.9,12,"
"##MN-00 00 48 0757 01969 5517 437014 346917 190"
"160.552697"
"$GPGGA,131549,2516.1520,N,08004.3638,W,1,8,1.9,12,"
"##MN-00 00 48 0758 01969 5517 437002 346993 190"
"160.552743"
"$GPGGA,131553,2516.1527,N,08004.3634,W,1,8,1.9,12,"
"##MN-00 00 48 0759 01967 5517 437012 346996 190"
"160.552789"
"$GPGGA,131557,2516.1535,N,08004.3630,W,1,8,1.9,11,"
"##MN-00 00 48 0760 01968 5517 436985 346913 190"
"160.552836"
"$GPGGA,131601,2516.1542,N,08004.3625,W,1,8,1.9,11,"
"##MN-00 00 48 0761 01969 5517 436972 346976 190"
"160.552882"
"$GPGGA,131605,2516.1549,N,08004.3621,W,1,8,1.9,11,"
"##MN-00 00 48 0762 01967 5517 436955 346988 190"
"160.552928"
"$GPGGA,131609,2516.1557,N,08004.3616,W,1,8,1.9,11,"
"##MN-00 00 48 0763 01967 5516 436940 346901 190"
"160.552975"
"$GPGGA,131613,2516.1564,N,08004.3613,W,1,8,1.9,11,"
"##MN-00 00 48 0764 01969 5517 436946 346917 190"
"160.553021"
"$GPGGA,131617,2516.1572,N,08004.3609,W,1,8,1.9,11,"
"##MN+00 00 48 0764 01967 5516 436946 346942 190"
"160.553067"
"$GPGGA,131621,2516.1579,N,08004.3605,W,1,8,1.9,11,"
"##MN+00 00 48 0765 01968 5516 436898 347016 190"
"160.553113"
"$GPGGA,131625,2516.1588,N,08004.3601,W,1,8,1.9,11,"
"##MN+00 00 48 0766 01967 5516 436855 346886 190"
"160.55316"
"$GPGGA,131629,2516.1596,N,08004.3597,W,1,8,1.9,11,"
"##MN-00 00 48 0767 01968 5516 436857 346948 190"
"160.553206"
"$GPGGA,131633,2516.1603,N,08004.3593,W,1,8,1.9,10,"
"##MN-00 00 48 0768 01969 5516 436917 346934 190"
"160.553252"
"$GPGGA,131637,2516.1610,N,08004.3589,W,1,8,1.9,10,"
"##MN-00 00 48 0769 01967 5516 437016 346873 190"
"160.553299"
"$GPGGA,131641,2516.1618,N,08004.3586,W,1,8,1.9,10,"
"##MN-00 00 48 0770 01968 5516 437102 347007 190"
"160.553345"
"$GPGGA,131645,2516.1626,N,08004.3582,W,1,8,1.9,10,"
"##MN+00 00 48 0771 01969 5516 437144 346972 190"
"160.553391"
"$GPGGA,131649,2516.1635,N,08004.3578,W,1,7,1.9,10,"
"##MN+00 00 48 0772 01968 5516 437075 346943 190"
"160.553438"
"$GPGGA,131653,2516.1644,N,08004.3572,W,1,8,1.9,10,"
"##MN+00 00 48 0773 01968 5515 436927 347039 190"
"160.553484"
"$GPGGA,131657,2516.1655,N,08004.3567,W,1,8,1.9,10,"
"##MN-00 00 58 0774 01970 5515 436812 346900 190"
"160.55353"
"#increment_net"
"$GPGGA,131701,2516.1662,N,08004.3563,W,1,7,1.9,10,"
"##MN-00 00 55 0775 01970 5515 436811 346875 190"
"160.553576"
"$GPGGA,131705,2516.1669,N,08004.3559,W,1,7,1.9,10,"
"##MN-00 00 51 0776 01975 5515 436878 346946 190"
"160.553623"
"$GPGGA,131709,2516.1676,N,08004.3556,W,1,7,1.9,10,"
"##MN-00 00 49 0777 01979 5515 437007 346840 190"
"160.553669"
"$GPGGA,131713,2516.1682,N,08004.3553,W,1,7,1.9,10,"
"##MN-00 00 46 0778 01979 5515 437151 346969 190"
"160.553715"
"$GPGGA,131717,2516.1689,N,08004.3550,W,1,7,1.9,10,"
"##MN-00 00 45 0780 01978 5515 437232 347036 190"
"160.553762"
"$GPGGA,131721,2516.1698,N,08004.3546,W,1,7,1.9,10,"
"##MN-00 00 44 0781 01978 5514 437254 346944 190"
"160.553808"
"$GPGGA,131725,2516.1705,N,08004.3543,W,1,7,1.9,10,"
"##MN-00 00 44 0782 01974 5515 437266 347002 190"
"160.553854"
"$GPGGA,131729,2516.1713,N,08004.3539,W,1,8,1.9,10,"
"##MN-00 00 43 0783 01970 5514 437246 347083 190"
"160.5539"
"$GPGGA,131733,2516.1720,N,08004.3536,W,1,8,1.9,10,"
"##MN-00 00 43 0785 01964 5514 437081 346951 190"
"160.553947"
"$GPGGA,131737,2516.1727,N,08004.3532,W,1,8,1.9,10,"
"##MN-00 00 43 0786 01956 5514 436864 346860 190"
"160.553993"
"$GPGGA,131741,2516.1734,N,08004.3529,W,1,8,1.9,10,"
"##MN-00 00 42 0787 01949 5514 436609 346895 190"
"160.554051"
"$GPGGA,131745,2516.1742,N,08004.3525,W,1,8,1.9,10,"
"##MN-00 00 41 0789 01944 5514 436346 346892 190"
"160.554097"
"$GPGGA,131749,2516.1747,N,08004.3520,W,1,8,1.6,10,"
"##MN-00 00 42 0790 01937 5514 436073 346692 190"
"160.554144"
"$GPGGA,131753,2516.1751,N,08004.3516,W,1,8,1.6,11,"
"##MN-00 00 42 0791 01930 5514 435744 346645 190"
"160.55419"
"$GPGGA,131757,2516.1755,N,08004.3513,W,1,8,1.6,11,"
"##MN-00 00 42 0792 01918 5513 435599 346586 190"
"160.554236"
"$GPGGA,131801,2516.1759,N,08004.3509,W,1,8,1.6,12,"
"##MN-00 00 42 0794 01911 5514 435520 346545 190"
"160.554282"
"$GPGGA,131805,2516.1765,N,08004.3506,W,1,8,1.6,13,"
"##MN-00 00 42 0795 01904 5513 435469 346418 190"
"160.554329"
"$GPGGA,131809,2516.1770,N,08004.3503,W,1,8,1.6,13,"
"##MN-00 00 42 0796 01894 5513 435429 346418 190"
"160.554375"
"$GPGGA,131813,2516.1776,N,08004.3500,W,1,8,1.6,14,"
"##MN-00 00 42 0797 01885 5513 435387 346426 190"
"160.554421"
"$GPGGA,131818,2516.1783,N,08004.3496,W,1,8,1.6,14,"
"##MN-00 00 42 0799 01877 5512 435352 346464 190"
"160.554468"
"$GPGGA,131822,2516.1788,N,08004.3493,W,1,8,1.6,15,"
"##MN-00 00 42 0800 01868 5512 435332 346330 190"
"160.554514"
"$GPGGA,131826,2516.1792,N,08004.3491,W,1,8,1.6,15,"
"##MN-00 00 42 0801 01860 5512 435306 346316 190"
