" Tow: L13s-A   RVWS/WS1406"
" Date: 06/09/2014"
" Temperature Probe #  2597    Conductivity Probe #  2870"
" Pressure Probe #  109"
" Flow Meter Calibration  4.71 (m/count)  "
"160.742222"
"$GPGGA,174840,2528.1579,N,08001.4990,W,1,9,1.5,18,"
"##MN-00 00 27 0084 01834 7073 385245 884898 215"
"160.742268"
"$GPGGA,174847,2528.1613,N,08001.4993,W,1,10,1.4,18"
"##MN-00 00 32 0085 01834 7073 432072 363557 215"
"160.742315"
"$GPGGA,174851,2528.1633,N,08001.4996,W,1,10,1.4,18"
"##MN-00 00 36 0086 01834 7074 432098 344992 215"
"160.742361"
"$GPGGA,174855,2528.1654,N,08001.4998,W,1,10,1.4,18"
"##MN-00 00 39 0086 01834 7074 433199 345257 215"
"160.742407"
"$GPGGA,174859,2528.1675,N,08001.5001,W,1,10,1.4,17"
"##MN-00 00 40 0087 01836 7075 433949 345620 215"
"160.742454"
"$GPGGA,174903,2528.1694,N,08001.5005,W,1,9,1.5,17,"
"##MN-00 00 41 0087 01842 7075 434423 345815 215"
"160.7425"
"$GPGGA,174907,2528.1713,N,08001.5009,W,1,9,1.5,17,"
"##MN-00 00 41 0088 01845 7075 434569 345944 215"
"160.742546"
"$GPGGA,174911,2528.1734,N,08001.5014,W,1,9,1.5,17,"
"##MN-00 00 42 0088 01850 7075 434826 346019 215"
"160.742593"
"$GPGGA,174915,2528.1755,N,08001.5018,W,1,9,1.5,16,"
"##MN-00 00 42 0089 01856 7075 435124 346104 215"
"160.742639"
"$GPGGA,174920,2528.1781,N,08001.5022,W,1,9,1.5,16,"
"##MN-00 00 41 0089 01859 7075 435261 346171 215"
"160.742685"
"$GPGGA,174924,2528.1803,N,08001.5025,W,1,9,1.5,16,"
"##MN-00 00 40 0090 01866 7075 435452 346246 215"
"160.742731"
"$GPGGA,174928,2528.1825,N,08001.5029,W,1,9,1.5,15,"
"##MN-00 00 40 0091 01873 7075 435685 346328 215"
"160.742778"
"$GPGGA,174932,2528.1846,N,08001.5032,W,1,9,1.5,15,"
"##MN-00 00 40 0091 01882 7075 435989 346806 215"
"160.742824"
"$GPGGA,174936,2528.1868,N,08001.5036,W,1,9,1.5,15,"
"##MN-00 00 41 0092 01891 7075 436331 347172 215"
"160.74287"
"$GPGGA,174940,2528.1890,N,08001.5038,W,1,9,1.5,14,"
"##MN-00 00 40 0092 01901 7074 436617 347245 215"
"160.742917"
"$GPGGA,174944,2528.1915,N,08001.5041,W,1,9,1.5,14,"
"##MN-00 00 39 0092 01910 7074 436847 347283 215"
"160.742963"
"$GPGGA,174948,2528.1937,N,08001.5045,W,1,9,1.5,14,"
"##MN-00 00 39 0093 01918 7073 437027 347376 215"
"160.743009"
"$GPGGA,174952,2528.1962,N,08001.5050,W,1,9,1.5,14,"
"##MN-00 00 39 0093 01925 7072 437087 347370 215"
"160.743056"
"$GPGGA,174956,2528.1986,N,08001.5052,W,1,9,1.5,14,"
"##MN-00 00 39 0094 01936 7071 437156 347387 215"
"160.743102"
"$GPGGA,175000,2528.2009,N,08001.5058,W,1,9,1.5,13,"
"##MN-00 00 39 0094 01948 7070 437202 347307 215"
"160.743148"
"$GPGGA,175004,2528.2034,N,08001.5061,W,1,8,1.5,13,"
"##MN-00 00 38 0095 01955 7069 437224 347422 215"
"160.743194"
"$GPGGA,175008,2528.2061,N,08001.5065,W,1,9,1.5,13,"
"##MN-00 00 38 0095 01960 7068 437285 347445 215"
"160.743241"
"$GPGGA,175012,2528.2087,N,08001.5069,W,1,9,1.9,13,"
"##MN-00 00 38 0095 01970 7067 437383 347480 215"
"160.743287"
"$GPGGA,175016,2528.2112,N,08001.5072,W,1,9,1.5,13,"
"##MN-00 00 38 0096 01978 7066 437664 347466 215"
"160.743333"
"$GPGGA,175020,2528.2135,N,08001.5076,W,1,10,1.4,14"
"##MN-00 00 37 0096 01986 7064 437999 347662 215"
"160.74338"
"$GPGGA,175024,2528.2161,N,08001.5079,W,1,10,1.4,14"
"##MN-00 00 37 0097 01994 7063 438286 347724 215"
"160.743426"
"$GPGGA,175028,2528.2188,N,08001.5085,W,1,9,1.9,14,"
"##MN-00 00 37 0097 02000 7061 438547 347647 215"
"160.743472"
"$GPGGA,175032,2528.2214,N,08001.5091,W,1,8,1.4,14,"
"##MN-00 00 37 0097 02009 7059 439084 347900 215"
"160.743519"
"$GPGGA,175036,2528.2239,N,08001.5098,W,1,8,1.4,15,"
"##MN-00 00 37 0098 02020 7058 439360 347992 215"
"160.743565"
"$GPGGA,175040,2528.2264,N,08001.5105,W,1,8,1.4,15,"
"##MN-00 00 36 0098 02027 7055 439479 347943 215"
"160.743611"
"$GPGGA,175044,2528.2287,N,08001.5108,W,1,8,1.9,15,"
"##MN-00 00 37 0099 02035 7053 439764 348086 215"
"160.743657"
"$GPGGA,175048,2528.2309,N,08001.5113,W,1,8,1.9,16,"
"##MN-00 00 36 0099 02043 7051 440367 348260 215"
"160.743704"
"$GPGGA,175052,2528.2334,N,08001.5126,W,1,9,1.4,16,"
"##MN-00 00 36 0100 02047 7049 440607 348077 215"
"160.74375"
"$GPGGA,175056,2528.2359,N,08001.5134,W,1,9,1.4,16,"
"##MN-00 00 36 0100 02053 7047 440704 347835 215"
"160.743796"
"$GPGGA,175100,2528.2384,N,08001.5145,W,1,10,1.4,17"
"##MN-00 00 37 0101 02062 7045 440801 348301 215"
"160.743843"
"$GPGGA,175104,2528.2409,N,08001.5153,W,1,10,1.4,17"
"##MN-00 00 37 0101 02069 7043 441121 348452 215"
"160.743889"
"$GPGGA,175108,2528.2434,N,08001.5160,W,1,10,1.4,18"
"##MN-00 00 37 0101 02075 7040 442554 348531 215"
"160.743935"
"$GPGGA,175112,2528.2456,N,08001.5168,W,1,9,1.4,18,"
"##MN-00 00 38 0102 02080 7038 443417 349102 215"
"160.743982"
"$GPGGA,175116,2528.2478,N,08001.5177,W,1,10,1.4,19"
"##MN-00 00 38 0102 02087 7035 443599 349036 215"
"160.744028"
"$GPGGA,175120,2528.2500,N,08001.5184,W,1,9,1.4,19,"
"##MN-00 00 38 0103 02091 7032 443941 349088 215"
"160.744074"
"$GPGGA,175124,2528.2521,N,08001.5191,W,1,10,1.4,19"
"##MN-00 00 39 0103 02098 7030 444280 349410 215"
"160.74412"
"$GPGGA,175128,2528.2542,N,08001.5199,W,1,10,1.4,19"
"##MN-00 00 39 0104 02105 7027 444547 349380 215"
"160.744167"
"$GPGGA,175132,2528.2562,N,08001.5206,W,1,10,1.4,19"
"##MN-00 00 39 0105 02111 7024 444732 349598 215"
"160.744213"
"$GPGGA,175136,2528.2583,N,08001.5213,W,1,10,1.4,19"
"##MN-00 00 38 0105 02107 7021 444879 349607 215"
"160.744259"
"$GPGGA,175140,2528.2605,N,08001.5220,W,1,9,1.5,19,"
"##MN-00 00 37 0106 02107 7018 444878 349252 215"
"160.744306"
"$GPGGA,175144,2528.2627,N,08001.5225,W,1,10,1.5,19"
"##MN-00 00 37 0106 02104 7015 444809 349339 215"
"160.744363"
"$GPGGA,175148,2528.2651,N,08001.5232,W,1,9,1.5,19,"
"##MN-00 00 38 0107 02103 7012 444758 349365 215"
"160.74441"
"$GPGGA,175152,2528.2669,N,08001.5243,W,1,10,1.4,19"
"##MN-00 00 38 0108 02101 7009 444668 349450 215"
"160.744456"
"$GPGGA,175156,2528.2690,N,08001.5253,W,1,10,1.5,19"
"##MN-00 00 38 0109 02101 7006 444605 349267 215"
"160.744502"
"$GPGGA,175200,2528.2710,N,08001.5262,W,1,9,1.5,19,"
"##MN-00 00 39 0109 02100 7003 444549 348946 215"
"160.744549"
"$GPGGA,175204,2528.2735,N,08001.5268,W,1,10,1.4,18"
"##MN-00 00 39 0110 02100 7000 444503 349266 215"
"160.744595"
"$GPGGA,175208,2528.2756,N,08001.5278,W,1,10,1.4,18"
"##MN-00 00 40 0111 02098 6996 444446 349314 215"
"160.744641"
"$GPGGA,175212,2528.2784,N,08001.5285,W,1,10,1.4,18"
"##MN-00 00 39 0111 02099 6993 444400 349272 215"
"160.744687"
"$GPGGA,175216,2528.2806,N,08001.5293,W,1,9,1.4,18,"
"##MN-00 00 40 0112 02097 6989 444375 349281 215"
"160.744734"
"$GPGGA,175220,2528.2831,N,08001.5304,W,1,10,1.4,19"
"##MN-00 00 40 0113 02097 6986 444364 349296 215"
"160.74478"
"$GPGGA,175224,2528.2854,N,08001.5314,W,1,10,1.4,19"
"##MN-00 00 40 0113 02100 6982 444344 349269 215"
"160.744826"
"$GPGGA,175228,2528.2876,N,08001.5321,W,1,10,1.4,19"
"##MN-00 00 40 0114 02097 6979 444327 349255 215"
"160.744873"
"$GPGGA,175232,2528.2900,N,08001.5327,W,1,10,1.4,19"
"##MN-00 00 40 0115 02100 6975 444282 349156 215"
"160.744919"
"$GPGGA,175236,2528.2922,N,08001.5333,W,1,10,1.4,20"
"##MN-00 00 40 0115 02098 6972 444243 349177 215"
"160.744965"
"$GPGGA,175240,2528.2943,N,08001.5340,W,1,10,1.4,20"
"##MN-00 00 40 0116 02098 6968 444162 349231 215"
"160.745012"
"$GPGGA,175244,2528.2965,N,08001.5345,W,1,10,1.4,20"
"##MN-00 00 40 0117 02097 6964 444155 349236 215"
"160.745058"
"$GPGGA,175248,2528.2986,N,08001.5351,W,1,9,1.5,20,"
"##MN-00 00 40 0118 02100 6961 444120 349235 215"
"160.745104"
"$GPGGA,175252,2528.3006,N,08001.5358,W,1,9,1.5,20,"
"##MN-00 00 40 0118 02101 6957 444178 349235 215"
"160.74515"
"$GPGGA,175256,2528.3026,N,08001.5365,W,1,9,1.5,19,"
"##MN-00 00 40 0119 02100 6953 444273 349273 215"
"160.745197"
"$GPGGA,175300,2528.3046,N,08001.5372,W,1,9,1.5,19,"
"##MN-00 00 40 0120 02102 6949 444342 349301 215"
"160.745243"
"$GPGGA,175304,2528.3067,N,08001.5376,W,1,9,1.5,19,"
"##MN-00 00 40 0120 02100 6945 444387 349323 215"
"160.745289"
"$GPGGA,175308,2528.3089,N,08001.5381,W,1,9,1.5,19,"
"##MN-00 00 40 0121 02103 6941 444435 349056 215"
"160.745336"
"$GPGGA,175312,2528.3110,N,08001.5387,W,1,9,1.5,18,"
"##MN-00 00 38 0122 02098 6938 444477 348950 215"
"160.745382"
"$GPGGA,175316,2528.3132,N,08001.5390,W,1,9,1.5,18,"
"##MN-00 00 37 0122 02093 6934 444440 348940 215"
"160.745428"
"$GPGGA,175320,2528.3156,N,08001.5392,W,1,10,1.4,18"
"##MN-00 00 38 0123 02089 6930 444236 348904 215"
"160.745474"
"$GPGGA,175324,2528.3179,N,08001.5397,W,1,10,1.4,18"
"##MN-00 00 38 0124 02086 6925 444038 349199 215"
"160.745521"
"$GPGGA,175328,2528.3201,N,08001.5401,W,1,10,1.4,18"
"##MN-00 00 37 0125 02083 6921 443946 349176 215"
"160.745567"
"$GPGGA,175332,2528.3223,N,08001.5405,W,1,9,1.5,17,"
"##MN-00 00 37 0125 02081 6917 443820 349158 215"
"160.745613"
"$GPGGA,175336,2528.3246,N,08001.5408,W,1,10,1.4,17"
"##MN-00 00 37 0126 02077 6913 443689 349139 215"
"160.74566"
"$GPGGA,175340,2528.3266,N,08001.5415,W,1,10,1.5,17"
"##MN-00 00 37 0127 02067 6909 443579 349111 215"
"160.745706"
"$GPGGA,175344,2528.3287,N,08001.5420,W,1,9,1.4,17,"
"##MN-00 00 37 0127 02066 6904 443338 349082 215"
"160.745752"
"$GPGGA,175348,2528.3309,N,08001.5426,W,1,10,1.4,17"
"##MN-00 00 37 0128 02061 6901 442725 349025 215"
"160.745799"
"$GPGGA,175352,2528.3329,N,08001.5433,W,1,10,1.4,17"
"##MN-00 00 37 0129 02056 6896 442044 348850 215"
"160.745845"
"$GPGGA,175356,2528.3351,N,08001.5437,W,1,10,1.4,17"
"##MN-00 00 37 0130 02050 6892 441601 348531 215"
"160.745891"
"$GPGGA,175400,2528.3371,N,08001.5444,W,1,10,1.4,17"
"##MN-00 00 37 0130 02047 6888 441063 348353 215"
"160.745938"
"$GPGGA,175405,2528.3399,N,08001.5451,W,1,10,1.4,17"
"##MN-00 00 36 0131 02043 6884 440806 348386 215"
"160.745984"
"$GPGGA,175409,2528.3420,N,08001.5456,W,1,9,1.5,17,"
"##MN-00 00 36 0132 02037 6879 440597 348366 215"
"160.74603"
"$GPGGA,175413,2528.3445,N,08001.5457,W,1,10,1.4,17"
"##MN-00 00 37 0133 02032 6875 440466 348309 215"
"160.746076"
"$GPGGA,175417,2528.3467,N,08001.5462,W,1,10,1.4,17"
"##MN-00 00 37 0133 02029 6871 440365 348248 215"
"160.746123"
"$GPGGA,175421,2528.3486,N,08001.5469,W,1,10,1.4,17"
"##MN-00 00 38 0134 02021 6866 440227 348195 215"
"160.746169"
"$GPGGA,175425,2528.3507,N,08001.5474,W,1,10,1.4,17"
"##MN-00 00 37 0135 02016 6862 440018 348192 215"
"160.746215"
"$GPGGA,175429,2528.3526,N,08001.5480,W,1,10,1.4,17"
"##MN-00 00 38 0136 02013 6858 439700 348107 215"
"160.746262"
"$GPGGA,175433,2528.3546,N,08001.5488,W,1,10,1.4,17"
"##MN-00 00 38 0137 02005 6854 439496 347996 215"
"160.746308"
"$GPGGA,175437,2528.3562,N,08001.5498,W,1,9,1.5,16,"
"##MN-00 00 38 0137 02000 6849 439293 348003 215"
"160.746354"
"$GPGGA,175441,2528.3580,N,08001.5506,W,1,9,1.5,16,"
"##MN-00 00 38 0138 01993 6845 439039 347887 215"
"160.7464"
"$GPGGA,175445,2528.3598,N,08001.5513,W,1,9,1.5,15,"
"##MN-00 00 39 0139 01988 6840 438710 347821 215"
"160.746447"
"$GPGGA,175449,2528.3619,N,08001.5520,W,1,9,1.5,15,"
"##MN-00 00 39 0140 01982 6836 438466 347722 215"
"160.746493"
"$GPGGA,175453,2528.3638,N,08001.5525,W,1,9,1.5,15,"
"##MN-00 00 39 0141 01976 6832 438196 347376 215"
"160.746539"
"$GPGGA,175457,2528.3659,N,08001.5531,W,1,9,1.5,14,"
"##MN-00 00 39 0141 01971 6827 437951 347342 215"
"160.746586"
"$GPGGA,175501,2528.3681,N,08001.5538,W,1,9,1.5,14,"
"##MN-00 00 39 0142 01966 6823 437700 347546 215"
"160.746632"
"$GPGGA,175505,2528.3700,N,08001.5545,W,1,9,1.5,14,"
"##MN-00 00 39 0143 01960 6819 437480 347526 215"
"160.746678"
"$GPGGA,175509,2528.3723,N,08001.5550,W,1,9,1.5,13,"
"##MN-00 00 40 0144 01954 6814 437347 347412 215"
"160.746725"
"$GPGGA,175513,2528.3745,N,08001.5556,W,1,9,1.5,13,"
"##MN-00 00 39 0145 01947 6810 437172 347397 215"
"160.746771"
"$GPGGA,175517,2528.3761,N,08001.5560,W,1,9,1.5,13,"
"##MN-00 00 40 0145 01942 6805 436994 347387 215"
"160.746817"
"$GPGGA,175521,2528.3783,N,08001.5567,W,1,9,1.5,13,"
"##MN-00 00 42 0146 01941 6801 436877 347367 215"
"160.746863"
"$GPGGA,175525,2528.3804,N,08001.5571,W,1,9,1.5,13,"
"##MN-00 00 43 0147 01942 6797 436848 347379 215"
"160.74691"
"$GPGGA,175529,2528.3826,N,08001.5575,W,1,9,1.5,13,"
"##MN-00 00 43 0148 01943 6792 436814 347286 215"
"160.746956"
"$GPGGA,175533,2528.3853,N,08001.5583,W,1,9,1.5,12,"
"##MN-00 00 42 0148 01942 6788 436803 347276 215"
"160.747002"
"$GPGGA,175537,2528.3873,N,08001.5589,W,1,10,1.4,12"
"##MN+00 00 42 0149 01941 6784 436794 347142 215"
"160.747049"
"$GPGGA,175541,2528.3895,N,08001.5596,W,1,9,1.5,12,"
"##MN+00 00 43 0150 01942 6780 436788 347253 215"
"160.747095"
"$GPGGA,175545,2528.3916,N,08001.5600,W,1,9,1.5,12,"
"##MN+00 00 43 0150 01942 6775 436789 347248 215"
"160.747141"
"$GPGGA,175549,2528.3938,N,08001.5607,W,1,9,1.5,12,"
"##MN+00 00 43 0151 01943 6771 436789 347227 215"
"160.747188"
"$GPGGA,175553,2528.3958,N,08001.5612,W,1,9,1.5,12,"
"##MN+00 00 43 0152 01943 6767 436776 347204 215"
"160.747234"
"$GPGGA,175557,2528.3980,N,08001.5618,W,1,9,1.5,11,"
"##MN+00 00 48 0153 01944 6762 436770 347197 215"
"160.74728"
"#increment_net"
"$GPGGA,175601,2528.4001,N,08001.5625,W,1,9,1.5,11,"
"##MN-00 00 46 0153 01943 6758 436761 347222 215"
"160.747326"
"$GPGGA,175605,2528.4021,N,08001.5632,W,1,9,1.5,11,"
"##MN-00 00 44 0154 01940 6753 436757 347227 215"
"160.747373"
"$GPGGA,175609,2528.4043,N,08001.5637,W,1,9,1.5,11,"
"##MN-00 00 43 0155 01941 6749 436756 347219 215"
"160.747419"
"$GPGGA,175613,2528.4064,N,08001.5643,W,1,9,1.5,11,"
"##MN-00 00 43 0156 01940 6745 436750 347196 215"
"160.747477"
"$GPGGA,175617,2528.4086,N,08001.5648,W,1,9,1.5,11,"
"##MN-00 00 43 0156 01939 6741 436746 347208 215"
"160.747523"
"$GPGGA,175621,2528.4107,N,08001.5655,W,1,9,1.5,11,"
"##MN-00 00 43 0157 01937 6736 436737 347217 215"
"160.747569"
"$GPGGA,175625,2528.4129,N,08001.5661,W,1,9,1.5,11,"
"##MN-00 00 43 0158 01935 6732 436726 347204 215"
"160.747616"
"$GPGGA,175629,2528.4150,N,08001.5666,W,1,9,1.5,11,"
"##MN-00 00 44 0158 01938 6728 436708 347171 215"
"160.747662"
"$GPGGA,175633,2528.4171,N,08001.5672,W,1,9,1.5,11,"
"##MN-00 00 43 0159 01937 6724 436689 347178 215"
"160.747708"
"$GPGGA,175637,2528.4195,N,08001.5674,W,1,10,1.4,11"
"##MN-00 00 44 0160 01936 6719 436679 347186 215"
"160.747755"
"$GPGGA,175641,2528.4223,N,08001.5676,W,1,9,1.4,11,"
"##MN-00 00 44 0161 01934 6715 436691 347181 215"
"160.747801"
"$GPGGA,175645,2528.4249,N,08001.5680,W,1,10,1.4,11"
"##MN-00 00 44 0161 01934 6711 436701 347169 215"
"160.747847"
"$GPGGA,175649,2528.4274,N,08001.5687,W,1,10,1.4,12"
"##MN-00 00 44 0162 01936 6707 436708 347149 215"
"160.747893"
"$GPGGA,175653,2528.4299,N,08001.5694,W,1,10,1.4,12"
"##MN-00 00 45 0163 01938 6703 436711 347165 215"
"160.74794"
"$GPGGA,175657,2528.4321,N,08001.5699,W,1,10,1.4,13"
"##MN-00 00 45 0163 01939 6699 436705 347174 215"
"160.747986"
"$GPGGA,175701,2528.4342,N,08001.5704,W,1,10,1.4,13"
"##MN-00 00 46 0164 01942 6694 436704 347169 215"
"160.748032"
"$GPGGA,175705,2528.4364,N,08001.5709,W,1,10,1.4,13"
"##MN-00 00 47 0165 01948 6690 436708 347145 215"
"160.748079"
"$GPGGA,175709,2528.4386,N,08001.5715,W,1,10,1.4,14"
"##MN-00 00 45 0165 01950 6686 436713 347142 215"
"160.748125"
"$GPGGA,175713,2528.4408,N,08001.5722,W,1,10,1.4,14"
"##MN-00 00 44 0166 01949 6682 436736 347151 215"
"160.748171"
"$GPGGA,175717,2528.4429,N,08001.5727,W,1,10,1.4,14"
"##MN-00 00 44 0167 01948 6677 436744 347161 215"
"160.748218"
"$GPGGA,175721,2528.4451,N,08001.5733,W,1,10,1.4,14"
"##MN-00 00 44 0168 01949 6673 436748 347172 215"
"160.748264"
"$GPGGA,175725,2528.4472,N,08001.5740,W,1,10,1.4,14"
"##MN-00 00 44 0168 01949 6669 436746 347165 215"
"160.74831"
"$GPGGA,175729,2528.4493,N,08001.5746,W,1,10,1.4,14"
"##MN-00 00 44 0169 01944 6665 436732 347057 214"
"160.748357"
"$GPGGA,175733,2528.4514,N,08001.5753,W,1,10,1.4,14"
"##MN-00 00 45 0170 01950 6661 436727 346953 215"
"160.748403"
"$GPGGA,175737,2528.4534,N,08001.5759,W,1,10,1.4,14"
"##MN-00 00 44 0171 01949 6657 436717 346952 214"
"160.748449"
"$GPGGA,175741,2528.4556,N,08001.5766,W,1,10,1.4,14"
"##MN+00 00 44 0171 01949 6653 436708 346951 214"
"160.748495"
"$GPGGA,175745,2528.4577,N,08001.5773,W,1,10,1.4,14"
"##MN+00 00 45 0172 01951 6649 436703 347167 214"
"160.748542"
"$GPGGA,175749,2528.4599,N,08001.5780,W,1,10,1.4,14"
"##MN+00 00 44 0173 01950 6645 436706 347180 214"
"160.748588"
"$GPGGA,175753,2528.4621,N,08001.5785,W,1,10,1.4,14"
"##MN-00 00 44 0173 01952 6641 436723 347178 214"
"160.748634"
"$GPGGA,175757,2528.4642,N,08001.5791,W,1,10,1.4,14"
"##MN-00 00 44 0174 01953 6637 436732 347157 215"
"160.748681"
"$GPGGA,175801,2528.4663,N,08001.5796,W,1,9,1.4,14,"
"##MN-00 00 44 0175 01953 6632 436738 347183 215"
"160.748727"
"$GPGGA,175805,2528.4684,N,08001.5802,W,1,10,1.4,14"
"##MN-00 00 44 0176 01952 6629 436743 347189 214"
"160.748773"
"$GPGGA,175809,2528.4706,N,08001.5807,W,1,10,1.4,14"
"##MN-00 00 44 0176 01951 6625 436743 347178 215"
"160.748819"
"$GPGGA,175813,2528.4729,N,08001.5814,W,1,10,1.4,14"
"##MN-00 00 44 0177 01952 6621 436749 347178 214"
"160.748866"
"$GPGGA,175817,2528.4751,N,08001.5820,W,1,10,1.4,14"
"##MN+00 00 44 0178 01952 6617 436763 347201 214"
"160.748912"
"$GPGGA,175821,2528.4775,N,08001.5827,W,1,10,1.4,14"
"##MN+00 00 44 0178 01950 6613 436766 347191 214"
"160.748958"
"$GPGGA,175826,2528.4803,N,08001.5835,W,1,10,1.4,14"
"##MN+00 00 50 0179 01955 6609 436760 347171 214"
"160.749005"
"#increment_net"
"$GPGGA,175829,2528.4820,N,08001.5839,W,1,10,1.4,14"
"##MN-00 00 47 0180 01952 6605 436746 347190 214"
"160.749051"
"$GPGGA,175834,2528.4848,N,08001.5847,W,1,10,1.4,14"
"##MN-00 00 44 0181 01953 6601 436740 347185 215"
"160.749097"
"$GPGGA,175838,2528.4872,N,08001.5853,W,1,10,1.4,14"
"##MN-00 00 44 0181 01953 6597 436736 347162 215"
"160.749144"
"$GPGGA,175842,2528.4894,N,08001.5860,W,1,10,1.4,14"
"##MN-00 00 43 0182 01952 6593 436728 347175 214"
"160.74919"
"$GPGGA,175845,2528.4910,N,08001.5864,W,1,10,1.4,14"
"##MN-00 00 43 0183 01953 6589 436706 347174 214"
"160.749236"
"$GPGGA,175850,2528.4939,N,08001.5871,W,1,10,1.4,14"
"##MN-00 00 42 0183 01953 6585 436702 347146 214"
"160.749282"
"$GPGGA,175854,2528.4960,N,08001.5878,W,1,10,1.4,14"
"##MN-00 00 42 0184 01952 6581 436695 347159 214"
"160.749329"
"$GPGGA,175858,2528.4982,N,08001.5883,W,1,10,1.4,14"
"##MN-00 00 42 0185 01950 6578 436687 347139 214"
"160.749375"
"$GPGGA,175902,2528.5004,N,08001.5889,W,1,10,1.4,14"
"##MN-00 00 42 0186 01953 6574 436683 347147 214"
"160.749421"
"$GPGGA,175906,2528.5025,N,08001.5894,W,1,10,1.4,14"
"##MN-00 00 42 0186 01952 6570 436696 347159 214"
"160.749468"
"$GPGGA,175910,2528.5047,N,08001.5901,W,1,10,1.4,14"
"##MN-00 00 42 0187 01951 6566 436716 347151 214"
"160.749514"
"$GPGGA,175914,2528.5069,N,08001.5907,W,1,10,1.4,14"
"##MN-00 00 42 0188 01954 6562 436720 347138 214"
"160.74956"
"$GPGGA,175918,2528.5090,N,08001.5914,W,1,10,1.4,14"
"##MN-00 00 42 0189 01952 6559 436722 347155 214"
"160.749606"
"$GPGGA,175922,2528.5112,N,08001.5919,W,1,10,1.4,14"
"##MN-00 00 42 0189 01950 6555 436734 347147 214"
"160.749653"
"$GPGGA,175926,2528.5133,N,08001.5925,W,1,10,1.4,14"
"##MN-00 00 42 0190 01952 6551 436742 347145 214"
"160.749699"
"$GPGGA,175930,2528.5154,N,08001.5932,W,1,10,1.4,14"
"##MN-00 00 42 0191 01952 6547 436746 347167 214"
"160.749745"
"$GPGGA,175934,2528.5173,N,08001.5939,W,1,10,1.4,14"
"##MN-00 00 42 0191 01953 6543 436749 347155 214"
"160.749792"
"$GPGGA,175938,2528.5195,N,08001.5946,W,1,10,1.4,14"
"##MN-00 00 42 0192 01951 6539 436756 347154 214"
"160.749838"
"$GPGGA,175942,2528.5216,N,08001.5952,W,1,10,1.4,14"
"##MN-00 00 43 0193 01952 6536 436774 347181 214"
"160.749884"
"$GPGGA,175946,2528.5238,N,08001.5958,W,1,10,1.4,14"
"##MN-00 00 42 0194 01950 6532 436788 347157 214"
"160.749931"
"$GPGGA,175950,2528.5260,N,08001.5965,W,1,10,1.4,14"
"##MN-00 00 43 0194 01951 6528 436824 347175 214"
"160.749977"
"$GPGGA,175954,2528.5281,N,08001.5972,W,1,10,1.4,14"
"##MN-00 00 43 0195 01951 6524 436838 347202 214"
"160.750023"
"$GPGGA,175958,2528.5302,N,08001.5979,W,1,10,1.4,14"
"##MN-00 00 43 0196 01951 6521 436852 347186 214"
"160.750069"
"$GPGGA,180002,2528.5322,N,08001.5986,W,1,10,1.4,14"
"##MN-00 00 43 0197 01950 6517 436857 347189 214"
"160.750116"
"$GPGGA,180006,2528.5346,N,08001.5993,W,1,10,1.4,14"
"##MN-00 00 43 0197 01950 6514 436841 347198 214"
"160.750162"
"$GPGGA,180010,2528.5367,N,08001.5998,W,1,10,1.4,14"
"##MN-00 00 43 0198 01949 6510 436823 347165 214"
"160.750208"
"$GPGGA,180014,2528.5389,N,08001.6004,W,1,10,1.4,14"
"##MN+00 00 43 0199 01953 6506 436805 347180 214"
"160.750255"
"$GPGGA,180018,2528.5412,N,08001.6008,W,1,10,1.5,14"
"##MN+00 00 43 0199 01951 6503 436795 347189 214"
"160.750301"
"$GPGGA,180022,2528.5434,N,08001.6009,W,1,9,1.4,14,"
"##MN+00 00 43 0200 01951 6499 436795 347161 214"
"160.750347"
"$GPGGA,180026,2528.5455,N,08001.6017,W,1,9,1.4,14,"
"##MN-00 00 43 0201 01950 6495 436788 347175 214"
"160.750394"
"$GPGGA,180030,2528.5476,N,08001.6024,W,1,9,1.4,14,"
"##MN-00 00 43 0202 01953 6492 436786 347171 214"
"160.75044"
"$GPGGA,180034,2528.5497,N,08001.6031,W,1,10,1.4,14"
"##MN-00 00 43 0202 01953 6488 436786 347142 214"
"160.750486"
"$GPGGA,180038,2528.5522,N,08001.6031,W,1,10,1.4,14"
"##MN-00 00 43 0203 01952 6485 436792 347166 214"
"160.750532"
"$GPGGA,180042,2528.5545,N,08001.6037,W,1,10,1.4,15"
"##MN-00 00 43 0204 01951 6481 436792 347153 214"
"160.750579"
"$GPGGA,180046,2528.5564,N,08001.6044,W,1,10,1.4,15"
"##MN+00 00 43 0205 01953 6477 436792 347138 214"
"160.750625"
"$GPGGA,180050,2528.5585,N,08001.6049,W,1,10,1.4,15"
"##MN+00 00 42 0205 01950 6474 436795 347161 214"
"160.750671"
"$GPGGA,180054,2528.5607,N,08001.6055,W,1,9,1.4,15,"
"##MN+00 00 50 0206 01955 6470 436798 347133 214"
"160.750729"
"#increment_net"
"$GPGGA,180058,2528.5629,N,08001.6059,W,1,10,1.4,16"
"##MN-00 00 49 0207 01951 6467 436807 347142 214"
"160.750775"
"$GPGGA,180102,2528.5650,N,08001.6064,W,1,9,1.7,16,"
"##MN-00 00 45 0208 01952 6464 436816 347160 214"
"160.750822"
"$GPGGA,180106,2528.5672,N,08001.6069,W,1,9,1.7,16,"
"##MN-00 00 44 0208 01952 6460 436817 347133 214"
"160.750868"
"$GPGGA,180110,2528.5692,N,08001.6077,W,1,9,1.7,17,"
"##MN-00 00 43 0209 01954 6456 436810 347150 214"
"160.750914"
"$GPGGA,180114,2528.5712,N,08001.6082,W,1,9,1.7,17,"
"##MN-00 00 43 0210 01951 6453 436793 347147 214"
"160.750961"
"$GPGGA,180118,2528.5733,N,08001.6088,W,1,9,1.7,17,"
"##MN-00 00 42 0211 01950 6449 436784 347119 214"
"160.751007"
"$GPGGA,180122,2528.5752,N,08001.6094,W,1,9,1.7,17,"
"##MN-00 00 42 0211 01949 6446 436778 347153 214"
"160.751053"
"$GPGGA,180126,2528.5775,N,08001.6098,W,1,9,1.7,17,"
"##MN-00 00 42 0212 01953 6442 436774 347135 214"
"160.7511"
"$GPGGA,180130,2528.5795,N,08001.6105,W,1,9,1.7,17,"
"##MN-00 00 42 0213 01952 6439 436779 347139 214"
"160.751146"
"$GPGGA,180134,2528.5817,N,08001.6110,W,1,9,1.7,17,"
"##MN-00 00 42 0214 01950 6435 436785 347158 214"
"160.751192"
"$GPGGA,180138,2528.5838,N,08001.6116,W,1,9,1.7,17,"
"##MN-00 00 42 0214 01951 6432 436805 347141 214"
"160.751238"
"$GPGGA,180142,2528.5860,N,08001.6123,W,1,9,1.7,16,"
"##MN-00 00 42 0215 01951 6428 436803 347133 214"
"160.751285"
"$GPGGA,180146,2528.5881,N,08001.6128,W,1,9,1.7,16,"
"##MN-00 00 42 0216 01952 6425 436804 347155 214"
"160.751331"
"$GPGGA,180150,2528.5900,N,08001.6134,W,1,9,1.5,16,"
"##MN-00 00 42 0217 01953 6422 436786 347140 214"
"160.751377"
"$GPGGA,180154,2528.5921,N,08001.6139,W,1,9,1.5,16,"
"##MN-00 00 42 0217 01951 6418 436731 347106 214"
"160.751424"
"$GPGGA,180158,2528.5941,N,08001.6145,W,1,9,1.5,16,"
"##MN-00 00 42 0218 01952 6415 436703 347113 214"
"160.75147"
"$GPGGA,180202,2528.5961,N,08001.6149,W,1,9,1.5,16,"
"##MN-00 00 42 0219 01952 6412 436686 347101 214"
"160.751516"
"$GPGGA,180206,2528.5983,N,08001.6154,W,1,9,1.5,16,"
"##MN-00 00 42 0220 01953 6409 436719 347099 214"
"160.751563"
"$GPGGA,180210,2528.6004,N,08001.6158,W,1,9,1.5,16,"
"##MN-00 00 42 0220 01952 6405 436756 347080 214"
"160.751609"
"$GPGGA,180214,2528.6025,N,08001.6161,W,1,9,1.5,16,"
"##MN-00 00 42 0221 01953 6402 436763 347109 214"
"160.751655"
"$GPGGA,180218,2528.6044,N,08001.6167,W,1,8,1.7,16,"
"##MN-00 00 42 0222 01953 6398 436731 347093 214"
"160.751701"
"$GPGGA,180222,2528.6066,N,08001.6172,W,1,7,1.7,16,"
"##MN-00 00 42 0223 01953 6396 436719 347059 214"
"160.751748"
"$GPGGA,180226,2528.6091,N,08001.6179,W,1,8,1.7,15,"
"##MN-00 00 42 0223 01952 6392 436722 347090 214"
"160.751794"
"$GPGGA,180230,2528.6117,N,08001.6186,W,1,8,1.7,16,"
"##MN-00 00 42 0224 01953 6388 436720 347097 214"
"160.75184"
"$GPGGA,180234,2528.6144,N,08001.6192,W,1,8,1.7,16,"
"##MN-00 00 42 0225 01954 6386 436707 347071 214"
"160.751887"
"$GPGGA,180238,2528.6167,N,08001.6199,W,1,8,1.7,16,"
"##MN-00 00 42 0226 01952 6382 436689 347053 214"
"160.751933"
"$GPGGA,180242,2528.6188,N,08001.6206,W,1,8,1.7,17,"
"##MN+00 00 42 0226 01954 6379 436649 347071 214"
"160.751979"
"$GPGGA,180246,2528.6209,N,08001.6211,W,1,8,1.7,17,"
"##MN+00 00 42 0227 01952 6375 436613 347051 214"
"160.752025"
"$GPGGA,180250,2528.6230,N,08001.6215,W,1,9,1.7,17,"
"##MN+00 00 42 0228 01956 6373 436580 347037 214"
"160.752072"
"$GPGGA,180254,2528.6245,N,08001.6219,W,1,8,1.7,17,"
"##MN-00 00 42 0228 01955 6369 436582 346958 214"
"160.752118"
"$GPGGA,180258,2528.6271,N,08001.6226,W,1,9,1.7,17,"
"##MN-00 00 42 0229 01954 6366 436600 347074 214"
"160.752164"
"$GPGGA,180302,2528.6290,N,08001.6232,W,1,8,1.9,17,"
"##MN-00 00 42 0230 01953 6363 436658 347060 214"
"160.752211"
"$GPGGA,180307,2528.6315,N,08001.6240,W,1,9,1.7,17,"
"##MN-00 00 42 0231 01954 6360 436678 347073 214"
"160.752257"
"$GPGGA,180311,2528.6335,N,08001.6244,W,1,9,1.7,17,"
"##MN+00 00 42 0231 01954 6357 436696 347094 214"
"160.752303"
"$GPGGA,180315,2528.6355,N,08001.6253,W,1,8,1.9,17,"
"##MN+00 00 42 0232 01955 6353 436690 347063 214"
"160.75235"
"$GPGGA,180319,2528.6375,N,08001.6257,W,1,8,1.9,17,"
"##MN+00 00 49 0233 01956 6350 436626 347044 214"
"160.752396"
"$GPGGA,180323,2528.6395,N,08001.6261,W,1,9,1.7,17,"
"##MN-00 00 48 0234 01958 6347 436595 347062 214"
"160.752442"
"#increment_net"
"$GPGGA,180327,2528.6416,N,08001.6268,W,1,8,1.9,16,"
"##MN-00 00 45 0235 01956 6344 436659 347044 214"
"160.752488"
"$GPGGA,180331,2528.6436,N,08001.6272,W,1,8,1.9,16,"
"##MN-00 00 44 0235 01955 6341 436691 347032 214"
"160.752535"
"$GPGGA,180335,2528.6456,N,08001.6276,W,1,8,1.9,16,"
"##MN-00 00 43 0236 01955 6338 436661 347056 214"
"160.752581"
"$GPGGA,180339,2528.6474,N,08001.6279,W,1,9,1.7,16,"
"##MN-00 00 42 0237 01956 6335 436637 347036 214"
"160.752627"
"$GPGGA,180343,2528.6494,N,08001.6282,W,1,9,1.7,16,"
"##MN-00 00 41 0238 01954 6331 436650 347021 214"
"160.752674"
"$GPGGA,180347,2528.6514,N,08001.6286,W,1,9,1.7,16,"
"##MN-00 00 42 0238 01954 6328 436697 347058 214"
"160.75272"
"$GPGGA,180351,2528.6534,N,08001.6291,W,1,9,1.7,16,"
"##MN-00 00 42 0239 01955 6325 436699 347016 214"
"160.752766"
"$GPGGA,180355,2528.6556,N,08001.6297,W,1,10,1.5,16"
"##MN-00 00 42 0240 01953 6322 436680 347035 214"
"160.752812"
"$GPGGA,180359,2528.6577,N,08001.6302,W,1,10,1.5,16"
"##MN-00 00 41 0241 01952 6319 436633 347032 214"
"160.752859"
"$GPGGA,180403,2528.6597,N,08001.6306,W,1,10,1.5,17"
"##MN-00 00 42 0241 01954 6316 436552 346968 214"
"160.752905"
"$GPGGA,180407,2528.6618,N,08001.6310,W,1,10,1.5,17"
"##MN-00 00 42 0242 01952 6313 436502 346968 214"
"160.752951"
"$GPGGA,180411,2528.6640,N,08001.6315,W,1,10,1.5,17"
"##MN-00 00 42 0243 01956 6310 436467 346974 214"
"160.752998"
"$GPGGA,180415,2528.6661,N,08001.6320,W,1,10,1.5,17"
"##MN-00 00 42 0244 01953 6307 436453 346956 214"
"160.753044"
"$GPGGA,180419,2528.6683,N,08001.6326,W,1,10,1.5,17"
"##MN-00 00 42 0245 01955 6304 436442 346927 214"
"160.75309"
"$GPGGA,180423,2528.6702,N,08001.6333,W,1,9,1.7,17,"
"##MN-00 00 42 0245 01952 6301 436430 346942 214"
"160.753137"
"$GPGGA,180427,2528.6723,N,08001.6338,W,1,10,1.5,17"
"##MN-00 00 42 0246 01954 6298 436444 346938 214"
"160.753183"
"$GPGGA,180431,2528.6745,N,08001.6344,W,1,10,1.5,17"
"##MN-00 00 42 0247 01955 6295 436457 346754 214"
"160.753229"
"$GPGGA,180435,2528.6766,N,08001.6351,W,1,10,1.5,17"
"##MN-00 00 42 0248 01953 6293 436473 346804 214"
"160.753275"
"$GPGGA,180439,2528.6787,N,08001.6358,W,1,10,1.5,17"
"##MN-00 00 42 0249 01953 6289 436469 346900 214"
"160.753322"
"$GPGGA,180443,2528.6806,N,08001.6365,W,1,10,1.5,17"
"##MN-00 00 42 0249 01954 6286 436458 346921 214"
"160.753368"
"$GPGGA,180447,2528.6827,N,08001.6371,W,1,10,1.5,17"
"##MN-00 00 42 0250 01952 6284 436430 346917 214"
"160.753414"
"$GPGGA,180451,2528.6846,N,08001.6378,W,1,10,1.5,16"
"##MN-00 00 42 0251 01953 6281 436406 346909 214"
"160.753461"
"$GPGGA,180455,2528.6871,N,08001.6388,W,1,10,1.5,16"
"##MN-00 00 42 0252 01954 6278 436399 346871 214"
"160.753507"
"$GPGGA,180459,2528.6893,N,08001.6396,W,1,10,1.5,16"
"##MN-00 00 42 0253 01952 6275 436382 346895 214"
"160.753553"
"$GPGGA,180503,2528.6914,N,08001.6405,W,1,10,1.5,16"
"##MN+00 00 42 0253 01954 6272 436367 346894 214"
"160.7536"
"$GPGGA,180507,2528.6935,N,08001.6413,W,1,10,1.5,16"
"##MN+00 00 42 0254 01954 6269 436368 346882 214"
"160.753646"
"$GPGGA,180511,2528.6954,N,08001.6420,W,1,9,1.7,16,"
"##MN+00 00 42 0255 01954 6267 436370 346864 214"
"160.753692"
"$GPGGA,180515,2528.6973,N,08001.6425,W,1,10,1.5,15"
"##MN+00 00 42 0256 01954 6264 436372 346887 214"
"160.753738"
"$GPGGA,180519,2528.6993,N,08001.6431,W,1,9,1.7,15,"
"##MN+00 00 42 0256 01953 6261 436369 346874 214"
"160.753785"
"$GPGGA,180523,2528.7018,N,08001.6439,W,1,9,1.7,15,"
"##MN+00 00 50 0257 01956 6258 436386 346839 214"
"160.753831"
"#increment_net"
"$GPGGA,180527,2528.7043,N,08001.6452,W,1,10,1.5,14"
"##MN-00 00 49 0258 01954 6255 436407 346873 214"
"160.753877"
"$GPGGA,180531,2528.7065,N,08001.6457,W,1,10,1.5,14"
"##MN-00 00 44 0259 01960 6253 436452 346884 214"
"160.753924"
"$GPGGA,180535,2528.7085,N,08001.6464,W,1,10,1.5,14"
"##MN-00 00 41 0260 01962 6250 436473 346882 214"
"160.753982"
"$GPGGA,180539,2528.7105,N,08001.6470,W,1,9,1.7,14,"
"##MN-00 00 38 0261 01963 6247 436568 346877 214"
"160.754028"
"$GPGGA,180543,2528.7124,N,08001.6475,W,1,10,1.5,14"
"##MN-00 00 37 0262 01963 6244 436730 346951 214"
"160.754074"
"$GPGGA,180547,2528.7150,N,08001.6488,W,1,10,1.5,14"
"##MN-00 00 36 0263 01963 6241 436800 346970 214"
"160.75412"
"$GPGGA,180551,2528.7171,N,08001.6496,W,1,10,1.5,15"
"##MN-00 00 35 0264 01956 6239 436777 346972 214"
"160.754167"
"$GPGGA,180555,2528.7186,N,08001.6499,W,1,9,1.7,15,"
"##MN-00 00 34 0266 01954 6236 436722 346929 214"
"160.754213"
"$GPGGA,180559,2528.7206,N,08001.6506,W,1,9,1.7,14,"
"##MN-00 00 34 0267 01948 6233 436595 346945 214"
"160.754259"
"$GPGGA,180603,2528.7226,N,08001.6512,W,1,9,1.7,14,"
"##MN-00 00 34 0268 01938 6230 436425 346929 214"
"160.754306"
"$GPGGA,180607,2528.7253,N,08001.6524,W,1,9,1.7,14,"
"##MN-00 00 34 0269 01932 6227 436313 348198 214"
"160.754352"
"$GPGGA,180611,2528.7279,N,08001.6533,W,1,10,1.5,14"
"##MN-00 00 35 0270 01921 6225 436256 346810 214"
"160.754398"
"$GPGGA,180615,2528.7305,N,08001.6546,W,1,10,1.5,15"
"##MN-00 00 36 0271 01913 6222 436186 346794 214"
"160.754444"
"$GPGGA,180619,2528.7329,N,08001.6557,W,1,9,1.7,15,"
"##MN-00 00 36 0272 01904 6220 436090 346771 214"
"160.754491"
"$GPGGA,180623,2528.7348,N,08001.6566,W,1,9,1.7,16,"
"##MN-00 00 36 0273 01894 6217 435960 346739 214"
"160.754537"
"$GPGGA,180627,2528.7374,N,08001.6577,W,1,9,1.7,16,"
"##MN-00 00 37 0275 01885 6214 435762 346657 214"
"160.754583"
"$GPGGA,180631,2528.7392,N,08001.6587,W,1,9,1.7,17,"
"##MN-00 00 37 0276 01876 6212 435602 346631 214"
"160.75463"
"$GPGGA,180635,2528.7412,N,08001.6598,W,1,10,1.5,17"
"##MN-00 00 37 0277 01867 6209 435428 346573 214"
"160.754676"
"$GPGGA,180639,2528.7432,N,08001.6608,W,1,9,1.7,17,"
"##MN-00 00 36 0278 01859 6206 435254 346492 214"
"160.754722"
"$GPGGA,180643,2528.7453,N,08001.6619,W,1,9,1.7,17,"
"##MN-00 00 37 0279 01852 6204 435066 346267 214"
"160.754769"
"$GPGGA,180647,2528.7475,N,08001.6630,W,1,9,1.7,17,"
"##MN-00 00 37 0280 01850 6201 434640 346298 214"
"160.754815"
"$GPGGA,180651,2528.7500,N,08001.6641,W,1,10,1.5,17"
"##MN-00 00 38 0281 01850 6198 431127 346222 214"
"160.754861"
"$GPGGA,180655,2528.7524,N,08001.6652,W,1,10,1.5,17"
"##MN-00 00 41 0282 01849 6195 430863 443459 214"
"160.754907"
"$GPGGA,180659,2528.7547,N,08001.6665,W,1,10,1.5,17"
"##MN-00 00 38 0282 01850 6192 440167 837751 214"
