" Tow: L13s-B   RVWS/WS1406"
" Date: 06/09/2014"
" Temperature Probe #  2597    Conductivity Probe #  2870"
" Pressure Probe #  109"
" Flow Meter Calibration  4.71 (m/count)  "
"160.769051"
"$GPGGA,182717,2528.7414,N,08002.3934,W,1,10,1.6,12"
"##MN-00 00 90 0084 01849 5968 440393 924092 214"
"160.769097"
"$GPGGA,182725,2528.7395,N,08002.3865,W,1,10,1.6,12"
"##MN-00 00 90 0084 01847 5970 431928 925357 214"
"160.770799"
"$GPGGA,182948,2528.7467,N,08002.2892,W,1,12,1.5,18"
"##MN-00 00 27 0084 01849 6024 425431 925207 213"
"160.770845"
"$GPGGA,182956,2528.7478,N,08002.2912,W,1,12,1.5,18"
"##MN-00 00 42 0084 01850 6025 433892 923511 213"
"160.770891"
"$GPGGA,183000,2528.7484,N,08002.2926,W,1,12,1.3,18"
"##MN-00 00 36 0084 01852 6026 432938 923589 213"
"160.770938"
"$GPGGA,183004,2528.7489,N,08002.2941,W,1,12,1.3,18"
"##MN-00 00 42 0084 01855 6027 431011 923585 213"
"160.770984"
"$GPGGA,183008,2528.7493,N,08002.2959,W,1,12,1.3,18"
"##MN-00 00 33 0084 01850 6028 429718 923617 213"
"160.77103"
"$GPGGA,183012,2528.7502,N,08002.2980,W,1,12,1.3,18"
"##MN-00 00 49 0084 01850 6029 430236 923613 214"
"160.771076"
"$GPGGA,183016,2528.7511,N,08002.3003,W,1,12,1.3,17"
"##MN-00 00 55 0084 01850 6031 430279 923623 214"
"160.771123"
"$GPGGA,183020,2528.7524,N,08002.3028,W,1,12,1.3,17"
"##MN-00 00 60 0084 01851 6032 430583 923610 214"
"160.771169"
"$GPGGA,183024,2528.7539,N,08002.3057,W,1,12,1.5,17"
"##MN-00 00 60 0084 01851 6033 426471 509824 214"
"160.771215"
"$GPGGA,183028,2528.7557,N,08002.3090,W,1,11,1.5,17"
"##MN-00 00 61 0085 01850 6034 421291 422452 214"
"160.771262"
"$GPGGA,183032,2528.7576,N,08002.3125,W,1,11,1.3,17"
"##MN-00 00 64 0086 01853 6035 422945 465626 214"
"160.771308"
"$GPGGA,183036,2528.7594,N,08002.3161,W,1,12,1.3,17"
"##MN-00 00 64 0087 01851 6035 423441 345361 214"
"160.771354"
"$GPGGA,183040,2528.7608,N,08002.3195,W,1,12,1.3,17"
"##MN-00 00 68 0088 01847 6036 420544 342849 214"
"160.7714"
"$GPGGA,183044,2528.7626,N,08002.3230,W,1,12,1.3,17"
"##MN-00 00 68 0090 01849 6037 418941 341496 214"
"160.771447"
"$GPGGA,183048,2528.7641,N,08002.3263,W,1,12,1.3,17"
"##MN-00 00 68 0091 01850 6037 417352 340924 214"
"160.771493"
"$GPGGA,183052,2528.7659,N,08002.3298,W,1,12,1.3,17"
"##MN-00 00 68 0092 01849 6038 418324 341129 214"
"160.771539"
"$GPGGA,183056,2528.7679,N,08002.3331,W,1,10,1.3,17"
"##MN-00 00 68 0093 01851 6040 419634 341262 214"
"160.771586"
"$GPGGA,183100,2528.7699,N,08002.3367,W,1,12,1.3,17"
"##MN-00 00 69 0094 01850 6041 420361 341407 214"
"160.771632"
"$GPGGA,183104,2528.7721,N,08002.3404,W,1,12,1.3,17"
"##MN-00 00 67 0095 01848 6042 422681 342045 214"
"160.771678"
"$GPGGA,183108,2528.7742,N,08002.3444,W,1,11,1.4,17"
"##MN-00 00 68 0096 01849 6043 424649 342819 214"
"160.771725"
"$GPGGA,183112,2528.7767,N,08002.3484,W,1,11,1.4,17"
"##MN-00 00 67 0097 01849 6044 424645 343353 214"
"160.771771"
"$GPGGA,183116,2528.7792,N,08002.3524,W,1,11,1.4,17"
"##MN-00 00 71 0098 01850 6045 424648 394392 214"
"160.771817"
"$GPGGA,183120,2528.7814,N,08002.3564,W,1,11,1.4,17"
"##MN-00 00 69 0099 01849 6046 424671 383026 214"
"160.771863"
"$GPGGA,183124,2528.7840,N,08002.3599,W,1,12,1.3,17"
"##MN-00 00 67 0100 01849 6046 422252 342988 214"
"160.77191"
"$GPGGA,183128,2528.7861,N,08002.3638,W,1,12,1.5,17"
"##MN-00 00 69 0102 01851 6047 418245 341536 214"
"160.771956"
"$GPGGA,183132,2528.7883,N,08002.3674,W,1,12,1.3,17"
"##MN-00 00 68 0103 01850 6048 417655 345024 214"
"160.772002"
"$GPGGA,183137,2528.7905,N,08002.3717,W,1,12,1.3,17"
"##MN-00 00 68 0104 01851 6049 418591 340985 214"
"160.772049"
"$GPGGA,183141,2528.7925,N,08002.3753,W,1,11,1.5,17"
"##MN-00 00 64 0105 01852 6050 418500 341024 214"
"160.772095"
"$GPGGA,183145,2528.7948,N,08002.3783,W,1,12,1.3,17"
"##MN-00 00 62 0106 01851 6050 418808 341224 214"
"160.772141"
"$GPGGA,183148,2528.7966,N,08002.3801,W,1,12,1.5,17"
"##MN-00 00 61 0107 01850 6051 420374 341327 214"
"160.772187"
"$GPGGA,183153,2528.8001,N,08002.3829,W,1,11,1.4,17"
"##MN-00 00 61 0108 01852 6051 423849 342151 214"
"160.772234"
"$GPGGA,183156,2528.8024,N,08002.3840,W,1,12,1.3,17"
"##MN-00 00 58 0108 01854 6052 425978 343031 214"
"160.77228"
"$GPGGA,183201,2528.8059,N,08002.3858,W,1,12,1.3,18"
"##MN-00 00 56 0109 01857 6052 428300 344109 214"
"160.772326"
"$GPGGA,183205,2528.8089,N,08002.3870,W,1,12,1.3,18"
"##MN-00 00 56 0110 01871 6053 432147 347085 214"
"160.772373"
"$GPGGA,183209,2528.8121,N,08002.3880,W,1,12,1.3,18"
"##MN-00 00 56 0110 01890 6053 434445 346330 214"
"160.772419"
"$GPGGA,183213,2528.8154,N,08002.3891,W,1,12,1.3,18"
"##MN-00 00 52 0111 01901 6054 434696 346398 214"
"160.772465"
"$GPGGA,183217,2528.8186,N,08002.3898,W,1,12,1.3,18"
"##MN-00 00 49 0111 01914 6054 434921 346500 214"
"160.772512"
"$GPGGA,183221,2528.8219,N,08002.3905,W,1,12,1.3,18"
"##MN-00 00 45 0112 01927 6055 435149 346571 214"
"160.772558"
"$GPGGA,183225,2528.8252,N,08002.3910,W,1,12,1.3,18"
"##MN-00 00 42 0112 01940 6055 435298 346626 214"
"160.772604"
"$GPGGA,183229,2528.8286,N,08002.3916,W,1,12,1.3,18"
"##MN-00 00 38 0113 01952 6055 435369 346683 214"
"160.77265"
"$GPGGA,183233,2528.8317,N,08002.3921,W,1,12,1.3,18"
"##MN-00 00 34 0113 01959 6056 435676 346748 214"
"160.772697"
"$GPGGA,183237,2528.8352,N,08002.3928,W,1,12,1.3,18"
"##MN-00 00 32 0113 01961 6056 436144 346926 213"
"160.772743"
"$GPGGA,183241,2528.8384,N,08002.3936,W,1,12,1.3,18"
"##MN-00 00 31 0114 01960 6056 436300 347010 213"
"160.772789"
"$GPGGA,183245,2528.8410,N,08002.3945,W,1,11,1.5,18"
"##MN-00 00 31 0115 01958 6056 436221 346973 213"
"160.772836"
"$GPGGA,183249,2528.8441,N,08002.3956,W,1,12,1.3,18"
"##MN-00 00 33 0115 01955 6056 436168 346963 214"
"160.772882"
"$GPGGA,183253,2528.8468,N,08002.3965,W,1,12,1.3,18"
"##MN-00 00 34 0116 01955 6056 436122 346944 214"
"160.772928"
"$GPGGA,183257,2528.8497,N,08002.3974,W,1,12,1.3,18"
"##MN-00 00 36 0116 01957 6056 436202 347019 214"
"160.772975"
"$GPGGA,183301,2528.8526,N,08002.3979,W,1,11,1.4,18"
"##MN-00 00 35 0117 01959 6055 436323 347070 214"
"160.773021"
"$GPGGA,183305,2528.8555,N,08002.3986,W,1,12,1.3,18"
"##MN-00 00 34 0117 01957 6055 436465 347066 214"
"160.773067"
"$GPGGA,183309,2528.8586,N,08002.3995,W,1,12,1.3,18"
"##MN-00 00 33 0118 01963 6055 436478 347085 213"
"160.773113"
"$GPGGA,183313,2528.8613,N,08002.4001,W,1,12,1.3,18"
"##MN-00 00 33 0118 01961 6055 436570 347083 214"
"160.77316"
"$GPGGA,183317,2528.8644,N,08002.4007,W,1,12,1.3,18"
"##MN-00 00 32 0119 01961 6055 436567 347084 214"
"160.773206"
"$GPGGA,183321,2528.8674,N,08002.4014,W,1,12,1.3,18"
"##MN-00 00 32 0119 01963 6054 436586 347105 213"
"160.773252"
"$GPGGA,183325,2528.8702,N,08002.4021,W,1,11,1.4,18"
"##MN-00 00 32 0120 01963 6054 436570 347074 213"
"160.773299"
"$GPGGA,183329,2528.8732,N,08002.4029,W,1,11,1.6,18"
"##MN-00 00 31 0120 01960 6054 436556 347090 214"
"160.773345"
"$GPGGA,183333,2528.8761,N,08002.4040,W,1,11,1.3,18"
"##MN-00 00 32 0121 01961 6053 436506 347054 214"
"160.773391"
"$GPGGA,183337,2528.8788,N,08002.4053,W,1,12,1.5,18"
"##MN-00 00 33 0122 01955 6053 436445 347055 213"
"160.773438"
"$GPGGA,183341,2528.8814,N,08002.4068,W,1,12,1.3,18"
"##MN-00 00 34 0122 01948 6053 436354 347023 214"
"160.773484"
"$GPGGA,183345,2528.8837,N,08002.4086,W,1,12,1.3,18"
"##MN-00 00 37 0123 01939 6052 436043 346959 214"
"160.77353"
"$GPGGA,183349,2528.8858,N,08002.4102,W,1,12,1.3,18"
"##MN-00 00 40 0124 01934 6052 435789 346885 214"
"160.773588"
"$GPGGA,183353,2528.8877,N,08002.4120,W,1,12,1.3,18"
"##MN-00 00 43 0125 01927 6051 435609 346816 214"
"160.773634"
"$GPGGA,183357,2528.8895,N,08002.4137,W,1,12,1.3,18"
"##MN-00 00 45 0126 01921 6050 435462 346782 214"
"160.773681"
"$GPGGA,183401,2528.8911,N,08002.4149,W,1,12,1.3,18"
"##MN-00 00 47 0127 01915 6050 435370 346753 213"
"160.773727"
"$GPGGA,183405,2528.8926,N,08002.4167,W,1,11,1.3,17"
"##MN-00 00 49 0128 01909 6049 435298 346780 214"
"160.773773"
"$GPGGA,183409,2528.8941,N,08002.4184,W,1,12,1.3,17"
"##MN-00 00 51 0129 01904 6048 435225 346710 214"
"160.773819"
"$GPGGA,183413,2528.8955,N,08002.4199,W,1,11,1.4,17"
"##MN-00 00 53 0130 01898 6047 435127 346687 214"
"160.773866"
"$GPGGA,183417,2528.8967,N,08002.4212,W,1,12,1.3,17"
"##MN-00 00 54 0131 01896 6046 435000 346630 214"
"160.773912"
"$GPGGA,183421,2528.8978,N,08002.4228,W,1,11,1.4,17"
"##MN-00 00 55 0133 01891 6046 434906 346654 214"
"160.773958"
"$GPGGA,183425,2528.8988,N,08002.4246,W,1,12,1.3,17"
"##MN-00 00 56 0134 01888 6045 434831 346596 214"
"160.774005"
"$GPGGA,183429,2528.8999,N,08002.4260,W,1,12,1.3,17"
"##MN-00 00 57 0135 01883 6044 434775 346601 214"
"160.774051"
"$GPGGA,183433,2528.9009,N,08002.4271,W,1,12,1.3,16"
"##MN-00 00 58 0136 01881 6044 434713 346533 214"
"160.774097"
"$GPGGA,183437,2528.9021,N,08002.4288,W,1,12,1.3,16"
"##MN-00 00 60 0137 01880 6043 434669 346465 213"
"160.774144"
"$GPGGA,183441,2528.9035,N,08002.4304,W,1,12,1.3,17"
"##MN-00 00 60 0139 01879 6042 434623 346472 214"
"160.77419"
"$GPGGA,183445,2528.9045,N,08002.4314,W,1,12,1.3,17"
"##MN-00 00 60 0140 01877 6041 434559 346516 214"
"160.774236"
"$GPGGA,183449,2528.9052,N,08002.4321,W,1,12,1.3,17"
"##MN-00 00 61 0141 01878 6040 434521 346465 214"
"160.774282"
"$GPGGA,183453,2528.9063,N,08002.4328,W,1,12,1.3,17"
"##MN-00 00 60 0142 01878 6039 434534 346476 214"
"160.774329"
"$GPGGA,183457,2528.9068,N,08002.4329,W,1,11,1.6,17"
"##MN-00 00 60 0143 01878 6038 434547 346425 214"
"160.774375"
"$GPGGA,183501,2528.9078,N,08002.4332,W,1,11,1.6,17"
"##MN-00 00 60 0145 01879 6037 434572 346462 214"
"160.774421"
"$GPGGA,183505,2528.9082,N,08002.4332,W,1,11,1.6,17"
"##MN-00 00 61 0146 01879 6036 434575 346437 214"
"160.774468"
"$GPGGA,183509,2528.9090,N,08002.4331,W,1,10,1.7,17"
"##MN-00 00 60 0147 01886 6035 434577 346391 214"
"160.774514"
"$GPGGA,183513,2528.9104,N,08002.4327,W,1,12,1.3,17"
"##MN-00 00 61 0148 01893 6034 434604 346421 214"
"160.77456"
"$GPGGA,183517,2528.9118,N,08002.4323,W,1,12,1.3,17"
"##MN-00 00 60 0149 01901 6033 434647 346367 214"
"160.774606"
"$GPGGA,183521,2528.9136,N,08002.4319,W,1,12,1.3,17"
"##MN-00 00 58 0149 01911 6032 434724 346427 214"
"160.774653"
"$GPGGA,183525,2528.9157,N,08002.4315,W,1,12,1.3,17"
"##MN-00 00 55 0150 01918 6031 434936 346482 213"
"160.774699"
"$GPGGA,183529,2528.9179,N,08002.4310,W,1,11,1.6,17"
"##MN-00 00 53 0151 01925 6030 435079 346529 213"
"160.774745"
"$GPGGA,183533,2528.9200,N,08002.4306,W,1,11,1.4,17"
"##MN-00 00 49 0152 01933 6029 435133 346579 213"
"160.774792"
"$GPGGA,183537,2528.9222,N,08002.4304,W,1,12,1.3,17"
"##MN-00 00 46 0152 01941 6028 435180 346547 214"
"160.774838"
"$GPGGA,183541,2528.9244,N,08002.4301,W,1,12,1.3,17"
"##MN-00 00 43 0153 01942 6027 435244 346580 213"
"160.774884"
"$GPGGA,183545,2528.9262,N,08002.4296,W,1,11,1.6,17"
"##MN-00 00 43 0154 01947 6026 435277 346572 213"
"160.774931"
"$GPGGA,183549,2528.9287,N,08002.4294,W,1,10,1.4,16"
"##MN-00 00 40 0154 01945 6025 435341 346581 213"
"160.774977"
"$GPGGA,183553,2528.9309,N,08002.4290,W,1,12,1.3,17"
"##MN-00 00 40 0155 01944 6023 435367 346559 213"
"160.775023"
"$GPGGA,183557,2528.9328,N,08002.4285,W,1,12,1.3,17"
"##MN-00 00 40 0156 01943 6022 435367 346563 213"
"160.775069"
"$GPGGA,183601,2528.9342,N,08002.4276,W,1,11,1.6,17"
"##MN-00 00 40 0156 01941 6021 435372 346554 213"
"160.775116"
"$GPGGA,183605,2528.9357,N,08002.4267,W,1,11,1.6,17"
"##MN-00 00 41 0157 01943 6020 435378 346574 213"
"160.775162"
"$GPGGA,183609,2528.9371,N,08002.4257,W,1,11,1.6,17"
"##MN-00 00 40 0158 01941 6019 435377 346538 213"
"160.775208"
"$GPGGA,183613,2528.9386,N,08002.4246,W,1,11,1.6,17"
"##MN-00 00 40 0159 01941 6017 435383 346560 213"
"160.775255"
"$GPGGA,183618,2528.9406,N,08002.4233,W,1,11,1.6,17"
"##MN-00 00 41 0159 01936 6016 435378 346530 213"
"160.775301"
"$GPGGA,183622,2528.9419,N,08002.4222,W,1,11,1.6,16"
"##MN-00 00 42 0160 01934 6015 435365 346541 213"
"160.775347"
"$GPGGA,183625,2528.9429,N,08002.4214,W,1,11,1.6,16"
"##MN-00 00 43 0161 01932 6014 435331 346525 214"
"160.775393"
"$GPGGA,183629,2528.9442,N,08002.4203,W,1,11,1.6,16"
"##MN-00 00 44 0162 01929 6012 435298 346503 213"
"160.77544"
"$GPGGA,183634,2528.9457,N,08002.4189,W,1,11,1.6,15"
"##MN-00 00 45 0163 01926 6012 435270 346490 213"
"160.775486"
"$GPGGA,183638,2528.9472,N,08002.4180,W,1,12,1.3,15"
"##MN-00 00 46 0164 01922 6010 435250 346477 213"
"160.775532"
"$GPGGA,183642,2528.9483,N,08002.4167,W,1,11,1.6,15"
"##MN-00 00 48 0165 01921 6009 435236 346483 213"
"160.775579"
"$GPGGA,183646,2528.9494,N,08002.4155,W,1,11,1.6,15"
"##MN-00 00 48 0166 01917 6008 435216 346462 213"
"160.775625"
"$GPGGA,183650,2528.9507,N,08002.4144,W,1,11,1.6,15"
"##MN-00 00 49 0167 01917 6007 435195 346447 213"
"160.775671"
"$GPGGA,183654,2528.9519,N,08002.4132,W,1,11,1.6,15"
"##MN-00 00 50 0168 01915 6005 435181 346433 213"
"160.775718"
"$GPGGA,183658,2528.9531,N,08002.4122,W,1,11,1.6,14"
"##MN-00 00 51 0168 01911 6004 435172 346417 213"
"160.775764"
"$GPGGA,183702,2528.9547,N,08002.4113,W,1,12,1.3,14"
"##MN-00 00 51 0169 01913 6003 435171 346409 213"
"160.77581"
"$GPGGA,183706,2528.9559,N,08002.4104,W,1,12,1.3,14"
"##MN-00 00 51 0170 01911 6002 435148 346391 213"
"160.775856"
"$GPGGA,183710,2528.9570,N,08002.4094,W,1,11,1.6,14"
"##MN-00 00 51 0171 01911 6000 435115 346374 213"
"160.775903"
"$GPGGA,183714,2528.9580,N,08002.4086,W,1,11,1.6,14"
"##MN-00 00 52 0172 01910 5999 435080 346339 213"
"160.775949"
"$GPGGA,183718,2528.9594,N,08002.4078,W,1,11,1.3,14"
"##MN-00 00 52 0173 01909 5998 435030 346315 213"
"160.775995"
"$GPGGA,183722,2528.9606,N,08002.4068,W,1,12,1.6,14"
"##MN-00 00 52 0174 01909 5997 434994 346275 213"
"160.776042"
"$GPGGA,183726,2528.9617,N,08002.4055,W,1,11,1.6,14"
"##MN-00 00 52 0175 01909 5995 434971 346266 213"
"160.776088"
"$GPGGA,183730,2528.9630,N,08002.4043,W,1,11,1.6,14"
"##MN-00 00 53 0176 01909 5994 434963 346247 213"
"160.776134"
"$GPGGA,183734,2528.9641,N,08002.4030,W,1,11,1.7,13"
"##MN-00 00 54 0177 01916 5992 434962 346249 213"
"160.776181"
"$GPGGA,183738,2528.9652,N,08002.4018,W,1,11,1.7,13"
"##MN-00 00 55 0178 01920 5991 434976 346232 213"
"160.776227"
"$GPGGA,183742,2528.9666,N,08002.4008,W,1,12,1.3,13"
"##MN-00 00 56 0179 01926 5990 435032 346258 213"
"160.776273"
"$GPGGA,183746,2528.9679,N,08002.3996,W,1,12,1.3,13"
"##MN-00 00 56 0180 01937 5989 435115 346276 213"
"160.776319"
"$GPGGA,183750,2528.9692,N,08002.3983,W,1,12,1.6,13"
"##MN-00 00 55 0180 01940 5987 435166 346179 213"
"160.776366"
"$GPGGA,183754,2528.9704,N,08002.3969,W,1,11,1.6,13"
"##MN-00 00 55 0181 01948 5986 435227 346000 213"
"160.776412"
"$GPGGA,183758,2528.9715,N,08002.3957,W,1,11,1.6,13"
"##MN-00 00 55 0182 01954 5985 435277 346340 213"
"160.776458"
"$GPGGA,183802,2528.9728,N,08002.3944,W,1,11,1.6,13"
"##MN-00 00 55 0183 01962 5983 435410 346377 213"
"160.776505"
"$GPGGA,183806,2528.9740,N,08002.3932,W,1,11,1.6,13"
"##MN-00 00 55 0184 01968 5982 435693 346452 213"
"160.776551"
"$GPGGA,183810,2528.9751,N,08002.3921,W,1,11,1.6,13"
"##MN-00 00 52 0185 01966 5981 436045 346449 213"
"160.776597"
"$GPGGA,183814,2528.9764,N,08002.3909,W,1,11,1.6,13"
"##MN-00 00 52 0185 01967 5979 436263 346589 213"
"160.776644"
"$GPGGA,183818,2528.9776,N,08002.3898,W,1,11,1.6,13"
"##MN-00 00 52 0186 01966 5978 436387 346617 213"
"160.77669"
"$GPGGA,183822,2528.9787,N,08002.3887,W,1,11,1.6,13"
"##MN-00 00 52 0187 01968 5977 436478 346653 213"
"160.776736"
"$GPGGA,183826,2528.9798,N,08002.3876,W,1,11,1.6,13"
"##MN-00 00 52 0188 01969 5975 436545 346648 213"
"160.776794"
"$GPGGA,183830,2528.9811,N,08002.3865,W,1,11,1.6,13"
"##MN+00 00 52 0189 01969 5974 436603 346775 213"
"160.77684"
"$GPGGA,183834,2528.9822,N,08002.3853,W,1,11,1.6,13"
"##MN+00 00 52 0190 01970 5973 436651 346706 213"
"160.776887"
"$GPGGA,183838,2528.9834,N,08002.3841,W,1,11,1.6,13"
"##MN+00 00 52 0191 01970 5971 436695 346785 213"
"160.776933"
"$GPGGA,183842,2528.9847,N,08002.3830,W,1,11,1.6,13"
"##MN+00 00 52 0192 01968 5970 436695 346730 213"
"160.776979"
"$GPGGA,183846,2528.9859,N,08002.3820,W,1,11,1.6,13"
"##MN+00 00 52 0193 01970 5969 436712 346810 213"
"160.777025"
"$GPGGA,183850,2528.9872,N,08002.3809,W,1,11,1.6,13"
"##MN+00 00 57 0194 01973 5967 436735 346736 213"
"160.777072"
"$GPGGA,183854,2528.9884,N,08002.3798,W,1,11,1.6,13"
"##MN-00 00 56 0195 01970 5966 436780 346790 213"
"160.777118"
"$GPGGA,183858,2528.9897,N,08002.3787,W,1,11,1.6,13"
"##MN-00 00 54 0196 01973 5965 436831 346748 214"
"160.777164"
"#increment_net"
"$GPGGA,183902,2528.9909,N,08002.3777,W,1,11,1.6,13"
"##MN-00 00 55 0196 01971 5963 436857 346778 214"
"160.777211"
"$GPGGA,183906,2528.9921,N,08002.3767,W,1,11,1.6,13"
"##MN-00 00 54 0197 01969 5962 436856 346750 213"
"160.777257"
"$GPGGA,183910,2528.9935,N,08002.3758,W,1,11,1.6,13"
"##MN-00 00 54 0198 01968 5961 436832 346737 213"
"160.777303"
"$GPGGA,183914,2528.9946,N,08002.3748,W,1,11,1.6,13"
"##MN-00 00 55 0199 01970 5959 436767 346763 213"
"160.77735"
"$GPGGA,183918,2528.9959,N,08002.3738,W,1,11,1.6,12"
"##MN-00 00 55 0200 01966 5958 436733 346696 213"
"160.777396"
"$GPGGA,183922,2528.9971,N,08002.3728,W,1,11,1.6,12"
"##MN-00 00 55 0201 01966 5957 436721 346744 213"
"160.777442"
"$GPGGA,183926,2528.9985,N,08002.3718,W,1,11,1.6,12"
"##MN-00 00 55 0202 01968 5955 436706 346677 213"
"160.777488"
"$GPGGA,183930,2528.9997,N,08002.3707,W,1,11,1.6,12"
"##MN-00 00 55 0203 01968 5954 436702 346727 213"
"160.777535"
"$GPGGA,183934,2529.0010,N,08002.3697,W,1,11,1.6,12"
"##MN-00 00 55 0204 01968 5952 436698 346659 213"
"160.777581"
"$GPGGA,183938,2529.0022,N,08002.3687,W,1,11,1.6,12"
"##MN-00 00 55 0205 01968 5951 436705 346711 213"
"160.777627"
"$GPGGA,183942,2529.0035,N,08002.3676,W,1,11,1.6,12"
"##MN-00 00 55 0205 01965 5949 436709 346631 213"
"160.777674"
"$GPGGA,183946,2529.0047,N,08002.3666,W,1,11,1.6,12"
"##MN-00 00 55 0206 01967 5948 436700 346691 213"
"160.77772"
"$GPGGA,183950,2529.0060,N,08002.3657,W,1,11,1.6,12"
"##MN-00 00 55 0207 01966 5947 436696 346619 213"
"160.777766"
"$GPGGA,183954,2529.0072,N,08002.3647,W,1,11,1.6,12"
"##MN-00 00 55 0208 01966 5945 436703 346700 213"
"160.777812"
"$GPGGA,183958,2529.0085,N,08002.3636,W,1,11,1.6,12"
"##MN-00 00 56 0209 01968 5944 436715 346623 213"
"160.777859"
"$GPGGA,184002,2529.0097,N,08002.3626,W,1,11,1.6,12"
"##MN-00 00 55 0210 01967 5942 436738 346654 213"
"160.777905"
"$GPGGA,184006,2529.0108,N,08002.3615,W,1,11,1.6,11"
"##MN-00 00 56 0211 01967 5941 436763 346654 213"
"160.777951"
"$GPGGA,184010,2529.0121,N,08002.3604,W,1,11,1.6,11"
"##MN-00 00 56 0212 01968 5940 436770 346614 213"
"160.777998"
"$GPGGA,184014,2529.0133,N,08002.3593,W,1,11,1.6,11"
"##MN-00 00 55 0213 01967 5938 436787 346644 213"
"160.778044"
"$GPGGA,184018,2529.0145,N,08002.3583,W,1,11,1.6,11"
"##MN-00 00 55 0213 01967 5937 436784 346596 213"
"160.77809"
"$GPGGA,184022,2529.0156,N,08002.3572,W,1,11,1.6,11"
"##MN-00 00 55 0214 01967 5936 436781 346606 213"
"160.778137"
"$GPGGA,184026,2529.0170,N,08002.3561,W,1,11,1.6,11"
"##MN-00 00 56 0215 01967 5934 436802 346637 213"
"160.778183"
"$GPGGA,184030,2529.0181,N,08002.3550,W,1,11,1.6,10"
"##MN-00 00 55 0216 01969 5933 436791 346566 213"
"160.778229"
"$GPGGA,184034,2529.0195,N,08002.3540,W,1,11,1.6,10"
"##MN-00 00 56 0217 01967 5931 436770 346593 213"
"160.778275"
"$GPGGA,184038,2529.0206,N,08002.3529,W,1,11,1.6,10"
"##MN-00 00 55 0218 01967 5930 436753 346598 213"
"160.778322"
"$GPGGA,184042,2529.0217,N,08002.3519,W,1,11,1.6,10"
"##MN-00 00 56 0219 01967 5929 436744 346602 213"
"160.778368"
"$GPGGA,184046,2529.0231,N,08002.3510,W,1,11,1.6,10"
"##MN-00 00 55 0220 01966 5927 436778 346636 213"
"160.778414"
"$GPGGA,184051,2529.0245,N,08002.3497,W,1,11,1.6,10"
"##MN-00 00 55 0221 01967 5926 436768 346588 213"
"160.778461"
"$GPGGA,184054,2529.0253,N,08002.3489,W,1,11,1.6,10"
"##MN+00 00 56 0222 01967 5925 436769 346645 213"
"160.778507"
"$GPGGA,184059,2529.0268,N,08002.3476,W,1,11,1.6,10"
"##MN+00 00 56 0222 01966 5923 436817 346615 213"
"160.778553"
"$GPGGA,184103,2529.0282,N,08002.3466,W,1,11,1.6,10"
"##MN+00 00 56 0223 01967 5922 436843 346612 213"
"160.7786"
"$GPGGA,184107,2529.0293,N,08002.3455,W,1,11,1.6,10"
"##MN-00 00 56 0224 01966 5921 436844 346646 213"
"160.778646"
"$GPGGA,184111,2529.0307,N,08002.3445,W,1,11,1.6,10"
"##MN-00 00 55 0225 01967 5919 436817 346571 213"
"160.778692"
"$GPGGA,184115,2529.0320,N,08002.3436,W,1,11,1.6,10"
"##MN-00 00 56 0226 01968 5918 436784 346606 213"
"160.778738"
"$GPGGA,184119,2529.0332,N,08002.3426,W,1,11,1.6,10"
"##MN-00 00 56 0227 01969 5916 436790 346561 213"
"160.778785"
"$GPGGA,184122,2529.0340,N,08002.3419,W,1,11,1.6,10"
"##MN+00 00 55 0228 01967 5916 436785 346549 213"
"160.778831"
"$GPGGA,184127,2529.0356,N,08002.3407,W,1,11,1.6,10"
"##MN+00 00 56 0229 01968 5914 436812 346564 213"
"160.778877"
"$GPGGA,184131,2529.0368,N,08002.3397,W,1,11,1.6,10"
"##MN+00 00 61 0230 01967 5913 436803 346493 213"
"160.778924"
"#increment_net"
"$GPGGA,184135,2529.0379,N,08002.3387,W,1,11,1.6,10"
"##MN-00 00 56 0231 01966 5911 436829 346547 213"
"160.77897"
"$GPGGA,184139,2529.0390,N,08002.3377,W,1,11,1.6,10"
"##MN-00 00 53 0231 01965 5909 436824 346499 213"
"160.779016"
"$GPGGA,184143,2529.0404,N,08002.3367,W,1,11,1.6,10"
"##MN-00 00 50 0232 01965 5908 436800 346494 213"
"160.779063"
"$GPGGA,184147,2529.0415,N,08002.3357,W,1,11,1.6,10"
"##MN-00 00 51 0233 01963 5906 436751 346526 213"
"160.779109"
"$GPGGA,184151,2529.0428,N,08002.3347,W,1,11,1.6,10"
"##MN-00 00 50 0234 01964 5905 436723 346458 213"
"160.779155"
"$GPGGA,184155,2529.0440,N,08002.3338,W,1,11,1.6,10"
"##MN-00 00 50 0235 01963 5904 436524 346462 213"
"160.779201"
"$GPGGA,184159,2529.0455,N,08002.3330,W,1,12,1.3,10"
"##MN-00 00 50 0236 01965 5903 436452 346438 213"
"160.779248"
"$GPGGA,184203,2529.0470,N,08002.3321,W,1,12,1.3,10"
"##MN-00 00 50 0237 01964 5901 436355 346344 213"
"160.779294"
"$GPGGA,184207,2529.0483,N,08002.3312,W,1,12,1.3,11"
"##MN-00 00 50 0238 01961 5900 436284 346362 213"
"160.77934"
"$GPGGA,184211,2529.0499,N,08002.3304,W,1,12,1.3,11"
"##MN-00 00 50 0239 01962 5899 436234 346312 213"
"160.779387"
"$GPGGA,184215,2529.0512,N,08002.3295,W,1,12,1.3,12"
"##MN-00 00 50 0240 01964 5897 436184 346283 213"
"160.779433"
"$GPGGA,184219,2529.0524,N,08002.3284,W,1,12,1.3,12"
"##MN-00 00 50 0241 01962 5896 436128 346322 213"
"160.779479"
"$GPGGA,184223,2529.0535,N,08002.3275,W,1,12,1.3,13"
"##MN-00 00 51 0242 01964 5895 436040 346199 213"
"160.779525"
"$GPGGA,184227,2529.0549,N,08002.3264,W,1,12,1.3,13"
"##MN-00 00 50 0243 01962 5893 436030 346215 213"
"160.779572"
"$GPGGA,184231,2529.0562,N,08002.3255,W,1,12,1.3,13"
"##MN-00 00 50 0244 01964 5892 436023 346172 213"
"160.779618"
"$GPGGA,184235,2529.0574,N,08002.3245,W,1,12,1.3,13"
"##MN-00 00 50 0245 01960 5891 435985 346180 213"
"160.779664"
"$GPGGA,184239,2529.0581,N,08002.3235,W,1,11,1.6,13"
"##MN-00 00 51 0246 01962 5890 435973 346158 213"
"160.779711"
"$GPGGA,184243,2529.0593,N,08002.3225,W,1,12,1.3,14"
"##MN-00 00 50 0247 01962 5888 435935 346227 213"
"160.779757"
"$GPGGA,184247,2529.0606,N,08002.3211,W,1,12,1.3,14"
"##MN-00 00 51 0247 01962 5887 435912 346595 213"
"160.779803"
"$GPGGA,184251,2529.0617,N,08002.3205,W,1,12,1.3,13"
"##MN-00 00 51 0248 01962 5886 435903 346589 213"
"160.77985"
"$GPGGA,184255,2529.0634,N,08002.3192,W,1,11,1.6,13"
"##MN-00 00 51 0249 01963 5884 435928 346541 213"
"160.779896"
"$GPGGA,184259,2529.0643,N,08002.3179,W,1,12,1.3,13"
"##MN-00 00 50 0250 01962 5883 435931 346246 213"
"160.779942"
"$GPGGA,184303,2529.0657,N,08002.3170,W,1,12,1.3,13"
"##MN-00 00 50 0251 01962 5882 435900 346110 213"
"160.779988"
"$GPGGA,184307,2529.0669,N,08002.3161,W,1,12,1.3,13"
"##MN-00 00 51 0252 01961 5881 435879 346084 213"
"160.780046"
"$GPGGA,184311,2529.0683,N,08002.3152,W,1,12,1.3,13"
"##MN+00 00 50 0253 01963 5879 435881 346115 213"
"160.780093"
"$GPGGA,184315,2529.0696,N,08002.3143,W,1,12,1.3,13"
"##MN+00 00 51 0254 01963 5878 435886 346092 213"
"160.780139"
"$GPGGA,184319,2529.0710,N,08002.3135,W,1,12,1.3,13"
"##MN+00 00 51 0255 01962 5876 435877 346095 213"
"160.780185"
"$GPGGA,184323,2529.0723,N,08002.3127,W,1,12,1.3,13"
"##MN-00 00 51 0256 01965 5875 435878 346117 213"
"160.780231"
"$GPGGA,184327,2529.0737,N,08002.3117,W,1,12,1.3,13"
"##MN-00 00 51 0257 01965 5874 435891 346070 213"
"160.780278"
"$GPGGA,184331,2529.0748,N,08002.3109,W,1,12,1.4,13"
"##MN-00 00 50 0258 01964 5873 435900 346127 213"
"160.780324"
"$GPGGA,184335,2529.0762,N,08002.3101,W,1,12,1.4,13"
"##MN+00 00 51 0259 01964 5872 435890 346080 213"
"160.78037"
"$GPGGA,184339,2529.0773,N,08002.3092,W,1,12,1.4,13"
"##MN+00 00 50 0260 01964 5870 435904 346085 213"
"160.780417"
"$GPGGA,184343,2529.0786,N,08002.3083,W,1,12,1.4,14"
"##MN+00 00 60 0261 01965 5869 435912 346134 213"
"160.780463"
"#increment_net"
"$GPGGA,184347,2529.0798,N,08002.3074,W,1,12,1.4,14"
"##MN-00 00 56 0262 01966 5868 435906 346068 213"
"160.780509"
"$GPGGA,184351,2529.0809,N,08002.3065,W,1,12,1.4,14"
"##MN-00 00 52 0262 01965 5867 435952 346106 213"
"160.780556"
"$GPGGA,184355,2529.0823,N,08002.3055,W,1,12,1.4,14"
"##MN-00 00 50 0263 01966 5865 436004 346131 213"
"160.780602"
"$GPGGA,184359,2529.0835,N,08002.3047,W,1,12,1.4,14"
"##MN-00 00 50 0264 01963 5864 435986 346088 213"
"160.780648"
"$GPGGA,184403,2529.0848,N,08002.3037,W,1,12,1.4,14"
"##MN-00 00 49 0265 01964 5863 435960 346124 213"
"160.780694"
"$GPGGA,184407,2529.0860,N,08002.3027,W,1,12,1.4,14"
"##MN-00 00 49 0266 01965 5862 435986 346097 213"
"160.780741"
"$GPGGA,184411,2529.0873,N,08002.3018,W,1,12,1.4,13"
"##MN-00 00 49 0267 01963 5860 436012 346066 213"
"160.780787"
"$GPGGA,184415,2529.0885,N,08002.3008,W,1,12,1.4,13"
"##MN-00 00 49 0268 01965 5859 436009 346141 213"
"160.780833"
"$GPGGA,184419,2529.0899,N,08002.2999,W,1,12,1.4,13"
"##MN-00 00 49 0269 01965 5858 436028 346046 213"
"160.78088"
"$GPGGA,184423,2529.0911,N,08002.2990,W,1,12,1.4,13"
"##MN-00 00 49 0270 01963 5857 436038 346117 213"
"160.780926"
"$GPGGA,184427,2529.0924,N,08002.2981,W,1,12,1.4,13"
"##MN-00 00 49 0271 01964 5855 436041 346156 213"
"160.780972"
"$GPGGA,184431,2529.0936,N,08002.2972,W,1,12,1.4,13"
"##MN-00 00 49 0272 01965 5854 436041 346053 213"
"160.781018"
"$GPGGA,184435,2529.0950,N,08002.2962,W,1,12,1.4,13"
"##MN-00 00 49 0273 01963 5853 436110 346136 213"
"160.781065"
"$GPGGA,184439,2529.0961,N,08002.2951,W,1,12,1.4,13"
"##MN-00 00 49 0274 01965 5852 436131 346094 213"
"160.781111"
"$GPGGA,184443,2529.0975,N,08002.2941,W,1,12,1.4,12"
"##MN-00 00 49 0275 01964 5851 436138 346129 213"
"160.781157"
"$GPGGA,184447,2529.0986,N,08002.2930,W,1,12,1.4,12"
"##MN-00 00 49 0276 01965 5849 436151 346173 213"
"160.781204"
"$GPGGA,184451,2529.0999,N,08002.2920,W,1,12,1.4,12"
"##MN-00 00 49 0277 01964 5848 436192 346088 213"
"160.78125"
"$GPGGA,184455,2529.1012,N,08002.2910,W,1,12,1.4,12"
"##MN-00 00 49 0278 01962 5847 436242 346156 213"
"160.781296"
"$GPGGA,184459,2529.1023,N,08002.2901,W,1,12,1.4,12"
"##MN-00 00 49 0279 01961 5846 436246 346164 213"
"160.781343"
"$GPGGA,184503,2529.1037,N,08002.2891,W,1,12,1.4,12"
"##MN-00 00 49 0280 01963 5845 436252 346105 213"
"160.781389"
"$GPGGA,184507,2529.1048,N,08002.2882,W,1,12,1.4,12"
"##MN-00 00 50 0280 01964 5844 436263 346135 213"
"160.781435"
"$GPGGA,184511,2529.1062,N,08002.2874,W,1,12,1.4,12"
"##MN-00 00 49 0281 01964 5843 436303 346178 213"
"160.781482"
"$GPGGA,184515,2529.1075,N,08002.2864,W,1,12,1.4,12"
"##MN-00 00 49 0282 01963 5841 436375 346163 213"
"160.781528"
"$GPGGA,184519,2529.1087,N,08002.2856,W,1,12,1.4,12"
"##MN-00 00 49 0283 01965 5840 436367 346226 213"
"160.781574"
"$GPGGA,184523,2529.1101,N,08002.2847,W,1,12,1.4,12"
"##MN+00 00 49 0284 01964 5839 436416 346179 213"
"160.78162"
"$GPGGA,184527,2529.1113,N,08002.2838,W,1,12,1.4,12"
"##MN+00 00 49 0285 01964 5838 436443 346221 213"
"160.781667"
"$GPGGA,184531,2529.1126,N,08002.2828,W,1,12,1.4,12"
"##MN+00 00 49 0286 01965 5837 436451 346231 213"
"160.781713"
"$GPGGA,184535,2529.1138,N,08002.2819,W,1,12,1.4,12"
"##MN-00 00 50 0287 01964 5835 436508 346227 213"
"160.781759"
"$GPGGA,184540,2529.1155,N,08002.2807,W,1,12,1.4,12"
"##MN-00 00 49 0288 01966 5835 436612 346243 213"
"160.781806"
"$GPGGA,184544,2529.1167,N,08002.2798,W,1,12,1.4,12"
"##MN-00 00 50 0289 01964 5833 436645 346236 213"
"160.781852"
"$GPGGA,184548,2529.1180,N,08002.2788,W,1,12,1.4,12"
"##MN+00 00 49 0290 01965 5832 436674 346266 213"
"160.781898"
"$GPGGA,184552,2529.1192,N,08002.2779,W,1,12,1.4,12"
"##MN+00 00 50 0291 01965 5831 436686 346287 213"
"160.781944"
"$GPGGA,184555,2529.1202,N,08002.2772,W,1,12,1.4,12"
"##MN+00 00 59 0292 01966 5830 436709 346259 213"
"160.781991"
"#increment_net"
"$GPGGA,184600,2529.1217,N,08002.2760,W,1,12,1.4,12"
"##MN-00 00 55 0293 01965 5829 436734 346240 213"
"160.782037"
"$GPGGA,184604,2529.1231,N,08002.2751,W,1,12,1.4,12"
"##MN-00 00 52 0293 01964 5828 436738 346259 213"
"160.782083"
"$GPGGA,184608,2529.1243,N,08002.2741,W,1,12,1.4,12"
"##MN-00 00 51 0294 01967 5826 436723 346271 213"
"160.78213"
"$GPGGA,184612,2529.1256,N,08002.2732,W,1,12,1.4,12"
"##MN-00 00 49 0295 01964 5826 436717 346289 213"
"160.782176"
"$GPGGA,184616,2529.1268,N,08002.2721,W,1,12,1.4,12"
"##MN-00 00 49 0296 01962 5824 436709 346297 213"
"160.782222"
"$GPGGA,184620,2529.1282,N,08002.2712,W,1,12,1.4,12"
"##MN-00 00 50 0297 01961 5823 436691 346272 213"
"160.782269"
"$GPGGA,184624,2529.1293,N,08002.2702,W,1,12,1.4,12"
"##MN-00 00 49 0298 01963 5822 436672 346268 213"
"160.782315"
"$GPGGA,184628,2529.1307,N,08002.2692,W,1,12,1.4,11"
"##MN-00 00 49 0299 01963 5821 436654 346254 213"
"160.782361"
"$GPGGA,184632,2529.1319,N,08002.2683,W,1,12,1.4,11"
"##MN-00 00 49 0300 01964 5819 436653 346263 213"
"160.782407"
"$GPGGA,184636,2529.1330,N,08002.2673,W,1,12,1.4,11"
"##MN-00 00 50 0301 01963 5819 436637 346265 213"
"160.782454"
"$GPGGA,184640,2529.1344,N,08002.2663,W,1,12,1.4,11"
"##MN-00 00 50 0302 01963 5818 436629 346253 213"
"160.7825"
"$GPGGA,184644,2529.1357,N,08002.2654,W,1,12,1.4,11"
"##MN-00 00 50 0303 01964 5817 436614 346235 213"
"160.782546"
"$GPGGA,184648,2529.1369,N,08002.2644,W,1,12,1.4,11"
"##MN-00 00 49 0304 01963 5815 436619 346260 213"
"160.782593"
"$GPGGA,184652,2529.1383,N,08002.2634,W,1,12,1.4,11"
"##MN-00 00 50 0305 01965 5814 436633 346233 213"
"160.782639"
"$GPGGA,184656,2529.1395,N,08002.2623,W,1,12,1.4,11"
"##MN-00 00 49 0306 01964 5813 436635 346226 213"
"160.782685"
"$GPGGA,184700,2529.1409,N,08002.2614,W,1,12,1.4,11"
"##MN-00 00 50 0307 01966 5812 436627 346216 213"
"160.782731"
"$GPGGA,184704,2529.1422,N,08002.2603,W,1,12,1.4,11"
"##MN-00 00 49 0308 01966 5811 436632 346215 213"
"160.782778"
"$GPGGA,184708,2529.1434,N,08002.2593,W,1,12,1.4,11"
"##MN-00 00 50 0308 01965 5810 436629 346206 213"
"160.782824"
"$GPGGA,184712,2529.1448,N,08002.2582,W,1,12,1.4,11"
"##MN-00 00 49 0309 01966 5809 436636 346201 213"
"160.78287"
"$GPGGA,184716,2529.1460,N,08002.2572,W,1,12,1.4,11"
"##MN-00 00 49 0310 01965 5808 436631 346230 213"
"160.782917"
"$GPGGA,184720,2529.1474,N,08002.2561,W,1,12,1.4,11"
"##MN-00 00 49 0311 01964 5807 436619 346220 213"
"160.782963"
"$GPGGA,184724,2529.1485,N,08002.2551,W,1,12,1.4,11"
"##MN-00 00 49 0312 01965 5806 436602 346226 213"
"160.783009"
"$GPGGA,184728,2529.1499,N,08002.2541,W,1,12,1.4,11"
"##MN-00 00 49 0313 01964 5805 436597 346207 213"
"160.783056"
"$GPGGA,184732,2529.1512,N,08002.2531,W,1,12,1.4,11"
"##MN-00 00 49 0314 01966 5804 436580 346211 213"
"160.783102"
"$GPGGA,184736,2529.1524,N,08002.2521,W,1,12,1.4,11"
"##MN+00 00 49 0315 01965 5803 436559 346198 213"
"160.783148"
"$GPGGA,184740,2529.1536,N,08002.2511,W,1,12,1.4,11"
"##MN+00 00 49 0316 01963 5802 436543 346194 213"
"160.783194"
"$GPGGA,184744,2529.1549,N,08002.2501,W,1,12,1.4,11"
"##MN+00 00 50 0317 01965 5800 436531 346193 213"
"160.783241"
"$GPGGA,184748,2529.1561,N,08002.2491,W,1,12,1.4,11"
"##MN-00 00 49 0318 01967 5799 436522 346188 213"
"160.783299"
"$GPGGA,184752,2529.1575,N,08002.2481,W,1,12,1.4,11"
"##MN-00 00 49 0319 01966 5798 436493 346173 213"
"160.783345"
"$GPGGA,184756,2529.1586,N,08002.2471,W,1,12,1.4,11"
"##MN-00 00 49 0320 01964 5798 436447 346130 213"
"160.783391"
"$GPGGA,184800,2529.1600,N,08002.2461,W,1,12,1.4,11"
"##MN+00 00 49 0321 01963 5797 436418 346151 213"
"160.783437"
"$GPGGA,184804,2529.1611,N,08002.2451,W,1,12,1.4,11"
"##MN+00 00 49 0322 01964 5795 436402 346134 213"
"160.783484"
"$GPGGA,184808,2529.1625,N,08002.2441,W,1,12,1.4,11"
"##MN+00 00 60 0323 01964 5794 436394 346122 213"
"160.78353"
"#increment_net"
"$GPGGA,184812,2529.1637,N,08002.2431,W,1,12,1.4,11"
"##MN-00 00 58 0324 01965 5793 436392 346104 213"
"160.783576"
"$GPGGA,184816,2529.1650,N,08002.2421,W,1,12,1.4,11"
"##MN-00 00 53 0325 01971 5792 436420 346104 213"
"160.783623"
"$GPGGA,184820,2529.1661,N,08002.2411,W,1,12,1.4,11"
"##MN-00 00 50 0326 01977 5791 436481 346113 213"
"160.783669"
"$GPGGA,184824,2529.1673,N,08002.2401,W,1,12,1.4,11"
"##MN-00 00 48 0328 01981 5790 436605 346130 213"
"160.783715"
"$GPGGA,184828,2529.1684,N,08002.2390,W,1,12,1.4,11"
"##MN-00 00 48 0329 01981 5789 436896 346196 213"
"160.783762"
"$GPGGA,184832,2529.1694,N,08002.2380,W,1,12,1.4,11"
"##MN-00 00 48 0330 01971 5788 437004 346266 213"
"160.783808"
"$GPGGA,184836,2529.1705,N,08002.2370,W,1,12,1.4,11"
"##MN-00 00 47 0332 01966 5787 436759 346218 213"
"160.783854"
"$GPGGA,184840,2529.1718,N,08002.2360,W,1,12,1.4,11"
"##MN-00 00 46 0333 01959 5786 436510 346170 213"
"160.7839"
"$GPGGA,184844,2529.1729,N,08002.2350,W,1,12,1.4,11"
"##MN-00 00 46 0334 01950 5785 436216 346090 213"
"160.783947"
"$GPGGA,184848,2529.1740,N,08002.2340,W,1,12,1.4,11"
"##MN-00 00 45 0336 01945 5784 435858 346007 213"
"160.783993"
"$GPGGA,184852,2529.1751,N,08002.2329,W,1,12,1.4,11"
"##MN-00 00 45 0337 01934 5783 435586 345897 213"
"160.784039"
"$GPGGA,184856,2529.1762,N,08002.2318,W,1,12,1.4,11"
"##MN-00 00 45 0338 01927 5782 435359 345815 213"
"160.784086"
"$GPGGA,184900,2529.1772,N,08002.2308,W,1,12,1.4,11"
"##MN-00 00 46 0340 01916 5781 435211 345681 213"
"160.784132"
"$GPGGA,184904,2529.1783,N,08002.2297,W,1,12,1.4,11"
"##MN-00 00 46 0341 01907 5780 435097 345633 213"
"160.784178"
"$GPGGA,184908,2529.1792,N,08002.2286,W,1,12,1.4,11"
"##MN-00 00 45 0343 01898 5779 434920 345579 213"
"160.784225"
"$GPGGA,184912,2529.1803,N,08002.2274,W,1,12,1.4,11"
"##MN-00 00 46 0344 01886 5778 434693 345515 213"
"160.784271"
"$GPGGA,184916,2529.1813,N,08002.2264,W,1,12,1.4,11"
"##MN-00 00 46 0345 01879 5777 434517 345468 213"
"160.784317"
"$GPGGA,184920,2529.1823,N,08002.2253,W,1,12,1.4,11"
"##MN-00 00 47 0347 01868 5776 434273 345401 213"
"160.784363"
"$GPGGA,184924,2529.1832,N,08002.2241,W,1,12,1.4,11"
"##MN-00 00 48 0348 01859 5775 433967 345315 213"
"160.78441"
"$GPGGA,184928,2529.1842,N,08002.2231,W,1,12,1.4,11"
"##MN-00 00 49 0350 01858 5774 433613 345228 213"
"160.784456"
"$GPGGA,184932,2529.1853,N,08002.2220,W,1,12,1.4,11"
"##MN-00 00 49 0351 01855 5773 431432 344898 213"
"160.784502"
"$GPGGA,184936,2529.1864,N,08002.2209,W,1,12,1.4,11"
"##MN-00 00 50 0352 01857 5772 425307 343247 213"
