" Tow: L14s-A   RVWS/WS1406"
" Date: 06/09/2014"
" Temperature Probe #  2597    Conductivity Probe #  2870"
" Pressure Probe #  109"
" Flow Meter Calibration  4.71 (m/count)  "
"160.995532"
"$GPGGA,235325,2550.5871,N,08002.6649,W,1,10,1.4,19"
"##MN-00 00 54 0084 01856 5558 433451 918715 213"
"160.995579"
"$GPGGA,235333,2550.5965,N,08002.6584,W,1,9,1.5,19,"
"##MN-00 00 57 0085 01857 5558 435401 841167 213"
"160.995625"
"$GPGGA,235337,2550.6012,N,08002.6554,W,1,9,1.5,19,"
"##MN-00 00 54 0085 01856 5558 433613 358421 213"
"160.995671"
"$GPGGA,235341,2550.6059,N,08002.6523,W,1,9,1.5,19,"
"##MN-00 00 59 0086 01858 5558 433236 345819 213"
"160.995718"
"$GPGGA,235345,2550.6106,N,08002.6492,W,1,9,1.5,19,"
"##MN-00 00 60 0088 01856 5558 433269 345986 213"
"160.995764"
"$GPGGA,235349,2550.6155,N,08002.6455,W,1,9,1.7,19,"
"##MN-00 00 59 0089 01857 5558 433217 345973 213"
"160.99581"
"$GPGGA,235353,2550.6199,N,08002.6423,W,1,10,1.4,19"
"##MN-00 00 60 0090 01857 5559 433186 345949 213"
"160.995856"
"$GPGGA,235357,2550.6245,N,08002.6389,W,1,9,1.7,18,"
"##MN-00 00 58 0091 01855 5559 433208 345934 213"
"160.995903"
"$GPGGA,235401,2550.6283,N,08002.6361,W,1,10,1.4,19"
"##MN-00 00 61 0092 01856 5559 433151 345882 213"
"160.995949"
"$GPGGA,235405,2550.6326,N,08002.6330,W,1,10,1.4,19"
"##MN-00 00 61 0093 01858 5559 433125 345799 213"
"160.995995"
"$GPGGA,235409,2550.6366,N,08002.6297,W,1,10,1.4,19"
"##MN-00 00 60 0094 01858 5559 433122 345804 213"
"160.996042"
"$GPGGA,235413,2550.6405,N,08002.6260,W,1,9,1.7,19,"
"##MN-00 00 61 0095 01858 5560 433150 345764 213"
"160.996088"
"$GPGGA,235417,2550.6445,N,08002.6230,W,1,10,1.4,19"
"##MN-00 00 60 0096 01858 5560 433149 345744 213"
"160.996134"
"$GPGGA,235421,2550.6485,N,08002.6199,W,1,9,1.7,19,"
"##MN-00 00 60 0097 01859 5560 433185 345671 213"
"160.996181"
"$GPGGA,235425,2550.6528,N,08002.6166,W,1,9,1.7,19,"
"##MN-00 00 60 0098 01858 5560 433473 345690 213"
"160.996227"
"$GPGGA,235429,2550.6568,N,08002.6134,W,1,8,1.7,20,"
"##MN-00 00 60 0100 01860 5561 433990 345808 213"
"160.996273"
"$GPGGA,235433,2550.6604,N,08002.6102,W,1,9,1.7,19,"
"##MN-00 00 60 0101 01861 5561 434661 345974 213"
"160.996319"
"$GPGGA,235437,2550.6642,N,08002.6071,W,1,10,1.4,19"
"##MN-00 00 60 0102 01861 5561 435070 346044 213"
"160.996366"
"$GPGGA,235441,2550.6679,N,08002.6038,W,1,10,1.4,19"
"##MN-00 00 61 0103 01866 5561 435640 346193 213"
"160.996412"
"$GPGGA,235446,2550.6726,N,08002.5997,W,1,10,1.7,19"
"##MN-00 00 60 0104 01868 5561 436186 346422 213"
"160.996458"
"$GPGGA,235450,2550.6762,N,08002.5968,W,1,10,1.4,18"
"##MN-00 00 61 0105 01872 5561 436413 346499 213"
"160.996505"
"$GPGGA,235454,2550.6801,N,08002.5936,W,1,10,1.4,18"
"##MN-00 00 61 0106 01875 5561 436598 346640 213"
"160.996551"
"$GPGGA,235457,2550.6830,N,08002.5911,W,1,10,1.4,18"
"##MN-00 00 61 0107 01877 5561 436740 346707 213"
"160.996597"
"$GPGGA,235502,2550.6879,N,08002.5869,W,1,10,1.4,18"
"##MN-00 00 61 0108 01880 5561 436854 346782 213"
"160.996644"
"$GPGGA,235506,2550.6915,N,08002.5837,W,1,10,1.4,18"
"##MN-00 00 61 0109 01885 5562 437013 346827 213"
"160.99669"
"$GPGGA,235509,2550.6943,N,08002.5812,W,1,9,1.4,18,"
"##MN-00 00 60 0110 01886 5562 437293 346893 213"
"160.996748"
"$GPGGA,235514,2550.6990,N,08002.5772,W,1,9,1.7,18,"
"##MN-00 00 61 0111 01892 5562 437593 346932 213"
"160.996794"
"$GPGGA,235518,2550.7023,N,08002.5743,W,1,9,1.7,18,"
"##MN-00 00 61 0113 01897 5562 437896 347020 213"
"160.99684"
"$GPGGA,235522,2550.7061,N,08002.5710,W,1,9,1.4,18,"
"##MN-00 00 61 0114 01899 5562 438353 347256 213"
"160.996887"
"$GPGGA,235526,2550.7099,N,08002.5674,W,1,10,1.4,18"
"##MN-00 00 61 0115 01903 5562 439001 347304 213"
"160.996933"
"$GPGGA,235530,2550.7137,N,08002.5641,W,1,9,1.7,17,"
"##MN-00 00 61 0116 01906 5562 439830 347588 213"
"160.996979"
"$GPGGA,235534,2550.7173,N,08002.5609,W,1,10,1.7,17"
"##MN-00 00 61 0117 01914 5562 441047 347949 213"
"160.997025"
"$GPGGA,235538,2550.7208,N,08002.5575,W,1,9,1.7,17,"
"##MN-00 00 61 0118 01915 5562 441754 348272 213"
"160.997072"
"$GPGGA,235542,2550.7246,N,08002.5542,W,1,9,1.7,17,"
"##MN-00 00 61 0119 01919 5562 442204 348373 213"
"160.997118"
"$GPGGA,235546,2550.7282,N,08002.5509,W,1,9,1.7,16,"
"##MN-00 00 61 0120 01924 5562 442623 348534 213"
"160.997164"
"$GPGGA,235550,2550.7316,N,08002.5478,W,1,10,1.4,16"
"##MN-00 00 61 0121 01931 5562 442848 348695 213"
"160.997211"
"$GPGGA,235554,2550.7354,N,08002.5443,W,1,9,1.7,16,"
"##MN-00 00 61 0122 01933 5562 443003 348739 213"
"160.997257"
"$GPGGA,235558,2550.7392,N,08002.5410,W,1,9,1.7,16,"
"##MN-00 00 60 0123 01938 5562 443314 348887 213"
"160.997303"
"$GPGGA,235602,2550.7428,N,08002.5377,W,1,9,1.7,16,"
"##MN-00 00 61 0124 01945 5562 443508 348948 213"
"160.99735"
"$GPGGA,235606,2550.7464,N,08002.5347,W,1,10,1.4,15"
"##MN-00 00 61 0126 01950 5562 443591 348937 213"
"160.997396"
"$GPGGA,235610,2550.7500,N,08002.5319,W,1,10,1.4,15"
"##MN-00 00 61 0127 01955 5562 443632 348927 213"
"160.997442"
"$GPGGA,235614,2550.7536,N,08002.5289,W,1,10,1.7,15"
"##MN-00 00 61 0128 01961 5562 443646 348976 213"
"160.997488"
"$GPGGA,235618,2550.7572,N,08002.5258,W,1,10,1.4,15"
"##MN-00 00 61 0129 01967 5562 443650 348994 213"
"160.997535"
"$GPGGA,235622,2550.7609,N,08002.5227,W,1,10,1.7,15"
"##MN-00 00 60 0129 01973 5562 443659 349027 213"
"160.997581"
"$GPGGA,235626,2550.7645,N,08002.5198,W,1,10,1.4,16"
"##MN-00 00 60 0130 01977 5561 443698 349033 213"
"160.997627"
"$GPGGA,235630,2550.7680,N,08002.5168,W,1,10,1.4,16"
"##MN-00 00 60 0131 01983 5561 443791 349027 213"
"160.997674"
"$GPGGA,235634,2550.7717,N,08002.5137,W,1,10,1.4,16"
"##MN-00 00 60 0132 01991 5561 443906 349089 213"
"160.99772"
"$GPGGA,235638,2550.7756,N,08002.5107,W,1,10,1.4,16"
"##MN-00 00 58 0133 01992 5561 444060 349104 213"
"160.997766"
"$GPGGA,235642,2550.7782,N,08002.5085,W,1,10,1.7,16"
"##MN-00 00 56 0134 01994 5561 444245 349143 213"
"160.997813"
"$GPGGA,235646,2550.7831,N,08002.5047,W,1,9,1.7,16,"
"##MN-00 00 56 0135 01993 5561 444445 349248 213"
"160.997859"
"$GPGGA,235650,2550.7867,N,08002.5017,W,1,9,1.4,16,"
"##MN-00 00 55 0136 01994 5560 444491 349256 213"
"160.997905"
"$GPGGA,235654,2550.7904,N,08002.4988,W,1,9,1.7,15,"
"##MN-00 00 55 0138 01991 5560 444479 349253 213"
"160.997951"
"$GPGGA,235658,2550.7937,N,08002.4963,W,1,9,1.7,15,"
"##MN-00 00 55 0139 01991 5560 444430 349285 213"
"160.997998"
"$GPGGA,235702,2550.7973,N,08002.4934,W,1,9,1.7,15,"
"##MN-00 00 54 0140 01987 5559 444288 349245 213"
"160.998044"
"$GPGGA,235706,2550.8009,N,08002.4908,W,1,10,1.4,15"
"##MN-00 00 55 0141 01988 5559 444231 349234 213"
"160.99809"
"$GPGGA,235710,2550.8044,N,08002.4881,W,1,10,1.4,15"
"##MN-00 00 54 0142 01987 5559 444188 349247 213"
"160.998137"
"$GPGGA,235714,2550.8078,N,08002.4856,W,1,10,1.4,15"
"##MN-00 00 54 0143 01983 5558 444134 349203 213"
"160.998183"
"$GPGGA,235718,2550.8111,N,08002.4831,W,1,10,1.4,15"
"##MN-00 00 54 0144 01982 5558 444079 349195 213"
"160.998229"
"$GPGGA,235722,2550.8143,N,08002.4806,W,1,10,1.4,15"
"##MN-00 00 54 0145 01980 5558 444024 349200 213"
"160.998275"
"$GPGGA,235726,2550.8181,N,08002.4779,W,1,10,1.4,15"
"##MN-00 00 54 0146 01981 5558 443943 349143 213"
"160.998322"
"$GPGGA,235730,2550.8214,N,08002.4754,W,1,10,1.4,15"
"##MN-00 00 53 0147 01977 5557 443898 349157 213"
"160.998368"
"$GPGGA,235734,2550.8248,N,08002.4729,W,1,10,1.4,15"
"##MN-00 00 54 0148 01976 5557 443852 349140 213"
"160.998414"
"$GPGGA,235738,2550.8286,N,08002.4699,W,1,9,1.4,15,"
"##MN-00 00 53 0149 01976 5556 443835 349111 213"
"160.998461"
"$GPGGA,235742,2550.8320,N,08002.4672,W,1,10,1.4,15"
"##MN-00 00 53 0150 01973 5556 443784 349123 213"
"160.998507"
"$GPGGA,235746,2550.8356,N,08002.4644,W,1,10,1.4,15"
"##MN-00 00 53 0151 01970 5556 443708 349075 213"
"160.998553"
"$GPGGA,235750,2550.8389,N,08002.4617,W,1,10,1.4,14"
"##MN-00 00 53 0152 01971 5555 443642 349082 213"
"160.9986"
"$GPGGA,235754,2550.8424,N,08002.4589,W,1,10,1.4,14"
"##MN-00 00 54 0153 01971 5555 443564 349073 213"
"160.998646"
"$GPGGA,235758,2550.8457,N,08002.4561,W,1,9,1.7,14,"
"##MN+00 00 54 0154 01973 5555 443550 349029 213"
"160.998692"
"$GPGGA,235802,2550.8489,N,08002.4535,W,1,10,1.4,14"
"##MN+00 00 54 0155 01972 5554 443551 349055 213"
"160.998738"
"$GPGGA,235806,2550.8522,N,08002.4509,W,1,10,1.4,14"
"##MN+00 00 54 0156 01971 5554 443542 349034 213"
"160.998785"
"$GPGGA,235810,2550.8555,N,08002.4482,W,1,10,1.4,14"
"##MN-00 00 53 0157 01970 5554 443531 349016 213"
"160.998831"
"$GPGGA,235814,2550.8588,N,08002.4455,W,1,10,1.4,14"
"##MN+00 00 53 0158 01972 5553 443543 349014 213"
"160.998877"
"$GPGGA,235818,2550.8623,N,08002.4425,W,1,10,1.4,14"
"##MN+00 00 53 0159 01973 5553 443560 349011 213"
"160.998924"
"$GPGGA,235822,2550.8656,N,08002.4397,W,1,10,1.4,14"
"##MN+00 00 60 0160 01972 5552 443573 349007 213"
"160.99897"
"#increment_net"
"$GPGGA,235826,2550.8689,N,08002.4369,W,1,10,1.4,14"
"##MN-00 00 55 0161 01972 5552 443633 349019 213"
"160.999016"
"$GPGGA,235830,2550.8723,N,08002.4340,W,1,10,1.4,15"
"##MN-00 00 53 0162 01972 5552 443715 349017 213"
"160.999063"
"$GPGGA,235834,2550.8757,N,08002.4312,W,1,10,1.4,15"
"##MN-00 00 51 0163 01970 5551 443695 349031 213"
"160.999109"
"$GPGGA,235838,2550.8790,N,08002.4285,W,1,10,1.4,15"
"##MN-00 00 51 0164 01969 5551 443645 349022 213"
"160.999155"
"$GPGGA,235842,2550.8824,N,08002.4256,W,1,10,1.4,15"
"##MN-00 00 52 0165 01970 5550 443582 349022 213"
"160.999201"
"$GPGGA,235846,2550.8857,N,08002.4228,W,1,10,1.4,15"
"##MN-00 00 52 0166 01969 5549 443529 349017 213"
"160.999248"
"$GPGGA,235850,2550.8891,N,08002.4201,W,1,9,1.4,15,"
"##MN-00 00 52 0167 01967 5549 443497 349003 213"
"160.999294"
"$GPGGA,235854,2550.8923,N,08002.4173,W,1,10,1.5,15"
"##MN-00 00 52 0168 01964 5548 443450 348994 213"
"160.99934"
"$GPGGA,235858,2550.8956,N,08002.4146,W,1,10,1.4,15"
"##MN-00 00 52 0169 01966 5548 443412 348977 213"
"160.999387"
"$GPGGA,235902,2550.8989,N,08002.4119,W,1,10,1.4,15"
"##MN-00 00 52 0169 01967 5547 443395 348980 213"
"160.999433"
"$GPGGA,235907,2550.9032,N,08002.4086,W,1,9,1.7,15,"
"##MN-00 00 52 0170 01966 5547 443379 348971 213"
"160.999479"
"$GPGGA,235910,2550.9057,N,08002.4069,W,1,10,1.4,16"
"##MN-00 00 53 0171 01965 5547 443367 348986 213"
"160.999525"
"$GPGGA,235915,2550.9096,N,08002.4037,W,1,10,1.4,16"
"##MN-00 00 52 0172 01966 5546 443348 348969 213"
"160.999572"
"$GPGGA,235918,2550.9119,N,08002.4017,W,1,10,1.4,16"
"##MN-00 00 53 0173 01965 5546 443331 348963 213"
"160.999618"
"$GPGGA,235923,2550.9161,N,08002.3984,W,1,10,1.4,17"
"##MN-00 00 52 0174 01964 5545 443325 348965 213"
"160.999664"
"$GPGGA,235926,2550.9187,N,08002.3962,W,1,9,1.7,17,"
"##MN-00 00 53 0175 01965 5544 443319 348948 213"
"160.999711"
"$GPGGA,235930,2550.9223,N,08002.3934,W,1,9,1.7,17,"
"##MN-00 00 52 0176 01965 5545 443319 348961 213"
"160.999757"
"$GPGGA,235935,2550.9266,N,08002.3899,W,1,9,1.7,17,"
"##MN-00 00 53 0177 01964 5543 443319 348950 213"
"160.999803"
"$GPGGA,235939,2550.9298,N,08002.3874,W,1,10,1.4,17"
"##MN-00 00 53 0178 01965 5543 443317 348953 213"
"160.99985"
"$GPGGA,235943,2550.9332,N,08002.3846,W,1,9,1.7,17,"
"##MN-00 00 52 0179 01965 5542 443315 348952 213"
"160.999896"
"$GPGGA,235947,2550.9364,N,08002.3819,W,1,9,1.7,17,"
"##MN-00 00 53 0180 01967 5542 443309 348971 213"
"160.999942"
"$GPGGA,235951,2550.9397,N,08002.3793,W,1,9,1.7,17,"
"##MN-00 00 53 0181 01966 5542 443296 348936 213"
"161.00"
"$GPGGA,235955,2550.9429,N,08002.3768,W,1,9,1.7,17,"
"##MN-00 00 52 0182 01965 5541 443280 348966 213"
"160.000058"
"$GPGGA,235959,2550.9462,N,08002.3742,W,1,9,1.7,17,"
"##MN+00 00 53 0183 01965 5540 443271 348940 213"
"160.000104"
"$GPGGA,000004,2550.9501,N,08002.3711,W,1,10,1.7,17"
"##MN+00 00 52 0184 01968 5540 443263 348946 213"
"161.00015"
"$GPGGA,000008,2550.9534,N,08002.3684,W,1,9,1.7,17,"
"##MN+00 00 52 0185 01965 5539 443257 348938 213"
"161.000197"
"$GPGGA,000012,2550.9567,N,08002.3657,W,1,9,1.6,17,"
"##MN-00 00 53 0186 01964 5539 443244 348926 213"
"161.000243"
"$GPGGA,000016,2550.9602,N,08002.3629,W,1,9,1.6,17,"
"##MN-00 00 53 0187 01965 5538 443236 348943 213"
"161.000289"
"$GPGGA,000020,2550.9635,N,08002.3602,W,1,9,1.6,17,"
"##MN-00 00 52 0188 01965 5538 443230 348929 213"
"161.000336"
"$GPGGA,000024,2550.9668,N,08002.3574,W,1,9,1.4,16,"
"##MN-00 00 53 0189 01966 5537 443227 348947 213"
"161.000382"
"$GPGGA,000028,2550.9703,N,08002.3545,W,1,10,1.4,16"
"##MN+00 00 53 0190 01965 5536 443223 348916 213"
"161.000428"
"$GPGGA,000032,2550.9735,N,08002.3516,W,1,10,1.4,16"
"##MN+00 00 53 0190 01964 5536 443223 348929 213"
"161.000475"
"$GPGGA,000036,2550.9769,N,08002.3489,W,1,10,1.4,16"
"##MN+00 00 63 0191 01970 5535 443224 348931 213"
"161.000521"
"$GPGGA,000040,2550.9800,N,08002.3461,W,1,9,1.4,16,"
"##MN-00 00 58 0192 01968 5535 443230 348925 213"
"161.000567"
"$GPGGA,000044,2550.9830,N,08002.3434,W,1,10,1.4,16"
"##MN-00 00 54 0193 01966 5534 443239 348945 213"
"161.000613"
"$GPGGA,000048,2550.9862,N,08002.3407,W,1,9,1.4,16,"
"##MN-00 00 52 0194 01965 5534 443233 348921 213"
"161.00066"
"$GPGGA,000052,2550.9894,N,08002.3380,W,1,10,1.4,16"
"##MN-00 00 52 0195 01963 5533 443224 348953 213"
"161.000706"
"#increment_net"
"$GPGGA,000056,2550.9926,N,08002.3352,W,1,10,1.4,16"
"##MN-00 00 52 0196 01965 5532 443215 348919 213"
"161.000752"
"$GPGGA,000100,2550.9959,N,08002.3323,W,1,10,1.4,16"
"##MN-00 00 52 0197 01964 5532 443209 348934 213"
"161.000799"
"$GPGGA,000104,2550.9992,N,08002.3296,W,1,10,1.4,16"
"##MN-00 00 52 0198 01963 5531 443202 348917 213"
"161.000845"
"$GPGGA,000108,2551.0024,N,08002.3268,W,1,10,1.4,16"
"##MN-00 00 52 0199 01963 5531 443191 348911 213"
"161.000891"
"$GPGGA,000112,2551.0057,N,08002.3240,W,1,10,1.4,16"
"##MN-00 00 52 0200 01965 5530 443180 348918 213"
"161.000938"
"$GPGGA,000116,2551.0090,N,08002.3211,W,1,10,1.4,16"
"##MN-00 00 52 0201 01964 5530 443172 348893 213"
"161.000984"
"$GPGGA,000120,2551.0123,N,08002.3183,W,1,10,1.4,16"
"##MN-00 00 52 0202 01963 5529 443161 348913 213"
"161.00103"
"$GPGGA,000124,2551.0155,N,08002.3155,W,1,10,1.4,16"
"##MN-00 00 52 0203 01963 5529 443151 348879 213"
"161.001076"
"$GPGGA,000128,2551.0188,N,08002.3127,W,1,10,1.4,16"
"##MN-00 00 52 0204 01963 5528 443129 348905 213"
"161.001123"
"$GPGGA,000132,2551.0220,N,08002.3099,W,1,10,1.4,16"
"##MN-00 00 52 0205 01964 5528 443118 348856 213"
"161.001169"
"$GPGGA,000136,2551.0253,N,08002.3070,W,1,10,1.4,16"
"##MN-00 00 52 0206 01962 5527 443113 348881 213"
"161.001215"
"$GPGGA,000140,2551.0285,N,08002.3043,W,1,10,1.4,16"
"##MN-00 00 51 0207 01963 5527 443114 348862 213"
"161.001262"
"$GPGGA,000144,2551.0317,N,08002.3018,W,1,9,1.4,16,"
"##MN-00 00 52 0208 01961 5526 443116 348879 213"
"161.001308"
"$GPGGA,000148,2551.0349,N,08002.2991,W,1,10,1.4,16"
"##MN-00 00 51 0209 01965 5525 443114 348865 213"
"161.001354"
"$GPGGA,000152,2551.0379,N,08002.2967,W,1,10,1.6,16"
"##MN-00 00 52 0210 01962 5524 443099 348861 213"
"161.0014"
"$GPGGA,000156,2551.0408,N,08002.2942,W,1,9,1.4,16,"
"##MN-00 00 52 0211 01963 5524 443075 348868 213"
"161.001447"
"$GPGGA,000200,2551.0440,N,08002.2916,W,1,9,1.6,16,"
"##MN-00 00 52 0212 01962 5524 443058 348854 213"
"161.001493"
"$GPGGA,000204,2551.0470,N,08002.2891,W,1,10,1.4,16"
"##MN-00 00 52 0213 01966 5523 443034 348870 213"
"161.001539"
"$GPGGA,000208,2551.0501,N,08002.2865,W,1,10,1.4,17"
"##MN-00 00 52 0213 01968 5523 443013 348843 213"
"161.001586"
"$GPGGA,000212,2551.0533,N,08002.2837,W,1,10,1.4,17"
"##MN-00 00 52 0214 01965 5522 443007 348870 213"
"161.001632"
"$GPGGA,000216,2551.0564,N,08002.2809,W,1,10,1.4,17"
"##MN-00 00 51 0215 01967 5522 443008 348846 213"
"161.001678"
"$GPGGA,000220,2551.0599,N,08002.2780,W,1,10,1.6,17"
"##MN-00 00 51 0216 01969 5521 443012 348875 213"
"161.001725"
"$GPGGA,000224,2551.0632,N,08002.2751,W,1,9,1.6,17,"
"##MN-00 00 51 0217 01967 5520 443031 348846 213"
"161.001771"
"$GPGGA,000228,2551.0665,N,08002.2720,W,1,8,1.6,17,"
"##MN+00 00 51 0218 01967 5520 443059 348882 213"
"161.001817"
"$GPGGA,000232,2551.0697,N,08002.2692,W,1,9,1.6,17,"
"##MN+00 00 52 0219 01964 5519 443071 348854 213"
"161.001863"
"$GPGGA,000236,2551.0733,N,08002.2659,W,1,9,2.0,17,"
"##MN+00 00 51 0220 01967 5519 443076 348885 213"
"161.00191"
"$GPGGA,000240,2551.0762,N,08002.2636,W,1,9,1.4,17,"
"##MN-00 00 52 0221 01968 5518 443075 348859 213"
"161.001956"
"$GPGGA,000244,2551.0794,N,08002.2611,W,1,9,1.4,17,"
"##MN-00 00 51 0222 01968 5517 443063 348890 213"
"161.002002"
"$GPGGA,000248,2551.0826,N,08002.2586,W,1,10,1.4,17"
"##MN-00 00 51 0223 01968 5517 443044 348857 213"
"161.002049"
"$GPGGA,000252,2551.0856,N,08002.2560,W,1,10,1.4,17"
"##MN-00 00 52 0224 01968 5516 443028 348882 213"
"161.002095"
"$GPGGA,000256,2551.0888,N,08002.2534,W,1,10,1.4,17"
"##MN+00 00 51 0225 01968 5516 443012 348856 213"
"161.002141"
"$GPGGA,000300,2551.0921,N,08002.2506,W,1,10,1.4,17"
"##MN+00 00 51 0226 01967 5515 443006 348875 213"
"161.002187"
"$GPGGA,000304,2551.0952,N,08002.2478,W,1,10,1.4,17"
"##MN+00 00 62 0227 01970 5515 443007 348855 213"
"161.002234"
"#increment_net"
"$GPGGA,000308,2551.0985,N,08002.2450,W,1,10,1.4,17"
"##MN-00 00 56 0228 01970 5515 443019 348868 212"
"161.00228"
"$GPGGA,000312,2551.1017,N,08002.2420,W,1,10,1.4,17"
"##MN-00 00 53 0229 01967 5514 443045 348857 213"
"161.002326"
"$GPGGA,000316,2551.1050,N,08002.2391,W,1,10,1.4,17"
"##MN-00 00 52 0230 01969 5514 443057 348865 213"
"161.002373"
"$GPGGA,000320,2551.1083,N,08002.2363,W,1,10,1.4,17"
"##MN-00 00 51 0231 01969 5513 443063 348866 213"
"161.002419"
"$GPGGA,000324,2551.1116,N,08002.2335,W,1,10,1.4,17"
"##MN-00 00 51 0232 01968 5512 443066 348878 213"
"161.002465"
"$GPGGA,000328,2551.1148,N,08002.2307,W,1,10,1.4,17"
"##MN-00 00 51 0233 01969 5511 443063 348876 212"
"161.002512"
"$GPGGA,000332,2551.1180,N,08002.2280,W,1,10,1.4,16"
"##MN-00 00 51 0234 01968 5511 443048 348871 212"
"161.002558"
"$GPGGA,000336,2551.1212,N,08002.2253,W,1,10,1.4,16"
"##MN-00 00 51 0235 01966 5510 443034 348876 212"
"161.002604"
"$GPGGA,000340,2551.1245,N,08002.2225,W,1,10,1.4,16"
"##MN-00 00 51 0236 01968 5509 443020 348859 212"
"161.00265"
"$GPGGA,000344,2551.1278,N,08002.2197,W,1,10,1.4,16"
"##MN-00 00 51 0237 01968 5509 443009 348875 212"
"161.002697"
"$GPGGA,000348,2551.1310,N,08002.2169,W,1,10,1.4,16"
"##MN-00 00 51 0238 01967 5509 442997 348847 212"
"161.002743"
"$GPGGA,000352,2551.1342,N,08002.2141,W,1,10,1.4,16"
"##MN-00 00 51 0239 01965 5508 442989 348868 212"
"161.002789"
"$GPGGA,000356,2551.1373,N,08002.2113,W,1,10,1.4,16"
"##MN-00 00 51 0240 01966 5507 442975 348844 212"
"161.002836"
"$GPGGA,000400,2551.1405,N,08002.2084,W,1,10,1.4,16"
"##MN-00 00 51 0241 01967 5507 442967 348863 212"
"161.002882"
"$GPGGA,000404,2551.1437,N,08002.2056,W,1,10,1.4,17"
"##MN-00 00 51 0242 01966 5507 442957 348844 212"
"161.002928"
"$GPGGA,000408,2551.1470,N,08002.2028,W,1,10,1.4,17"
"##MN-00 00 51 0243 01965 5506 442940 348847 212"
"161.002975"
"$GPGGA,000412,2551.1503,N,08002.1999,W,1,10,1.4,17"
"##MN-00 00 51 0244 01966 5505 442919 348838 212"
"161.003021"
"$GPGGA,000416,2551.1534,N,08002.1972,W,1,10,1.4,17"
"##MN-00 00 51 0245 01965 5505 442906 348834 212"
"161.003067"
"$GPGGA,000420,2551.1564,N,08002.1945,W,1,10,1.4,17"
"##MN-00 00 51 0246 01964 5504 442900 348826 212"
"161.003113"
"$GPGGA,000425,2551.1603,N,08002.1910,W,1,10,1.4,17"
"##MN-00 00 51 0247 01965 5504 442908 348828 212"
"161.00316"
"$GPGGA,000429,2551.1636,N,08002.1881,W,1,10,1.4,17"
"##MN-00 00 51 0248 01967 5504 442927 348844 212"
"161.003206"
"$GPGGA,000433,2551.1665,N,08002.1854,W,1,10,1.4,18"
"##MN-00 00 52 0249 01964 5503 442948 348835 212"
"161.003252"
"$GPGGA,000437,2551.1698,N,08002.1826,W,1,10,1.4,18"
"##MN+00 00 51 0249 01966 5503 442968 348853 212"
"161.00331"
"$GPGGA,000441,2551.1729,N,08002.1798,W,1,10,1.4,18"
"##MN+00 00 51 0250 01964 5502 442980 348829 212"
"161.003356"
"$GPGGA,000445,2551.1760,N,08002.1770,W,1,10,1.4,18"
"##MN+00 00 52 0251 01961 5502 442981 348854 212"
"161.003403"
"$GPGGA,000449,2551.1794,N,08002.1741,W,1,10,1.4,18"
"##MN-00 00 51 0252 01963 5501 442972 348838 212"
"161.003449"
"$GPGGA,000453,2551.1817,N,08002.1719,W,1,10,1.4,18"
"##MN-00 00 52 0253 01964 5500 442955 348850 212"
"161.003495"
"$GPGGA,000457,2551.1857,N,08002.1684,W,1,10,1.4,18"
"##MN-00 00 52 0254 01962 5500 442942 348839 212"
"161.003542"
"$GPGGA,000501,2551.1882,N,08002.1663,W,1,10,1.4,18"
"##MN-00 00 52 0255 01965 5499 442949 348837 212"
"161.003588"
"$GPGGA,000505,2551.1922,N,08002.1627,W,1,10,1.4,18"
"##MN+00 00 52 0256 01969 5499 442967 348851 212"
"161.003634"
"$GPGGA,000509,2551.1954,N,08002.1598,W,1,10,1.4,18"
"##MN+00 00 52 0257 01967 5499 443001 348849 212"
"161.003681"
"$GPGGA,000513,2551.1986,N,08002.1571,W,1,10,1.4,18"
"##MN+00 00 62 0258 01971 5498 443041 348861 212"
"161.003727"
"#increment_net"
"$GPGGA,000517,2551.2011,N,08002.1549,W,1,10,1.4,18"
"##MN-00 00 58 0259 01971 5498 443065 348843 212"
"161.003773"
"$GPGGA,000521,2551.2049,N,08002.1515,W,1,10,1.4,18"
"##MN-00 00 54 0260 01969 5497 443078 348865 212"
"161.003819"
"$GPGGA,000525,2551.2083,N,08002.1486,W,1,10,1.4,18"
"##MN-00 00 52 0261 01968 5497 443065 348834 212"
"161.003866"
"$GPGGA,000529,2551.2113,N,08002.1458,W,1,10,1.4,18"
"##MN-00 00 52 0262 01967 5496 443053 348854 212"
"161.003912"
"$GPGGA,000533,2551.2146,N,08002.1429,W,1,10,1.4,17"
"##MN-00 00 52 0263 01964 5496 443046 348853 212"
"161.003958"
"$GPGGA,000537,2551.2177,N,08002.1400,W,1,10,1.4,17"
"##MN-00 00 51 0264 01966 5495 443045 348855 212"
"161.004005"
"$GPGGA,000541,2551.2210,N,08002.1371,W,1,10,1.4,17"
"##MN-00 00 51 0266 01964 5494 443052 348869 212"
"161.004051"
"$GPGGA,000545,2551.2242,N,08002.1343,W,1,10,1.4,17"
"##MN-00 00 51 0267 01967 5494 443056 348844 212"
"161.004097"
"$GPGGA,000549,2551.2273,N,08002.1315,W,1,10,1.4,17"
"##MN-00 00 51 0268 01966 5493 443064 348854 212"
"161.004144"
"$GPGGA,000553,2551.2305,N,08002.1286,W,1,10,1.4,17"
"##MN-00 00 51 0269 01966 5493 443064 348853 212"
"161.00419"
"$GPGGA,000557,2551.2337,N,08002.1257,W,1,10,1.4,17"
"##MN-00 00 51 0270 01966 5492 443063 348845 212"
"161.004236"
"$GPGGA,000601,2551.2370,N,08002.1229,W,1,10,1.4,17"
"##MN-00 00 51 0271 01967 5492 443061 348865 212"
"161.004282"
"$GPGGA,000605,2551.2402,N,08002.1201,W,1,10,1.4,17"
"##MN-00 00 51 0272 01968 5491 443062 348828 212"
"161.004329"
"$GPGGA,000609,2551.2434,N,08002.1172,W,1,10,1.4,17"
"##MN-00 00 51 0273 01964 5491 443068 348948 212"
"161.004375"
"$GPGGA,000613,2551.2467,N,08002.1143,W,1,10,1.4,17"
"##MN-00 00 51 0274 01967 5491 443079 348953 212"
"161.004421"
"$GPGGA,000617,2551.2500,N,08002.1114,W,1,10,1.4,17"
"##MN-00 00 51 0275 01969 5490 443085 348927 212"
"161.004468"
"$GPGGA,000621,2551.2529,N,08002.1088,W,1,10,1.4,17"
"##MN-00 00 51 0276 01966 5489 443069 348901 212"
"161.004514"
"$GPGGA,000625,2551.2560,N,08002.1060,W,1,10,1.4,17"
"##MN-00 00 51 0277 01967 5489 443056 348832 212"
"161.00456"
"$GPGGA,000629,2551.2593,N,08002.1031,W,1,10,1.4,17"
"##MN-00 00 51 0278 01966 5488 443034 348851 212"
"161.004606"
"$GPGGA,000633,2551.2623,N,08002.1003,W,1,10,1.4,17"
"##MN-00 00 51 0279 01966 5488 443004 348825 212"
"161.004653"
"$GPGGA,000637,2551.2656,N,08002.0975,W,1,10,1.4,17"
"##MN-00 00 51 0280 01969 5488 442976 348835 212"
"161.004699"
"$GPGGA,000641,2551.2688,N,08002.0947,W,1,10,1.4,17"
"##MN+00 00 51 0281 01966 5487 442967 348827 212"
"161.004745"
"$GPGGA,000645,2551.2721,N,08002.0919,W,1,10,1.4,17"
"##MN+00 00 52 0282 01965 5487 442968 348826 212"
"161.004792"
"$GPGGA,000649,2551.2753,N,08002.0891,W,1,10,1.4,17"
"##MN+00 00 51 0283 01965 5486 442972 348838 212"
"161.004838"
"$GPGGA,000653,2551.2786,N,08002.0862,W,1,10,1.4,17"
"##MN-00 00 51 0284 01966 5486 442980 348813 212"
"161.004884"
"$GPGGA,000657,2551.2818,N,08002.0834,W,1,10,1.4,17"
"##MN-00 00 51 0285 01966 5485 442982 348832 212"
"161.004931"
"$GPGGA,000701,2551.2850,N,08002.0807,W,1,10,1.4,17"
"##MN-00 00 51 0286 01966 5485 442978 348828 212"
"161.004977"
"$GPGGA,000705,2551.2883,N,08002.0779,W,1,10,1.4,17"
"##MN+00 00 51 0287 01967 5484 442971 348810 212"
"161.005023"
"$GPGGA,000709,2551.2915,N,08002.0751,W,1,10,1.4,17"
"##MN+00 00 51 0288 01965 5484 442949 348825 212"
"161.005069"
"$GPGGA,000713,2551.2948,N,08002.0724,W,1,10,1.4,17"
"##MN+00 00 62 0289 01970 5483 442948 348809 212"
"161.005116"
"#increment_net"
"$GPGGA,000717,2551.2981,N,08002.0696,W,1,10,1.4,17"
"##MN-00 00 59 0290 01970 5483 442989 348811 212"
"161.005162"
"$GPGGA,000721,2551.3013,N,08002.0668,W,1,10,1.4,17"
"##MN-00 00 55 0292 01973 5483 443005 348825 212"
"161.005208"
"$GPGGA,000725,2551.3046,N,08002.0639,W,1,10,1.4,17"
"##MN-00 00 53 0293 01980 5482 443015 348800 212"
"161.005255"
"$GPGGA,000729,2551.3077,N,08002.0610,W,1,10,1.4,17"
"##MN-00 00 50 0294 01986 5481 443129 348823 212"
"161.005301"
"$GPGGA,000733,2551.3109,N,08002.0581,W,1,10,1.4,17"
"##MN-00 00 48 0295 01986 5481 443279 348851 212"
"161.005347"
"$GPGGA,000737,2551.3142,N,08002.0552,W,1,10,1.4,17"
"##MN-00 00 49 0297 01979 5480 443320 348870 212"
"161.005394"
"$GPGGA,000741,2551.3175,N,08002.0522,W,1,10,1.4,17"
"##MN-00 00 49 0298 01972 5480 443153 348858 212"
"161.00544"
"$GPGGA,000745,2551.3208,N,08002.0493,W,1,10,1.4,17"
"##MN-00 00 49 0300 01966 5479 443011 348826 212"
"161.005486"
"$GPGGA,000749,2551.3240,N,08002.0462,W,1,10,1.4,17"
"##MN-00 00 47 0301 01960 5479 442927 348817 212"
"161.005532"
"$GPGGA,000753,2551.3272,N,08002.0433,W,1,9,1.6,17,"
"##MN-00 00 48 0303 01950 5478 442812 348801 212"
"161.005579"
"$GPGGA,000757,2551.3305,N,08002.0402,W,1,9,1.6,17,"
"##MN-00 00 49 0304 01943 5478 442579 348767 212"
"161.005625"
"$GPGGA,000801,2551.3337,N,08002.0371,W,1,9,1.6,17,"
"##MN-00 00 48 0306 01935 5478 442155 348651 212"
"161.005671"
"$GPGGA,000805,2551.3369,N,08002.0341,W,1,9,1.6,17,"
"##MN-00 00 48 0307 01925 5477 441495 348439 212"
"161.005718"
"$GPGGA,000809,2551.3400,N,08002.0311,W,1,9,1.6,17,"
"##MN-00 00 48 0308 01916 5476 440285 348112 212"
"161.005764"
"$GPGGA,000813,2551.3432,N,08002.0281,W,1,9,1.6,17,"
"##MN-00 00 49 0310 01908 5476 438515 347410 212"
"161.00581"
"$GPGGA,000817,2551.3465,N,08002.0251,W,1,10,1.4,17"
"##MN-00 00 48 0311 01900 5475 436597 346867 212"
"161.005856"
"$GPGGA,000821,2551.3497,N,08002.0222,W,1,9,1.6,17,"
"##MN-00 00 49 0312 01891 5475 435785 346566 212"
"161.005903"
"$GPGGA,000825,2551.3528,N,08002.0194,W,1,10,1.4,17"
"##MN-00 00 49 0314 01879 5475 435349 346395 212"
"161.005949"
"$GPGGA,000829,2551.3559,N,08002.0165,W,1,9,1.4,17,"
"##MN-00 00 49 0315 01872 5475 434854 346315 212"
"161.005995"
"$GPGGA,000833,2551.3591,N,08002.0135,W,1,8,1.4,17,"
"##MN-00 00 49 0316 01863 5474 434634 346215 212"
"161.006042"
"$GPGGA,000837,2551.3624,N,08002.0104,W,1,10,1.4,17"
"##MN-00 00 49 0318 01862 5473 433928 345769 212"
"161.006088"
"$GPGGA,000841,2551.3656,N,08002.0075,W,1,10,1.4,17"
"##MN-00 00 46 0319 01859 5473 431666 345327 212"
"161.006134"
"$GPGGA,000845,2551.3688,N,08002.0046,W,1,10,1.4,17"
"##MN-00 00 57 0320 01861 5473 431022 345874 212"
"161.006181"
"$GPGGA,000850,2551.3725,N,08002.0012,W,1,9,1.6,18,"
"##MN-00 00 50 0320 01860 5472 436292 535572 212"
"161.006227"
"$GPGGA,000853,2551.3752,N,08001.9987,W,1,9,1.6,18,"
"##MN-00 00 44 0320 01860 5472 444975 465834 212"
