" Tow: L14s-B   RVWS/WS1406"
" Date: 06/09/2014"
" Temperature Probe #  2597    Conductivity Probe #  2870"
" Pressure Probe #  109"
" Flow Meter Calibration  4.71 (m/count)  "
"161.015961"
"$GPGGA,002251,2552.5788,N,08001.0100,W,1,8,1.7,16,"
"##MN-00 00 53 0084 01857 5394 443133 925126 212"
"161.016007"
"$GPGGA,002258,2552.5881,N,08001.0045,W,1,8,1.7,16,"
"##MN-00 00 57 0085 01858 5395 439045 516837 212"
"161.016053"
"$GPGGA,002302,2552.5932,N,08001.0012,W,1,8,1.7,16,"
"##MN-00 00 53 0086 01859 5396 432111 346310 212"
"161.0161"
"$GPGGA,002306,2552.5983,N,08000.9982,W,1,8,1.7,16,"
"##MN-00 00 58 0086 01858 5396 432040 346012 212"
"161.016146"
"$GPGGA,002310,2552.6035,N,08000.9951,W,1,8,1.7,16,"
"##MN-00 00 59 0088 01859 5397 431990 345905 212"
"161.016192"
"$GPGGA,002315,2552.6095,N,08000.9913,W,1,8,1.7,16,"
"##MN-00 00 58 0089 01859 5397 431975 345715 212"
"161.016238"
"$GPGGA,002319,2552.6145,N,08000.9883,W,1,8,1.7,16,"
"##MN-00 00 60 0090 01858 5397 431934 345478 212"
"161.016285"
"$GPGGA,002323,2552.6194,N,08000.9854,W,1,8,1.7,16,"
"##MN-00 00 60 0091 01859 5398 431878 345436 212"
"161.016331"
"$GPGGA,002326,2552.6227,N,08000.9836,W,1,7,1.7,16,"
"##MN-00 00 58 0092 01859 5398 431826 345545 212"
"161.016377"
"$GPGGA,002331,2552.6283,N,08000.9806,W,1,8,1.7,16,"
"##MN-00 00 59 0093 01862 5399 431816 345370 212"
"161.016424"
"$GPGGA,002335,2552.6330,N,08000.9779,W,1,8,1.7,17,"
"##MN-00 00 59 0094 01860 5399 431801 345359 212"
"161.016481"
"$GPGGA,002339,2552.6379,N,08000.9751,W,1,8,1.7,17,"
"##MN-00 00 58 0095 01862 5399 431871 345479 212"
"161.016528"
"$GPGGA,002343,2552.6427,N,08000.9724,W,1,8,1.7,17,"
"##MN-00 00 59 0095 01865 5400 432223 345467 212"
"161.016574"
"$GPGGA,002347,2552.6474,N,08000.9699,W,1,8,1.7,17,"
"##MN-00 00 58 0096 01870 5400 432768 345545 212"
"161.01662"
"$GPGGA,002351,2552.6521,N,08000.9674,W,1,8,1.7,17,"
"##MN-00 00 58 0097 01874 5400 433299 345659 212"
"161.016667"
"$GPGGA,002355,2552.6568,N,08000.9649,W,1,8,1.7,17,"
"##MN-00 00 58 0098 01880 5401 433764 345765 212"
"161.016713"
"$GPGGA,002359,2552.6615,N,08000.9623,W,1,8,1.7,17,"
"##MN-00 00 58 0099 01885 5401 434001 345830 212"
"161.016759"
"$GPGGA,002403,2552.6661,N,08000.9597,W,1,8,1.7,17,"
"##MN-00 00 58 0100 01892 5402 434183 345963 212"
"161.016806"
"$GPGGA,002407,2552.6707,N,08000.9571,W,1,8,1.7,17,"
"##MN-00 00 58 0101 01902 5402 434407 346026 212"
"161.016852"
"$GPGGA,002411,2552.6752,N,08000.9547,W,1,8,1.7,17,"
"##MN-00 00 58 0102 01905 5402 434671 346099 212"
"161.016898"
"$GPGGA,002415,2552.6796,N,08000.9523,W,1,8,1.7,17,"
"##MN-00 00 58 0102 01913 5402 434794 346206 212"
"161.016944"
"$GPGGA,002419,2552.6842,N,08000.9500,W,1,8,1.7,17,"
"##MN-00 00 57 0103 01919 5403 434982 346190 212"
"161.016991"
"$GPGGA,002423,2552.6886,N,08000.9475,W,1,8,1.7,17,"
"##MN-00 00 57 0104 01926 5403 435499 346350 212"
"161.017037"
"$GPGGA,002427,2552.6932,N,08000.9451,W,1,8,1.7,17,"
"##MN-00 00 56 0105 01933 5403 436186 346586 212"
"161.017083"
"$GPGGA,002431,2552.6976,N,08000.9428,W,1,8,1.7,17,"
"##MN-00 00 57 0106 01942 5403 436777 346811 212"
"161.01713"
"$GPGGA,002435,2552.7020,N,08000.9404,W,1,8,1.7,17,"
"##MN-00 00 56 0106 01948 5404 437415 346968 212"
"161.017176"
"$GPGGA,002439,2552.7063,N,08000.9380,W,1,8,1.7,17,"
"##MN-00 00 56 0107 01957 5404 437767 347066 212"
"161.017222"
"$GPGGA,002443,2552.7108,N,08000.9357,W,1,8,1.7,17,"
"##MN-00 00 55 0108 01964 5405 438014 347121 212"
"161.017269"
"$GPGGA,002447,2552.7152,N,08000.9334,W,1,8,1.7,17,"
"##MN-00 00 56 0109 01969 5405 438536 347374 212"
"161.017315"
"$GPGGA,002451,2552.7196,N,08000.9311,W,1,8,1.7,17,"
"##MN-00 00 53 0110 01969 5405 439116 347311 212"
"161.017361"
"$GPGGA,002455,2552.7240,N,08000.9288,W,1,8,1.7,17,"
"##MN-00 00 52 0110 01967 5405 439410 347534 212"
"161.017407"
"$GPGGA,002459,2552.7283,N,08000.9265,W,1,8,1.7,17,"
"##MN-00 00 54 0111 01968 5406 439641 347733 212"
"161.017454"
"$GPGGA,002503,2552.7327,N,08000.9243,W,1,8,1.7,17,"
"##MN-00 00 52 0112 01969 5406 439775 347830 212"
"161.0175"
"$GPGGA,002507,2552.7370,N,08000.9221,W,1,8,1.7,16,"
"##MN+00 00 52 0113 01970 5406 439779 347814 212"
"161.017546"
"$GPGGA,002511,2552.7413,N,08000.9200,W,1,8,1.7,16,"
"##MN+00 00 52 0114 01969 5407 439783 347858 212"
"161.017593"
"$GPGGA,002515,2552.7457,N,08000.9179,W,1,8,1.7,16,"
"##MN+00 00 52 0115 01969 5407 439774 347854 212"
"161.017639"
"$GPGGA,002519,2552.7500,N,08000.9157,W,1,8,1.7,16,"
"##MN+00 00 52 0116 01971 5407 439782 347895 212"
"161.017685"
"$GPGGA,002523,2552.7543,N,08000.9136,W,1,8,1.7,16,"
"##MN+00 00 52 0116 01974 5407 439815 347888 212"
"161.017731"
"$GPGGA,002527,2552.7587,N,08000.9114,W,1,8,1.7,16,"
"##MN+00 00 58 0117 01974 5407 439848 347910 212"
"161.017778"
"$GPGGA,002531,2552.7630,N,08000.9093,W,1,8,1.7,16,"
"##MN-00 00 54 0118 01973 5408 439897 347918 212"
"161.017824"
"#increment_net"
"$GPGGA,002535,2552.7672,N,08000.9072,W,1,8,1.7,16,"
"##MN-00 00 50 0119 01972 5408 439947 347928 212"
"161.01787"
"$GPGGA,002539,2552.7715,N,08000.9050,W,1,8,1.7,16,"
"##MN-00 00 50 0120 01971 5408 439931 347912 212"
"161.017917"
"$GPGGA,002543,2552.7757,N,08000.9029,W,1,8,1.7,16,"
"##MN-00 00 50 0121 01973 5409 439900 347616 212"
"161.017963"
"$GPGGA,002547,2552.7800,N,08000.9007,W,1,8,1.7,16,"
"##MN-00 00 49 0121 01970 5409 439888 347628 212"
"161.018009"
"$GPGGA,002551,2552.7842,N,08000.8986,W,1,8,1.7,16,"
"##MN-00 00 50 0122 01970 5409 439871 347632 212"
"161.018056"
"$GPGGA,002555,2552.7885,N,08000.8963,W,1,8,1.7,16,"
"##MN-00 00 50 0123 01970 5409 439857 347671 212"
"161.018102"
"$GPGGA,002559,2552.7926,N,08000.8942,W,1,8,1.7,16,"
"##MN-00 00 50 0124 01973 5409 439831 347921 212"
"161.018148"
"$GPGGA,002603,2552.7970,N,08000.8920,W,1,8,1.7,16,"
"##MN-00 00 50 0125 01972 5410 439800 347910 212"
"161.018194"
"$GPGGA,002607,2552.8013,N,08000.8899,W,1,8,1.7,16,"
"##MN-00 00 50 0125 01971 5410 439761 347911 212"
"161.018241"
"$GPGGA,002611,2552.8055,N,08000.8877,W,1,8,1.7,17,"
"##MN-00 00 50 0126 01969 5410 439748 347914 212"
"161.018287"
"$GPGGA,002615,2552.8096,N,08000.8857,W,1,8,1.7,17,"
"##MN-00 00 50 0127 01971 5410 439754 347903 212"
"161.018333"
"$GPGGA,002619,2552.8139,N,08000.8836,W,1,8,1.7,17,"
"##MN-00 00 50 0128 01973 5410 439769 347934 212"
"161.01838"
"$GPGGA,002623,2552.8181,N,08000.8815,W,1,8,1.7,17,"
"##MN-00 00 50 0129 01971 5410 439761 347900 212"
"161.018426"
"$GPGGA,002627,2552.8212,N,08000.8799,W,1,8,1.7,17,"
"##MN-00 00 50 0129 01972 5411 439747 347927 212"
"161.018472"
"$GPGGA,002631,2552.8265,N,08000.8773,W,1,8,1.7,18,"
"##MN-00 00 50 0130 01973 5411 439737 347909 212"
"161.018519"
"$GPGGA,002635,2552.8306,N,08000.8752,W,1,8,1.7,18,"
"##MN-00 00 50 0131 01973 5411 439739 347918 212"
"161.018565"
"$GPGGA,002639,2552.8349,N,08000.8731,W,1,8,1.7,18,"
"##MN-00 00 50 0132 01971 5411 439752 347918 212"
"161.018611"
"$GPGGA,002643,2552.8389,N,08000.8710,W,1,8,1.7,18,"
"##MN-00 00 51 0133 01975 5411 439804 347926 212"
"161.018657"
"$GPGGA,002647,2552.8432,N,08000.8689,W,1,8,1.7,18,"
"##MN-00 00 49 0133 01973 5411 439909 347961 212"
"161.018704"
"$GPGGA,002651,2552.8472,N,08000.8667,W,1,8,1.7,18,"
"##MN-00 00 50 0134 01974 5411 440010 347950 212"
"161.01875"
"$GPGGA,002655,2552.8515,N,08000.8645,W,1,8,1.7,18,"
"##MN-00 00 50 0135 01974 5412 440063 348002 212"
"161.018796"
"$GPGGA,002659,2552.8557,N,08000.8623,W,1,8,1.7,18,"
"##MN-00 00 50 0136 01974 5412 440109 347987 212"
"161.018843"
"$GPGGA,002703,2552.8598,N,08000.8601,W,1,8,1.7,18,"
"##MN-00 00 49 0136 01974 5412 440150 348044 212"
"161.018889"
"$GPGGA,002707,2552.8638,N,08000.8579,W,1,8,1.7,18,"
"##MN-00 00 49 0137 01975 5412 440193 348055 212"
"161.018935"
"$GPGGA,002711,2552.8680,N,08000.8557,W,1,8,1.6,18,"
"##MN-00 00 50 0138 01974 5412 440211 348062 212"
"161.018981"
"$GPGGA,002715,2552.8720,N,08000.8534,W,1,8,1.6,18,"
"##MN-00 00 50 0139 01973 5412 440234 348066 212"
"161.019028"
"$GPGGA,002719,2552.8761,N,08000.8512,W,1,8,1.6,18,"
"##MN+00 00 49 0140 01972 5412 440220 348058 212"
"161.019074"
"$GPGGA,002723,2552.8801,N,08000.8490,W,1,8,1.6,18,"
"##MN+00 00 50 0140 01975 5413 440217 348075 212"
"161.01912"
"$GPGGA,002727,2552.8843,N,08000.8467,W,1,8,1.6,18,"
"##MN+00 00 49 0141 01975 5412 440239 348063 212"
"161.019167"
"$GPGGA,002731,2552.8883,N,08000.8444,W,1,8,1.6,18,"
"##MN-00 00 49 0142 01973 5413 440264 348089 212"
"161.019213"
"$GPGGA,002735,2552.8923,N,08000.8421,W,1,8,1.6,18,"
"##MN-00 00 49 0143 01974 5413 440268 348076 212"
"161.019259"
"$GPGGA,002739,2552.8962,N,08000.8398,W,1,8,1.6,17,"
"##MN-00 00 49 0144 01975 5413 440264 348095 212"
"161.019306"
"$GPGGA,002743,2552.9002,N,08000.8375,W,1,8,1.6,17,"
"##MN-00 00 49 0144 01976 5413 440291 348075 212"
"161.019352"
"$GPGGA,002747,2552.9042,N,08000.8352,W,1,8,1.6,17,"
"##MN-00 00 49 0145 01975 5413 440318 348115 212"
"161.019398"
"$GPGGA,002751,2552.9082,N,08000.8329,W,1,8,1.6,16,"
"##MN+00 00 49 0146 01976 5413 440305 348083 212"
"161.019444"
"$GPGGA,002755,2552.9122,N,08000.8306,W,1,8,1.6,16,"
"##MN+00 00 50 0147 01975 5413 440321 348105 212"
"161.019491"
"$GPGGA,002759,2552.9162,N,08000.8283,W,1,8,1.6,16,"
"##MN+00 00 54 0147 01975 5413 440355 348090 212"
"161.019537"
"$GPGGA,002803,2552.9204,N,08000.8260,W,1,8,1.6,15,"
"##MN-00 00 53 0148 01974 5413 440385 348115 212"
"161.019583"
"$GPGGA,002808,2552.9255,N,08000.8232,W,1,8,1.6,15,"
"##MN-00 00 53 0149 01975 5413 440411 348113 212"
"161.01963"
"#increment_net"
"$GPGGA,002812,2552.9294,N,08000.8209,W,1,8,1.6,15,"
"##MN-00 00 52 0150 01974 5413 440405 348122 212"
"161.019676"
"$GPGGA,002816,2552.9335,N,08000.8186,W,1,8,1.6,15,"
"##MN-00 00 52 0151 01976 5414 440359 348111 212"
"161.019734"
"$GPGGA,002820,2552.9375,N,08000.8163,W,1,8,1.6,15,"
"##MN-00 00 51 0151 01976 5414 440307 348096 212"
"161.01978"
"$GPGGA,002824,2552.9415,N,08000.8141,W,1,8,1.6,14,"
"##MN-00 00 52 0152 01974 5414 440288 348096 212"
"161.019826"
"$GPGGA,002828,2552.9455,N,08000.8119,W,1,8,1.6,14,"
"##MN-00 00 51 0153 01972 5414 440243 348076 212"
"161.019873"
"$GPGGA,002832,2552.9497,N,08000.8096,W,1,8,1.6,14,"
"##MN-00 00 51 0154 01974 5414 440190 348083 212"
"161.019919"
"$GPGGA,002836,2552.9537,N,08000.8074,W,1,8,1.6,14,"
"##MN-00 00 52 0155 01973 5414 440138 348049 212"
"161.019965"
"$GPGGA,002839,2552.9566,N,08000.8057,W,1,8,1.6,14,"
"##MN-00 00 51 0155 01974 5413 440120 348051 212"
"161.020012"
"$GPGGA,002844,2552.9617,N,08000.8029,W,1,8,1.6,14,"
"##MN-00 00 52 0156 01974 5414 440129 348013 212"
"161.020058"
"$GPGGA,002848,2552.9657,N,08000.8006,W,1,8,1.6,14,"
"##MN-00 00 51 0157 01975 5414 440106 348021 212"
"161.020104"
"$GPGGA,002852,2552.9697,N,08000.7985,W,1,8,1.6,14,"
"##MN-00 00 51 0158 01973 5414 440133 348004 212"
"161.02015"
"$GPGGA,002856,2552.9738,N,08000.7963,W,1,8,1.6,14,"
"##MN-00 00 52 0159 01974 5414 440221 348030 212"
"161.020197"
"$GPGGA,002900,2552.9778,N,08000.7941,W,1,8,1.6,14,"
"##MN-00 00 52 0159 01976 5414 440278 348016 212"
"161.020243"
"$GPGGA,002904,2552.9818,N,08000.7919,W,1,8,1.6,14,"
"##MN-00 00 52 0160 01975 5414 440320 348050 212"
"161.020289"
"$GPGGA,002908,2552.9858,N,08000.7896,W,1,8,1.6,14,"
"##MN-00 00 52 0161 01975 5414 440329 348018 212"
"161.020336"
"$GPGGA,002912,2552.9898,N,08000.7874,W,1,8,1.6,13,"
"##MN-00 00 51 0162 01976 5414 440351 348059 212"
"161.020382"
"$GPGGA,002916,2552.9937,N,08000.7851,W,1,8,1.6,13,"
"##MN-00 00 51 0162 01975 5414 440365 348043 212"
"161.020428"
"$GPGGA,002920,2552.9977,N,08000.7828,W,1,8,1.6,13,"
"##MN-00 00 51 0163 01975 5414 440382 348079 212"
"161.020475"
"$GPGGA,002924,2553.0015,N,08000.7806,W,1,8,1.6,13,"
"##MN-00 00 51 0164 01974 5414 440387 348059 212"
"161.020521"
"$GPGGA,002928,2553.0056,N,08000.7784,W,1,8,1.6,13,"
"##MN-00 00 52 0165 01974 5414 440363 348086 212"
"161.020567"
"$GPGGA,002932,2553.0097,N,08000.7762,W,1,8,1.6,13,"
"##MN-00 00 51 0166 01974 5415 440313 348052 212"
"161.020613"
"$GPGGA,002936,2553.0136,N,08000.7740,W,1,8,1.6,13,"
"##MN-00 00 52 0166 01974 5414 440254 348068 212"
"161.02066"
"$GPGGA,002940,2553.0176,N,08000.7717,W,1,8,1.6,13,"
"##MN-00 00 52 0167 01974 5414 440195 348019 212"
"161.020706"
"$GPGGA,002944,2553.0216,N,08000.7695,W,1,8,1.6,13,"
"##MN-00 00 51 0168 01975 5414 440184 348030 212"
"161.020752"
"$GPGGA,002948,2553.0256,N,08000.7672,W,1,8,1.6,14,"
"##MN-00 00 51 0169 01973 5414 440139 347992 212"
"161.020799"
"$GPGGA,002952,2553.0296,N,08000.7650,W,1,8,1.6,14,"
"##MN-00 00 52 0170 01974 5414 440112 347993 212"
"161.020845"
"$GPGGA,002956,2553.0336,N,08000.7627,W,1,8,1.6,14,"
"##MN-00 00 52 0170 01975 5415 440166 347979 212"
"161.020891"
"$GPGGA,003000,2553.0365,N,08000.7611,W,1,8,1.6,14,"
"##MN-00 00 52 0171 01974 5414 440166 347994 212"
"161.020937"
"$GPGGA,003004,2553.0405,N,08000.7588,W,1,8,1.6,14,"
"##MN+00 00 51 0172 01973 5414 440183 347971 212"
"161.020984"
"$GPGGA,003008,2553.0455,N,08000.7560,W,1,8,1.6,14,"
"##MN+00 00 52 0173 01975 5415 440140 347981 212"
"161.02103"
"$GPGGA,003012,2553.0495,N,08000.7538,W,1,8,1.6,14,"
"##MN+00 00 52 0173 01975 5415 440061 347929 212"
"161.021076"
"$GPGGA,003016,2553.0526,N,08000.7522,W,1,8,1.6,14,"
"##MN-00 00 51 0174 01975 5414 440027 347935 212"
"161.021123"
"$GPGGA,003020,2553.0577,N,08000.7494,W,1,8,1.6,14,"
"##MN-00 00 52 0175 01978 5414 440113 347929 212"
"161.021169"
"$GPGGA,003024,2553.0616,N,08000.7472,W,1,8,1.6,14,"
"##MN-00 00 52 0176 01972 5414 440069 347945 212"
"161.021215"
"$GPGGA,003028,2553.0657,N,08000.7450,W,1,8,1.6,14,"
"##MN-00 00 51 0176 01977 5414 440060 347912 212"
"161.021262"
"$GPGGA,003032,2553.0697,N,08000.7427,W,1,8,1.6,14,"
"##MN-00 00 51 0177 01975 5414 440032 347919 212"
"161.021308"
"$GPGGA,003036,2553.0734,N,08000.7404,W,1,7,2.1,14,"
"##MN+00 00 51 0178 01975 5414 439976 347881 212"
"161.021354"
"$GPGGA,003040,2553.0773,N,08000.7381,W,1,7,2.1,14,"
"##MN+00 00 52 0179 01975 5414 439982 347900 212"
"161.0214"
"$GPGGA,003044,2553.0812,N,08000.7359,W,1,7,2.1,14,"
"##MN+00 00 57 0180 01976 5414 440067 347890 212"
"161.021447"
"#increment_net"
"$GPGGA,003048,2553.0851,N,08000.7338,W,1,7,2.1,14,"
"##MN-00 00 54 0180 01975 5414 440128 347929 212"
"161.021493"
"$GPGGA,003052,2553.0889,N,08000.7316,W,1,7,2.1,13,"
"##MN-00 00 51 0181 01975 5414 440086 347897 212"
"161.021539"
"$GPGGA,003056,2553.0928,N,08000.7294,W,1,7,2.1,13,"
"##MN-00 00 49 0182 01974 5413 440030 347910 212"
"161.021586"
"$GPGGA,003100,2553.0968,N,08000.7271,W,1,7,2.1,13,"
"##MN-00 00 47 0183 01976 5413 439957 347859 212"
"161.021632"
"$GPGGA,003104,2553.1008,N,08000.7248,W,1,7,2.1,13,"
"##MN-00 00 46 0184 01974 5414 439959 347875 212"
"161.021678"
"$GPGGA,003108,2553.1050,N,08000.7226,W,1,7,2.1,12,"
"##MN-00 00 46 0184 01976 5414 439941 347849 212"
"161.021725"
"$GPGGA,003112,2553.1090,N,08000.7204,W,1,7,2.1,12,"
"##MN-00 00 47 0185 01975 5414 439918 347857 212"
"161.021771"
"$GPGGA,003116,2553.1129,N,08000.7181,W,1,7,2.1,12,"
"##MN-00 00 46 0186 01976 5414 439871 347826 212"
"161.021817"
"$GPGGA,003120,2553.1169,N,08000.7159,W,1,7,2.1,12,"
"##MN-00 00 46 0187 01976 5414 439777 347801 212"
"161.021863"
"$GPGGA,003124,2553.1209,N,08000.7136,W,1,7,2.1,12,"
"##MN-00 00 46 0188 01976 5414 439721 347789 212"
"161.02191"
"$GPGGA,003128,2553.1250,N,08000.7114,W,1,7,2.1,12,"
"##MN-00 00 46 0188 01976 5414 439674 347748 212"
"161.021956"
"$GPGGA,003132,2553.1290,N,08000.7091,W,1,7,2.1,12,"
"##MN-00 00 46 0189 01974 5414 439742 347764 212"
"161.022002"
"$GPGGA,003136,2553.1330,N,08000.7069,W,1,7,2.1,12,"
"##MN-00 00 46 0190 01976 5414 439790 347740 212"
"161.022049"
"$GPGGA,003140,2553.1372,N,08000.7047,W,1,7,2.1,12,"
"##MN-00 00 46 0191 01976 5414 439845 347773 212"
"161.022095"
"$GPGGA,003144,2553.1412,N,08000.7025,W,1,7,2.1,11,"
"##MN-00 00 46 0192 01976 5414 439863 347764 212"
"161.022141"
"$GPGGA,003148,2553.1452,N,08000.7004,W,1,7,2.1,11,"
"##MN-00 00 46 0192 01976 5414 439845 347776 212"
"161.022188"
"$GPGGA,003152,2553.1494,N,08000.6982,W,1,7,2.1,11,"
"##MN-00 00 46 0193 01974 5414 439816 347752 212"
"161.022234"
"$GPGGA,003156,2553.1534,N,08000.6960,W,1,7,2.1,11,"
"##MN-00 00 46 0194 01977 5414 439780 347746 212"
"161.02228"
"$GPGGA,003200,2553.1575,N,08000.6938,W,1,7,2.1,11,"
"##MN-00 00 46 0195 01975 5414 439750 347728 212"
"161.022326"
"$GPGGA,003204,2553.1615,N,08000.6917,W,1,7,2.1,11,"
"##MN-00 00 46 0196 01975 5414 439750 347717 212"
"161.022373"
"$GPGGA,003208,2553.1655,N,08000.6895,W,1,7,2.1,11,"
"##MN-00 00 46 0197 01975 5414 439761 347713 212"
"161.022419"
"$GPGGA,003212,2553.1695,N,08000.6873,W,1,7,2.1,11,"
"##MN-00 00 46 0197 01977 5414 439752 347700 212"
"161.022465"
"$GPGGA,003216,2553.1737,N,08000.6852,W,1,7,2.1,11,"
"##MN-00 00 46 0198 01976 5414 439718 347699 212"
"161.022512"
"$GPGGA,003220,2553.1777,N,08000.6830,W,1,7,2.1,11,"
"##MN-00 00 47 0199 01974 5414 439620 347664 212"
"161.022558"
"$GPGGA,003224,2553.1819,N,08000.6808,W,1,7,2.1,11,"
"##MN+00 00 46 0200 01975 5414 439535 347668 212"
"161.022604"
"$GPGGA,003228,2553.1859,N,08000.6787,W,1,7,2.1,11,"
"##MN+00 00 46 0201 01975 5414 439494 347767 212"
"161.02265"
"$GPGGA,003232,2553.1899,N,08000.6765,W,1,7,2.1,11,"
"##MN+00 00 46 0201 01975 5414 439485 347741 212"
"161.022697"
"$GPGGA,003237,2553.1950,N,08000.6737,W,1,7,2.1,11,"
"##MN-00 00 46 0202 01976 5414 439564 347635 212"
"161.022743"
"$GPGGA,003241,2553.1990,N,08000.6715,W,1,7,2.1,11,"
"##MN-00 00 46 0203 01976 5414 439648 347608 212"
"161.022789"
"$GPGGA,003245,2553.2030,N,08000.6693,W,1,7,2.1,11,"
"##MN-00 00 46 0204 01976 5414 439730 347643 212"
"161.022836"
"$GPGGA,003248,2553.2061,N,08000.6677,W,1,7,2.1,11,"
"##MN-00 00 46 0205 01975 5414 439765 347612 212"
"161.022882"
"$GPGGA,003253,2553.2110,N,08000.6649,W,1,7,2.1,11,"
"##MN+00 00 46 0205 01975 5414 439856 347698 212"
"161.022928"
"$GPGGA,003257,2553.2152,N,08000.6627,W,1,7,2.1,11,"
"##MN+00 00 46 0206 01975 5414 439959 347695 212"
"161.022986"
"$GPGGA,003301,2553.2192,N,08000.6605,W,1,7,2.1,11,"
"##MN+00 00 55 0207 01978 5414 440018 347755 212"
"161.023032"
"#increment_net"
"$GPGGA,003305,2553.2233,N,08000.6584,W,1,7,2.1,11,"
"##MN-00 00 53 0208 01977 5414 440089 347719 212"
"161.023079"
"$GPGGA,003309,2553.2272,N,08000.6561,W,1,7,2.1,11,"
"##MN-00 00 50 0209 01978 5414 440124 347772 212"
"161.023125"
"$GPGGA,003313,2553.2314,N,08000.6540,W,1,7,2.1,11,"
"##MN-00 00 48 0210 01976 5414 440175 347759 212"
"161.023171"
"$GPGGA,003317,2553.2354,N,08000.6518,W,1,7,2.1,11,"
"##MN-00 00 47 0210 01975 5414 440182 347787 212"
"161.023218"
"$GPGGA,003321,2553.2394,N,08000.6496,W,1,7,2.1,11,"
"##MN-00 00 45 0211 01972 5414 440194 347760 212"
"161.023264"
"$GPGGA,003325,2553.2432,N,08000.6474,W,1,7,2.1,11,"
"##MN-00 00 46 0212 01974 5414 440096 347779 212"
"161.02331"
"$GPGGA,003329,2553.2474,N,08000.6451,W,1,7,2.1,11,"
"##MN-00 00 46 0213 01972 5414 440002 347729 212"
"161.023356"
"$GPGGA,003333,2553.2514,N,08000.6429,W,1,7,2.1,11,"
"##MN-00 00 46 0214 01972 5414 439944 347748 212"
"161.023403"
"$GPGGA,003337,2553.2556,N,08000.6407,W,1,7,2.1,11,"
"##MN-00 00 46 0215 01972 5414 439984 347695 212"
"161.023449"
"$GPGGA,003341,2553.2596,N,08000.6386,W,1,7,2.1,11,"
"##MN-00 00 46 0216 01972 5414 440002 347711 212"
"161.023495"
"$GPGGA,003345,2553.2637,N,08000.6364,W,1,7,2.1,11,"
"##MN-00 00 46 0217 01972 5414 440039 347691 212"
"161.023542"
"$GPGGA,003349,2553.2677,N,08000.6342,W,1,7,2.1,11,"
"##MN-00 00 46 0217 01972 5414 439928 347683 212"
"161.023588"
"$GPGGA,003353,2553.2719,N,08000.6321,W,1,7,2.1,11,"
"##MN-00 00 46 0218 01974 5414 439697 347630 212"
"161.023634"
"$GPGGA,003357,2553.2760,N,08000.6299,W,1,7,2.1,11,"
"##MN-00 00 46 0219 01973 5414 439445 347555 212"
"161.023681"
"$GPGGA,003401,2553.2800,N,08000.6276,W,1,7,2.1,11,"
"##MN-00 00 45 0220 01971 5414 439340 347503 212"
"161.023727"
"$GPGGA,003405,2553.2840,N,08000.6254,W,1,7,2.1,11,"
"##MN-00 00 46 0221 01972 5414 439153 347437 212"
"161.023773"
"$GPGGA,003409,2553.2880,N,08000.6232,W,1,7,2.1,11,"
"##MN-00 00 46 0222 01972 5414 439050 347450 212"
"161.023819"
"$GPGGA,003413,2553.2921,N,08000.6209,W,1,7,2.1,11,"
"##MN-00 00 46 0222 01972 5414 439032 347378 212"
"161.023866"
"$GPGGA,003417,2553.2961,N,08000.6187,W,1,7,2.1,11,"
"##MN-00 00 46 0223 01971 5414 439141 347416 212"
"161.023912"
"$GPGGA,003421,2553.3001,N,08000.6165,W,1,7,2.1,11,"
"##MN-00 00 46 0224 01974 5414 439294 347407 212"
"161.023958"
"$GPGGA,003425,2553.3042,N,08000.6143,W,1,7,2.1,11,"
"##MN-00 00 46 0225 01971 5414 439194 347419 212"
"161.024005"
"$GPGGA,003429,2553.3082,N,08000.6120,W,1,7,2.1,11,"
"##MN-00 00 46 0226 01972 5414 439196 347377 212"
"161.024051"
"$GPGGA,003433,2553.3121,N,08000.6098,W,1,7,2.1,11,"
"##MN-00 00 46 0227 01972 5414 439105 347394 212"
"161.024097"
"$GPGGA,003437,2553.3161,N,08000.6076,W,1,7,2.1,11,"
"##MN-00 00 46 0228 01973 5414 439116 347345 212"
"161.024144"
"$GPGGA,003441,2553.3201,N,08000.6054,W,1,7,2.1,11,"
"##MN+00 00 46 0228 01972 5414 439225 347394 212"
"161.02419"
"$GPGGA,003445,2553.3241,N,08000.6032,W,1,7,2.1,11,"
"##MN+00 00 46 0229 01971 5414 439288 347370 212"
"161.024236"
"$GPGGA,003449,2553.3283,N,08000.6010,W,1,7,2.1,11,"
"##MN+00 00 46 0230 01971 5414 439398 347448 212"
"161.024282"
"$GPGGA,003453,2553.3323,N,08000.5988,W,1,7,2.1,11,"
"##MN-00 00 46 0231 01970 5414 439509 347440 212"
"161.024329"
"$GPGGA,003457,2553.3363,N,08000.5966,W,1,7,2.1,11,"
"##MN-00 00 46 0232 01973 5414 439589 347490 212"
"161.024375"
"$GPGGA,003501,2553.3405,N,08000.5944,W,1,7,2.1,11,"
"##MN-00 00 45 0233 01972 5414 439721 347490 212"
"161.024421"
"$GPGGA,003505,2553.3445,N,08000.5922,W,1,7,2.1,11,"
"##MN+00 00 46 0233 01972 5414 439993 347601 212"
"161.024468"
"$GPGGA,003509,2553.3485,N,08000.5900,W,1,7,2.1,11,"
"##MN+00 00 46 0234 01973 5414 440058 347617 212"
"161.024514"
"$GPGGA,003513,2553.3526,N,08000.5878,W,1,7,2.1,11,"
"##MN+00 00 55 0235 01974 5414 440044 347613 212"
"161.02456"
"#increment_net"
"$GPGGA,003517,2553.3566,N,08000.5856,W,1,7,2.1,11,"
"##MN-00 00 52 0236 01974 5414 440074 347616 212"
"161.024606"
"$GPGGA,003521,2553.3605,N,08000.5834,W,1,7,2.1,11,"
"##MN-00 00 50 0237 01976 5414 440137 347596 212"
"161.024653"
"$GPGGA,003525,2553.3645,N,08000.5812,W,1,7,2.1,11,"
"##MN-00 00 46 0238 01983 5414 440220 347636 212"
"161.024699"
"$GPGGA,003529,2553.3685,N,08000.5788,W,1,7,2.1,11,"
"##MN-00 00 44 0239 01988 5414 440450 347668 212"
"161.024745"
"$GPGGA,003533,2553.3727,N,08000.5765,W,1,7,2.1,11,"
"##MN-00 00 43 0240 01992 5414 440679 347832 212"
"161.024792"
"$GPGGA,003537,2553.3768,N,08000.5741,W,1,7,2.1,11,"
"##MN-00 00 44 0242 01983 5414 440958 347869 212"
"161.024838"
"$GPGGA,003541,2553.3808,N,08000.5718,W,1,7,2.1,12,"
"##MN-00 00 43 0243 01970 5414 440870 347872 212"
"161.024884"
"$GPGGA,003545,2553.3850,N,08000.5695,W,1,7,2.1,12,"
"##MN-00 00 42 0244 01963 5414 440285 347754 212"
"161.024931"
"#increment_net"
"$GPGGA,003549,2553.3891,N,08000.5672,W,1,7,2.1,12,"
"##MN-00 00 42 0245 01951 5414 439301 347476 212"
"161.024977"
"$GPGGA,003553,2553.3931,N,08000.5649,W,1,7,2.1,12,"
"##MN-00 00 42 0247 01941 5414 438405 347155 212"
"161.025023"
"$GPGGA,003557,2553.3971,N,08000.5625,W,1,7,2.1,12,"
"##MN-00 00 41 0248 01928 5414 437956 347079 212"
"161.025069"
"$GPGGA,003601,2553.4013,N,08000.5602,W,1,7,2.1,12,"
"##MN-00 00 40 0249 01919 5414 437532 346901 212"
"161.025116"
"$GPGGA,003605,2553.4053,N,08000.5579,W,1,7,2.1,12,"
"##MN-00 00 41 0250 01907 5414 437236 346822 212"
"161.025162"
"$GPGGA,003609,2553.4095,N,08000.5555,W,1,7,2.1,12,"
"##MN-00 00 41 0252 01897 5414 436605 346623 212"
"161.025208"
"$GPGGA,003613,2553.4136,N,08000.5531,W,1,7,2.1,12,"
"##MN-00 00 40 0253 01884 5414 435955 346401 212"
"161.025255"
"$GPGGA,003617,2553.4176,N,08000.5507,W,1,7,2.1,12,"
"##MN-00 00 40 0254 01872 5414 435226 346164 212"
"161.025301"
"$GPGGA,003621,2553.4218,N,08000.5484,W,1,7,2.1,12,"
"##MN-00 00 40 0255 01863 5414 434137 345817 212"
"161.025347"
"$GPGGA,003625,2553.4259,N,08000.5459,W,1,7,2.1,12,"
"##MN-00 00 39 0257 01861 5414 432775 345618 212"
"161.025394"
"$GPGGA,003629,2553.4302,N,08000.5436,W,1,7,2.1,12,"
"##MN-00 00 46 0258 01860 5414 431694 345271 212"
"161.02544"
"$GPGGA,003633,2553.4342,N,08000.5412,W,1,7,2.1,12,"
"##MN-00 00 42 0258 01860 5414 438984 709647 212"
"161.025486"
"$GPGGA,003637,2553.4385,N,08000.5388,W,1,7,2.1,12,"
"##MN-00 00 39 0258 01861 5414 446654 767134 212"
"161.025532"
"$GPGGA,003641,2553.4426,N,08000.5363,W,1,7,2.1,12,"
"##MN-00 00 31 0258 01858 5414 451123 822857 212"
