" Tow: L1s-A   RVWS/WS1406"
" Date: 06/06/2014"
" Temperature Probe #  2597    Conductivity Probe #  2870"
" Pressure Probe #  109"
" Flow Meter Calibration  4.71 (m/count)  "
"157.791736"
"$GPGGA,185957,2423.4809,N,08141.9919,W,1,12,1.4,11"
"##MN-00 00 52 0092 01834 7059 048574 882450 202"
"157.791782"
"$GPGGA,190005,2423.4769,N,08141.9896,W,1,12,1.4,11"
"##MN-00 00 51 0093 01836 7059 439666 347883 202"
"157.791829"
"$GPGGA,190009,2423.4748,N,08141.9885,W,1,12,1.4,11"
"##MN-00 00 50 0093 01834 7059 439628 347867 202"
"157.791875"
"$GPGGA,190013,2423.4729,N,08141.9875,W,1,12,1.4,11"
"##MN-00 00 48 0094 01834 7059 439621 347847 202"
"157.792454"
"$GPGGA,190059,2423.4501,N,08141.9754,W,1,12,1.4,11"
"##MN-00 00 44 0104 01834 7048 439435 347852 202"
"157.7925"
"$GPGGA,190107,2423.4462,N,08141.9734,W,1,12,1.4,11"
"##MN-00 00 44 0104 01837 7047 439059 347735 202"
"157.792546"
"$GPGGA,190111,2423.4442,N,08141.9724,W,1,12,1.4,11"
"##MN-00 00 45 0105 01836 7045 438994 347730 202"
"157.792593"
"$GPGGA,190115,2423.4422,N,08141.9714,W,1,12,1.4,11"
"##MN-00 00 45 0106 01835 7043 438968 347728 202"
"157.792639"
"$GPGGA,190119,2423.4401,N,08141.9704,W,1,12,1.4,11"
"##MN-00 00 46 0107 01837 7042 438901 347707 202"
"157.792685"
"$GPGGA,190123,2423.4380,N,08141.9695,W,1,12,1.4,11"
"##MN-00 00 45 0108 01835 7040 438839 347687 202"
"157.792731"
"$GPGGA,190127,2423.4358,N,08141.9685,W,1,12,1.4,11"
"##MN-00 00 44 0108 01834 7038 438865 347679 202"
"157.792778"
"$GPGGA,190131,2423.4336,N,08141.9675,W,1,12,1.4,11"
"##MN-00 00 48 0109 01836 7035 438886 347690 202"
"157.792824"
"$GPGGA,190135,2423.4314,N,08141.9665,W,1,12,1.4,11"
"##MN-00 00 47 0110 01835 7033 438866 347681 202"
"157.79287"
"$GPGGA,190139,2423.4292,N,08141.9656,W,1,12,1.4,11"
"##MN-00 00 49 0111 01838 7031 438979 347743 202"
"157.792917"
"$GPGGA,190143,2423.4267,N,08141.9647,W,1,12,1.4,11"
"##MN-00 00 50 0111 01838 7029 439115 347784 202"
"157.792963"
"$GPGGA,190147,2423.4243,N,08141.9636,W,1,12,1.4,11"
"##MN-00 00 52 0112 01839 7026 439144 347782 202"
"157.793009"
"$GPGGA,190151,2423.4220,N,08141.9625,W,1,12,1.4,11"
"##MN-00 00 52 0113 01841 7024 439301 347787 202"
"157.793056"
"$GPGGA,190155,2423.4198,N,08141.9616,W,1,11,1.6,11"
"##MN-00 00 49 0114 01841 7022 439701 347882 202"
"157.793102"
"$GPGGA,190159,2423.4173,N,08141.9605,W,1,12,1.4,11"
"##MN-00 00 49 0115 01841 7019 439976 347977 202"
"157.793148"
"$GPGGA,190203,2423.4151,N,08141.9595,W,1,12,1.4,11"
"##MN-00 00 50 0116 01841 7016 439848 347983 202"
"157.793194"
"$GPGGA,190207,2423.4127,N,08141.9584,W,1,12,1.4,11"
"##MN-00 00 53 0117 01843 7014 439920 348073 202"
"157.793252"
"$GPGGA,190211,2423.4104,N,08141.9574,W,1,12,1.4,12"
"##MN-00 00 53 0118 01847 7011 440246 348083 202"
"157.793299"
"$GPGGA,190216,2423.4072,N,08141.9560,W,1,11,1.4,12"
"##MN-00 00 53 0118 01849 7008 441282 348088 202"
"157.793345"
"$GPGGA,190220,2423.4045,N,08141.9547,W,1,11,1.6,11"
"##MN-00 00 52 0119 01853 7006 443171 349337 202"
"157.793391"
"$GPGGA,190224,2423.4021,N,08141.9536,W,1,12,1.6,11"
"##MN-00 00 53 0120 01858 7002 444346 349507 202"
"157.793437"
"$GPGGA,190228,2423.3996,N,08141.9524,W,1,11,1.4,11"
"##MN-00 00 52 0121 01862 7000 444661 349581 202"
"157.793484"
"$GPGGA,190232,2423.3972,N,08141.9514,W,1,12,1.4,11"
"##MN-00 00 53 0122 01865 6997 444911 349575 202"
"157.79353"
"$GPGGA,190236,2423.3946,N,08141.9502,W,1,12,1.6,11"
"##MN-00 00 55 0123 01871 6994 445055 349700 202"
"157.793576"
"$GPGGA,190240,2423.3924,N,08141.9492,W,1,12,1.4,11"
"##MN-00 00 55 0123 01883 6991 445207 349769 202"
"157.793623"
"$GPGGA,190244,2423.3902,N,08141.9482,W,1,12,1.4,11"
"##MN-00 00 55 0124 01894 6987 445293 349791 202"
"157.793669"
"$GPGGA,190248,2423.3878,N,08141.9473,W,1,12,1.4,11"
"##MN-00 00 56 0125 01899 6984 445332 349777 202"
"157.793715"
"$GPGGA,190252,2423.3853,N,08141.9462,W,1,12,1.4,11"
"##MN-00 00 55 0126 01908 6981 445451 349842 202"
"157.793762"
"$GPGGA,190256,2423.3829,N,08141.9452,W,1,12,1.4,11"
"##MN-00 00 55 0126 01915 6978 445490 349861 202"
"157.793808"
"$GPGGA,190300,2423.3803,N,08141.9441,W,1,12,1.4,11"
"##MN-00 00 55 0127 01922 6975 445533 349852 202"
"157.793854"
"$GPGGA,190304,2423.3779,N,08141.9429,W,1,12,1.4,11"
"##MN-00 00 55 0128 01931 6971 445559 349866 202"
"157.7939"
"$GPGGA,190308,2423.3754,N,08141.9420,W,1,12,1.4,11"
"##MN-00 00 55 0129 01939 6967 445585 349881 202"
"157.793947"
"$GPGGA,190312,2423.3728,N,08141.9408,W,1,12,1.4,12"
"##MN-00 00 55 0130 01944 6964 445618 349868 202"
"157.793993"
"$GPGGA,190316,2423.3701,N,08141.9397,W,1,12,1.4,12"
"##MN-00 00 55 0130 01950 6961 445666 349882 202"
"157.794039"
"$GPGGA,190320,2423.3678,N,08141.9387,W,1,12,1.4,12"
"##MN-00 00 51 0131 01947 6957 445687 349901 202"
"157.794086"
"$GPGGA,190324,2423.3652,N,08141.9376,W,1,12,1.4,12"
"##MN-00 00 51 0132 01950 6954 445700 349906 202"
"157.794132"
"$GPGGA,190328,2423.3628,N,08141.9365,W,1,12,1.4,12"
"##MN-00 00 53 0133 01948 6950 445704 349912 202"
"157.794178"
"$GPGGA,190332,2423.3604,N,08141.9355,W,1,12,1.4,12"
"##MN-00 00 51 0134 01949 6947 445711 349921 202"
"157.794225"
"$GPGGA,190336,2423.3580,N,08141.9344,W,1,12,1.4,12"
"##MN-00 00 52 0135 01949 6943 445708 349925 202"
"157.794271"
"$GPGGA,190340,2423.3556,N,08141.9334,W,1,12,1.4,12"
"##MN-00 00 52 0136 01947 6939 445708 349921 202"
"157.794317"
"$GPGGA,190344,2423.3532,N,08141.9323,W,1,12,1.4,12"
"##MN-00 00 52 0137 01944 6936 445706 349928 202"
"157.794363"
"$GPGGA,190348,2423.3509,N,08141.9312,W,1,12,1.4,13"
"##MN-00 00 52 0138 01944 6932 445694 349927 202"
"157.79441"
"$GPGGA,190352,2423.3485,N,08141.9300,W,1,12,1.4,13"
"##MN+00 00 52 0139 01944 6928 445695 349931 202"
"157.794456"
"$GPGGA,190356,2423.3461,N,08141.9289,W,1,12,1.4,13"
"##MN+00 00 53 0140 01945 6924 445690 349929 202"
"157.794502"
"$GPGGA,190400,2423.3437,N,08141.9279,W,1,12,1.4,13"
"##MN+00 00 52 0141 01945 6920 445689 349929 202"
"157.794549"
"$GPGGA,190404,2423.3414,N,08141.9268,W,1,12,1.4,13"
"##MN-00 00 51 0142 01945 6916 445692 349930 202"
"157.794595"
"$GPGGA,190408,2423.3391,N,08141.9258,W,1,12,1.4,13"
"##MN-00 00 52 0143 01947 6912 445696 349931 202"
"157.794641"
"$GPGGA,190412,2423.3367,N,08141.9247,W,1,12,1.4,13"
"##MN-00 00 52 0144 01947 6909 445691 349933 202"
"157.794688"
"$GPGGA,190416,2423.3343,N,08141.9236,W,1,12,1.4,13"
"##MN+00 00 51 0145 01947 6904 445694 349935 202"
"157.794734"
"$GPGGA,190420,2423.3320,N,08141.9225,W,1,12,1.4,13"
"##MN+00 00 59 0146 01947 6900 445696 349933 202"
"157.79478"
"$GPGGA,190424,2423.3302,N,08141.9216,W,1,12,1.4,13"
"##MN+00 00 54 0147 01946 6896 445696 349934 202"
"157.794826"
"$GPGGA,190428,2423.3271,N,08141.9203,W,1,12,1.4,13"
"##MN-00 00 52 0148 01947 6893 445699 349936 202"
"157.794873"
"$GPGGA,190432,2423.3248,N,08141.9192,W,1,12,1.4,13"
"##MN-00 00 51 0149 01943 6889 445698 349936 202"
"157.794919"
"$GPGGA,190436,2423.3223,N,08141.9180,W,1,12,1.4,12"
"##MN-00 00 51 0150 01946 6884 445696 349936 202"
"157.794965"
"#increment_net"
"$GPGGA,190440,2423.3201,N,08141.9168,W,1,12,1.4,12"
"##MN-00 00 51 0150 01942 6880 445687 349938 202"
"157.795012"
"$GPGGA,190444,2423.3176,N,08141.9157,W,1,12,1.4,12"
"##MN-00 00 51 0151 01942 6876 445682 349937 202"
"157.795058"
"$GPGGA,190448,2423.3152,N,08141.9146,W,1,12,1.4,12"
"##MN-00 00 51 0152 01944 6872 445683 349937 202"
"157.795104"
"$GPGGA,190452,2423.3130,N,08141.9135,W,1,12,1.4,12"
"##MN-00 00 51 0153 01942 6868 445683 349937 202"
"157.79515"
"$GPGGA,190456,2423.3107,N,08141.9125,W,1,12,1.6,12"
"##MN-00 00 51 0154 01941 6864 445688 349939 202"
"157.795197"
"$GPGGA,190500,2423.3083,N,08141.9114,W,1,12,1.4,12"
"##MN-00 00 52 0155 01942 6860 445695 349941 202"
"157.795243"
"$GPGGA,190504,2423.3060,N,08141.9103,W,1,11,1.6,12"
"##MN-00 00 51 0156 01940 6856 445692 349941 202"
"157.795289"
"$GPGGA,190508,2423.3038,N,08141.9094,W,1,12,1.4,12"
"##MN-00 00 51 0157 01943 6852 445701 349945 202"
"157.795336"
"$GPGGA,190512,2423.3013,N,08141.9083,W,1,11,1.6,12"
"##MN-00 00 52 0158 01940 6847 445711 349948 202"
"157.795382"
"$GPGGA,190516,2423.2991,N,08141.9074,W,1,12,1.4,12"
"##MN-00 00 51 0159 01942 6843 445717 349950 202"
"157.795428"
"$GPGGA,190520,2423.2970,N,08141.9064,W,1,12,1.6,13"
"##MN-00 00 52 0160 01942 6839 445713 349952 202"
"157.795475"
"$GPGGA,190524,2423.2941,N,08141.9053,W,1,12,1.6,12"
"##MN-00 00 52 0161 01942 6834 445705 349951 202"
"157.795521"
"$GPGGA,190528,2423.2917,N,08141.9043,W,1,12,1.4,12"
"##MN-00 00 52 0161 01940 6830 445704 349952 202"
"157.795567"
"$GPGGA,190532,2423.2894,N,08141.9034,W,1,12,1.4,12"
"##MN-00 00 51 0162 01941 6826 445693 349949 202"
"157.795613"
"$GPGGA,190536,2423.2868,N,08141.9022,W,1,12,1.4,12"
"##MN-00 00 52 0163 01941 6822 445685 349948 202"
"157.79566"
"$GPGGA,190540,2423.2847,N,08141.9014,W,1,11,1.6,12"
"##MN-00 00 52 0164 01943 6818 445684 349947 202"
"157.795706"
"$GPGGA,190544,2423.2822,N,08141.9004,W,1,11,1.6,11"
"##MN-00 00 52 0165 01941 6813 445699 349949 202"
"157.795752"
"$GPGGA,190548,2423.2797,N,08141.8993,W,1,11,1.6,11"
"##MN-00 00 51 0166 01944 6809 445709 349952 202"
"157.795799"
"$GPGGA,190552,2423.2775,N,08141.8983,W,1,11,1.4,11"
"##MN-00 00 52 0167 01940 6805 445709 349952 202"
"157.795845"
"$GPGGA,190556,2423.2750,N,08141.8972,W,1,11,1.6,11"
"##MN-00 00 52 0168 01943 6800 445715 349955 202"
"157.795891"
"$GPGGA,190600,2423.2726,N,08141.8961,W,1,11,1.6,11"
"##MN-00 00 52 0169 01942 6796 445724 349958 202"
"157.795938"
"$GPGGA,190604,2423.2706,N,08141.8953,W,1,12,1.4,10"
"##MN-00 00 51 0170 01942 6792 445729 349959 202"
"157.795984"
"$GPGGA,190608,2423.2685,N,08141.8945,W,1,11,1.4,11"
"##MN-00 00 53 0171 01939 6788 445732 349961 202"
"157.79603"
"$GPGGA,190612,2423.2666,N,08141.8937,W,1,12,1.6,11"
"##MN-00 00 52 0172 01940 6783 445739 349964 202"
"157.796076"
"$GPGGA,190616,2423.2641,N,08141.8926,W,1,12,1.6,11"
"##MN-00 00 52 0173 01942 6779 445739 349965 202"
"157.796123"
"$GPGGA,190620,2423.2616,N,08141.8915,W,1,12,1.4,11"
"##MN-00 00 52 0174 01943 6775 445740 349965 202"
"157.796169"
"$GPGGA,190624,2423.2591,N,08141.8903,W,1,11,1.6,11"
"##MN+00 00 52 0174 01939 6770 445743 349966 202"
"157.796215"
"$GPGGA,190628,2423.2567,N,08141.8893,W,1,12,1.6,11"
"##MN+00 00 52 0175 01942 6766 445740 349966 202"
"157.796262"
"$GPGGA,190632,2423.2542,N,08141.8882,W,1,11,1.6,11"
"##MN+00 00 54 0176 01942 6761 445739 349966 202"
"157.796308"
"$GPGGA,190636,2423.2522,N,08141.8873,W,1,11,1.4,11"
"##MN-00 00 52 0177 01944 6757 445734 349964 202"
"157.796354"
"$GPGGA,190640,2423.2500,N,08141.8863,W,1,11,1.6,11"
"##MN-00 00 52 0178 01942 6753 445729 349963 202"
"157.796412"
"$GPGGA,190644,2423.2478,N,08141.8854,W,1,12,1.4,11"
"##MN+00 00 53 0179 01940 6748 445733 349963 202"
"157.796458"
"$GPGGA,190648,2423.2458,N,08141.8845,W,1,11,1.4,11"
"##MN+00 00 62 0180 01943 6744 445735 349963 202"
"157.796505"
"#increment_net"
"$GPGGA,190652,2423.2435,N,08141.8834,W,1,11,1.4,11"
"##MN+00 00 56 0181 01942 6740 445736 349965 201"
"157.796551"
"$GPGGA,190657,2423.2406,N,08141.8821,W,1,11,1.6,11"
"##MN-00 00 54 0182 01941 6735 445736 349965 201"
"157.796597"
"$GPGGA,190701,2423.2384,N,08141.8812,W,1,11,1.4,12"
"##MN-00 00 52 0183 01942 6731 445739 349967 202"
"157.796643"
"$GPGGA,190705,2423.2361,N,08141.8802,W,1,11,1.4,12"
"##MN-00 00 51 0184 01943 6726 445743 349968 202"
"157.79669"
"$GPGGA,190709,2423.2336,N,08141.8791,W,1,10,1.4,12"
"##MN-00 00 51 0185 01939 6722 445737 349968 202"
"157.796736"
"$GPGGA,190713,2423.2316,N,08141.8783,W,1,11,1.4,12"
"##MN-00 00 52 0186 01938 6718 445726 349968 202"
"157.796782"
"$GPGGA,190717,2423.2295,N,08141.8775,W,1,11,1.4,12"
"##MN-00 00 51 0186 01943 6714 445721 349966 202"
"157.796829"
"$GPGGA,190721,2423.2271,N,08141.8765,W,1,11,1.4,12"
"##MN-00 00 52 0187 01940 6710 445720 349966 202"
"157.796875"
"$GPGGA,190725,2423.2247,N,08141.8754,W,1,10,1.4,12"
"##MN-00 00 51 0188 01939 6705 445718 349966 202"
"157.796921"
"$GPGGA,190729,2423.2224,N,08141.8745,W,1,10,1.4,12"
"##MN-00 00 52 0189 01939 6700 445717 349965 202"
"157.796968"
"$GPGGA,190733,2423.2202,N,08141.8736,W,1,11,1.4,12"
"##MN-00 00 51 0190 01940 6696 445718 349964 202"
"157.797014"
"$GPGGA,190737,2423.2178,N,08141.8726,W,1,11,1.4,12"
"##MN-00 00 51 0191 01940 6692 445720 349965 202"
"157.79706"
"$GPGGA,190741,2423.2157,N,08141.8716,W,1,11,1.4,12"
"##MN-00 00 52 0192 01941 6688 445721 349966 202"
"157.797107"
"$GPGGA,190745,2423.2133,N,08141.8706,W,1,11,1.4,12"
"##MN-00 00 51 0193 01943 6683 445717 349965 202"
"157.797153"
"$GPGGA,190749,2423.2108,N,08141.8695,W,1,11,1.4,12"
"##MN-00 00 51 0194 01942 6679 445714 349964 202"
"157.797199"
"$GPGGA,190753,2423.2086,N,08141.8686,W,1,11,1.4,12"
"##MN-00 00 51 0195 01940 6675 445708 349964 202"
"157.797245"
"$GPGGA,190757,2423.2070,N,08141.8679,W,1,11,1.4,12"
"##MN-00 00 52 0196 01940 6671 445702 349963 202"
"157.797292"
"$GPGGA,190801,2423.2040,N,08141.8667,W,1,11,1.4,12"
"##MN-00 00 52 0197 01943 6666 445702 349961 201"
"157.797338"
"$GPGGA,190805,2423.2017,N,08141.8657,W,1,11,1.4,12"
"##MN-00 00 52 0198 01942 6662 445706 349961 201"
"157.797384"
"$GPGGA,190809,2423.1993,N,08141.8648,W,1,11,1.4,12"
"##MN-00 00 52 0199 01944 6658 445713 349964 201"
"157.797431"
"$GPGGA,190813,2423.1975,N,08141.8640,W,1,11,1.4,12"
"##MN-00 00 51 0200 01944 6653 445722 349966 201"
"157.797477"
"$GPGGA,190817,2423.1952,N,08141.8631,W,1,11,1.4,12"
"##MN-00 00 51 0201 01945 6649 445729 349967 201"
"157.797523"
"$GPGGA,190821,2423.1922,N,08141.8618,W,1,11,1.4,12"
"##MN+00 00 51 0202 01944 6644 445727 349969 201"
"157.797569"
"$GPGGA,190825,2423.1900,N,08141.8609,W,1,11,1.4,12"
"##MN+00 00 51 0203 01945 6640 445726 349970 202"
"157.797616"
"$GPGGA,190829,2423.1877,N,08141.8599,W,1,11,1.4,12"
"##MN+00 00 51 0203 01945 6636 445729 349972 202"
"157.797662"
"$GPGGA,190833,2423.1857,N,08141.8590,W,1,11,1.4,12"
"##MN-00 00 52 0204 01945 6632 445728 349972 202"
"157.797708"
"$GPGGA,190837,2423.1832,N,08141.8581,W,1,11,1.4,13"
"##MN-00 00 51 0205 01946 6628 445730 349972 202"
"157.797755"
"$GPGGA,190841,2423.1807,N,08141.8570,W,1,10,1.6,12"
"##MN-00 00 52 0206 01945 6623 445734 349972 202"
"157.797801"
"$GPGGA,190845,2423.1785,N,08141.8562,W,1,11,1.4,12"
"##MN-00 00 51 0207 01942 6619 445726 349971 202"
"157.797847"
"$GPGGA,190849,2423.1760,N,08141.8552,W,1,10,1.6,12"
"##MN-00 00 51 0208 01943 6614 445730 349974 202"
"157.797894"
"$GPGGA,190853,2423.1739,N,08141.8544,W,1,11,1.4,12"
"##MN-00 00 51 0209 01944 6610 445722 349974 202"
"157.79794"
"$GPGGA,190857,2423.1716,N,08141.8534,W,1,11,1.4,12"
"##MN+00 00 52 0210 01944 6606 445727 349974 202"
"157.797986"
"$GPGGA,190901,2423.1691,N,08141.8525,W,1,11,1.4,12"
"##MN+00 00 61 0211 01946 6602 445732 349973 201"
"157.798032"
"$GPGGA,190905,2423.1670,N,08141.8517,W,1,11,1.4,12"
"##MN+00 00 55 0212 01946 6598 445734 349974 201"
"157.798079"
"#increment_net"
"$GPGGA,190909,2423.1651,N,08141.8509,W,1,11,1.4,12"
"##MN-00 00 54 0213 01943 6593 445731 349976 201"
"157.798125"
"$GPGGA,190913,2423.1627,N,08141.8501,W,1,11,1.4,12"
"##MN-00 00 52 0214 01945 6589 445737 349976 201"
"157.798171"
"$GPGGA,190917,2423.1605,N,08141.8492,W,1,11,1.4,12"
"##MN-00 00 52 0215 01942 6585 445720 349975 201"
"157.798218"
"$GPGGA,190921,2423.1582,N,08141.8482,W,1,10,1.6,12"
"##MN-00 00 51 0216 01945 6581 445721 349975 201"
"157.798264"
"$GPGGA,190925,2423.1561,N,08141.8473,W,1,11,1.4,13"
"##MN-00 00 50 0217 01946 6577 445730 349975 201"
"157.79831"
"$GPGGA,190929,2423.1535,N,08141.8464,W,1,11,1.4,13"
"##MN-00 00 51 0218 01942 6573 445726 349974 201"
"157.798356"
"$GPGGA,190933,2423.1514,N,08141.8455,W,1,11,1.4,13"
"##MN-00 00 51 0219 01941 6568 445724 349974 201"
"157.798403"
"$GPGGA,190937,2423.1489,N,08141.8445,W,1,11,1.4,13"
"##MN-00 00 50 0220 01944 6564 445726 349975 201"
"157.798449"
"$GPGGA,190941,2423.1467,N,08141.8435,W,1,11,1.4,13"
"##MN-00 00 51 0221 01948 6560 445720 349974 201"
"157.798495"
"$GPGGA,190945,2423.1442,N,08141.8426,W,1,11,1.4,12"
"##MN-00 00 51 0222 01949 6556 445725 349974 201"
"157.798542"
"$GPGGA,190949,2423.1420,N,08141.8417,W,1,11,1.4,12"
"##MN-00 00 52 0222 01948 6552 445721 349974 201"
"157.798588"
"$GPGGA,190953,2423.1396,N,08141.8407,W,1,11,1.4,12"
"##MN-00 00 51 0223 01949 6548 445732 349974 201"
"157.798634"
"$GPGGA,190957,2423.1373,N,08141.8398,W,1,11,1.4,12"
"##MN-00 00 51 0224 01952 6543 445737 349975 201"
"157.798681"
"$GPGGA,191001,2423.1351,N,08141.8390,W,1,11,1.4,12"
"##MN-00 00 51 0225 01953 6539 445741 349977 201"
"157.798727"
"$GPGGA,191005,2423.1331,N,08141.8383,W,1,11,1.4,13"
"##MN-00 00 52 0226 01956 6535 445741 349978 201"
"157.798773"
"$GPGGA,191009,2423.1308,N,08141.8374,W,1,11,1.4,13"
"##MN-00 00 51 0227 01955 6531 445752 349979 201"
"157.798819"
"$GPGGA,191013,2423.1286,N,08141.8364,W,1,11,1.4,13"
"##MN-00 00 51 0228 01954 6527 445761 349983 201"
"157.798866"
"$GPGGA,191017,2423.1263,N,08141.8354,W,1,11,1.4,13"
"##MN-00 00 50 0229 01955 6523 445771 349985 201"
"157.798912"
"$GPGGA,191021,2423.1240,N,08141.8343,W,1,11,1.4,13"
"##MN-00 00 50 0230 01955 6519 445781 349989 201"
"157.798958"
"$GPGGA,191025,2423.1217,N,08141.8332,W,1,10,1.6,13"
"##MN-00 00 50 0231 01955 6515 445782 349991 201"
"157.799005"
"$GPGGA,191029,2423.1200,N,08141.8325,W,1,11,1.4,13"
"##MN-00 00 51 0232 01954 6511 445778 349990 201"
"157.799051"
"$GPGGA,191033,2423.1176,N,08141.8315,W,1,11,1.4,14"
"##MN-00 00 51 0233 01956 6507 445777 349989 201"
"157.799097"
"$GPGGA,191037,2423.1152,N,08141.8304,W,1,11,1.4,14"
"##MN-00 00 51 0234 01955 6503 445775 349989 201"
"157.799144"
"$GPGGA,191041,2423.1129,N,08141.8295,W,1,11,1.4,14"
"##MN-00 00 50 0234 01955 6499 445783 349990 201"
"157.79919"
"$GPGGA,191045,2423.1109,N,08141.8285,W,1,11,1.4,14"
"##MN+00 00 51 0235 01956 6495 445781 349991 201"
"157.799236"
"$GPGGA,191049,2423.1084,N,08141.8274,W,1,10,1.6,14"
"##MN+00 00 51 0236 01956 6491 445781 349990 202"
"157.799282"
"$GPGGA,191053,2423.1059,N,08141.8262,W,1,11,1.4,14"
"##MN+00 00 51 0237 01957 6487 445785 349991 202"
"157.799329"
"$GPGGA,191057,2423.1035,N,08141.8251,W,1,11,1.4,14"
"##MN-00 00 50 0238 01957 6483 445789 349993 201"
"157.799375"
"$GPGGA,191101,2423.1012,N,08141.8240,W,1,10,1.4,13"
"##MN-00 00 50 0239 01956 6479 445789 349993 202"
"157.799421"
"$GPGGA,191105,2423.0984,N,08141.8227,W,1,11,1.4,13"
"##MN-00 00 50 0240 01955 6476 445787 349992 202"
"157.799468"
"$GPGGA,191109,2423.0962,N,08141.8218,W,1,11,1.4,12"
"##MN+00 00 50 0241 01956 6471 445783 349993 202"
"157.799514"
"$GPGGA,191113,2423.0939,N,08141.8209,W,1,10,1.4,12"
"##MN+00 00 61 0242 01956 6467 445783 349991 201"
"157.79956"
"#increment_net"
"$GPGGA,191117,2423.0918,N,08141.8198,W,1,11,1.4,12"
"##MN+00 00 56 0243 01957 6463 445775 349990 201"
"157.799606"
"$GPGGA,191121,2423.0894,N,08141.8188,W,1,11,1.6,12"
"##MN-00 00 52 0244 01959 6459 445783 349992 201"
"157.799664"
"$GPGGA,191125,2423.0876,N,08141.8180,W,1,11,1.4,12"
"##MN-00 00 51 0245 01957 6455 445792 349992 201"
"157.799711"
"$GPGGA,191129,2423.0854,N,08141.8170,W,1,11,1.6,12"
"##MN-00 00 50 0246 01957 6452 445789 349993 201"
"157.799757"
"$GPGGA,191133,2423.0831,N,08141.8163,W,1,10,1.4,13"
"##MN-00 00 49 0247 01955 6447 445787 349993 201"
"157.799803"
"$GPGGA,191138,2423.0804,N,08141.8153,W,1,11,1.4,13"
"##MN-00 00 50 0248 01956 6444 445791 349994 201"
"157.79985"
"$GPGGA,191142,2423.0778,N,08141.8143,W,1,10,1.4,14"
"##MN-00 00 49 0249 01953 6440 445791 349994 201"
"157.799896"
"$GPGGA,191146,2423.0755,N,08141.8134,W,1,11,1.4,14"
"##MN-00 00 50 0250 01952 6436 445789 349995 201"
"157.799942"
"$GPGGA,191150,2423.0733,N,08141.8128,W,1,11,1.7,14"
"##MN-00 00 50 0251 01954 6432 445785 349996 201"
"157.799988"
"$GPGGA,191154,2423.0712,N,08141.8119,W,1,11,1.4,15"
"##MN-00 00 50 0252 01954 6428 445782 349997 201"
"157.800035"
"$GPGGA,191157,2423.0694,N,08141.8112,W,1,11,1.4,15"
"##MN-00 00 50 0253 01954 6424 445789 349997 201"
"157.800081"
"$GPGGA,191202,2423.0665,N,08141.8097,W,1,11,1.4,16"
"##MN-00 00 51 0254 01953 6421 445791 349997 201"
"157.800127"
"$GPGGA,191206,2423.0643,N,08141.8087,W,1,11,1.7,16"
"##MN-00 00 50 0255 01954 6417 445789 349998 201"
"157.800174"
"$GPGGA,191210,2423.0618,N,08141.8077,W,1,11,1.4,16"
"##MN-00 00 50 0256 01954 6413 445783 349998 201"
"157.80022"
"$GPGGA,191214,2423.0593,N,08141.8065,W,1,11,1.4,16"
"##MN-00 00 50 0257 01955 6409 445777 349997 201"
"157.800266"
"$GPGGA,191218,2423.0571,N,08141.8058,W,1,10,1.4,16"
"##MN-00 00 51 0258 01953 6406 445775 349996 201"
"157.800313"
"$GPGGA,191222,2423.0549,N,08141.8049,W,1,11,1.7,16"
"##MN-00 00 50 0259 01954 6402 445782 349997 201"
"157.800359"
"$GPGGA,191226,2423.0525,N,08141.8037,W,1,11,1.6,16"
"##MN-00 00 50 0260 01954 6398 445778 349996 201"
"157.800405"
"$GPGGA,191230,2423.0501,N,08141.8024,W,1,10,1.4,16"
"##MN-00 00 50 0260 01953 6394 445773 349995 201"
"157.800451"
"$GPGGA,191234,2423.0479,N,08141.8013,W,1,11,1.4,16"
"##MN-00 00 50 0261 01953 6390 445764 349993 201"
"157.800498"
"$GPGGA,191238,2423.0456,N,08141.8003,W,1,10,1.4,15"
"##MN-00 00 51 0262 01953 6387 445759 349992 201"
"157.800544"
"$GPGGA,191242,2423.0435,N,08141.7993,W,1,11,1.4,15"
"##MN-00 00 50 0263 01954 6383 445760 349992 201"
"157.80059"
"$GPGGA,191246,2423.0412,N,08141.7982,W,1,10,1.6,15"
"##MN+00 00 50 0264 01955 6379 445754 349991 201"
"157.800637"
"$GPGGA,191250,2423.0391,N,08141.7972,W,1,11,1.4,15"
"##MN+00 00 50 0265 01954 6376 445757 349991 201"
"157.800683"
"$GPGGA,191254,2423.0369,N,08141.7964,W,1,11,1.7,15"
"##MN+00 00 50 0266 01954 6372 445758 349991 201"
"157.800729"
"$GPGGA,191258,2423.0347,N,08141.7958,W,1,11,1.4,15"
"##MN-00 00 49 0267 01953 6368 445755 349990 200"
"157.800775"
"$GPGGA,191302,2423.0326,N,08141.7951,W,1,11,1.4,15"
"##MN-00 00 50 0268 01954 6365 445743 349985 200"
"157.800822"
"$GPGGA,191306,2423.0303,N,08141.7939,W,1,11,1.4,16"
"##MN-00 00 51 0269 01952 6361 445727 349983 200"
"157.800868"
"$GPGGA,191310,2423.0278,N,08141.7927,W,1,11,1.6,16"
"##MN-00 00 50 0270 01954 6357 445718 349980 201"
"157.800914"
"$GPGGA,191314,2423.0253,N,08141.7915,W,1,11,1.4,16"
"##MN+00 00 50 0271 01955 6354 445716 349978 200"
"157.800961"
"$GPGGA,191318,2423.0231,N,08141.7906,W,1,11,1.4,16"
"##MN+00 00 61 0272 01956 6350 445715 349976 201"
"157.801007"
"#increment_net"
"$GPGGA,191322,2423.0208,N,08141.7897,W,1,11,1.4,16"
"##MN+00 00 58 0273 01959 6347 445716 349976 201"
"157.801053"
"$GPGGA,191326,2423.0182,N,08141.7887,W,1,10,1.4,16"
"##MN-00 00 54 0274 01960 6343 445710 349975 201"
"157.8011"
"$GPGGA,191330,2423.0157,N,08141.7875,W,1,11,1.4,16"
"##MN-00 00 51 0276 01967 6340 445726 349975 201"
"157.801146"
"$GPGGA,191334,2423.0134,N,08141.7865,W,1,11,1.4,15"
"##MN-00 00 50 0277 01969 6336 445746 349981 201"
"157.801192"
"$GPGGA,191338,2423.0110,N,08141.7855,W,1,11,1.5,15"
"##MN-00 00 49 0278 01973 6332 445777 349986 201"
"157.801238"
"$GPGGA,191342,2423.0085,N,08141.7845,W,1,11,1.5,15"
"##MN-00 00 49 0280 01975 6328 445796 349989 201"
"157.801285"
"$GPGGA,191346,2423.0060,N,08141.7834,W,1,11,1.5,15"
"##MN-00 00 48 0281 01973 6325 445807 349998 201"
"157.801331"
"$GPGGA,191350,2423.0036,N,08141.7823,W,1,11,1.5,15"
"##MN-00 00 47 0282 01971 6321 445810 350000 201"
"157.801377"
"$GPGGA,191354,2423.0012,N,08141.7812,W,1,11,1.5,15"
"##MN-00 00 47 0284 01968 6318 445798 349999 201"
"157.801424"
"$GPGGA,191358,2422.9987,N,08141.7799,W,1,11,1.5,15"
"##MN-00 00 47 0285 01965 6314 445795 349997 201"
"157.80147"
"$GPGGA,191402,2422.9961,N,08141.7788,W,1,11,1.5,15"
"##MN-00 00 47 0286 01963 6311 445776 349993 201"
"157.801516"
"$GPGGA,191406,2422.9936,N,08141.7776,W,1,11,1.5,15"
"##MN-00 00 46 0287 01959 6307 445758 349989 201"
"157.801562"
"$GPGGA,191410,2422.9910,N,08141.7763,W,1,11,1.5,15"
"##MN-00 00 46 0289 01957 6304 445740 349986 201"
"157.801609"
"$GPGGA,191414,2422.9884,N,08141.7751,W,1,11,1.5,15"
"##MN-00 00 45 0290 01955 6300 445737 349983 201"
"157.801655"
"$GPGGA,191418,2422.9859,N,08141.7738,W,1,11,1.5,15"
"##MN-00 00 46 0291 01953 6296 445712 349976 201"
"157.801701"
"$GPGGA,191422,2422.9834,N,08141.7726,W,1,11,1.5,15"
"##MN-00 00 47 0293 01949 6293 445677 349970 201"
"157.801748"
"$GPGGA,191426,2422.9807,N,08141.7715,W,1,11,1.5,15"
"##MN-00 00 47 0294 01945 6289 445657 349961 201"
"157.801794"
"$GPGGA,191430,2422.9781,N,08141.7701,W,1,10,1.8,15"
"##MN-00 00 46 0295 01941 6286 445645 349953 201"
"157.80184"
"$GPGGA,191434,2422.9754,N,08141.7694,W,1,11,1.5,16"
"##MN-00 00 47 0297 01937 6282 445601 349942 201"
"157.801887"
"$GPGGA,191438,2422.9729,N,08141.7680,W,1,11,1.8,16"
"##MN-00 00 46 0298 01934 6279 445570 349938 201"
"157.801933"
"$GPGGA,191442,2422.9704,N,08141.7665,W,1,11,1.5,16"
"##MN-00 00 47 0299 01929 6276 445553 349927 201"
"157.801979"
"$GPGGA,191446,2422.9678,N,08141.7650,W,1,11,1.5,16"
"##MN-00 00 46 0300 01927 6272 445499 349911 201"
"157.802025"
"$GPGGA,191450,2422.9652,N,08141.7639,W,1,11,1.5,16"
"##MN-00 00 46 0302 01923 6269 445463 349903 201"
"157.802072"
"$GPGGA,191454,2422.9625,N,08141.7628,W,1,11,1.5,16"
"##MN-00 00 46 0303 01922 6266 445438 349897 201"
"157.802118"
"$GPGGA,191458,2422.9599,N,08141.7617,W,1,11,1.5,17"
"##MN-00 00 47 0304 01917 6262 445379 349875 201"
"157.802164"
"$GPGGA,191502,2422.9574,N,08141.7604,W,1,11,1.5,17"
"##MN-00 00 46 0306 01911 6259 445322 349858 201"
"157.802211"
"$GPGGA,191506,2422.9547,N,08141.7590,W,1,11,1.5,17"
"##MN-00 00 46 0307 01910 6255 445307 349851 201"
"157.802257"
"$GPGGA,191510,2422.9521,N,08141.7575,W,1,11,1.5,17"
"##MN-00 00 46 0308 01905 6252 445291 349846 201"
"157.802303"
"$GPGGA,191514,2422.9495,N,08141.7560,W,1,11,1.8,17"
"##MN-00 00 46 0310 01904 6249 445268 349839 201"
"157.80235"
"$GPGGA,191518,2422.9469,N,08141.7548,W,1,11,1.5,17"
"##MN-00 00 45 0311 01898 6245 445233 349826 201"
"157.802396"
"$GPGGA,191522,2422.9442,N,08141.7533,W,1,11,1.5,17"
"##MN-00 00 46 0312 01892 6242 445196 349816 201"
"157.802442"
"$GPGGA,191526,2422.9416,N,08141.7517,W,1,11,1.5,17"
"##MN-00 00 47 0313 01890 6239 445147 349804 201"
"157.802488"
"$GPGGA,191530,2422.9389,N,08141.7502,W,1,11,1.5,17"
"##MN-00 00 48 0315 01889 6235 445101 349791 201"
"157.802535"
"$GPGGA,191534,2422.9363,N,08141.7489,W,1,11,1.5,17"
"##MN-00 00 48 0316 01883 6233 445053 349781 201"
"157.802581"
"$GPGGA,191538,2422.9336,N,08141.7476,W,1,11,1.5,16"
"##MN-00 00 46 0317 01880 6229 444986 349764 201"
"157.802627"
"$GPGGA,191542,2422.9310,N,08141.7464,W,1,11,1.5,16"
"##MN-00 00 46 0319 01877 6226 444891 349728 201"
"157.802674"
"$GPGGA,191546,2422.9290,N,08141.7454,W,1,10,1.5,16"
"##MN-00 00 46 0320 01873 6222 444833 349710 201"
"157.80272"
"$GPGGA,191550,2422.9257,N,08141.7440,W,1,11,1.5,16"
"##MN-00 00 46 0321 01868 6219 444798 349697 201"
"157.802766"
"$GPGGA,191554,2422.9231,N,08141.7426,W,1,11,1.5,16"
"##MN-00 00 46 0323 01867 6216 444758 349689 201"
"157.802812"
"$GPGGA,191558,2422.9205,N,08141.7412,W,1,11,1.5,16"
"##MN-00 00 45 0324 01862 6213 444678 349659 201"
"157.802859"
"$GPGGA,191602,2422.9180,N,08141.7398,W,1,11,1.5,15"
"##MN-00 00 46 0325 01856 6210 444491 349618 201"
"157.802917"
"$GPGGA,191606,2422.9153,N,08141.7384,W,1,11,1.5,15"
"##MN-00 00 45 0327 01855 6206 442454 349242 201"
"157.802963"
"$GPGGA,191611,2422.9120,N,08141.7368,W,1,11,1.5,15"
"##MN-00 00 47 0328 01856 6203 440140 348868 201"
"157.803009"
"$GPGGA,191615,2422.9094,N,08141.7355,W,1,11,1.5,15"
"##MN-00 00 46 0329 01854 6200 439352 348014 201"
"157.803056"
"$GPGGA,191619,2422.9068,N,08141.7343,W,1,11,1.5,14"
"##MN-00 00 48 0331 01853 6197 438762 347959 201"
"157.803102"
"$GPGGA,191623,2422.9043,N,08141.7330,W,1,11,1.5,14"
"##MN-00 00 48 0332 01854 6194 438447 347681 201"
"157.803148"
"$GPGGA,191627,2422.9015,N,08141.7317,W,1,11,1.5,14"
"##MN-00 00 46 0333 01855 6191 438472 347636 201"
"157.803194"
"$GPGGA,191631,2422.8988,N,08141.7303,W,1,11,1.5,14"
"##MN-00 00 45 0334 01852 6188 438482 347609 201"
"157.803241"
"$GPGGA,191635,2422.8961,N,08141.7289,W,1,11,1.5,14"
"##MN-00 00 46 0336 01853 6184 438193 347537 201"
"157.803287"
"$GPGGA,191639,2422.8935,N,08141.7277,W,1,11,1.5,13"
"##MN-00 00 46 0337 01854 6182 438293 347517 201"
"157.803333"
"$GPGGA,191643,2422.8909,N,08141.7264,W,1,10,1.8,13"
"##MN-00 00 45 0338 01854 6179 438219 347489 201"
"157.80338"
"$GPGGA,191647,2422.8881,N,08141.7250,W,1,11,1.5,13"
"##MN-00 00 46 0339 01854 6175 438189 347481 201"
"157.803426"
"$GPGGA,191651,2422.8855,N,08141.7236,W,1,11,1.5,13"
"##MN-00 00 46 0341 01855 6172 438288 347496 201"
"157.803472"
"$GPGGA,191655,2422.8827,N,08141.7225,W,1,11,1.5,13"
"##MN-00 00 46 0342 01854 6169 438397 347519 201"
