" Tow: L1s-B   RVWS/WS1406"
" Date: 06/06/2014"
" Temperature Probe #  2597    Conductivity Probe #  2870"
" Pressure Probe #  109"
" Flow Meter Calibration  4.71 (m/count)  "
"157.820359"
"$GPGGA,194121,2420.6447,N,08140.6644,W,1,10,1.9,13"
"##MN-00 00 48 0357 01858 5930 000045 878918 201"
"157.820405"
"$GPGGA,194128,2420.6392,N,08140.6609,W,1,10,1.9,13"
"##MN-00 00 52 0357 01854 5930 425585 924956 201"
"157.820451"
"$GPGGA,194132,2420.6362,N,08140.6589,W,1,11,1.9,13"
"##MN-00 00 54 0357 01855 5931 435038 379225 201"
"157.820498"
"$GPGGA,194136,2420.6330,N,08140.6568,W,1,10,1.6,13"
"##MN-00 00 56 0358 01857 5932 438438 347378 201"
"157.820544"
"$GPGGA,194140,2420.6299,N,08140.6547,W,1,11,1.6,12"
"##MN-00 00 58 0359 01855 5932 438711 347460 201"
"157.82059"
"$GPGGA,194144,2420.6270,N,08140.6527,W,1,11,1.6,12"
"##MN-00 00 58 0360 01855 5933 438911 347495 201"
"157.820637"
"$GPGGA,194148,2420.6241,N,08140.6507,W,1,11,1.6,12"
"##MN-00 00 58 0361 01857 5933 438973 347569 201"
"157.820683"
"$GPGGA,194152,2420.6214,N,08140.6488,W,1,10,1.6,13"
"##MN-00 00 57 0362 01855 5934 439060 347912 201"
"157.820729"
"$GPGGA,194156,2420.6189,N,08140.6469,W,1,11,1.6,13"
"##MN-00 00 59 0363 01856 5934 439135 347917 201"
"157.820775"
"$GPGGA,194200,2420.6163,N,08140.6450,W,1,11,1.6,13"
"##MN-00 00 58 0364 01858 5935 439156 347803 201"
"157.820822"
"$GPGGA,194204,2420.6138,N,08140.6432,W,1,11,1.9,13"
"##MN-00 00 59 0365 01857 5936 439179 347870 201"
"157.820868"
"$GPGGA,194208,2420.6113,N,08140.6415,W,1,11,1.6,14"
"##MN-00 00 61 0366 01859 5936 439539 347950 201"
"157.820914"
"$GPGGA,194212,2420.6085,N,08140.6401,W,1,11,1.6,14"
"##MN-00 00 61 0367 01867 5937 439839 348107 201"
"157.820961"
"$GPGGA,194216,2420.6059,N,08140.6379,W,1,11,1.6,15"
"##MN-00 00 60 0368 01876 5937 440487 348362 201"
"157.821007"
"$GPGGA,194220,2420.6032,N,08140.6356,W,1,11,1.6,15"
"##MN-00 00 58 0369 01884 5938 441494 348733 201"
"157.821053"
"$GPGGA,194224,2420.6008,N,08140.6335,W,1,11,1.6,15"
"##MN-00 00 60 0370 01889 5938 442425 348737 201"
"157.8211"
"$GPGGA,194228,2420.5980,N,08140.6314,W,1,11,1.6,15"
"##MN-00 00 58 0370 01898 5938 442831 348920 201"
"157.821146"
"$GPGGA,194232,2420.5954,N,08140.6294,W,1,11,1.6,15"
"##MN-00 00 58 0371 01908 5938 443034 348978 201"
"157.821192"
"$GPGGA,194236,2420.5930,N,08140.6274,W,1,11,1.6,14"
"##MN-00 00 60 0372 01917 5938 443117 349025 201"
"157.821238"
"$GPGGA,194240,2420.5907,N,08140.6255,W,1,11,1.6,14"
"##MN-00 00 59 0373 01927 5938 443024 349035 201"
"157.821285"
"$GPGGA,194244,2420.5883,N,08140.6234,W,1,10,1.6,14"
"##MN-00 00 59 0374 01938 5938 443001 349030 201"
"157.821331"
"$GPGGA,194248,2420.5863,N,08140.6215,W,1,11,1.6,14"
"##MN-00 00 58 0375 01949 5938 443147 349177 201"
"157.821377"
"$GPGGA,194252,2420.5842,N,08140.6194,W,1,11,1.6,13"
"##MN-00 00 59 0375 01962 5938 443745 349372 201"
"157.821424"
"$GPGGA,194256,2420.5821,N,08140.6174,W,1,11,1.6,13"
"##MN-00 00 58 0376 01975 5938 444118 349450 201"
"157.82147"
"$GPGGA,194300,2420.5800,N,08140.6152,W,1,11,1.6,13"
"##MN-00 00 55 0377 01980 5938 444177 349457 201"
"157.821516"
"$GPGGA,194304,2420.5778,N,08140.6131,W,1,10,1.6,13"
"##MN-00 00 51 0378 01985 5938 444264 349422 201"
"157.821563"
"$GPGGA,194308,2420.5760,N,08140.6108,W,1,11,1.6,12"
"##MN-00 00 50 0378 01987 5938 444254 349424 201"
"157.821609"
"$GPGGA,194312,2420.5745,N,08140.6088,W,1,11,1.6,12"
"##MN-00 00 50 0379 01990 5937 444257 349408 201"
"157.821655"
"$GPGGA,194316,2420.5726,N,08140.6065,W,1,11,1.6,12"
"##MN-00 00 50 0380 01996 5937 444259 349416 201"
"157.821701"
"$GPGGA,194320,2420.5709,N,08140.6043,W,1,11,1.6,11"
"##MN-00 00 46 0381 01996 5937 444265 349415 201"
"157.821748"
"$GPGGA,194325,2420.5688,N,08140.6017,W,1,11,1.6,11"
"##MN-00 00 46 0381 01994 5936 444267 349422 201"
"157.821794"
"$GPGGA,194329,2420.5673,N,08140.5995,W,1,11,1.6,11"
"##MN-00 00 46 0382 01996 5936 444273 349433 201"
"157.82184"
"$GPGGA,194333,2420.5656,N,08140.5973,W,1,11,1.6,11"
"##MN-00 00 44 0383 01997 5936 444280 349438 201"
"157.821887"
"$GPGGA,194336,2420.5645,N,08140.5957,W,1,11,1.6,11"
"##MN-00 00 44 0384 01996 5935 444276 349436 201"
"157.821933"
"$GPGGA,194341,2420.5625,N,08140.5930,W,1,11,1.6,11"
"##MN-00 00 43 0384 01994 5934 444272 349431 201"
"157.821979"
"$GPGGA,194345,2420.5609,N,08140.5908,W,1,11,1.6,11"
"##MN-00 00 43 0385 01991 5934 444273 349433 201"
"157.822025"
"$GPGGA,194349,2420.5593,N,08140.5886,W,1,11,1.6,11"
"##MN-00 00 42 0386 01992 5933 444294 349436 201"
"157.822072"
"$GPGGA,194353,2420.5578,N,08140.5865,W,1,11,1.9,11"
"##MN-00 00 41 0386 01987 5932 444324 349449 201"
"157.822118"
"$GPGGA,194357,2420.5562,N,08140.5846,W,1,11,1.6,11"
"##MN-00 00 41 0387 01990 5932 444332 349450 201"
"157.822164"
"$GPGGA,194401,2420.5547,N,08140.5825,W,1,11,1.6,11"
"##MN-00 00 40 0388 01988 5932 444315 349451 201"
"157.822211"
"$GPGGA,194405,2420.5533,N,08140.5803,W,1,11,1.6,11"
"##MN-00 00 39 0388 01987 5931 444301 349450 201"
"157.822257"
"$GPGGA,194409,2420.5518,N,08140.5780,W,1,11,1.6,12"
"##MN-00 00 40 0389 01984 5930 444296 349452 201"
"157.822303"
"$GPGGA,194413,2420.5503,N,08140.5758,W,1,10,1.9,12"
"##MN-00 00 38 0390 01981 5929 444290 349456 201"
"157.82235"
"$GPGGA,194417,2420.5488,N,08140.5737,W,1,11,1.6,13"
"##MN-00 00 38 0390 01979 5928 444287 349456 201"
"157.822396"
"$GPGGA,194421,2420.5473,N,08140.5712,W,1,10,1.9,13"
"##MN-00 00 38 0391 01977 5928 444290 349459 201"
"157.822442"
"$GPGGA,194425,2420.5457,N,08140.5692,W,1,11,1.6,13"
"##MN-00 00 37 0392 01972 5927 444283 349461 201"
"157.822488"
"$GPGGA,194429,2420.5442,N,08140.5671,W,1,11,1.6,13"
"##MN-00 00 36 0392 01970 5926 444277 349461 201"
"157.822535"
"$GPGGA,194433,2420.5426,N,08140.5648,W,1,11,1.6,14"
"##MN-00 00 37 0393 01969 5925 444312 349474 201"
"157.822581"
"$GPGGA,194437,2420.5410,N,08140.5627,W,1,11,1.6,14"
"##MN-00 00 37 0394 01965 5924 444315 349473 201"
"157.822627"
"$GPGGA,194441,2420.5396,N,08140.5604,W,1,11,1.6,14"
"##MN-00 00 38 0394 01964 5923 444248 349456 201"
"157.822674"
"$GPGGA,194445,2420.5381,N,08140.5577,W,1,11,1.6,15"
"##MN-00 00 38 0395 01963 5922 444105 349420 201"
"157.82272"
"$GPGGA,194449,2420.5367,N,08140.5551,W,1,10,1.9,15"
"##MN+00 00 37 0395 01964 5921 444086 349405 201"
"157.822766"
"$GPGGA,194453,2420.5352,N,08140.5525,W,1,11,1.6,14"
"##MN+00 00 37 0396 01965 5920 444109 349406 201"
"157.822812"
"$GPGGA,194457,2420.5337,N,08140.5502,W,1,11,1.6,14"
"##MN+00 00 38 0397 01965 5919 444121 349427 201"
"157.822859"
"$GPGGA,194501,2420.5322,N,08140.5477,W,1,11,1.6,14"
"##MN+00 00 38 0397 01964 5918 444074 349430 201"
"157.822905"
"$GPGGA,194505,2420.5308,N,08140.5451,W,1,11,1.6,13"
"##MN+00 00 40 0398 01967 5917 444106 349429 201"
"157.822951"
"$GPGGA,194509,2420.5293,N,08140.5429,W,1,9,2.0,13,"
"##MN+00 00 40 0398 01964 5916 444005 349384 201"
"157.822998"
"$GPGGA,194513,2420.5278,N,08140.5406,W,1,10,1.6,13"
"##MN-00 00 38 0399 01963 5915 443835 349337 201"
"157.823044"
"$GPGGA,194517,2420.5262,N,08140.5381,W,1,11,1.6,13"
"##MN-00 00 39 0400 01960 5914 443778 349323 201"
"157.82309"
"$GPGGA,194521,2420.5246,N,08140.5358,W,1,11,1.6,13"
"##MN-00 00 37 0400 01960 5913 443867 349336 201"
"157.823137"
"$GPGGA,194525,2420.5228,N,08140.5337,W,1,11,1.6,13"
"##MN-00 00 38 0401 01960 5911 443929 349350 201"
"157.823183"
"$GPGGA,194529,2420.5212,N,08140.5311,W,1,10,1.9,13"
"##MN+00 00 38 0401 01956 5910 443875 349343 201"
"157.823229"
"$GPGGA,194533,2420.5195,N,08140.5285,W,1,11,1.6,13"
"##MN+00 00 39 0402 01958 5909 443855 349337 200"
"157.823287"
"$GPGGA,194537,2420.5177,N,08140.5263,W,1,11,1.6,13"
"##MN+00 00 39 0402 01953 5908 443880 349336 200"
"157.823333"
"$GPGGA,194541,2420.5159,N,08140.5240,W,1,11,1.6,13"
"##MN-00 00 40 0403 01951 5907 443823 349334 201"
"157.82338"
"#increment_net"
"$GPGGA,194545,2420.5139,N,08140.5214,W,1,11,1.6,13"
"##MN-00 00 40 0404 01952 5906 443772 349319 201"
"157.823426"
"$GPGGA,194549,2420.5120,N,08140.5187,W,1,11,1.6,14"
"##MN-00 00 42 0405 01949 5904 443695 349304 201"
"157.823472"
"$GPGGA,194553,2420.5101,N,08140.5160,W,1,11,1.6,14"
"##MN-00 00 42 0405 01947 5903 443484 349281 201"
"157.823519"
"$GPGGA,194557,2420.5083,N,08140.5132,W,1,11,1.6,14"
"##MN-00 00 43 0406 01945 5902 443373 349250 201"
"157.823565"
"$GPGGA,194601,2420.5065,N,08140.5105,W,1,11,1.6,14"
"##MN-00 00 43 0407 01944 5900 443326 349202 201"
"157.823611"
"$GPGGA,194605,2420.5047,N,08140.5078,W,1,11,1.6,14"
"##MN-00 00 45 0408 01944 5899 442917 349076 201"
"157.823657"
"$GPGGA,194609,2420.5027,N,08140.5050,W,1,11,1.6,14"
"##MN-00 00 45 0408 01944 5898 442535 348996 201"
"157.823704"
"$GPGGA,194613,2420.5008,N,08140.5023,W,1,11,1.6,14"
"##MN-00 00 45 0409 01946 5896 442356 348924 201"
"157.82375"
"$GPGGA,194617,2420.4990,N,08140.4995,W,1,11,1.6,14"
"##MN-00 00 46 0410 01948 5895 442110 348868 201"
"157.823796"
"$GPGGA,194621,2420.4971,N,08140.4967,W,1,11,1.6,14"
"##MN-00 00 46 0410 01944 5894 442551 348934 201"
"157.823843"
"$GPGGA,194625,2420.4953,N,08140.4940,W,1,11,1.6,14"
"##MN-00 00 46 0411 01946 5892 443089 349074 201"
"157.823889"
"$GPGGA,194629,2420.4932,N,08140.4912,W,1,11,1.6,14"
"##MN-00 00 45 0412 01947 5891 443399 349239 201"
"157.823935"
"$GPGGA,194633,2420.4913,N,08140.4886,W,1,11,1.6,14"
"##MN-00 00 47 0413 01950 5890 443463 349242 201"
"157.823981"
"$GPGGA,194637,2420.4894,N,08140.4859,W,1,11,1.6,14"
"##MN-00 00 48 0413 01950 5888 443626 349278 201"
"157.824028"
"$GPGGA,194641,2420.4875,N,08140.4831,W,1,11,1.6,14"
"##MN-00 00 48 0414 01953 5887 443588 349277 201"
"157.824074"
"$GPGGA,194645,2420.4856,N,08140.4804,W,1,11,1.6,14"
"##MN-00 00 48 0415 01953 5886 443667 349298 201"
"157.82412"
"$GPGGA,194649,2420.4837,N,08140.4777,W,1,11,1.6,14"
"##MN-00 00 48 0416 01958 5884 443841 349352 201"
"157.824167"
"$GPGGA,194653,2420.4817,N,08140.4750,W,1,11,1.6,14"
"##MN-00 00 47 0416 01957 5883 443967 349356 201"
"157.824213"
"$GPGGA,194657,2420.4798,N,08140.4723,W,1,11,1.6,13"
"##MN-00 00 48 0417 01961 5881 444033 349407 201"
"157.824259"
"$GPGGA,194701,2420.4778,N,08140.4696,W,1,11,1.6,13"
"##MN-00 00 47 0418 01960 5880 444057 349419 201"
"157.824306"
"$GPGGA,194705,2420.4759,N,08140.4670,W,1,11,1.6,13"
"##MN-00 00 48 0418 01959 5878 444039 349417 201"
"157.824352"
"$GPGGA,194709,2420.4740,N,08140.4643,W,1,11,1.6,13"
"##MN-00 00 46 0419 01959 5877 443983 349412 201"
"157.824398"
"$GPGGA,194713,2420.4720,N,08140.4616,W,1,11,1.6,13"
"##MN-00 00 47 0420 01958 5876 443947 349402 201"
"157.824444"
"$GPGGA,194717,2420.4701,N,08140.4588,W,1,11,1.6,13"
"##MN-00 00 48 0421 01958 5874 443989 349404 201"
"157.824491"
"$GPGGA,194721,2420.4682,N,08140.4562,W,1,11,1.6,12"
"##MN-00 00 48 0422 01961 5873 443988 349413 201"
"157.824537"
"$GPGGA,194725,2420.4664,N,08140.4534,W,1,11,1.6,12"
"##MN-00 00 48 0422 01959 5871 444006 349427 201"
"157.824583"
"$GPGGA,194729,2420.4644,N,08140.4507,W,1,11,1.6,12"
"##MN-00 00 48 0423 01960 5870 444001 349426 201"
"157.82463"
"$GPGGA,194733,2420.4625,N,08140.4479,W,1,11,1.6,12"
"##MN-00 00 48 0424 01960 5868 443976 349422 201"
"157.824676"
"$GPGGA,194737,2420.4607,N,08140.4452,W,1,11,1.6,12"
"##MN-00 00 46 0424 01959 5867 443856 349402 201"
"157.824722"
"$GPGGA,194741,2420.4588,N,08140.4425,W,1,11,1.6,12"
"##MN-00 00 48 0425 01959 5865 443823 349388 201"
"157.824769"
"$GPGGA,194745,2420.4570,N,08140.4398,W,1,10,1.9,12"
"##MN-00 00 47 0426 01961 5864 443479 349318 201"
"157.824815"
"$GPGGA,194749,2420.4552,N,08140.4373,W,1,10,1.9,12"
"##MN-00 00 48 0427 01959 5863 443539 349318 201"
"157.824861"
"$GPGGA,194753,2420.4532,N,08140.4348,W,1,10,1.9,12"
"##MN-00 00 48 0427 01961 5861 443625 349328 201"
"157.824907"
"$GPGGA,194757,2420.4513,N,08140.4322,W,1,11,1.6,12"
"##MN-00 00 48 0428 01960 5860 443482 349299 201"
"157.824954"
"$GPGGA,194801,2420.4495,N,08140.4299,W,1,11,1.6,12"
"##MN-00 00 48 0429 01959 5858 443521 349283 201"
"157.825"
"$GPGGA,194806,2420.4473,N,08140.4266,W,1,11,1.9,13"
"##MN+00 00 48 0430 01961 5857 443189 349255 201"
"157.825046"
"$GPGGA,194810,2420.4454,N,08140.4238,W,1,11,1.6,13"
"##MN+00 00 56 0430 01963 5855 442695 349155 200"
"157.825093"
"$GPGGA,194814,2420.4435,N,08140.4211,W,1,10,1.9,13"
"##MN+00 00 52 0431 01962 5853 442850 349104 200"
"157.825139"
"$GPGGA,194818,2420.4417,N,08140.4186,W,1,10,1.9,14"
"##MN-00 00 48 0432 01961 5852 442645 349026 200"
"157.825185"
"#increment_net"
"$GPGGA,194822,2420.4398,N,08140.4161,W,1,11,1.6,14"
"##MN-00 00 46 0433 01960 5850 442474 348988 201"
"157.825231"
"$GPGGA,194826,2420.4379,N,08140.4137,W,1,11,1.7,14"
"##MN-00 00 46 0434 01959 5849 442449 348948 201"
"157.825278"
"$GPGGA,194830,2420.4361,N,08140.4115,W,1,11,1.6,14"
"##MN-00 00 48 0434 01955 5847 442215 348861 201"
"157.825324"
"$GPGGA,194834,2420.4341,N,08140.4094,W,1,11,1.6,13"
"##MN-00 00 48 0435 01954 5846 442224 348858 201"
"157.82537"
"$GPGGA,194838,2420.4321,N,08140.4074,W,1,11,1.6,13"
"##MN-00 00 47 0436 01953 5844 442082 348819 201"
"157.825417"
"$GPGGA,194842,2420.4301,N,08140.4054,W,1,11,1.6,13"
"##MN-00 00 49 0437 01957 5843 442155 348851 201"
"157.825463"
"$GPGGA,194846,2420.4281,N,08140.4035,W,1,11,1.6,12"
"##MN-00 00 50 0438 01958 5841 442434 348903 200"
"157.825509"
"$GPGGA,194850,2420.4261,N,08140.4017,W,1,11,1.6,12"
"##MN-00 00 50 0438 01962 5840 442831 349047 201"
"157.825556"
"$GPGGA,194854,2420.4241,N,08140.4000,W,1,11,1.6,12"
"##MN-00 00 51 0439 01966 5838 443236 349124 201"
"157.825602"
"$GPGGA,194858,2420.4218,N,08140.3984,W,1,11,1.6,11"
"##MN-00 00 50 0440 01968 5837 443683 349179 201"
"157.825648"
"$GPGGA,194902,2420.4196,N,08140.3969,W,1,11,1.6,11"
"##MN-00 00 49 0441 01970 5836 443786 349233 201"
"157.825694"
"$GPGGA,194906,2420.4174,N,08140.3953,W,1,11,1.6,11"
"##MN-00 00 49 0441 01973 5834 443901 349259 201"
"157.825741"
"$GPGGA,194910,2420.4151,N,08140.3937,W,1,11,1.6,11"
"##MN-00 00 49 0442 01972 5832 444073 349339 201"
"157.825787"
"$GPGGA,194914,2420.4126,N,08140.3921,W,1,11,1.6,11"
"##MN-00 00 48 0443 01970 5831 444192 349420 201"
"157.825833"
"$GPGGA,194918,2420.4100,N,08140.3903,W,1,11,1.6,11"
"##MN-00 00 48 0444 01968 5829 444375 349483 201"
"157.82588"
"$GPGGA,194922,2420.4074,N,08140.3886,W,1,11,1.6,11"
"##MN-00 00 49 0445 01966 5828 444528 349513 201"
"157.825926"
"$GPGGA,194926,2420.4050,N,08140.3869,W,1,11,1.6,11"
"##MN-00 00 50 0446 01963 5826 444268 349481 201"
"157.825972"
"$GPGGA,194930,2420.4025,N,08140.3852,W,1,11,1.6,12"
"##MN-00 00 50 0447 01959 5825 443618 349404 201"
"157.826018"
"$GPGGA,194934,2420.4000,N,08140.3833,W,1,11,1.6,12"
"##MN-00 00 50 0448 01957 5823 443354 349274 201"
"157.826065"
"$GPGGA,194938,2420.3974,N,08140.3813,W,1,11,1.6,12"
"##MN-00 00 51 0449 01955 5821 443311 349239 200"
"157.826111"
"$GPGGA,194942,2420.3949,N,08140.3795,W,1,11,1.6,12"
"##MN-00 00 51 0450 01953 5820 443275 349218 200"
"157.826157"
"$GPGGA,194946,2420.3924,N,08140.3775,W,1,11,1.6,11"
"##MN-00 00 52 0451 01954 5818 443038 349192 200"
"157.826204"
"$GPGGA,194950,2420.3900,N,08140.3756,W,1,11,1.6,11"
"##MN-00 00 52 0452 01955 5817 442928 349103 200"
"157.82625"
"$GPGGA,194954,2420.3876,N,08140.3737,W,1,11,1.6,11"
"##MN-00 00 53 0453 01955 5815 443001 349115 201"
"157.826296"
"$GPGGA,194958,2420.3850,N,08140.3721,W,1,10,1.6,11"
"##MN-00 00 52 0454 01956 5814 443043 349110 201"
"157.826343"
"$GPGGA,195002,2420.3828,N,08140.3707,W,1,11,1.6,11"
"##MN+00 00 53 0455 01957 5813 443333 349158 200"
"157.8264"
"$GPGGA,195006,2420.3805,N,08140.3695,W,1,10,1.6,11"
"##MN+00 00 53 0456 01961 5811 443597 349228 201"
"157.826447"
"$GPGGA,195010,2420.3781,N,08140.3683,W,1,11,1.6,12"
"##MN+00 00 53 0457 01961 5810 443632 349257 200"
"157.826493"
"$GPGGA,195014,2420.3755,N,08140.3669,W,1,11,1.6,12"
"##MN-00 00 52 0458 01959 5808 443585 349250 200"
"157.826539"
"$GPGGA,195018,2420.3729,N,08140.3657,W,1,9,1.6,12,"
"##MN-00 00 52 0459 01960 5807 443433 349267 200"
"157.826586"
"$GPGGA,195022,2420.3707,N,08140.3644,W,1,11,1.6,13"
"##MN-00 00 52 0460 01960 5805 443218 349241 200"
"157.826632"
"$GPGGA,195026,2420.3682,N,08140.3628,W,1,11,1.6,13"
"##MN+00 00 53 0461 01960 5803 443115 349198 200"
"157.826678"
"$GPGGA,195030,2420.3656,N,08140.3611,W,1,10,1.6,13"
"##MN+00 00 62 0462 01960 5802 442927 349159 200"
"157.826725"
"#increment_net"
"$GPGGA,195034,2420.3634,N,08140.3597,W,1,11,1.6,14"
"##MN+00 00 58 0463 01958 5800 442933 349096 200"
"157.826771"
"$GPGGA,195038,2420.3613,N,08140.3582,W,1,11,1.6,14"
"##MN-00 00 55 0464 01958 5799 442994 349102 200"
"157.826817"
"$GPGGA,195042,2420.3589,N,08140.3567,W,1,10,1.6,14"
"##MN-00 00 54 0465 01957 5797 442792 349102 200"
"157.826863"
"$GPGGA,195046,2420.3567,N,08140.3555,W,1,11,1.6,14"
"##MN-00 00 53 0466 01957 5796 442581 349038 200"
"157.82691"
"$GPGGA,195050,2420.3544,N,08140.3542,W,1,11,1.6,14"
"##MN-00 00 52 0467 01959 5794 442588 348983 200"
"157.826956"
"$GPGGA,195054,2420.3522,N,08140.3534,W,1,11,1.6,14"
"##MN-00 00 52 0468 01958 5793 442701 348995 200"
"157.827002"
"$GPGGA,195058,2420.3501,N,08140.3524,W,1,11,1.6,14"
"##MN-00 00 52 0469 01960 5792 442890 349009 200"
"157.827049"
"$GPGGA,195102,2420.3477,N,08140.3514,W,1,11,1.6,14"
"##MN-00 00 53 0470 01958 5790 443099 349049 200"
"157.827095"
"$GPGGA,195106,2420.3454,N,08140.3505,W,1,11,1.6,14"
"##MN-00 00 52 0471 01960 5789 443274 349105 200"
"157.827141"
"$GPGGA,195110,2420.3432,N,08140.3497,W,1,11,1.6,14"
"##MN-00 00 52 0472 01962 5787 443327 349138 200"
"157.827188"
"$GPGGA,195114,2420.3409,N,08140.3489,W,1,11,1.6,14"
"##MN-00 00 52 0473 01964 5786 443199 349158 200"
"157.827234"
"$GPGGA,195118,2420.3389,N,08140.3483,W,1,11,1.6,14"
"##MN-00 00 52 0474 01965 5784 442916 349123 200"
"157.82728"
"$GPGGA,195122,2420.3367,N,08140.3473,W,1,10,1.9,14"
"##MN-00 00 51 0475 01964 5783 442520 349056 200"
"157.827326"
"$GPGGA,195126,2420.3347,N,08140.3469,W,1,9,1.9,14,"
"##MN-00 00 52 0476 01964 5781 442246 349036 200"
"157.827373"
"$GPGGA,195130,2420.3325,N,08140.3465,W,1,10,1.9,14"
"##MN-00 00 52 0477 01963 5780 442194 348992 200"
"157.827419"
"$GPGGA,195134,2420.3306,N,08140.3461,W,1,10,1.9,14"
"##MN-00 00 51 0478 01964 5779 442317 348900 200"
"157.827465"
"$GPGGA,195138,2420.3284,N,08140.3456,W,1,10,1.9,15"
"##MN-00 00 52 0479 01962 5777 442537 348943 200"
"157.827512"
"$GPGGA,195142,2420.3261,N,08140.3451,W,1,9,1.9,15,"
"##MN-00 00 51 0480 01960 5776 442583 348950 200"
"157.827558"
"$GPGGA,195146,2420.3237,N,08140.3446,W,1,10,1.9,15"
"##MN-00 00 52 0481 01957 5774 442453 348933 200"
"157.827604"
"$GPGGA,195150,2420.3217,N,08140.3444,W,1,8,1.9,15,"
"##MN-00 00 51 0483 01955 5773 442408 348907 200"
"157.82765"
"$GPGGA,195154,2420.3194,N,08140.3440,W,1,9,1.9,15,"
"##MN-00 00 53 0484 01957 5771 442431 348908 200"
"157.827697"
"$GPGGA,195158,2420.3170,N,08140.3435,W,1,9,1.9,15,"
"##MN-00 00 55 0485 01957 5770 442559 348922 200"
"157.827743"
"$GPGGA,195202,2420.3148,N,08140.3431,W,1,9,1.9,15,"
"##MN-00 00 55 0486 01962 5768 442636 348935 200"
"157.827789"
"$GPGGA,195206,2420.3129,N,08140.3427,W,1,8,2.0,15,"
"##MN-00 00 55 0487 01964 5767 442665 348952 200"
"157.827836"
"$GPGGA,195210,2420.3108,N,08140.3423,W,1,8,2.0,16,"
"##MN-00 00 55 0488 01967 5765 442730 348981 200"
"157.827882"
"$GPGGA,195214,2420.3085,N,08140.3421,W,1,8,2.7,16,"
"##MN+00 00 54 0489 01965 5764 442863 348998 200"
"157.827928"
"$GPGGA,195218,2420.3064,N,08140.3416,W,1,8,1.9,16,"
"##MN+00 00 54 0490 01964 5763 443200 349069 200"
"157.827975"
"$GPGGA,195222,2420.3042,N,08140.3411,W,1,8,1.9,17,"
"##MN+00 00 54 0491 01965 5761 443098 349086 200"
"157.828021"
"$GPGGA,195227,2420.3015,N,08140.3404,W,1,9,1.9,17,"
"##MN+00 00 54 0492 01966 5760 442826 349043 200"
"157.828067"
"$GPGGA,195230,2420.3000,N,08140.3400,W,1,8,1.9,17,"
"##MN+00 00 66 0493 01970 5759 442581 348983 200"
"157.828113"
"#increment_net"
"$GPGGA,195234,2420.2981,N,08140.3393,W,1,10,1.6,17"
"##MN+00 00 60 0494 01968 5757 442624 348963 200"
"157.82816"
"$GPGGA,195239,2420.2954,N,08140.3389,W,1,9,1.9,18,"
"##MN-00 00 56 0496 01969 5756 442771 348988 200"
"157.828206"
"$GPGGA,195243,2420.2932,N,08140.3380,W,1,9,1.9,18,"
"##MN-00 00 54 0497 01969 5755 442899 349014 200"
"157.828252"
"$GPGGA,195247,2420.2913,N,08140.3374,W,1,9,1.9,19,"
"##MN-00 00 54 0498 01969 5753 442949 349046 200"
"157.828299"
"$GPGGA,195251,2420.2894,N,08140.3367,W,1,10,1.6,19"
"##MN-00 00 53 0499 01970 5752 442951 349073 200"
"157.828345"
"$GPGGA,195255,2420.2870,N,08140.3360,W,1,9,1.9,19,"
"##MN-00 00 53 0500 01970 5750 442873 349056 200"
"157.828391"
"$GPGGA,195259,2420.2847,N,08140.3350,W,1,8,1.9,19,"
"##MN-00 00 53 0501 01972 5749 442815 349035 200"
"157.828437"
"$GPGGA,195303,2420.2823,N,08140.3342,W,1,8,1.9,19,"
"##MN-00 00 53 0502 01972 5748 442951 349042 200"
"157.828484"
"$GPGGA,195307,2420.2802,N,08140.3336,W,1,9,1.9,19,"
"##MN-00 00 53 0503 01973 5746 443109 349071 200"
"157.82853"
"$GPGGA,195311,2420.2779,N,08140.3327,W,1,8,1.9,19,"
"##MN-00 00 53 0504 01973 5745 443173 349118 200"
"157.828576"
"$GPGGA,195315,2420.2757,N,08140.3319,W,1,8,1.9,19,"
"##MN-00 00 52 0506 01976 5744 443190 349122 200"
"157.828623"
"$GPGGA,195319,2420.2732,N,08140.3311,W,1,8,1.9,18,"
"##MN-00 00 53 0507 01973 5743 443274 349152 200"
"157.828669"
"$GPGGA,195323,2420.2710,N,08140.3302,W,1,8,1.9,18,"
"##MN-00 00 51 0508 01972 5741 443329 349173 200"
"157.828715"
"$GPGGA,195327,2420.2689,N,08140.3294,W,1,9,1.9,18,"
"##MN-00 00 52 0509 01967 5740 443209 349165 200"
"157.828762"
"$GPGGA,195331,2420.2666,N,08140.3284,W,1,9,1.9,18,"
"##MN-00 00 53 0510 01964 5739 443134 349137 200"
"157.828808"
"$GPGGA,195335,2420.2645,N,08140.3275,W,1,9,1.9,18,"
"##MN-00 00 53 0511 01965 5737 443029 349111 200"
"157.828854"
"$GPGGA,195339,2420.2623,N,08140.3264,W,1,9,1.9,17,"
"##MN-00 00 54 0512 01965 5736 443156 349108 200"
"157.8289"
"$GPGGA,195343,2420.2601,N,08140.3255,W,1,8,1.9,17,"
"##MN-00 00 53 0513 01968 5734 443235 349136 200"
"157.828947"
"$GPGGA,195347,2420.2580,N,08140.3247,W,1,8,1.9,17,"
"##MN-00 00 53 0515 01968 5733 443243 349138 200"
"157.828993"
"$GPGGA,195351,2420.2560,N,08140.3240,W,1,9,1.9,17,"
"##MN-00 00 52 0516 01969 5732 443197 349139 200"
"157.829039"
"$GPGGA,195355,2420.2537,N,08140.3231,W,1,9,1.8,16,"
"##MN+00 00 53 0517 01967 5731 443192 349134 200"
"157.829086"
"$GPGGA,195359,2420.2514,N,08140.3221,W,1,8,1.9,16,"
"##MN+00 00 53 0518 01966 5729 443098 349101 200"
"157.829132"
"$GPGGA,195403,2420.2495,N,08140.3215,W,1,9,1.9,16,"
"##MN+00 00 52 0519 01968 5728 443135 349112 200"
"157.829178"
"$GPGGA,195407,2420.2472,N,08140.3205,W,1,8,1.9,16,"
"##MN-00 00 52 0520 01969 5727 443138 349120 199"
"157.829225"
"$GPGGA,195411,2420.2448,N,08140.3196,W,1,8,1.9,15,"
"##MN-00 00 52 0521 01970 5726 443191 349130 200"
"157.829271"
"$GPGGA,195415,2420.2428,N,08140.3189,W,1,9,1.8,15,"
"##MN-00 00 52 0522 01969 5724 443265 349148 200"
"157.829317"
"$GPGGA,195419,2420.2404,N,08140.3180,W,1,9,1.8,15,"
"##MN+00 00 52 0523 01971 5723 443315 349156 200"
"157.829363"
"$GPGGA,195423,2420.2384,N,08140.3173,W,1,9,1.8,15,"
"##MN+00 00 64 0524 01972 5722 443256 349152 200"
"157.82941"
"$GPGGA,195427,2420.2363,N,08140.3165,W,1,9,1.9,15,"
"##MN+00 00 60 0525 01972 5721 443201 349146 200"
"157.829456"
"#increment_net"
"$GPGGA,195431,2420.2343,N,08140.3158,W,1,9,1.8,14,"
"##MN-00 00 56 0527 01979 5720 443215 349139 199"
"157.829502"
"$GPGGA,195435,2420.2318,N,08140.3147,W,1,9,1.8,14,"
"##MN-00 00 52 0528 01984 5718 443379 349170 199"
"157.829549"
"$GPGGA,195439,2420.2295,N,08140.3138,W,1,9,1.9,14,"
"##MN-00 00 52 0529 01988 5717 443448 349187 199"
"157.829595"
"$GPGGA,195443,2420.2272,N,08140.3131,W,1,8,1.9,14,"
"##MN-00 00 51 0531 01994 5715 443603 349185 199"
"157.829653"
"$GPGGA,195447,2420.2248,N,08140.3123,W,1,8,1.8,13,"
"##MN-00 00 49 0532 01998 5714 443785 349216 199"
"157.829699"
"$GPGGA,195451,2420.2227,N,08140.3117,W,1,9,1.8,13,"
"##MN-00 00 49 0533 01999 5713 444049 349327 199"
"157.829745"
"$GPGGA,195455,2420.2204,N,08140.3110,W,1,9,1.8,13,"
"##MN-00 00 48 0535 01997 5712 444154 349374 200"
"157.829792"
"$GPGGA,195459,2420.2188,N,08140.3106,W,1,9,1.8,13,"
"##MN-00 00 48 0536 01995 5710 444212 349435 199"
"157.829838"
"$GPGGA,195503,2420.2158,N,08140.3096,W,1,8,1.8,13,"
"##MN-00 00 49 0537 01990 5709 444216 349431 200"
"157.829884"
"$GPGGA,195507,2420.2132,N,08140.3087,W,1,9,1.8,13,"
"##MN-00 00 49 0539 01987 5708 444137 349419 199"
"157.829931"
"$GPGGA,195511,2420.2107,N,08140.3080,W,1,8,1.8,13,"
"##MN-00 00 47 0540 01984 5707 444061 349404 200"
"157.829977"
"$GPGGA,195515,2420.2087,N,08140.3074,W,1,8,1.9,13,"
"##MN-00 00 48 0542 01980 5705 444051 349403 199"
"157.830023"
"$GPGGA,195519,2420.2063,N,08140.3068,W,1,8,1.9,13,"
"##MN-00 00 49 0543 01976 5704 443975 349393 200"
"157.830069"
"$GPGGA,195523,2420.2038,N,08140.3062,W,1,9,1.8,13,"
"##MN-00 00 48 0544 01974 5703 443829 349366 200"
"157.830116"
"$GPGGA,195527,2420.2007,N,08140.3053,W,1,8,1.9,13,"
"##MN-00 00 50 0546 01967 5702 443600 349298 200"
"157.830162"
"$GPGGA,195531,2420.1982,N,08140.3047,W,1,8,1.9,13,"
"##MN-00 00 51 0547 01963 5701 443539 349269 200"
"157.830208"
"$GPGGA,195535,2420.1956,N,08140.3041,W,1,9,1.9,12,"
"##MN-00 00 49 0549 01961 5700 443425 349226 199"
"157.830255"
"$GPGGA,195539,2420.1931,N,08140.3035,W,1,9,1.8,12,"
"##MN-00 00 50 0550 01956 5698 443292 349187 200"
"157.830301"
"$GPGGA,195543,2420.1908,N,08140.3030,W,1,8,1.9,12,"
"##MN-00 00 50 0552 01950 5697 443186 349162 199"
"157.830347"
"$GPGGA,195547,2420.1882,N,08140.3025,W,1,8,1.9,12,"
"##MN-00 00 51 0553 01944 5696 443005 349107 200"
"157.830394"
"$GPGGA,195551,2420.1858,N,08140.3021,W,1,8,1.9,12,"
"##MN-00 00 50 0554 01939 5694 442820 349085 200"
"157.83044"
"$GPGGA,195555,2420.1832,N,08140.3014,W,1,9,1.8,12,"
"##MN-00 00 51 0556 01938 5693 442629 349062 200"
"157.830486"
"$GPGGA,195559,2420.1806,N,08140.3007,W,1,8,1.9,11,"
"##MN-00 00 51 0557 01932 5692 442499 348966 200"
"157.830532"
"$GPGGA,195603,2420.1781,N,08140.3002,W,1,9,1.8,11,"
"##MN-00 00 51 0559 01927 5691 442327 348919 200"
"157.830579"
"$GPGGA,195607,2420.1757,N,08140.2998,W,1,9,1.8,11,"
"##MN-00 00 53 0560 01924 5690 442210 348876 200"
"157.830625"
"$GPGGA,195611,2420.1735,N,08140.2995,W,1,9,1.8,10,"
"##MN-00 00 52 0562 01919 5689 442020 348830 200"
"157.830671"
"$GPGGA,195615,2420.1711,N,08140.2988,W,1,8,1.9,10,"
"##MN-00 00 52 0563 01913 5687 441905 348786 200"
"157.830718"
"$GPGGA,195619,2420.1686,N,08140.2981,W,1,8,1.9,10,"
"##MN-00 00 54 0565 01909 5686 441779 348747 200"
"157.830764"
"$GPGGA,195623,2420.1659,N,08140.2973,W,1,9,1.8,9,M"
"##MN-00 00 54 0566 01908 5685 441633 348707 200"
"157.83081"
"$GPGGA,195627,2420.1633,N,08140.2967,W,1,8,2.0,9,M"
"##MN-00 00 52 0568 01903 5684 441465 348678 200"
"157.830856"
"$GPGGA,195631,2420.1608,N,08140.2961,W,1,9,1.8,8,M"
"##MN-00 00 54 0569 01899 5683 441335 348616 200"
"157.830903"
"$GPGGA,195635,2420.1586,N,08140.2958,W,1,9,1.8,8,M"
"##MN-00 00 55 0571 01895 5681 441111 348549 200"
"157.830949"
"$GPGGA,195639,2420.1562,N,08140.2953,W,1,9,1.8,8,M"
"##MN-00 00 54 0572 01890 5680 440904 348516 200"
"157.830995"
"$GPGGA,195643,2420.1536,N,08140.2946,W,1,9,1.8,8,M"
"##MN-00 00 54 0574 01886 5679 440593 348405 200"
"157.831042"
"$GPGGA,195647,2420.1508,N,08140.2942,W,1,9,1.8,8,M"
"##MN-00 00 55 0575 01880 5678 440409 348349 200"
"157.831088"
"$GPGGA,195651,2420.1482,N,08140.2935,W,1,9,1.8,8,M"
"##MN-00 00 57 0577 01876 5677 440049 348243 200"
"157.831134"
"$GPGGA,195655,2420.1456,N,08140.2929,W,1,9,1.8,8,M"
"##MN-00 00 54 0578 01872 5676 439819 348146 200"
"157.831181"
"$GPGGA,195659,2420.1431,N,08140.2924,W,1,9,1.8,8,M"
"##MN-00 00 55 0580 01864 5675 439695 348117 200"
"157.831227"
"$GPGGA,195704,2420.1400,N,08140.2918,W,1,9,1.8,8,M"
"##MN-00 00 57 0582 01863 5673 439496 348080 199"
"157.831273"
"$GPGGA,195708,2420.1375,N,08140.2912,W,1,9,1.8,8,M"
"##MN-00 00 54 0583 01862 5673 439194 348002 200"
