" Tow: L2s-A   RVWS/WS1406"
" Date: 06/06/2014"
" Temperature Probe #  2597    Conductivity Probe #  2870"
" Pressure Probe #  109"
" Flow Meter Calibration  4.71 (m/count)  "
"158.005139"
"$GPGGA,000726,2420.6582,N,08135.4726,W,1,10,1.4,15"
"##MN-00 00 25 0084 01863 5394 437287 924103 201"
"158.005185"
"$GPGGA,000733,2420.6618,N,08135.4736,W,1,10,1.4,14"
"##MN-00 00 29 0084 01863 5394 438691 925405 201"
"158.005231"
"$GPGGA,000737,2420.6637,N,08135.4743,W,1,10,1.4,14"
"##MN-00 00 46 0084 01862 5394 438587 925406 201"
"158.005278"
"$GPGGA,000741,2420.6658,N,08135.4747,W,1,10,1.4,14"
"##MN-00 00 51 0085 01863 5394 438494 925406 201"
"158.005324"
"$GPGGA,000745,2420.6678,N,08135.4749,W,1,10,1.4,14"
"##MN-00 00 52 0085 01862 5395 436546 392962 201"
"158.00537"
"$GPGGA,000749,2420.6697,N,08135.4751,W,1,10,1.4,14"
"##MN-00 00 54 0086 01863 5395 435905 346606 201"
"158.005417"
"$GPGGA,000753,2420.6716,N,08135.4751,W,1,10,1.4,14"
"##MN-00 00 54 0087 01863 5396 435886 346805 201"
"158.005463"
"$GPGGA,000757,2420.6733,N,08135.4754,W,1,10,1.4,14"
"##MN-00 00 56 0088 01863 5396 435912 346814 201"
"158.005509"
"$GPGGA,000801,2420.6749,N,08135.4756,W,1,10,1.4,14"
"##MN-00 00 58 0089 01864 5396 435891 346805 201"
"158.005556"
"$GPGGA,000805,2420.6766,N,08135.4758,W,1,10,1.4,14"
"##MN-00 00 57 0090 01865 5397 435909 346800 201"
"158.005602"
"$GPGGA,000809,2420.6783,N,08135.4756,W,1,10,1.4,14"
"##MN-00 00 57 0091 01864 5397 436003 346825 201"
"158.005648"
"$GPGGA,000813,2420.6799,N,08135.4755,W,1,10,1.4,14"
"##MN-00 00 56 0092 01865 5397 435984 346834 201"
"158.005694"
"$GPGGA,000817,2420.6817,N,08135.4754,W,1,10,1.4,14"
"##MN-00 00 57 0094 01866 5397 436076 346854 201"
"158.005741"
"$GPGGA,000821,2420.6834,N,08135.4751,W,1,10,1.4,14"
"##MN-00 00 56 0095 01865 5398 436158 346877 201"
"158.005787"
"$GPGGA,000825,2420.6850,N,08135.4748,W,1,10,1.4,14"
"##MN-00 00 56 0096 01866 5398 436259 346897 201"
"158.005833"
"$GPGGA,000829,2420.6867,N,08135.4746,W,1,10,1.4,14"
"##MN-00 00 56 0097 01865 5398 436122 346890 201"
"158.00588"
"$GPGGA,000833,2420.6882,N,08135.4743,W,1,10,1.4,14"
"##MN-00 00 55 0098 01866 5399 436184 346903 201"
"158.005926"
"$GPGGA,000837,2420.6899,N,08135.4739,W,1,10,1.4,14"
"##MN-00 00 56 0099 01866 5399 436980 347031 201"
"158.005972"
"$GPGGA,000841,2420.6915,N,08135.4736,W,1,10,1.4,14"
"##MN-00 00 55 0100 01865 5399 437617 347219 201"
"158.006019"
"$GPGGA,000845,2420.6931,N,08135.4733,W,1,10,1.4,14"
"##MN-00 00 55 0101 01866 5400 437921 347359 201"
"158.006065"
"$GPGGA,000849,2420.6947,N,08135.4729,W,1,10,1.4,14"
"##MN-00 00 56 0102 01867 5400 438442 347508 201"
"158.006111"
"$GPGGA,000853,2420.6962,N,08135.4725,W,1,10,1.4,14"
"##MN-00 00 57 0103 01869 5400 439316 347691 201"
"158.006157"
"$GPGGA,000857,2420.6979,N,08135.4721,W,1,10,1.4,14"
"##MN-00 00 57 0104 01876 5401 440257 347941 201"
"158.006204"
"$GPGGA,000901,2420.6994,N,08135.4718,W,1,10,1.4,14"
"##MN-00 00 56 0105 01881 5401 441454 348277 201"
"158.00625"
"$GPGGA,000905,2420.7009,N,08135.4715,W,1,10,1.4,13"
"##MN-00 00 55 0105 01884 5401 442304 348546 201"
"158.006296"
"$GPGGA,000909,2420.7025,N,08135.4711,W,1,10,1.4,13"
"##MN-00 00 55 0106 01888 5402 442599 348760 201"
"158.006343"
"$GPGGA,000913,2420.7040,N,08135.4709,W,1,10,1.5,13"
"##MN-00 00 55 0107 01889 5402 442813 348864 201"
"158.006389"
"$GPGGA,000917,2420.7054,N,08135.4710,W,1,10,1.4,13"
"##MN-00 00 56 0108 01896 5402 442917 348932 201"
"158.006435"
"$GPGGA,000921,2420.7069,N,08135.4710,W,1,10,1.4,13"
"##MN-00 00 56 0109 01900 5403 443039 348969 201"
"158.006481"
"$GPGGA,000925,2420.7084,N,08135.4708,W,1,10,1.4,13"
"##MN-00 00 56 0110 01905 5403 443201 349081 201"
"158.006528"
"$GPGGA,000929,2420.7099,N,08135.4706,W,1,10,1.4,13"
"##MN-00 00 55 0111 01912 5403 443267 349141 201"
"158.006574"
"$GPGGA,000933,2420.7114,N,08135.4704,W,1,10,1.4,13"
"##MN-00 00 55 0112 01914 5403 443300 349161 201"
"158.00662"
"$GPGGA,000937,2420.7130,N,08135.4701,W,1,10,1.4,13"
"##MN-00 00 55 0112 01918 5403 443359 349178 201"
"158.006667"
"$GPGGA,000941,2420.7143,N,08135.4697,W,1,10,1.4,13"
"##MN-00 00 55 0113 01922 5404 443450 349182 201"
"158.006713"
"$GPGGA,000945,2420.7156,N,08135.4688,W,1,10,1.4,13"
"##MN-00 00 55 0114 01926 5404 443534 349224 201"
"158.006759"
"$GPGGA,000949,2420.7168,N,08135.4680,W,1,9,1.4,14,"
"##MN-00 00 55 0115 01930 5404 443654 349271 201"
"158.006806"
"$GPGGA,000953,2420.7182,N,08135.4676,W,1,10,1.4,14"
"##MN-00 00 55 0116 01934 5404 443736 349314 201"
"158.006852"
"$GPGGA,000957,2420.7197,N,08135.4673,W,1,9,1.5,15,"
"##MN-00 00 55 0117 01936 5404 443768 349316 201"
"158.006898"
"$GPGGA,001001,2420.7214,N,08135.4672,W,1,10,1.4,15"
"##MN-00 00 56 0118 01940 5405 443794 349340 201"
"158.006944"
"$GPGGA,001005,2420.7229,N,08135.4669,W,1,10,1.4,15"
"##MN-00 00 55 0119 01946 5405 443823 349333 201"
"158.006991"
"$GPGGA,001009,2420.7247,N,08135.4671,W,1,10,1.4,15"
"##MN-00 00 56 0120 01948 5405 443861 349351 201"
"158.007037"
"$GPGGA,001013,2420.7264,N,08135.4668,W,1,10,1.4,16"
"##MN-00 00 56 0121 01952 5405 443889 349381 201"
"158.007083"
"$GPGGA,001017,2420.7280,N,08135.4668,W,1,10,1.4,16"
"##MN-00 00 55 0122 01956 5405 443907 349397 201"
"158.00713"
"$GPGGA,001021,2420.7296,N,08135.4668,W,1,10,1.4,16"
"##MN-00 00 56 0122 01959 5405 443946 349401 201"
"158.007176"
"$GPGGA,001025,2420.7312,N,08135.4670,W,1,10,1.4,16"
"##MN-00 00 56 0123 01961 5406 444004 349410 201"
"158.007222"
"$GPGGA,001029,2420.7329,N,08135.4672,W,1,10,1.4,16"
"##MN-00 00 56 0124 01964 5406 444087 349435 201"
"158.007269"
"$GPGGA,001033,2420.7345,N,08135.4675,W,1,10,1.4,16"
"##MN-00 00 56 0125 01969 5406 444110 349451 201"
"158.007315"
"$GPGGA,001037,2420.7363,N,08135.4678,W,1,10,1.4,16"
"##MN-00 00 56 0126 01970 5406 444128 349471 201"
"158.007361"
"$GPGGA,001041,2420.7380,N,08135.4682,W,1,10,1.4,16"
"##MN-00 00 55 0127 01967 5406 444193 349471 201"
"158.007407"
"$GPGGA,001045,2420.7398,N,08135.4685,W,1,10,1.4,16"
"##MN-00 00 55 0129 01967 5406 444201 349481 201"
"158.007454"
"$GPGGA,001049,2420.7417,N,08135.4691,W,1,9,1.8,16,"
"##MN-00 00 56 0130 01966 5406 444167 349473 201"
"158.0075"
"$GPGGA,001053,2420.7437,N,08135.4697,W,1,9,1.8,15,"
"##MN-00 00 57 0131 01964 5406 444100 349475 201"
"158.007546"
"$GPGGA,001057,2420.7452,N,08135.4697,W,1,9,1.8,15,"
"##MN-00 00 56 0132 01962 5406 444051 349473 201"
"158.007593"
"$GPGGA,001101,2420.7467,N,08135.4700,W,1,9,1.8,15,"
"##MN-00 00 56 0133 01962 5406 444030 349466 201"
"158.007639"
"$GPGGA,001106,2420.7489,N,08135.4705,W,1,9,1.8,15,"
"##MN-00 00 57 0134 01962 5406 444012 349462 201"
"158.007685"
"$GPGGA,001109,2420.7500,N,08135.4709,W,1,10,1.4,15"
"##MN-00 00 57 0135 01958 5406 443991 349453 201"
"158.007731"
"$GPGGA,001113,2420.7520,N,08135.4718,W,1,8,2.1,14,"
"##MN-00 00 57 0136 01961 5407 443976 349452 201"
"158.007778"
"$GPGGA,001118,2420.7539,N,08135.4714,W,1,9,1.8,14,"
"##MN-00 00 57 0137 01962 5406 443967 349447 201"
"158.007824"
"$GPGGA,001121,2420.7551,N,08135.4715,W,1,9,1.8,14,"
"##MN-00 00 58 0138 01963 5406 443965 349440 201"
"158.00787"
"$GPGGA,001126,2420.7572,N,08135.4718,W,1,10,1.4,14"
"##MN-00 00 58 0139 01963 5406 443974 349441 201"
"158.007917"
"$GPGGA,001129,2420.7583,N,08135.4719,W,1,10,1.4,14"
"##MN-00 00 58 0141 01967 5406 443990 349442 201"
"158.007963"
"$GPGGA,001134,2420.7600,N,08135.4722,W,1,10,1.4,15"
"##MN-00 00 58 0142 01965 5406 444014 349442 201"
"158.008009"
"$GPGGA,001138,2420.7615,N,08135.4725,W,1,10,1.4,15"
"##MN-00 00 58 0143 01970 5406 444028 349447 201"
"158.008056"
"$GPGGA,001142,2420.7630,N,08135.4727,W,1,10,1.4,15"
"##MN-00 00 58 0144 01970 5406 444047 349451 201"
"158.008102"
"$GPGGA,001146,2420.7647,N,08135.4732,W,1,10,1.4,15"
"##MN-00 00 58 0145 01970 5406 444071 349450 201"
"158.008148"
"$GPGGA,001150,2420.7662,N,08135.4736,W,1,10,1.4,16"
"##MN-00 00 58 0146 01971 5406 444096 349456 201"
"158.008194"
"$GPGGA,001154,2420.7677,N,08135.4738,W,1,10,1.4,16"
"##MN-00 00 57 0147 01972 5406 444117 349469 201"
"158.008241"
"$GPGGA,001158,2420.7694,N,08135.4741,W,1,10,1.4,16"
"##MN-00 00 58 0148 01972 5406 444116 349479 201"
"158.008299"
"$GPGGA,001202,2420.7709,N,08135.4743,W,1,10,1.4,16"
"##MN-00 00 58 0149 01970 5406 444123 349481 201"
"158.008345"
"$GPGGA,001206,2420.7726,N,08135.4747,W,1,10,1.4,17"
"##MN-00 00 58 0150 01970 5406 444136 349479 201"
"158.008391"
"$GPGGA,001210,2420.7742,N,08135.4751,W,1,10,1.4,17"
"##MN-00 00 58 0152 01970 5406 444138 349480 201"
"158.008438"
"$GPGGA,001214,2420.7760,N,08135.4752,W,1,10,1.8,17"
"##MN-00 00 58 0153 01972 5406 444147 349485 201"
"158.008484"
"$GPGGA,001218,2420.7778,N,08135.4752,W,1,10,1.4,17"
"##MN+00 00 57 0154 01969 5406 444141 349487 201"
"158.00853"
"$GPGGA,001222,2420.7796,N,08135.4754,W,1,10,1.4,16"
"##MN+00 00 58 0155 01969 5406 444101 349483 201"
"158.008576"
"$GPGGA,001226,2420.7813,N,08135.4755,W,1,10,1.4,16"
"##MN+00 00 58 0156 01968 5406 444120 349481 200"
"158.008623"
"$GPGGA,001230,2420.7829,N,08135.4756,W,1,10,1.4,16"
"##MN-00 00 57 0157 01970 5405 444168 349484 201"
"158.008669"
"$GPGGA,001234,2420.7847,N,08135.4759,W,1,10,1.4,16"
"##MN+00 00 58 0158 01969 5405 444234 349488 201"
"158.008715"
"$GPGGA,001238,2420.7864,N,08135.4762,W,1,10,1.4,16"
"##MN+00 00 57 0159 01965 5405 444250 349513 200"
"158.008762"
"$GPGGA,001242,2420.7880,N,08135.4765,W,1,10,1.4,15"
"##MN+00 00 67 0160 01969 5405 444254 349517 200"
"158.008808"
"$GPGGA,001246,2420.7898,N,08135.4769,W,1,10,1.4,15"
"##MN-00 00 61 0162 01968 5406 444318 349530 200"
"158.008854"
"#increment_net"
"$GPGGA,001250,2420.7915,N,08135.4772,W,1,10,1.4,15"
"##MN-00 00 57 0163 01964 5405 444373 349545 200"
"158.0089"
"$GPGGA,001254,2420.7933,N,08135.4774,W,1,10,1.4,15"
"##MN-00 00 57 0164 01964 5405 444357 349547 200"
"158.008947"
"$GPGGA,001258,2420.7948,N,08135.4777,W,1,10,1.4,15"
"##MN-00 00 57 0165 01964 5405 444346 349550 200"
"158.008993"
"$GPGGA,001302,2420.7966,N,08135.4781,W,1,10,1.4,15"
"##MN-00 00 58 0166 01964 5404 444310 349553 200"
"158.009039"
"$GPGGA,001306,2420.7984,N,08135.4785,W,1,10,1.4,14"
"##MN-00 00 57 0167 01962 5404 444361 349553 200"
"158.009086"
"$GPGGA,001310,2420.8001,N,08135.4790,W,1,10,1.4,14"
"##MN-00 00 59 0168 01963 5404 444441 349562 200"
"158.009132"
"$GPGGA,001314,2420.8017,N,08135.4791,W,1,10,1.4,14"
"##MN-00 00 57 0169 01964 5404 444481 349573 200"
"158.009178"
"$GPGGA,001318,2420.8035,N,08135.4794,W,1,10,1.4,14"
"##MN-00 00 58 0170 01964 5404 444475 349585 200"
"158.009225"
"$GPGGA,001322,2420.8052,N,08135.4797,W,1,10,1.5,14"
"##MN-00 00 58 0171 01967 5404 444452 349585 200"
"158.009271"
"$GPGGA,001326,2420.8067,N,08135.4805,W,1,10,1.4,14"
"##MN-00 00 58 0172 01966 5404 444444 349590 200"
"158.009317"
"$GPGGA,001330,2420.8082,N,08135.4810,W,1,10,1.4,14"
"##MN-00 00 58 0173 01969 5403 444453 349591 200"
"158.009363"
"$GPGGA,001334,2420.8096,N,08135.4812,W,1,10,1.4,14"
"##MN-00 00 59 0175 01969 5403 444466 349594 200"
"158.00941"
"$GPGGA,001338,2420.8117,N,08135.4816,W,1,10,1.4,14"
"##MN-00 00 58 0176 01970 5403 444481 349597 200"
"158.009456"
"$GPGGA,001342,2420.8134,N,08135.4819,W,1,10,1.4,14"
"##MN-00 00 58 0177 01972 5403 444500 349600 200"
"158.009502"
"$GPGGA,001346,2420.8152,N,08135.4823,W,1,9,1.7,14,"
"##MN-00 00 58 0178 01972 5403 444551 349600 200"
"158.009549"
"$GPGGA,001350,2420.8165,N,08135.4820,W,1,10,1.4,14"
"##MN-00 00 58 0179 01972 5403 444615 349613 200"
"158.009595"
"$GPGGA,001354,2420.8182,N,08135.4821,W,1,10,1.4,14"
"##MN-00 00 59 0180 01970 5402 444679 349638 200"
"158.009641"
"$GPGGA,001358,2420.8201,N,08135.4827,W,1,10,1.4,14"
"##MN-00 00 58 0181 01972 5402 444718 349659 200"
"158.009688"
"$GPGGA,001402,2420.8219,N,08135.4830,W,1,10,1.4,14"
"##MN-00 00 59 0182 01971 5402 444760 349668 200"
"158.009734"
"$GPGGA,001406,2420.8237,N,08135.4834,W,1,10,1.4,14"
"##MN-00 00 59 0183 01970 5402 444756 349668 200"
"158.00978"
"$GPGGA,001410,2420.8255,N,08135.4837,W,1,10,1.4,15"
"##MN-00 00 59 0185 01970 5402 444747 349673 200"
"158.009826"
"$GPGGA,001414,2420.8273,N,08135.4837,W,1,10,1.4,15"
"##MN-00 00 60 0186 01970 5402 444745 349673 200"
"158.009873"
"$GPGGA,001418,2420.8297,N,08135.4838,W,1,10,1.4,15"
"##MN-00 00 59 0187 01970 5401 444744 349680 200"
"158.009919"
"$GPGGA,001422,2420.8319,N,08135.4838,W,1,10,1.4,16"
"##MN-00 00 58 0188 01971 5401 444738 349680 200"
"158.009965"
"$GPGGA,001426,2420.8341,N,08135.4837,W,1,10,1.4,16"
"##MN+00 00 58 0189 01972 5401 444752 349688 200"
"158.010012"
"$GPGGA,001430,2420.8363,N,08135.4837,W,1,10,1.4,16"
"##MN+00 00 58 0190 01971 5401 444784 349694 200"
"158.010058"
"$GPGGA,001434,2420.8384,N,08135.4837,W,1,10,1.4,16"
"##MN+00 00 58 0191 01972 5400 444834 349693 200"
"158.010104"
"$GPGGA,001438,2420.8405,N,08135.4835,W,1,9,1.4,16,"
"##MN-00 00 58 0192 01973 5400 444886 349708 200"
"158.01015"
"$GPGGA,001442,2420.8425,N,08135.4834,W,1,10,1.4,16"
"##MN-00 00 59 0193 01970 5400 444934 349726 200"
"158.010197"
"$GPGGA,001446,2420.8445,N,08135.4834,W,1,10,1.4,16"
"##MN-00 00 58 0195 01972 5400 444967 349737 200"
"158.010243"
"$GPGGA,001450,2420.8465,N,08135.4834,W,1,10,1.4,16"
"##MN+00 00 58 0196 01972 5400 445013 349732 200"
"158.010289"
"$GPGGA,001454,2420.8485,N,08135.4834,W,1,10,1.4,16"
"##MN+00 00 58 0197 01970 5399 445049 349761 200"
"158.010336"
"$GPGGA,001458,2420.8504,N,08135.4833,W,1,10,1.4,16"
"##MN+00 00 70 0198 01974 5399 445149 349813 200"
"158.010382"
"#increment_net"
"$GPGGA,001502,2420.8525,N,08135.4834,W,1,10,1.4,16"
"##MN-00 00 62 0199 01975 5398 445258 349850 200"
"158.010428"
"$GPGGA,001506,2420.8544,N,08135.4834,W,1,8,1.6,16,"
"##MN-00 00 60 0200 01974 5398 445258 349869 200"
"158.010475"
"$GPGGA,001510,2420.8565,N,08135.4832,W,1,9,1.6,16,"
"##MN-00 00 58 0201 01975 5398 445173 349858 200"
"158.010521"
"$GPGGA,001514,2420.8582,N,08135.4831,W,1,9,1.6,16,"
"##MN-00 00 57 0202 01971 5398 445100 349851 200"
"158.010567"
"$GPGGA,001518,2420.8601,N,08135.4830,W,1,9,1.6,16,"
"##MN-00 00 57 0203 01971 5398 445066 349841 200"
"158.010613"
"$GPGGA,001522,2420.8620,N,08135.4830,W,1,9,1.6,16,"
"##MN-00 00 57 0205 01970 5398 445038 349822 200"
"158.01066"
"$GPGGA,001526,2420.8638,N,08135.4828,W,1,9,1.6,16,"
"##MN-00 00 58 0206 01970 5397 444990 349812 200"
"158.010706"
"$GPGGA,001530,2420.8658,N,08135.4828,W,1,9,1.6,17,"
"##MN-00 00 58 0207 01971 5397 444968 349811 200"
"158.010752"
"$GPGGA,001534,2420.8678,N,08135.4830,W,1,9,1.6,17,"
"##MN-00 00 57 0208 01971 5397 444943 349807 200"
"158.010799"
"$GPGGA,001538,2420.8698,N,08135.4830,W,1,9,1.6,17,"
"##MN-00 00 57 0209 01970 5397 444912 349806 200"
"158.010845"
"$GPGGA,001542,2420.8717,N,08135.4831,W,1,9,1.6,17,"
"##MN-00 00 57 0210 01968 5397 444861 349802 200"
"158.010891"
"$GPGGA,001546,2420.8739,N,08135.4832,W,1,9,1.6,17,"
"##MN-00 00 57 0212 01967 5396 444762 349801 200"
"158.010937"
"$GPGGA,001551,2420.8764,N,08135.4832,W,1,9,1.6,17,"
"##MN-00 00 58 0213 01965 5397 444648 349776 200"
"158.010984"
"$GPGGA,001555,2420.8786,N,08135.4834,W,1,9,1.6,17,"
"##MN-00 00 58 0214 01965 5396 444647 349722 200"
"158.01103"
"$GPGGA,001559,2420.8806,N,08135.4834,W,1,9,1.6,17,"
"##MN-00 00 58 0215 01967 5396 444687 349724 200"
"158.011076"
"$GPGGA,001602,2420.8822,N,08135.4834,W,1,9,1.6,17,"
"##MN-00 00 58 0216 01967 5395 444648 349723 200"
"158.011123"
"$GPGGA,001607,2420.8848,N,08135.4834,W,1,9,1.6,17,"
"##MN-00 00 58 0217 01967 5395 444624 349694 200"
"158.011169"
"$GPGGA,001611,2420.8868,N,08135.4835,W,1,9,1.6,17,"
"##MN-00 00 59 0219 01967 5395 444659 349691 200"
"158.011215"
"$GPGGA,001615,2420.8889,N,08135.4836,W,1,9,1.6,17,"
"##MN-00 00 58 0220 01965 5395 444647 349689 200"
"158.011262"
"$GPGGA,001619,2420.8909,N,08135.4837,W,1,9,1.6,17,"
"##MN-00 00 58 0221 01968 5395 444654 349688 200"
"158.011308"
"$GPGGA,001623,2420.8931,N,08135.4838,W,1,9,1.6,16,"
"##MN-00 00 60 0222 01965 5394 444692 349693 200"
"158.011354"
"$GPGGA,001627,2420.8951,N,08135.4838,W,1,9,1.6,16,"
"##MN-00 00 58 0223 01963 5394 444729 349703 200"
"158.0114"
"$GPGGA,001631,2420.8970,N,08135.4839,W,1,9,1.6,16,"
"##MN-00 00 58 0224 01966 5394 444723 349706 200"
"158.011447"
"$GPGGA,001635,2420.8991,N,08135.4839,W,1,9,1.6,16,"
"##MN+00 00 59 0226 01965 5394 444721 349706 200"
"158.011493"
"$GPGGA,001639,2420.9010,N,08135.4839,W,1,9,1.6,16,"
"##MN+00 00 59 0227 01964 5393 444734 349707 200"
"158.011551"
"$GPGGA,001643,2420.9031,N,08135.4839,W,1,9,1.6,15,"
"##MN+00 00 58 0228 01963 5393 444767 349711 200"
"158.011597"
"$GPGGA,001647,2420.9050,N,08135.4840,W,1,9,1.6,15,"
"##MN-00 00 58 0229 01964 5393 444793 349718 200"
"158.011644"
"$GPGGA,001651,2420.9071,N,08135.4840,W,1,9,1.6,15,"
"##MN-00 00 59 0230 01964 5393 444818 349722 200"
"158.01169"
"$GPGGA,001655,2420.9092,N,08135.4840,W,1,9,1.6,15,"
"##MN-00 00 59 0231 01966 5392 444844 349733 200"
"158.011736"
"$GPGGA,001659,2420.9111,N,08135.4842,W,1,9,1.6,15,"
"##MN+00 00 59 0232 01963 5392 444885 349740 200"
"158.011782"
"$GPGGA,001703,2420.9133,N,08135.4842,W,1,9,1.6,15,"
"##MN+00 00 59 0234 01964 5392 444913 349763 200"
"158.011829"
"$GPGGA,001707,2420.9153,N,08135.4842,W,1,9,1.6,15,"
"##MN+00 00 72 0235 01967 5391 444937 349777 200"
"158.011875"
"#increment_net"
"$GPGGA,001711,2420.9173,N,08135.4843,W,1,9,1.6,15,"
"##MN-00 00 64 0236 01968 5391 444989 349786 200"
"158.011921"
"$GPGGA,001715,2420.9194,N,08135.4844,W,1,9,1.6,15,"
"##MN-00 00 60 0237 01968 5391 445019 349792 200"
"158.011968"
"$GPGGA,001719,2420.9216,N,08135.4844,W,1,9,1.6,15,"
"##MN-00 00 58 0238 01967 5391 444981 349804 200"
"158.012014"
"$GPGGA,001723,2420.9237,N,08135.4845,W,1,9,1.6,15,"
"##MN-00 00 57 0239 01965 5390 444846 349801 200"
"158.01206"
"$GPGGA,001727,2420.9258,N,08135.4846,W,1,9,1.6,15,"
"##MN-00 00 57 0241 01964 5390 444721 349796 200"
"158.012106"
"$GPGGA,001731,2420.9278,N,08135.4848,W,1,9,1.6,15,"
"##MN-00 00 57 0242 01967 5390 444694 349779 200"
"158.012153"
"$GPGGA,001735,2420.9299,N,08135.4849,W,1,9,1.6,14,"
"##MN-00 00 57 0243 01962 5390 444689 349754 200"
"158.012199"
"$GPGGA,001739,2420.9320,N,08135.4851,W,1,9,1.6,14,"
"##MN-00 00 57 0244 01962 5389 444693 349737 200"
"158.012245"
"$GPGGA,001743,2420.9342,N,08135.4852,W,1,8,1.6,14,"
"##MN-00 00 58 0245 01964 5389 444662 349731 200"
"158.012292"
"$GPGGA,001747,2420.9363,N,08135.4852,W,1,9,1.6,14,"
"##MN-00 00 58 0247 01964 5389 444602 349717 200"
"158.012338"
"$GPGGA,001751,2420.9385,N,08135.4853,W,1,9,1.6,14,"
"##MN-00 00 58 0248 01963 5389 444536 349699 200"
"158.012384"
"$GPGGA,001755,2420.9407,N,08135.4853,W,1,9,1.6,14,"
"##MN-00 00 58 0249 01964 5389 444453 349683 200"
"158.012431"
"$GPGGA,001759,2420.9429,N,08135.4855,W,1,9,1.6,14,"
"##MN-00 00 58 0250 01966 5388 444396 349670 200"
"158.012477"
"$GPGGA,001803,2420.9450,N,08135.4855,W,1,9,1.6,14,"
"##MN-00 00 58 0251 01968 5388 444407 349652 200"
"158.012523"
"$GPGGA,001807,2420.9471,N,08135.4857,W,1,9,1.6,14,"
"##MN-00 00 58 0252 01968 5388 444416 349637 200"
"158.012569"
"$GPGGA,001811,2420.9491,N,08135.4857,W,1,9,1.6,14,"
"##MN-00 00 58 0254 01972 5387 444491 349646 200"
"158.012616"
"$GPGGA,001815,2420.9512,N,08135.4858,W,1,9,1.6,14,"
"##MN-00 00 57 0255 01974 5387 444572 349656 200"
"158.012662"
"$GPGGA,001819,2420.9533,N,08135.4860,W,1,9,1.6,14,"
"##MN-00 00 57 0256 01974 5387 444660 349684 200"
"158.012708"
"$GPGGA,001823,2420.9552,N,08135.4861,W,1,9,1.6,14,"
"##MN-00 00 57 0257 01970 5387 444760 349715 200"
"158.012755"
"$GPGGA,001827,2420.9573,N,08135.4862,W,1,9,1.6,14,"
"##MN-00 00 58 0258 01972 5386 444807 349751 200"
"158.012801"
"$GPGGA,001831,2420.9592,N,08135.4863,W,1,9,1.6,14,"
"##MN-00 00 57 0259 01972 5386 444792 349749 200"
"158.012847"
"$GPGGA,001835,2420.9613,N,08135.4864,W,1,9,1.6,14,"
"##MN-00 00 58 0261 01971 5386 444762 349747 200"
"158.012894"
"$GPGGA,001839,2420.9634,N,08135.4866,W,1,9,1.6,14,"
"##MN+00 00 58 0262 01970 5386 444697 349734 200"
"158.01294"
"$GPGGA,001843,2420.9653,N,08135.4867,W,1,9,1.6,14,"
"##MN+00 00 58 0263 01973 5386 444647 349724 200"
"158.012986"
"$GPGGA,001847,2420.9673,N,08135.4867,W,1,9,1.6,14,"
"##MN+00 00 58 0264 01970 5385 444620 349714 200"
"158.013032"
"$GPGGA,001851,2420.9693,N,08135.4868,W,1,8,1.6,14,"
"##MN-00 00 58 0265 01971 5385 444623 349708 200"
"158.013079"
"$GPGGA,001855,2420.9714,N,08135.4868,W,1,9,1.6,14,"
"##MN-00 00 58 0267 01971 5385 444632 349706 200"
"158.013125"
"$GPGGA,001859,2420.9735,N,08135.4870,W,1,9,1.6,14,"
"##MN-00 00 58 0268 01971 5385 444659 349708 200"
"158.013171"
"$GPGGA,001903,2420.9754,N,08135.4870,W,1,9,1.6,14,"
"##MN+00 00 58 0269 01971 5384 444719 349713 200"
"158.013218"
"$GPGGA,001907,2420.9776,N,08135.4871,W,1,9,1.6,14,"
"##MN+00 00 58 0270 01972 5384 444781 349727 200"
"158.013264"
"$GPGGA,001911,2420.9797,N,08135.4871,W,1,9,1.6,14,"
"##MN+00 00 69 0271 01972 5384 444882 349767 200"
"158.01331"
"#increment_net"
"$GPGGA,001915,2420.9818,N,08135.4874,W,1,9,1.6,14,"
"##MN-00 00 67 0273 01974 5384 444943 349787 200"
"158.013356"
"$GPGGA,001919,2420.9837,N,08135.4874,W,1,9,1.6,14,"
"##MN-00 00 66 0274 01976 5383 444942 349792 200"
"158.013403"
"$GPGGA,001923,2420.9858,N,08135.4875,W,1,9,1.6,14,"
"##MN-00 00 64 0275 01976 5384 444955 349796 200"
"158.013449"
"$GPGGA,001927,2420.9879,N,08135.4877,W,1,9,1.6,14,"
"##MN-00 00 64 0276 01977 5384 444967 349814 200"
"158.013495"
"$GPGGA,001931,2420.9899,N,08135.4879,W,1,9,1.6,14,"
"##MN-00 00 64 0276 01980 5383 444987 349826 200"
"158.013542"
"$GPGGA,001935,2420.9919,N,08135.4881,W,1,9,1.6,14,"
"##MN-00 00 65 0277 01978 5383 445037 349844 200"
"158.013588"
"$GPGGA,001939,2420.9938,N,08135.4881,W,1,9,1.6,14,"
"##MN-00 00 64 0278 01976 5382 445089 349860 200"
"158.013634"
"$GPGGA,001943,2420.9957,N,08135.4884,W,1,9,1.6,14,"
"##MN-00 00 64 0279 01978 5382 445138 349880 200"
"158.013681"
"$GPGGA,001947,2420.9977,N,08135.4884,W,1,9,1.6,14,"
"##MN-00 00 64 0280 01976 5382 445184 349894 200"
"158.013727"
"$GPGGA,001951,2420.9996,N,08135.4886,W,1,9,1.6,14,"
"##MN-00 00 64 0281 01978 5381 445214 349906 200"
"158.013773"
"$GPGGA,001955,2421.0017,N,08135.4888,W,1,9,1.6,14,"
"##MN-00 00 65 0282 01979 5381 445228 349911 200"
"158.013819"
"$GPGGA,001959,2421.0038,N,08135.4891,W,1,9,1.6,14,"
"##MN-00 00 65 0283 01977 5381 445229 349910 200"
"158.013866"
"$GPGGA,002003,2421.0057,N,08135.4891,W,1,9,1.6,14,"
"##MN-00 00 65 0284 01977 5381 445197 349905 200"
"158.013912"
"$GPGGA,002007,2421.0076,N,08135.4893,W,1,9,1.6,14,"
"##MN-00 00 64 0285 01976 5381 445104 349872 200"
"158.013958"
"$GPGGA,002011,2421.0094,N,08135.4895,W,1,8,1.6,14,"
"##MN-00 00 64 0286 01978 5380 445034 349840 200"
"158.014005"
"$GPGGA,002015,2421.0118,N,08135.4895,W,1,9,1.6,14,"
"##MN-00 00 65 0287 01978 5380 444966 349818 200"
"158.014051"
"$GPGGA,002019,2421.0137,N,08135.4896,W,1,9,1.6,14,"
"##MN-00 00 64 0287 01979 5380 444930 349798 200"
"158.014097"
"$GPGGA,002024,2421.0163,N,08135.4899,W,1,9,1.6,14,"
"##MN-00 00 65 0288 01976 5380 444915 349792 200"
"158.014144"
"$GPGGA,002027,2421.0179,N,08135.4899,W,1,9,1.6,14,"
"##MN-00 00 66 0289 01979 5379 444917 349792 200"
"158.01419"
"$GPGGA,002031,2421.0201,N,08135.4900,W,1,9,1.6,14,"
"##MN-00 00 64 0290 01978 5379 444925 349790 200"
"158.014236"
"$GPGGA,002035,2421.0223,N,08135.4902,W,1,9,1.6,14,"
"##MN-00 00 64 0291 01977 5379 444943 349791 200"
"158.014282"
"$GPGGA,002039,2421.0246,N,08135.4904,W,1,9,1.6,14,"
"##MN-00 00 65 0292 01978 5379 444951 349790 200"
"158.014329"
"$GPGGA,002044,2421.0271,N,08135.4907,W,1,9,1.6,14,"
"##MN-00 00 64 0293 01978 5378 444956 349789 200"
"158.014375"
"$GPGGA,002048,2421.0292,N,08135.4910,W,1,9,1.6,14,"
"##MN-00 00 64 0294 01977 5378 444960 349790 200"
"158.014421"
"$GPGGA,002052,2421.0311,N,08135.4913,W,1,9,1.6,14,"
"##MN-00 00 64 0295 01977 5378 444963 349791 200"
"158.014468"
"$GPGGA,002056,2421.0332,N,08135.4913,W,1,8,1.6,14,"
"##MN-00 00 66 0296 01975 5377 444974 349794 200"
"158.014514"
"$GPGGA,002100,2421.0351,N,08135.4915,W,1,9,1.6,14,"
"##MN-00 00 64 0297 01978 5377 444990 349797 200"
"158.01456"
"$GPGGA,002104,2421.0372,N,08135.4917,W,1,9,1.6,14,"
"##MN-00 00 65 0298 01976 5377 444995 349799 200"
"158.014606"
"$GPGGA,002108,2421.0392,N,08135.4917,W,1,9,1.6,14,"
"##MN-00 00 64 0299 01976 5377 445001 349802 200"
"158.014653"
"$GPGGA,002112,2421.0412,N,08135.4920,W,1,9,1.6,14,"
"##MN-00 00 64 0300 01977 5377 444999 349800 200"
"158.014699"
"$GPGGA,002116,2421.0433,N,08135.4920,W,1,9,1.6,14,"
"##MN-00 00 64 0301 01977 5376 444972 349794 200"
"158.014745"
"$GPGGA,002120,2421.0455,N,08135.4921,W,1,9,1.6,14,"
"##MN-00 00 64 0302 01977 5376 444962 349793 200"
"158.014803"
"$GPGGA,002124,2421.0477,N,08135.4923,W,1,9,1.6,14,"
"##MN+00 00 64 0303 01979 5375 444969 349795 200"
"158.01485"
"$GPGGA,002128,2421.0499,N,08135.4923,W,1,9,1.6,14,"
"##MN+00 00 64 0304 01977 5375 444982 349797 199"
"158.014896"
"$GPGGA,002132,2421.0520,N,08135.4924,W,1,9,1.6,14,"
"##MN+00 00 64 0305 01978 5375 444988 349798 200"
"158.014942"
"$GPGGA,002136,2421.0542,N,08135.4924,W,1,9,1.6,14,"
"##MN-00 00 65 0306 01979 5375 444992 349799 200"
"158.014988"
"$GPGGA,002140,2421.0564,N,08135.4924,W,1,9,1.6,14,"
"##MN-00 00 64 0307 01976 5375 444994 349802 200"
"158.015035"
"$GPGGA,002144,2421.0585,N,08135.4922,W,1,9,1.6,14,"
"##MN-00 00 64 0308 01976 5374 444986 349799 200"
"158.015081"
"$GPGGA,002148,2421.0609,N,08135.4921,W,1,9,1.6,14,"
"##MN-00 00 64 0309 01978 5374 444982 349796 200"
"158.015127"
"$GPGGA,002152,2421.0625,N,08135.4921,W,1,9,1.6,14,"
"##MN-00 00 66 0310 01977 5374 444978 349793 200"
"158.015174"
"$GPGGA,002156,2421.0650,N,08135.4920,W,1,8,1.7,14,"
"##MN-00 00 64 0311 01978 5374 444979 349793 200"
"158.01522"
"$GPGGA,002200,2421.0675,N,08135.4921,W,1,9,1.6,14,"
"##MN+00 00 64 0312 01978 5374 444989 349795 200"
"158.015266"
"$GPGGA,002204,2421.0692,N,08135.4922,W,1,9,1.6,14,"
"##MN+00 00 65 0312 01978 5373 444996 349795 200"
"158.015313"
"$GPGGA,002208,2421.0721,N,08135.4923,W,1,9,1.6,14,"
"##MN+00 00 71 0313 01981 5373 444990 349793 200"
"158.015359"
"#increment_net"
"$GPGGA,002212,2421.0743,N,08135.4923,W,1,9,1.6,15,"
"##MN-00 00 68 0315 01980 5372 444969 349788 199"
"158.015405"
"$GPGGA,002216,2421.0765,N,08135.4924,W,1,9,1.6,15,"
"##MN-00 00 63 0316 01986 5371 444954 349783 199"
"158.015451"
"$GPGGA,002220,2421.0787,N,08135.4924,W,1,9,1.6,15,"
"##MN-00 00 62 0318 01991 5371 445021 349789 199"
"158.015498"
"$GPGGA,002224,2421.0809,N,08135.4925,W,1,9,1.6,15,"
"##MN-00 00 61 0319 01998 5370 445096 349803 199"
"158.015544"
"$GPGGA,002228,2421.0833,N,08135.4928,W,1,9,1.6,15,"
"##MN-00 00 60 0321 02003 5370 445142 349817 199"
"158.01559"
"$GPGGA,002232,2421.0856,N,08135.4931,W,1,9,1.6,15,"
"##MN-00 00 60 0322 02005 5370 445169 349825 199"
"158.015637"
"$GPGGA,002236,2421.0880,N,08135.4932,W,1,9,1.6,16,"
"##MN-00 00 59 0323 02008 5370 445190 349839 199"
"158.015683"
"$GPGGA,002240,2421.0903,N,08135.4936,W,1,9,1.6,16,"
"##MN-00 00 58 0325 02008 5369 445208 349845 199"
"158.015729"
"$GPGGA,002244,2421.0925,N,08135.4939,W,1,9,1.6,16,"
"##MN-00 00 58 0326 02011 5369 445251 349849 199"
"158.015775"
"$GPGGA,002248,2421.0949,N,08135.4942,W,1,9,1.6,16,"
"##MN-00 00 59 0328 02007 5369 445278 349863 199"
"158.015822"
"$GPGGA,002252,2421.0972,N,08135.4946,W,1,9,1.6,16,"
"##MN-00 00 60 0329 02002 5369 445291 349862 199"
"158.015868"
"$GPGGA,002256,2421.0996,N,08135.4948,W,1,9,1.6,16,"
"##MN-00 00 58 0331 01999 5369 445287 349868 199"
"158.015914"
"$GPGGA,002300,2421.1022,N,08135.4953,W,1,9,1.6,16,"
"##MN-00 00 58 0333 01993 5369 445265 349864 199"
"158.015961"
"$GPGGA,002304,2421.1048,N,08135.4957,W,1,9,1.6,15,"
"##MN-00 00 59 0334 01990 5368 445209 349854 199"
"158.016007"
"$GPGGA,002308,2421.1073,N,08135.4961,W,1,9,1.6,15,"
"##MN-00 00 58 0336 01986 5368 445147 349839 199"
"158.016053"
"$GPGGA,002312,2421.1098,N,08135.4964,W,1,9,1.6,15,"
"##MN-00 00 58 0338 01981 5368 445089 349821 199"
"158.0161"
"$GPGGA,002316,2421.1126,N,08135.4967,W,1,9,1.6,15,"
"##MN-00 00 57 0339 01978 5368 445063 349816 199"
"158.016146"
"$GPGGA,002320,2421.1149,N,08135.4970,W,1,9,1.7,15,"
"##MN-00 00 57 0341 01973 5368 445045 349817 199"
"158.016192"
"$GPGGA,002324,2421.1176,N,08135.4973,W,1,8,1.6,15,"
"##MN-00 00 58 0343 01969 5368 444975 349798 199"
"158.016238"
"$GPGGA,002328,2421.1199,N,08135.4976,W,1,8,1.6,15,"
"##MN-00 00 58 0344 01967 5367 444917 349791 199"
"158.016285"
"$GPGGA,002332,2421.1225,N,08135.4980,W,1,9,1.6,15,"
"##MN-00 00 58 0346 01960 5367 444881 349789 199"
"158.016331"
"$GPGGA,002336,2421.1249,N,08135.4985,W,1,9,1.6,15,"
"##MN-00 00 57 0347 01956 5367 444789 349750 199"
"158.016377"
"$GPGGA,002340,2421.1272,N,08135.4987,W,1,9,1.6,16,"
"##MN-00 00 57 0349 01952 5367 444665 349715 199"
"158.016424"
"$GPGGA,002344,2421.1297,N,08135.4989,W,1,9,1.6,16,"
"##MN-00 00 59 0350 01947 5367 444596 349697 199"
"158.01647"
"$GPGGA,002348,2421.1319,N,08135.4993,W,1,9,1.6,16,"
"##MN-00 00 59 0352 01944 5367 444548 349687 199"
"158.016516"
"$GPGGA,002352,2421.1343,N,08135.4994,W,1,8,1.6,16,"
"##MN-00 00 58 0354 01936 5367 444526 349667 199"
"158.016563"
"$GPGGA,002356,2421.1366,N,08135.4997,W,1,8,1.6,16,"
"##MN-00 00 57 0355 01931 5366 444492 349650 199"
"158.016609"
"$GPGGA,002400,2421.1391,N,08135.5000,W,1,9,1.6,16,"
"##MN-00 00 57 0357 01927 5366 444450 349634 199"
"158.016655"
"$GPGGA,002404,2421.1413,N,08135.5004,W,1,9,1.6,16,"
"##MN-00 00 57 0359 01925 5366 444438 349631 199"
"158.016701"
"$GPGGA,002408,2421.1438,N,08135.5007,W,1,9,1.6,16,"
"##MN-00 00 58 0360 01920 5366 444418 349624 199"
"158.016748"
"$GPGGA,002412,2421.1462,N,08135.5008,W,1,9,1.6,16,"
"##MN-00 00 57 0362 01914 5365 444396 349620 199"
"158.016794"
"$GPGGA,002416,2421.1485,N,08135.5011,W,1,9,1.6,16,"
"##MN-00 00 56 0363 01905 5365 444391 349616 199"
"158.01684"
"$GPGGA,002420,2421.1509,N,08135.5014,W,1,9,1.6,16,"
"##MN-00 00 58 0365 01902 5365 444372 349606 199"
"158.016887"
"$GPGGA,002424,2421.1532,N,08135.5018,W,1,9,1.6,16,"
"##MN-00 00 58 0366 01897 5365 444339 349599 199"
"158.016933"
"$GPGGA,002428,2421.1557,N,08135.5022,W,1,9,1.6,16,"
"##MN-00 00 59 0368 01887 5365 444287 349587 199"
"158.016979"
"$GPGGA,002432,2421.1581,N,08135.5025,W,1,9,1.6,15,"
"##MN-00 00 60 0370 01884 5364 444204 349562 199"
"158.017025"
"$GPGGA,002436,2421.1606,N,08135.5027,W,1,9,1.6,15,"
"##MN-00 00 58 0371 01875 5364 444014 349548 199"
"158.017072"
"$GPGGA,002440,2421.1629,N,08135.5029,W,1,9,1.6,15,"
"##MN-00 00 60 0373 01866 5364 443627 349360 199"
"158.017118"
"$GPGGA,002444,2421.1655,N,08135.5033,W,1,9,1.6,15,"
"##MN-00 00 60 0375 01866 5363 441094 348877 199"
"158.017164"
"$GPGGA,002448,2421.1679,N,08135.5036,W,1,9,1.6,15,"
"##MN-00 00 58 0376 01866 5363 439210 348178 199"
"158.017211"
"$GPGGA,002452,2421.1702,N,08135.5037,W,1,9,1.6,15,"
"##MN-00 00 58 0378 01865 5363 438464 348049 199"
"158.017257"
"$GPGGA,002456,2421.1727,N,08135.5041,W,1,9,1.6,15,"
"##MN-00 00 58 0379 01863 5363 438260 347884 199"
"158.017303"
"$GPGGA,002500,2421.1752,N,08135.5044,W,1,9,1.6,15,"
"##MN-00 00 57 0381 01864 5363 438206 347767 199"
"158.01735"
"$GPGGA,002504,2421.1776,N,08135.5048,W,1,9,1.6,15,"
"##MN-00 00 60 0383 01864 5363 438171 347652 199"
"158.017396"
"$GPGGA,002508,2421.1802,N,08135.5050,W,1,9,1.6,14,"
"##MN-00 00 60 0384 01863 5362 438148 347659 199"
"158.017442"
"$GPGGA,002513,2421.1832,N,08135.5054,W,1,9,1.6,14,"
"##MN-00 00 62 0385 01862 5362 438154 347727 199"
"158.017488"
"$GPGGA,002516,2421.1850,N,08135.5056,W,1,9,1.6,14,"
"##MN-00 00 62 0387 01862 5362 438179 358997 199"
"158.017535"
"$GPGGA,002521,2421.1881,N,08135.5061,W,1,9,1.6,14,"
"##MN-00 00 60 0387 01863 5362 439364 624459 199"
"158.017581"
"$GPGGA,002525,2421.1904,N,08135.5065,W,1,9,1.6,14,"
"##MN-00 00 61 0387 01863 5362 443526 889501 199"
"158.017627"
"$GPGGA,002529,2421.1929,N,08135.5067,W,1,9,1.6,14,"
"##MN-00 00 53 0387 01864 5362 447544 924868 199"
"158.017674"
"$GPGGA,002533,2421.1954,N,08135.5070,W,1,9,1.6,15,"
"##MN-00 00 49 0387 01862 5361 450967 925326 199"
"158.01772"
"$GPGGA,002537,2421.1979,N,08135.5074,W,1,9,1.6,15,"
"##MN-00 00 47 0387 01863 5361 453694 925385 199"
"158.017766"
"$GPGGA,002541,2421.2004,N,08135.5079,W,1,9,1.6,15,"
"##MN-00 00 48 0387 01862 5361 456261 925414 199"
"158.017813"
"$GPGGA,002545,2421.2029,N,08135.5083,W,1,9,1.6,15,"
"##MN-00 00 45 0387 01862 5361 457318 925421 199"
"158.017859"
"$GPGGA,002549,2421.2054,N,08135.5088,W,1,9,1.6,15,"
"##MN-00 00 47 0387 01864 5361 457837 925432 199"
"158.017905"
"$GPGGA,002553,2421.2081,N,08135.5092,W,1,9,1.6,15,"
"##MN-00 00 35 0387 01864 5361 458288 925436 199"
"158.017951"
"$GPGGA,002557,2421.2108,N,08135.5098,W,1,9,1.6,15,"
"##MN-00 00 34 0387 01861 5360 458819 925436 200"
"158.018009"
"$GPGGA,002601,2421.2135,N,08135.5103,W,1,9,1.6,15,"
"##MN-00 00 38 0387 01862 5360 459350 925434 200"
"158.018056"
"$GPGGA,002605,2421.2161,N,08135.5109,W,1,9,1.6,15,"
"##MN-00 00 40 0387 01862 5360 460030 925439 200"
"158.018102"
"$GPGGA,002609,2421.2189,N,08135.5116,W,1,9,1.6,15,"
"##MN-00 00 44 0387 01863 5360 460157 925440 200"
"158.018148"
"$GPGGA,002613,2421.2217,N,08135.5123,W,1,9,1.6,15,"
"##MN-00 00 48 0387 01863 5360 460738 925441 200"
"158.018194"
"$GPGGA,002617,2421.2246,N,08135.5130,W,1,9,1.6,15,"
"##MN-00 00 49 0387 01861 5360 460928 925443 200"
"158.018241"
"$GPGGA,002621,2421.2276,N,08135.5138,W,1,9,2.1,15,"
"##MN-00 00 54 0387 01863 5360 460799 925443 200"
"158.018287"
"$GPGGA,002625,2421.2301,N,08135.5141,W,1,9,1.6,15,"
"##MN-00 00 65 0387 01862 5360 460701 925449 200"
"158.018333"
"$GPGGA,002629,2421.2327,N,08135.5145,W,1,9,1.6,16,"
"##MN-00 00 77 0387 01861 5360 460732 925453 200"
"158.01838"
"$GPGGA,002633,2421.2355,N,08135.5149,W,1,9,1.6,16,"
"##MN-00 00 85 0387 01863 5360 460779 925458 200"
"158.018426"
"$GPGGA,002637,2421.2384,N,08135.5157,W,1,9,1.6,17,"
"##MN-00 00 90 0387 01862 5361 460205 925461 200"
"158.018472"
"$GPGGA,002641,2421.2413,N,08135.5168,W,1,9,1.6,17,"
"##MN-00 00 90 0387 01861 5361 459322 925462 200"
"158.018519"
"$GPGGA,002645,2421.2444,N,08135.5177,W,1,9,1.6,18,"
"##MN-00 00 90 0387 01864 5361 458097 925465 200"
"158.018565"
"$GPGGA,002649,2421.2474,N,08135.5188,W,1,9,1.6,18,"
"##MN-00 00 90 0387 01863 5361 458130 925466 200"
"158.018611"
"$GPGGA,002653,2421.2504,N,08135.5197,W,1,9,1.6,18,"
"##MN-00 00 90 0387 01864 5361 458545 925468 200"
"158.018657"
"$GPGGA,002657,2421.2533,N,08135.5206,W,1,9,1.6,18,"
"##MN-00 00 90 0387 01863 5361 458453 925470 200"
"158.018704"
"$GPGGA,002701,2421.2564,N,08135.5215,W,1,9,1.6,18,"
"##MN-00 00 90 0387 01863 5360 458596 925471 200"
"158.01875"
"$GPGGA,002705,2421.2593,N,08135.5224,W,1,9,1.6,18,"
"##MN-00 00 90 0387 01864 5361 459380 925473 200"
"158.018796"
"$GPGGA,002709,2421.2623,N,08135.5235,W,1,8,2.1,18,"
"##MN-00 00 90 0387 01864 5361 459604 925473 200"
"158.018843"
"$GPGGA,002713,2421.2655,N,08135.5246,W,1,8,2.1,18,"
"##MN-00 00 90 0387 01862 5360 459478 925473 200"
"158.018889"
"$GPGGA,002717,2421.2684,N,08135.5252,W,1,8,2.1,17,"
"##MN-00 00 90 0387 01862 5361 458981 925475 200"
"158.018935"
"$GPGGA,002721,2421.2716,N,08135.5260,W,1,9,1.6,17,"
"##MN-00 00 90 0387 01862 5361 458087 925474 200"
"158.018981"
"$GPGGA,002725,2421.2746,N,08135.5267,W,1,9,1.6,17,"
"##MN-00 00 90 0387 01862 5361 457483 925475 200"
"158.019028"
"$GPGGA,002729,2421.2781,N,08135.5279,W,1,8,2.1,17,"
"##MN-00 00 90 0387 01861 5361 456903 925476 200"
"158.019074"
"$GPGGA,002733,2421.2813,N,08135.5290,W,1,8,2.1,17,"
"##MN-00 00 90 0387 01862 5361 456616 925476 200"
"158.01912"
"$GPGGA,002737,2421.2845,N,08135.5300,W,1,8,2.1,17,"
"##MN-00 00 90 0387 01862 5361 456118 925476 200"
"158.019167"
"$GPGGA,002741,2421.2874,N,08135.5307,W,1,8,2.1,16,"
"##MN-00 00 90 0387 01863 5361 455581 925476 200"
"158.019213"
"$GPGGA,002745,2421.2905,N,08135.5318,W,1,7,2.2,16,"
"##MN-00 00 90 0387 01862 5361 455351 925477 200"
"158.019259"
"$GPGGA,002749,2421.2934,N,08135.5325,W,1,8,2.1,16,"
"##MN-00 00 90 0387 01862 5361 454757 925477 200"
"158.019306"
"$GPGGA,002753,2421.2966,N,08135.5336,W,1,8,2.1,16,"
"##MN-00 00 90 0387 01862 5361 454599 925478 200"
"158.019352"
"$GPGGA,002757,2421.2995,N,08135.5347,W,1,9,1.6,16,"
"##MN-00 00 90 0387 01862 5361 454451 925479 200"
"158.019398"
"$GPGGA,002801,2421.3024,N,08135.5353,W,1,8,2.1,16,"
"##MN-00 00 90 0387 01863 5361 454280 925479 200"
"158.019444"
"$GPGGA,002805,2421.3056,N,08135.5365,W,1,9,1.6,16,"
"##MN-00 00 90 0387 01861 5361 454014 925479 200"
"158.019491"
"$GPGGA,002809,2421.3084,N,08135.5374,W,1,9,1.6,16,"
"##MN-00 00 90 0387 01865 5361 454085 925480 200"
"158.019537"
"$GPGGA,002813,2421.3113,N,08135.5383,W,1,9,1.6,16,"
"##MN-00 00 90 0387 01864 5361 453870 925479 200"
"158.019583"
"$GPGGA,002817,2421.3143,N,08135.5391,W,1,9,1.6,16,"
"##MN-00 00 90 0387 01862 5361 453358 925480 200"
"158.01963"
"$GPGGA,002821,2421.3172,N,08135.5401,W,1,9,1.6,17,"
"##MN-00 00 90 0387 01862 5361 453167 925481 200"
"158.019676"
"$GPGGA,002825,2421.3201,N,08135.5412,W,1,9,1.6,17,"
"##MN-00 00 90 0387 01862 5361 452897 925481 200"
"158.019722"
"$GPGGA,002829,2421.3232,N,08135.5423,W,1,8,1.6,17,"
"##MN-00 00 90 0387 01863 5361 453238 925481 200"
"158.019769"
"$GPGGA,002833,2421.3265,N,08135.5434,W,1,8,2.1,17,"
"##MN-00 00 90 0387 01861 5361 454115 925481 200"
"158.019815"
"$GPGGA,002837,2421.3295,N,08135.5445,W,1,8,2.1,17,"
"##MN-00 00 90 0387 01864 5362 454443 925482 200"
"158.019861"
"$GPGGA,002841,2421.3326,N,08135.5455,W,1,8,1.7,17,"
"##MN-00 00 90 0387 01863 5362 454109 925481 200"
"158.019907"
"$GPGGA,002845,2421.3353,N,08135.5460,W,1,8,1.7,17,"
"##MN-00 00 90 0387 01863 5361 454326 925482 200"
"158.019954"
"$GPGGA,002849,2421.3387,N,08135.5470,W,1,9,1.6,17,"
"##MN-00 00 90 0387 01864 5362 454615 925481 200"
"158.02"
"$GPGGA,002853,2421.3420,N,08135.5480,W,1,9,1.6,17,"
"##MN-00 00 90 0387 01863 5361 454291 925482 200"
"158.020046"
"$GPGGA,002857,2421.3453,N,08135.5489,W,1,9,1.6,17,"
"##MN-00 00 90 0387 01863 5362 454469 925483 200"
"158.020093"
"$GPGGA,002901,2421.3486,N,08135.5499,W,1,9,1.6,17,"
"##MN-00 00 90 0387 01863 5361 454795 925482 200"
"158.020139"
"$GPGGA,002905,2421.3519,N,08135.5509,W,1,9,1.6,17,"
"##MN-00 00 90 0387 01863 5362 454799 925483 200"
"158.020185"
"$GPGGA,002909,2421.3550,N,08135.5520,W,1,9,1.6,17,"
"##MN-00 00 90 0387 01863 5362 454636 925482 200"
"158.020231"
"$GPGGA,002913,2421.3580,N,08135.5529,W,1,8,1.7,17,"
"##MN-00 00 90 0387 01861 5362 454338 925483 200"
"158.020278"
"$GPGGA,002917,2421.3613,N,08135.5540,W,1,7,2.2,17,"
"##MN-00 00 90 0387 01865 5362 454276 925483 200"
"158.020324"
"$GPGGA,002921,2421.3644,N,08135.5553,W,1,8,2.1,17,"
"##MN-00 00 90 0387 01861 5362 454002 925484 200"
"158.02037"
"$GPGGA,002925,2421.3667,N,08135.5557,W,1,9,2.1,17,"
"##MN-00 00 90 0387 01861 5362 454220 925484 200"
"158.020417"
"$GPGGA,002929,2421.3692,N,08135.5564,W,1,8,1.6,16,"
"##MN-00 00 90 0387 01863 5362 454815 925484 200"
"158.020463"
"$GPGGA,002933,2421.3714,N,08135.5569,W,1,9,1.6,16,"
"##MN-00 00 90 0387 01862 5362 454923 925485 200"
"158.020509"
"$GPGGA,002937,2421.3732,N,08135.5569,W,1,9,1.6,16,"
"##MN-00 00 90 0387 01862 5362 455032 925484 200"
"158.020556"
"$GPGGA,002941,2421.3750,N,08135.5567,W,1,9,1.6,16,"
"##MN-00 00 90 0387 01864 5362 454633 925485 200"
"158.020602"
"$GPGGA,002945,2421.3767,N,08135.5567,W,1,9,1.6,17,"
"##MN-00 00 90 0387 01863 5362 453992 925484 200"
"158.020648"
"$GPGGA,002949,2421.3786,N,08135.5565,W,1,9,1.6,17,"
"##MN-00 00 90 0387 01861 5362 453521 925484 200"
"158.020694"
"$GPGGA,002954,2421.3806,N,08135.5561,W,1,9,1.6,17,"
"##MN-00 00 90 0387 01864 5362 453447 925485 200"
"158.020741"
"$GPGGA,002958,2421.3822,N,08135.5558,W,1,9,1.6,17,"
"##MN-00 00 90 0387 01863 5362 453651 925486 200"
"158.020787"
"$GPGGA,003002,2421.3833,N,08135.5556,W,1,9,1.6,17,"
"##MN-00 00 90 0387 01863 5362 453905 925485 200"
"158.020833"
"$GPGGA,003006,2421.3851,N,08135.5550,W,1,9,1.6,17,"
"##MN-00 00 90 0387 01861 5362 453977 925485 200"
"158.02088"
"$GPGGA,003010,2421.3868,N,08135.5547,W,1,8,2.1,17,"
"##MN-00 00 90 0387 01862 5363 454017 925486 200"
"158.020926"
"$GPGGA,003014,2421.3887,N,08135.5550,W,1,8,1.6,17,"
"##MN-00 00 90 0387 01862 5362 453927 925486 200"
"158.020972"
"$GPGGA,003018,2421.3919,N,08135.5565,W,1,9,1.6,17,"
"##MN-00 00 90 0387 01863 5362 453904 925486 200"
"158.021019"
"$GPGGA,003022,2421.3958,N,08135.5587,W,1,9,1.6,17,"
"##MN-00 00 90 0387 01862 5362 453840 925487 200"
"158.021065"
"$GPGGA,003026,2421.4002,N,08135.5614,W,1,8,1.7,17,"
"##MN-00 00 90 0387 01862 5362 453884 925486 200"
"158.021111"
"$GPGGA,003030,2421.4054,N,08135.5643,W,1,8,1.7,17,"
"##MN-00 00 90 0387 01863 5362 453871 925486 200"
"158.021169"
"$GPGGA,003034,2421.4115,N,08135.5679,W,1,9,1.6,17,"
"##MN-00 00 90 0387 01863 5362 453734 925487 200"
"158.021215"
"$GPGGA,003038,2421.4180,N,08135.5715,W,1,8,1.7,17,"
"##MN-00 00 90 0387 01862 5362 453620 925487 200"
"158.021262"
"$GPGGA,003042,2421.4252,N,08135.5749,W,1,9,1.7,17,"
"##MN-00 00 90 0387 01861 5362 453592 925487 200"
"158.021308"
"$GPGGA,003046,2421.4335,N,08135.5778,W,1,9,1.6,17,"
"##MN-00 00 90 0387 01862 5362 453717 925488 200"
"158.021354"
"$GPGGA,003050,2421.4422,N,08135.5802,W,1,9,1.6,17,"
"##MN-00 00 90 0387 01862 5362 453531 925487 200"
"158.0214"
"$GPGGA,003054,2421.4512,N,08135.5816,W,1,8,1.6,17,"
"##MN-00 00 90 0387 01862 5362 453275 925488 200"
"158.021447"
"$GPGGA,003058,2421.4603,N,08135.5828,W,1,9,1.6,17,"
"##MN-00 00 90 0387 01863 5362 453021 925487 200"
"158.021493"
"$GPGGA,003102,2421.4699,N,08135.5839,W,1,9,1.6,18,"
"##MN-00 00 90 0387 01861 5362 453195 925488 200"
"158.021539"
"$GPGGA,003106,2421.4797,N,08135.5845,W,1,9,2.0,18,"
"##MN-00 00 90 0387 01862 5362 453662 925488 200"
"158.021586"
"$GPGGA,003110,2421.4894,N,08135.5842,W,1,9,1.6,18,"
"##MN-00 00 90 0387 01864 5362 453736 925488 200"
"158.021632"
"$GPGGA,003114,2421.4992,N,08135.5834,W,1,9,2.0,18,"
"##MN-00 00 90 0387 01862 5362 452882 925488 200"
"158.021678"
"$GPGGA,003118,2421.5090,N,08135.5820,W,1,9,1.6,18,"
"##MN-00 00 90 0387 01861 5362 451253 925488 200"
"158.021725"
"$GPGGA,003122,2421.5187,N,08135.5799,W,1,9,1.6,18,"
"##MN-00 00 90 0387 01862 5362 450941 925488 200"
"158.021771"
"$GPGGA,003126,2421.5285,N,08135.5781,W,1,9,1.6,18,"
"##MN-00 00 90 0387 01862 5363 451235 925489 200"
"158.021817"
"$GPGGA,003130,2421.5387,N,08135.5766,W,1,9,1.6,19,"
"##MN-00 00 90 0387 01862 5363 450915 925490 200"
"158.021863"
"$GPGGA,003134,2421.5484,N,08135.5756,W,1,9,1.6,19,"
"##MN-00 00 90 0387 01863 5363 451202 925490 200"
"158.02191"
"$GPGGA,003138,2421.5580,N,08135.5750,W,1,9,1.6,19,"
"##MN-00 00 90 0387 01863 5363 451348 925489 200"
"158.021956"
"$GPGGA,003142,2421.5678,N,08135.5750,W,1,9,2.0,19,"
"##MN-00 00 90 0387 01864 5363 450783 925489 200"
"158.022002"
"$GPGGA,003146,2421.5770,N,08135.5751,W,1,8,1.6,19,"
"##MN-00 00 90 0387 01863 5363 450406 925490 200"
"158.022049"
"$GPGGA,003150,2421.5864,N,08135.5751,W,1,7,2.0,19,"
"##MN-00 00 90 0387 01865 5362 450529 925489 200"
"158.022095"
"$GPGGA,003154,2421.5963,N,08135.5749,W,1,8,1.6,18,"
"##MN-00 00 90 0387 01861 5362 450442 925490 200"
"158.022141"
"$GPGGA,003158,2421.6059,N,08135.5745,W,1,8,1.6,18,"
"##MN-00 00 90 0387 01864 5362 450192 925490 200"
"158.022188"
"$GPGGA,003202,2421.6155,N,08135.5738,W,1,8,2.0,19,"
"##MN-00 00 90 0387 01863 5362 449520 925491 200"
"158.022234"
"$GPGGA,003206,2421.6247,N,08135.5732,W,1,7,2.0,19,"
"##MN-00 00 90 0387 01863 5362 448797 925491 200"
"158.02228"
"$GPGGA,003210,2421.6348,N,08135.5730,W,1,8,1.7,19,"
"##MN-00 00 90 0387 01861 5362 448608 925491 200"
"158.022326"
"$GPGGA,003214,2421.6447,N,08135.5726,W,1,8,1.7,20,"
"##MN-00 00 90 0387 01861 5362 448656 925491 200"
"158.022373"
"$GPGGA,003218,2421.6543,N,08135.5721,W,1,8,1.7,20,"
"##MN-00 00 90 0387 01862 5362 448381 925491 200"
"158.022419"
"$GPGGA,003222,2421.6640,N,08135.5714,W,1,8,1.7,20,"
"##MN-00 00 90 0387 01863 5362 447972 925491 200"
"158.022465"
"$GPGGA,003226,2421.6737,N,08135.5707,W,1,8,1.7,20,"
"##MN-00 00 90 0387 01862 5362 447936 925491 200"
"158.022512"
"$GPGGA,003230,2421.6835,N,08135.5698,W,1,8,1.7,19,"
"##MN-00 00 90 0387 01862 5362 447946 925491 200"
"158.022558"
"$GPGGA,003234,2421.6932,N,08135.5688,W,1,7,2.0,19,"
"##MN-00 00 90 0387 01863 5362 448057 925491 200"
"158.022604"
"$GPGGA,003238,2421.7031,N,08135.5679,W,1,7,1.7,18,"
"##MN-00 00 90 0387 01864 5362 448242 925491 200"
"158.02265"
"$GPGGA,003242,2421.7131,N,08135.5670,W,1,8,1.7,18,"
"##MN-00 00 90 0387 01862 5362 448331 925491 200"
"158.022697"
"$GPGGA,003246,2421.7229,N,08135.5660,W,1,8,1.7,18,"
"##MN-00 00 90 0387 01862 5362 448297 925491 200"
"158.022743"
"$GPGGA,003250,2421.7329,N,08135.5650,W,1,8,1.7,18,"
"##MN-00 00 90 0387 01862 5362 447765 925491 200"
"158.022789"
"$GPGGA,003254,2421.7428,N,08135.5642,W,1,8,1.7,18,"
"##MN-00 00 90 0387 01862 5362 447872 925491 200"
"158.022836"
"$GPGGA,003258,2421.7528,N,08135.5634,W,1,8,1.7,18,"
"##MN-00 00 90 0387 01861 5362 448109 925492 200"
"158.022882"
"$GPGGA,003302,2421.7626,N,08135.5628,W,1,8,1.7,18,"
"##MN-00 00 90 0387 01861 5362 448603 925465 200"
"158.022928"
"$GPGGA,003306,2421.7724,N,08135.5623,W,1,8,1.7,17,"
"##MN-00 00 90 0387 01863 5362 448987 925448 200"
"158.022975"
"$GPGGA,003310,2421.7822,N,08135.5621,W,1,8,1.7,17,"
"##MN-00 00 90 0387 01862 5361 449587 925449 200"
"158.023021"
"$GPGGA,003314,2421.7919,N,08135.5622,W,1,8,1.7,17,"
"##MN-00 00 90 0387 01862 5362 449940 925450 200"
"158.023067"
"$GPGGA,003318,2421.8016,N,08135.5622,W,1,8,1.7,17,"
"##MN-00 00 90 0387 01863 5361 450093 925452 200"
"158.023113"
"$GPGGA,003322,2421.8113,N,08135.5624,W,1,8,1.7,17,"
"##MN-00 00 90 0387 01862 5362 450046 925452 200"
"158.02316"
"$GPGGA,003326,2421.8210,N,08135.5628,W,1,8,1.7,16,"
"##MN-00 00 90 0387 01864 5362 449614 925452 200"
"158.023206"
"$GPGGA,003330,2421.8306,N,08135.5628,W,1,8,1.7,16,"
"##MN-00 00 90 0387 01859 5362 448953 925453 200"
"158.023252"
"$GPGGA,003334,2421.8403,N,08135.5630,W,1,7,1.7,16,"
"##MN-00 00 90 0387 01864 5361 448690 925458 200"
"158.023299"
"$GPGGA,003338,2421.8501,N,08135.5629,W,1,8,2.0,16,"
"##MN-00 00 90 0387 01862 5361 448704 925464 200"
"158.023345"
"$GPGGA,003342,2421.8602,N,08135.5630,W,1,8,1.7,16,"
"##MN-00 00 90 0387 01862 5361 448736 925469 200"
"158.023391"
"$GPGGA,003346,2421.8699,N,08135.5625,W,1,8,2.0,16,"
"##MN-00 00 90 0387 01862 5361 448381 925473 200"
"158.023438"
"$GPGGA,003350,2421.8797,N,08135.5619,W,1,7,2.0,16,"
"##MN-00 00 90 0387 01863 5361 447836 925473 200"
"158.023484"
"$GPGGA,003354,2421.8895,N,08135.5612,W,1,8,2.0,16,"
"##MN-00 00 90 0387 01861 5361 447752 925474 200"
"158.02353"
"$GPGGA,003358,2421.8992,N,08135.5604,W,1,7,2.0,15,"
"##MN-00 00 90 0387 01862 5361 447818 925474 200"
"158.023576"
"$GPGGA,003402,2421.9090,N,08135.5596,W,1,7,2.0,15,"
"##MN-00 00 90 0387 01861 5361 447823 925475 200"
"158.023623"
"$GPGGA,003406,2421.9190,N,08135.5589,W,1,7,2.0,14,"
"##MN-00 00 90 0387 01863 5361 447968 925486 200"
"158.023669"
"$GPGGA,003410,2421.9291,N,08135.5582,W,1,7,1.7,14,"
"##MN-00 00 90 0387 01861 5361 448730 925487 200"
"158.023715"
"$GPGGA,003414,2421.9393,N,08135.5577,W,1,8,1.7,14,"
"##MN-00 00 90 0387 01861 5361 449422 925481 200"
"158.023762"
"$GPGGA,003418,2421.9491,N,08135.5572,W,1,8,2.0,15,"
"##MN-00 00 90 0387 01864 5361 450027 925477 200"
"158.023808"
"$GPGGA,003422,2421.9590,N,08135.5569,W,1,8,1.7,14,"
"##MN-00 00 90 0387 01864 5360 450315 925478 200"
"158.023854"
"$GPGGA,003426,2421.9692,N,08135.5571,W,1,7,1.7,14,"
"##MN-00 00 90 0387 01864 5361 450331 925478 200"
"158.0239"
"$GPGGA,003431,2421.9816,N,08135.5575,W,1,8,1.7,15,"
"##MN-00 00 90 0387 01862 5360 450228 925455 200"
"158.023947"
"$GPGGA,003435,2421.9913,N,08135.5578,W,1,8,1.7,15,"
"##MN-00 00 90 0387 01863 5360 450066 925450 200"
"158.023993"
"$GPGGA,003439,2422.0011,N,08135.5582,W,1,8,1.7,15,"
"##MN-00 00 90 0387 01861 5360 450127 925451 200"
"158.024039"
"$GPGGA,003443,2422.0108,N,08135.5582,W,1,7,2.0,15,"
"##MN-00 00 90 0387 01863 5360 450215 925451 200"
"158.024086"
"$GPGGA,003447,2422.0205,N,08135.5582,W,1,8,1.7,15,"
"##MN-00 00 90 0387 01863 5360 450384 925451 200"
"158.024132"
"$GPGGA,003451,2422.0302,N,08135.5581,W,1,8,1.7,15,"
"##MN-00 00 90 0387 01865 5360 450129 925472 200"
"158.024178"
"$GPGGA,003455,2422.0401,N,08135.5578,W,1,8,1.7,15,"
"##MN-00 00 90 0387 01861 5360 450097 925483 200"
"158.024225"
"$GPGGA,003459,2422.0499,N,08135.5573,W,1,8,1.7,15,"
"##MN-00 00 90 0387 01862 5360 449982 925484 200"
"158.024271"
"$GPGGA,003503,2422.0599,N,08135.5567,W,1,8,1.7,15,"
"##MN-00 00 90 0387 01863 5360 449602 925486 200"
"158.024329"
"$GPGGA,003507,2422.0697,N,08135.5560,W,1,8,1.7,15,"
"##MN-00 00 90 0387 01862 5360 449082 925487 200"
"158.024375"
"$GPGGA,003511,2422.0797,N,08135.5554,W,1,8,1.7,14,"
"##MN-00 00 90 0387 01862 5359 448763 925486 200"
"158.024421"
"$GPGGA,003515,2422.0896,N,08135.5549,W,1,8,1.7,14,"
"##MN-00 00 90 0387 01864 5359 448787 925486 200"
"158.024468"
"$GPGGA,003519,2422.0996,N,08135.5544,W,1,8,1.7,14,"
"##MN-00 00 90 0387 01864 5359 448820 925487 200"
"158.024514"
"$GPGGA,003523,2422.1094,N,08135.5540,W,1,8,1.7,14,"
"##MN-00 00 90 0387 01863 5359 448731 925487 200"
"158.02456"
"$GPGGA,003527,2422.1192,N,08135.5537,W,1,8,1.7,14,"
"##MN-00 00 90 0387 01863 5359 448181 925487 200"
"158.024606"
"$GPGGA,003531,2422.1290,N,08135.5536,W,1,8,1.7,14,"
"##MN-00 00 90 0387 01860 5359 448283 925487 200"
"158.024653"
"$GPGGA,003535,2422.1390,N,08135.5538,W,1,8,1.7,13,"
"##MN-00 00 90 0387 01862 5359 448265 925487 200"
"158.024699"
"$GPGGA,003539,2422.1487,N,08135.5538,W,1,7,2.0,13,"
"##MN-00 00 90 0387 01861 5359 448018 925488 200"
"158.024745"
"$GPGGA,003543,2422.1585,N,08135.5539,W,1,7,2.0,13,"
"##MN-00 00 90 0387 01862 5359 447908 925488 200"
"158.024792"
"$GPGGA,003547,2422.1683,N,08135.5543,W,1,7,2.0,13,"
"##MN-00 00 90 0387 01862 5359 447799 925488 200"
"158.024838"
"$GPGGA,003551,2422.1781,N,08135.5549,W,1,7,2.0,13,"
"##MN-00 00 90 0387 01863 5358 447114 925487 200"
"158.024884"
"$GPGGA,003555,2422.1879,N,08135.5553,W,1,7,2.0,13,"
"##MN-00 00 90 0387 01863 5358 447449 925488 200"
"158.024931"
"$GPGGA,003559,2422.1980,N,08135.5556,W,1,7,2.0,13,"
"##MN-00 00 90 0387 01861 5358 447048 925488 200"
"158.024977"
"$GPGGA,003603,2422.2081,N,08135.5558,W,1,8,1.7,13,"
"##MN-00 00 90 0387 01861 5358 446097 925488 200"
"158.025023"
"$GPGGA,003607,2422.2181,N,08135.5557,W,1,8,1.7,13,"
"##MN-00 00 90 0387 01863 5358 446317 925488 200"
"158.025069"
"$GPGGA,003611,2422.2280,N,08135.5554,W,1,7,2.0,13,"
"##MN-00 00 90 0387 01863 5358 446443 925489 200"
"158.025116"
"$GPGGA,003615,2422.2380,N,08135.5547,W,1,7,2.0,13,"
"##MN-00 00 90 0387 01864 5358 446571 925489 200"
"158.025162"
"$GPGGA,003619,2422.2480,N,08135.5540,W,1,7,2.0,13,"
"##MN-00 00 90 0387 01865 5358 446784 925490 200"
"158.025208"
"$GPGGA,003623,2422.2580,N,08135.5535,W,1,8,1.7,13,"
"##MN-00 00 90 0387 01862 5358 446934 925490 200"
"158.025255"
"$GPGGA,003627,2422.2679,N,08135.5529,W,1,8,1.7,13,"
"##MN-00 00 90 0387 01860 5358 446818 925489 200"
"158.025301"
"$GPGGA,003631,2422.2780,N,08135.5525,W,1,8,1.7,14,"
"##MN-00 00 90 0387 01864 5358 446725 925490 200"
"158.025347"
"$GPGGA,003635,2422.2882,N,08135.5523,W,1,8,1.7,14,"
"##MN-00 00 90 0387 01862 5357 446603 925489 200"
"158.025394"
"$GPGGA,003639,2422.2981,N,08135.5524,W,1,8,1.7,14,"
"##MN-00 00 90 0387 01863 5357 446384 925490 200"
"158.02544"
"$GPGGA,003643,2422.3081,N,08135.5525,W,1,8,1.7,14,"
"##MN-00 00 90 0387 01862 5357 446678 925489 200"
"158.025486"
"$GPGGA,003647,2422.3176,N,08135.5527,W,1,8,2.0,14,"
"##MN-00 00 90 0387 01863 5357 446790 925490 200"
"158.025532"
"$GPGGA,003651,2422.3270,N,08135.5531,W,1,7,2.0,14,"
"##MN-00 00 90 0387 01863 5357 447004 925489 200"
"158.025579"
"$GPGGA,003655,2422.3367,N,08135.5535,W,1,7,2.0,14,"
"##MN-00 00 90 0387 01862 5357 447347 925490 200"
"158.025625"
"$GPGGA,003659,2422.3467,N,08135.5540,W,1,7,2.0,14,"
"##MN-00 00 90 0387 01865 5356 447420 925490 200"
"158.025671"
"$GPGGA,003703,2422.3562,N,08135.5545,W,1,8,1.7,14,"
"##MN-00 00 90 0387 01863 5356 447158 925490 200"
"158.025718"
"$GPGGA,003707,2422.3662,N,08135.5549,W,1,8,1.7,14,"
"##MN-00 00 90 0387 01863 5356 447208 925490 200"
"158.025764"
"$GPGGA,003711,2422.3761,N,08135.5551,W,1,8,1.7,15,"
"##MN-00 00 90 0387 01862 5356 447326 925491 200"
"158.02581"
"$GPGGA,003715,2422.3859,N,08135.5553,W,1,8,1.7,15,"
"##MN-00 00 90 0387 01863 5356 447019 925490 200"
"158.025856"
"$GPGGA,003719,2422.3958,N,08135.5551,W,1,8,1.7,15,"
"##MN-00 00 90 0387 01863 5356 446936 925490 200"
"158.025903"
"$GPGGA,003723,2422.4057,N,08135.5549,W,1,8,1.7,16,"
"##MN-00 00 90 0387 01862 5356 446909 925490 200"
"158.025949"
"$GPGGA,003727,2422.4155,N,08135.5546,W,1,8,1.7,16,"
"##MN-00 00 90 0387 01864 5356 447378 925491 200"
"158.025995"
"$GPGGA,003731,2422.4252,N,08135.5543,W,1,8,1.7,16,"
"##MN-00 00 90 0387 01863 5356 447580 925490 200"
"158.026042"
"$GPGGA,003735,2422.4352,N,08135.5540,W,1,8,1.7,17,"
"##MN-00 00 90 0387 01863 5356 447674 925490 200"
"158.026088"
"$GPGGA,003739,2422.4447,N,08135.5536,W,1,7,2.0,17,"
"##MN-00 00 90 0387 01862 5356 447842 925491 200"
"158.026134"
"$GPGGA,003743,2422.4547,N,08135.5536,W,1,8,1.7,17,"
"##MN-00 00 90 0387 01862 5355 447974 925490 200"
"158.026181"
"$GPGGA,003747,2422.4648,N,08135.5538,W,1,8,1.7,17,"
"##MN-00 00 90 0387 01861 5355 447948 925491 200"
"158.026227"
"$GPGGA,003751,2422.4746,N,08135.5538,W,1,8,1.7,17,"
"##MN-00 00 90 0387 01864 5355 448149 925491 200"
"158.026273"
"$GPGGA,003755,2422.4841,N,08135.5540,W,1,7,2.0,18,"
"##MN-00 00 90 0387 01863 5355 448334 925491 200"
"158.026319"
"$GPGGA,003759,2422.4938,N,08135.5542,W,1,8,2.0,17,"
"##MN-00 00 90 0387 01862 5355 448511 925491 200"
"158.026366"
"$GPGGA,003803,2422.5033,N,08135.5546,W,1,7,2.0,17,"
"##MN-00 00 90 0387 01862 5355 448183 925491 200"
"158.026412"
"$GPGGA,003807,2422.5129,N,08135.5551,W,1,7,2.0,17,"
"##MN-00 00 90 0387 01862 5355 448055 925491 200"
"158.026458"
"$GPGGA,003811,2422.5227,N,08135.5556,W,1,8,2.0,16,"
"##MN-00 00 90 0387 01864 5354 448160 925491 200"
"158.026505"
"$GPGGA,003815,2422.5324,N,08135.5559,W,1,7,2.0,16,"
"##MN-00 00 90 0387 01864 5354 448343 925491 200"
"158.026551"
"$GPGGA,003819,2422.5422,N,08135.5562,W,1,8,1.7,15,"
"##MN-00 00 90 0387 01862 5354 448636 925491 200"
"158.026597"
"$GPGGA,003823,2422.5520,N,08135.5563,W,1,8,1.7,15,"
"##MN-00 00 90 0387 01863 5354 448436 925491 200"
"158.026644"
"$GPGGA,003827,2422.5620,N,08135.5564,W,1,8,1.7,15,"
"##MN-00 00 90 0387 01862 5354 448424 925492 200"
"158.02669"
"$GPGGA,003831,2422.5719,N,08135.5562,W,1,8,1.7,15,"
"##MN-00 00 90 0387 01862 5354 448303 925491 200"
"158.026736"
"$GPGGA,003835,2422.5817,N,08135.5558,W,1,7,2.1,15,"
"##MN-00 00 90 0387 01862 5354 448523 925492 200"
"158.026782"
"$GPGGA,003839,2422.5910,N,08135.5548,W,1,7,2.0,16,"
"##MN-00 00 90 0387 01864 5353 448669 925491 200"
"158.026829"
"$GPGGA,003843,2422.6008,N,08135.5540,W,1,8,1.7,16,"
"##MN-00 00 90 0387 01861 5353 448580 925491 200"
"158.026875"
"$GPGGA,003847,2422.6105,N,08135.5531,W,1,8,1.6,17,"
"##MN-00 00 90 0387 01862 5353 448490 925491 200"
"158.026921"
"$GPGGA,003851,2422.6205,N,08135.5524,W,1,8,1.6,17,"
"##MN-00 00 90 0387 01862 5353 448667 925491 200"
"158.026968"
"$GPGGA,003855,2422.6304,N,08135.5518,W,1,8,1.6,17,"
"##MN-00 00 90 0387 01862 5353 448810 925491 200"
"158.027014"
"$GPGGA,003900,2422.6426,N,08135.5511,W,1,8,2.1,18,"
"##MN-00 00 90 0387 01863 5353 448853 925491 200"
"158.02706"
"$GPGGA,003903,2422.6499,N,08135.5506,W,1,8,1.6,18,"
"##MN-00 00 90 0387 01861 5353 448980 925491 200"
"158.027106"
"$GPGGA,003908,2422.6621,N,08135.5504,W,1,8,1.6,19,"
"##MN-00 00 90 0387 01863 5353 448887 925491 200"
"158.027153"
"$GPGGA,003911,2422.6694,N,08135.5504,W,1,8,1.6,19,"
"##MN-00 00 90 0387 01863 5352 448554 925492 200"
"158.027199"
"$GPGGA,003915,2422.6792,N,08135.5507,W,1,8,1.6,20,"
"##MN-00 00 90 0387 01860 5352 448494 925492 200"
"158.027245"
"$GPGGA,003920,2422.6915,N,08135.5513,W,1,8,1.6,20,"
"##MN-00 00 90 0387 01863 5352 448570 925491 200"
"158.027292"
"$GPGGA,003924,2422.7012,N,08135.5520,W,1,8,1.6,20,"
"##MN-00 00 90 0387 01863 5352 448750 925492 200"
"158.027338"
"$GPGGA,003928,2422.7110,N,08135.5525,W,1,8,1.6,20,"
"##MN-00 00 90 0387 01863 5352 448876 925492 200"
"158.027384"
"$GPGGA,003932,2422.7210,N,08135.5528,W,1,8,1.6,20,"
"##MN-00 00 90 0387 01864 5352 449086 925492 200"
"158.027431"
"$GPGGA,003936,2422.7308,N,08135.5529,W,1,8,1.6,20,"
"##MN-00 00 90 0387 01863 5351 448986 925492 200"
"158.027477"
"$GPGGA,003940,2422.7405,N,08135.5527,W,1,8,1.6,20,"
"##MN-00 00 90 0387 01864 5351 448790 925492 200"
"158.027523"
"$GPGGA,003944,2422.7502,N,08135.5522,W,1,8,1.6,20,"
"##MN-00 00 90 0387 01864 5351 448181 925491 200"
"158.027581"
"$GPGGA,003948,2422.7601,N,08135.5518,W,1,8,1.6,20,"
"##MN-00 00 90 0387 01862 5351 448252 925493 200"
"158.027627"
"$GPGGA,003952,2422.7699,N,08135.5510,W,1,8,1.6,20,"
"##MN-00 00 90 0387 01861 5351 448276 925492 200"
"158.027674"
"$GPGGA,003956,2422.7795,N,08135.5502,W,1,8,1.6,20,"
"##MN-00 00 90 0387 01862 5351 448233 925491 200"
"158.02772"
"$GPGGA,004000,2422.7892,N,08135.5492,W,1,8,1.6,20,"
"##MN-00 00 90 0387 01861 5351 448482 925492 200"
"158.027766"
"$GPGGA,004004,2422.7988,N,08135.5485,W,1,8,1.6,20,"
"##MN-00 00 90 0387 01863 5350 448939 925492 200"
"158.027813"
"$GPGGA,004008,2422.8080,N,08135.5480,W,1,8,1.6,20,"
"##MN-00 00 90 0387 01863 5350 449099 925492 200"
"158.027859"
"$GPGGA,004012,2422.8165,N,08135.5468,W,1,8,2.1,20,"
"##MN-00 00 90 0387 01863 5350 449020 925492 200"
"158.027905"
"$GPGGA,004016,2422.8250,N,08135.5461,W,1,7,2.1,20,"
"##MN-00 00 90 0387 01862 5350 449097 925493 200"
"158.027951"
"$GPGGA,004020,2422.8340,N,08135.5459,W,1,7,2.1,20,"
"##MN-00 00 90 0387 01861 5350 449067 925494 200"
"158.027998"
"$GPGGA,004024,2422.8428,N,08135.5458,W,1,8,2.1,20,"
"##MN-00 00 90 0387 01863 5350 449015 925495 200"
"158.028044"
"$GPGGA,004028,2422.8512,N,08135.5456,W,1,8,2.1,21,"
"##MN-00 00 90 0387 01864 5350 449100 925495 200"
"158.02809"
"$GPGGA,004032,2422.8591,N,08135.5448,W,1,7,1.6,21,"
"##MN-00 00 90 0387 01864 5350 449616 925495 200"
"158.028137"
"$GPGGA,004036,2422.8673,N,08135.5446,W,1,8,1.6,21,"
"##MN-00 00 90 0387 01862 5349 449478 925494 200"
"158.028183"
"$GPGGA,004040,2422.8760,N,08135.5446,W,1,8,1.6,21,"
"##MN-00 00 90 0387 01863 5349 449835 925496 200"
"158.028229"
"$GPGGA,004044,2422.8844,N,08135.5444,W,1,8,1.6,21,"
"##MN-00 00 90 0387 01863 5349 449987 925495 200"
"158.028275"
"$GPGGA,004048,2422.8927,N,08135.5444,W,1,8,1.6,22,"
"##MN-00 00 90 0387 01863 5349 450219 925495 200"
"158.028322"
"$GPGGA,004052,2422.9010,N,08135.5442,W,1,8,1.6,22,"
"##MN-00 00 90 0387 01862 5349 450065 925495 200"
"158.028368"
"$GPGGA,004056,2422.9092,N,08135.5438,W,1,8,1.6,22,"
"##MN-00 00 90 0387 01862 5348 449958 925496 200"
"158.028414"
"$GPGGA,004100,2422.9173,N,08135.5430,W,1,8,2.1,22,"
"##MN-00 00 90 0387 01860 5348 449539 925495 200"
"158.028461"
"$GPGGA,004104,2422.9256,N,08135.5418,W,1,8,1.6,22,"
"##MN-00 00 90 0387 01863 5348 449553 925496 200"
"158.028507"
"$GPGGA,004108,2422.9337,N,08135.5403,W,1,7,2.1,21,"
"##MN-00 00 90 0387 01862 5348 449636 925496 200"
"158.028553"
"$GPGGA,004112,2422.9411,N,08135.5377,W,1,7,1.6,21,"
"##MN-00 00 90 0387 01863 5348 449266 925496 200"
"158.0286"
"$GPGGA,004116,2422.9487,N,08135.5351,W,1,7,1.6,21,"
"##MN-00 00 90 0387 01863 5348 449609 925497 200"
"158.028646"
"$GPGGA,004120,2422.9563,N,08135.5322,W,1,7,2.1,20,"
"##MN-00 00 90 0387 01863 5347 449676 925496 200"
"158.028692"
"$GPGGA,004124,2422.9639,N,08135.5291,W,1,7,2.1,20,"
"##MN-00 00 90 0387 01863 5347 449900 925496 200"
"158.028738"
"$GPGGA,004128,2422.9710,N,08135.5254,W,1,8,1.6,20,"
"##MN-00 00 90 0387 01862 5347 449238 925497 200"
"158.028785"
"$GPGGA,004132,2422.9780,N,08135.5214,W,1,8,1.6,19,"
"##MN-00 00 90 0387 01862 5347 448302 925496 200"
"158.028831"
"$GPGGA,004136,2422.9854,N,08135.5179,W,1,7,2.1,19,"
"##MN-00 00 90 0387 01863 5347 448147 925497 200"
"158.028877"
"$GPGGA,004140,2422.9928,N,08135.5145,W,1,7,1.6,19,"
"##MN-00 00 90 0387 01863 5347 447949 925498 200"
"158.028924"
"$GPGGA,004144,2423.0000,N,08135.5113,W,1,7,1.6,18,"
"##MN-00 00 90 0387 01862 5347 447742 925498 200"
"158.02897"
"$GPGGA,004148,2423.0075,N,08135.5086,W,1,8,2.1,18,"
"##MN-00 00 90 0387 01862 5347 447776 925498 200"
"158.029016"
"$GPGGA,004152,2423.0147,N,08135.5060,W,1,8,2.1,18,"
"##MN-00 00 90 0387 01863 5346 447862 925498 200"
"158.029062"
