" Tow: L2s-B   RVWS/WS1406"
" Date: 06/06/2014"
" Temperature Probe #  2597    Conductivity Probe #  2870"
" Pressure Probe #  109"
" Flow Meter Calibration  4.71 (m/count)  "
"158.03287"
"$GPGGA,004722,2423.2832,N,08135.4906,W,1,7,2.1,19,"
"##MN-00 00 40 0387 01863 5330 451263 925500 200"
"158.032917"
"$GPGGA,004729,2423.2883,N,08135.4917,W,1,7,2.1,18,"
"##MN-00 00 46 0387 01864 5329 451388 925500 200"
"158.032963"
"$GPGGA,004733,2423.2914,N,08135.4922,W,1,6,2.6,18,"
"##MN-00 00 53 0387 01863 5329 451195 925501 200"
"158.033009"
"$GPGGA,004737,2423.2944,N,08135.4928,W,1,6,2.6,18,"
"##MN-00 00 59 0387 01861 5329 450835 925501 200"
"158.033056"
"$GPGGA,004741,2423.2972,N,08135.4932,W,1,6,2.6,18,"
"##MN-00 00 59 0388 01862 5329 448426 592446 200"
"158.033102"
"$GPGGA,004745,2423.3001,N,08135.4939,W,1,6,2.6,17,"
"##MN-00 00 59 0389 01863 5328 440531 361726 200"
"158.033148"
"$GPGGA,004749,2423.3028,N,08135.4943,W,1,6,2.6,17,"
"##MN-00 00 60 0390 01863 5328 440518 352458 200"
"158.033194"
"$GPGGA,004754,2423.3062,N,08135.4949,W,1,7,2.1,17,"
"##MN-00 00 58 0390 01863 5328 440417 348723 200"
"158.033241"
"$GPGGA,004758,2423.3088,N,08135.4949,W,1,6,2.1,16,"
"##MN-00 00 60 0391 01864 5327 440388 349523 200"
"158.033287"
"$GPGGA,004801,2423.3106,N,08135.4950,W,1,7,2.1,16,"
"##MN-00 00 58 0392 01866 5326 440339 349218 200"
"158.033333"
"$GPGGA,004806,2423.3136,N,08135.4953,W,1,7,2.6,17,"
"##MN-00 00 58 0393 01869 5326 440325 348624 200"
"158.03338"
"$GPGGA,004810,2423.3161,N,08135.4957,W,1,7,2.6,17,"
"##MN-00 00 56 0394 01877 5326 440453 348547 200"
"158.033426"
"$GPGGA,004814,2423.3186,N,08135.4958,W,1,6,2.1,17,"
"##MN-00 00 55 0395 01881 5326 440869 348577 200"
"158.033472"
"$GPGGA,004818,2423.3212,N,08135.4961,W,1,6,2.1,17,"
"##MN-00 00 53 0396 01889 5326 441388 348646 200"
"158.033519"
"$GPGGA,004822,2423.3236,N,08135.4962,W,1,7,2.6,17,"
"##MN-00 00 46 0397 01901 5326 442081 348769 200"
"158.033565"
"$GPGGA,004826,2423.3259,N,08135.4961,W,1,6,2.1,17,"
"##MN-00 00 37 0398 01911 5326 443082 348847 200"
"158.033611"
"$GPGGA,004830,2423.3284,N,08135.4964,W,1,7,2.1,18,"
"##MN-00 00 18 0399 01921 5326 444425 349244 200"
"158.033669"
"$GPGGA,004834,2423.3312,N,08135.4971,W,1,6,2.6,18,"
"##MN-00 00 21 0399 01935 5326 444922 349532 200"
"158.033715"
"$GPGGA,004838,2423.3337,N,08135.4975,W,1,7,2.6,18,"
"##MN-00 00 19 0400 01945 5325 445081 349679 200"
"158.033762"
"$GPGGA,004842,2423.3362,N,08135.4980,W,1,6,2.6,17,"
"##MN-00 00 15 0401 01956 5325 445182 349743 200"
"158.033808"
"$GPGGA,004846,2423.3388,N,08135.4984,W,1,7,2.6,17,"
"##MN-00 00 22 0401 01966 5325 445232 349791 200"
"158.033854"
"$GPGGA,004850,2423.3414,N,08135.4987,W,1,6,2.6,17,"
"##MN-00 00 08 0402 01978 5325 445284 349819 200"
"158.0339"
"$GPGGA,004854,2423.3438,N,08135.4987,W,1,6,2.1,16,"
"##MN-00 00 23 0402 01989 5325 445318 349812 200"
"158.033947"
"$GPGGA,004858,2423.3461,N,08135.4985,W,1,7,2.1,16,"
"##MN-00 00 19 0403 01990 5325 445344 349849 200"
"158.033993"
"$GPGGA,004902,2423.3485,N,08135.4986,W,1,7,2.1,16,"
"##MN-00 00 09 0404 01989 5325 445351 349863 200"
"158.034039"
"$GPGGA,004906,2423.3510,N,08135.4987,W,1,7,2.1,17,"
"##MN-00 00 17 0404 01991 5325 445352 349863 200"
"158.034086"
"$GPGGA,004910,2423.3535,N,08135.4989,W,1,7,2.1,17,"
"##MN-00 00 19 0405 01991 5325 445353 349868 200"
"158.034132"
"$GPGGA,004914,2423.3559,N,08135.4989,W,1,7,2.1,17,"
"##MN-00 00 10 0406 01989 5325 445354 349873 200"
"158.034178"
"$GPGGA,004918,2423.3584,N,08135.4989,W,1,7,2.1,17,"
"##MN-00 00 14 0407 01993 5325 445353 349873 200"
"158.034225"
"$GPGGA,004922,2423.3611,N,08135.4989,W,1,7,2.1,17,"
"##MN-00 00 18 0407 01993 5325 445358 349877 200"
"158.034271"
"$GPGGA,004926,2423.3635,N,08135.4990,W,1,7,2.1,17,"
"##MN-00 00 11 0408 01994 5325 445368 349882 200"
"158.034317"
"$GPGGA,004930,2423.3662,N,08135.4993,W,1,7,2.1,17,"
"##MN-00 00 08 0409 01989 5324 445369 349883 200"
"158.034363"
"$GPGGA,004934,2423.3688,N,08135.4992,W,1,7,2.1,17,"
"##MN-00 00 11 0410 01987 5324 445364 349883 200"
"158.03441"
"$GPGGA,004938,2423.3713,N,08135.4992,W,1,7,2.1,16,"
"##MN-00 00 09 0410 01986 5324 445366 349884 200"
"158.034456"
"$GPGGA,004942,2423.3738,N,08135.4993,W,1,7,2.1,16,"
"##MN-00 00 11 0411 01981 5324 445370 349886 200"
"158.034502"
"$GPGGA,004946,2423.3763,N,08135.4994,W,1,7,2.1,16,"
"##MN-00 00 12 0412 01980 5324 445369 349888 200"
"158.034549"
"$GPGGA,004950,2423.3788,N,08135.4995,W,1,7,2.1,16,"
"##MN-00 00 12 0412 01978 5324 445362 349887 200"
"158.034595"
"$GPGGA,004954,2423.3812,N,08135.4996,W,1,7,2.1,15,"
"##MN-00 00 12 0413 01976 5324 445354 349885 200"
"158.034641"
"$GPGGA,004958,2423.3840,N,08135.4996,W,1,7,2.1,15,"
"##MN-00 00 13 0414 01975 5324 445348 355712 200"
"158.034687"
"$GPGGA,005002,2423.3865,N,08135.4996,W,1,7,2.1,15,"
"##MN-00 00 16 0414 01977 5323 445346 363210 200"
"158.034734"
"$GPGGA,005006,2423.3890,N,08135.4996,W,1,7,2.1,15,"
"##MN-00 00 09 0415 01974 5323 445346 359363 200"
"158.03478"
"$GPGGA,005010,2423.3916,N,08135.4996,W,1,7,2.1,15,"
"##MN-00 00 19 0416 01976 5323 445348 365463 200"
"158.034826"
"$GPGGA,005014,2423.3941,N,08135.4996,W,1,7,2.1,15,"
"##MN-00 00 16 0417 01974 5323 445350 349911 200"
"158.034873"
"$GPGGA,005018,2423.3967,N,08135.4996,W,1,7,2.1,14,"
"##MN-00 00 08 0417 01975 5323 445347 349910 200"
"158.034919"
"$GPGGA,005022,2423.3992,N,08135.4995,W,1,7,2.1,14,"
"##MN-00 00 18 0418 01975 5323 445346 349910 200"
"158.034965"
"$GPGGA,005026,2423.4017,N,08135.4996,W,1,7,2.1,14,"
"##MN-00 00 14 0419 01975 5323 445347 349910 200"
"158.035012"
"$GPGGA,005030,2423.4043,N,08135.4996,W,1,7,2.1,14,"
"##MN-00 00 10 0419 01974 5323 445351 349910 200"
"158.035058"
"$GPGGA,005034,2423.4068,N,08135.4996,W,1,7,2.1,14,"
"##MN-00 00 15 0420 01976 5323 445346 349909 200"
"158.035104"
"$GPGGA,005038,2423.4093,N,08135.4996,W,1,7,2.1,14,"
"##MN-00 00 10 0421 01971 5323 445325 349903 200"
"158.03515"
"$GPGGA,005042,2423.4118,N,08135.4996,W,1,7,2.1,14,"
"##MN-00 00 11 0422 01974 5323 445310 349897 200"
"158.035197"
"$GPGGA,005046,2423.4144,N,08135.4996,W,1,7,2.1,14,"
"##MN-00 00 12 0422 01971 5322 445313 356263 200"
"158.035243"
"$GPGGA,005050,2423.4172,N,08135.4996,W,1,7,2.1,14,"
"##MN-00 00 12 0423 01972 5322 445308 349886 200"
"158.035289"
"$GPGGA,005054,2423.4198,N,08135.4996,W,1,7,2.1,14,"
"##MN-00 00 13 0424 01972 5322 445291 349882 200"
"158.035336"
"$GPGGA,005058,2423.4226,N,08135.4997,W,1,7,2.1,14,"
"##MN-00 00 10 0425 01971 5322 445276 349877 200"
"158.035382"
"$GPGGA,005102,2423.4252,N,08135.4997,W,1,7,2.1,14,"
"##MN-00 00 15 0425 01967 5322 445261 349872 200"
"158.035428"
"$GPGGA,005106,2423.4278,N,08135.4997,W,1,7,2.1,14,"
"##MN-00 00 12 0426 01967 5322 445251 349868 200"
"158.035475"
"$GPGGA,005110,2423.4305,N,08135.4997,W,1,7,2.1,14,"
"##MN-00 00 10 0427 01968 5322 445230 349863 200"
"158.035521"
"$GPGGA,005114,2423.4332,N,08135.4998,W,1,7,2.1,14,"
"##MN-00 00 12 0427 01966 5322 445207 349855 200"
"158.035567"
"$GPGGA,005118,2423.4359,N,08135.4998,W,1,7,2.1,14,"
"##MN-00 00 09 0428 01965 5322 445205 353055 200"
"158.035613"
"$GPGGA,005122,2423.4385,N,08135.4999,W,1,7,2.1,14,"
"##MN-00 00 12 0429 01967 5321 445208 349852 200"
"158.03566"
"$GPGGA,005126,2423.4413,N,08135.4999,W,1,7,2.1,14,"
"##MN-00 00 10 0430 01966 5321 445216 349853 200"
"158.035706"
"$GPGGA,005130,2423.4439,N,08135.5000,W,1,7,2.1,14,"
"##MN-00 00 10 0430 01965 5321 445231 349856 200"
"158.035752"
"$GPGGA,005134,2423.4467,N,08135.5001,W,1,7,2.1,14,"
"##MN-00 00 13 0431 01964 5321 445250 349863 200"
"158.035799"
"$GPGGA,005138,2423.4494,N,08135.5003,W,1,7,2.1,14,"
"##MN-00 00 11 0432 01965 5321 445264 349867 200"
"158.035845"
"$GPGGA,005142,2423.4520,N,08135.5002,W,1,7,2.1,14,"
"##MN-00 00 09 0433 01964 5321 445273 349871 200"
"158.035891"
"$GPGGA,005146,2423.4548,N,08135.5004,W,1,7,2.1,13,"
"##MN-00 00 12 0433 01965 5321 445277 349872 200"
"158.035938"
"$GPGGA,005150,2423.4577,N,08135.5005,W,1,7,2.1,13,"
"##MN-00 00 07 0434 01964 5321 445277 349872 200"
"158.035984"
"$GPGGA,005154,2423.4606,N,08135.5007,W,1,7,2.1,13,"
"##MN-00 00 11 0435 01963 5320 445274 349872 200"
"158.03603"
"$GPGGA,005158,2423.4635,N,08135.5008,W,1,7,2.1,13,"
"##MN-00 00 06 0436 01960 5320 445280 349873 200"
"158.036076"
"$GPGGA,005202,2423.4664,N,08135.5011,W,1,7,2.1,13,"
"##MN-00 00 10 0436 01959 5320 445287 349875 200"
"158.036123"
"$GPGGA,005206,2423.4693,N,08135.5011,W,1,7,2.1,13,"
"##MN-00 00 09 0437 01959 5320 445297 357161 200"
"158.036169"
"$GPGGA,005210,2423.4724,N,08135.5014,W,1,7,2.1,13,"
"##MN-00 00 04 0438 01956 5320 445301 349877 200"
"158.036215"
"$GPGGA,005214,2423.4754,N,08135.5015,W,1,7,2.1,13,"
"##MN-00 00 07 0439 01955 5320 445307 349878 200"
"158.036262"
"$GPGGA,005218,2423.4787,N,08135.5018,W,1,7,2.1,13,"
"##MN-00 00 06 0439 01951 5320 445302 349878 200"
"158.036308"
"$GPGGA,005222,2423.4818,N,08135.5022,W,1,7,2.1,13,"
"##MN-00 00 06 0440 01950 5320 445284 349877 200"
"158.036354"
"$GPGGA,005226,2423.4851,N,08135.5025,W,1,7,2.1,13,"
"##MN-00 00 07 0440 01948 5320 445278 349873 200"
"158.0364"
"$GPGGA,005230,2423.4883,N,08135.5029,W,1,7,2.1,14,"
"##MN-00 00 06 0441 01945 5319 445269 349872 200"
"158.036447"
"$GPGGA,005235,2423.4924,N,08135.5033,W,1,7,2.1,14,"
"##MN-00 00 03 0441 01944 5319 445264 349870 200"
"158.036493"
"$GPGGA,005239,2423.4957,N,08135.5037,W,1,7,2.1,14,"
"##MN-00 00 04 0442 01941 5319 445257 349869 200"
"158.036539"
"$GPGGA,005243,2423.4991,N,08135.5041,W,1,7,2.1,14,"
"##MN-00 00 04 0442 01941 5319 445263 349868 200"
"158.036586"
"$GPGGA,005247,2423.5025,N,08135.5045,W,1,7,2.1,14,"
"##MN-00 00 12 0442 01947 5319 445280 349870 200"
"158.036632"
"$GPGGA,005250,2423.5050,N,08135.5048,W,1,7,2.1,14,"
"##MN-00 00 04 0443 01949 5319 445293 349874 200"
"158.036678"
"$GPGGA,005255,2423.5093,N,08135.5054,W,1,7,2.1,14,"
"##MN-00 00 09 0444 01953 5319 445306 349878 200"
"158.036725"
"$GPGGA,005259,2423.5126,N,08135.5058,W,1,7,2.1,14,"
"##MN-00 00 09 0445 01956 5319 445320 349879 200"
"158.036771"
"$GPGGA,005302,2423.5152,N,08135.5061,W,1,7,2.1,14,"
"##MN-00 00 03 0445 01963 5319 445350 349881 200"
"158.036829"
"$GPGGA,005307,2423.5195,N,08135.5066,W,1,7,2.1,14,"
"##MN-00 00 08 0446 01965 5319 445367 349891 200"
"158.036875"
"$GPGGA,005311,2423.5231,N,08135.5070,W,1,7,2.1,14,"
"##MN-00 00 08 0447 01970 5319 445390 349891 200"
"158.036921"
"$GPGGA,005315,2423.5266,N,08135.5074,W,1,7,2.1,14,"
"##MN-00 00 05 0448 01973 5318 445408 349900 200"
"158.036968"
"$GPGGA,005319,2423.5300,N,08135.5079,W,1,7,2.1,14,"
"##MN-00 00 07 0448 01974 5318 445427 349904 200"
"158.037014"
"$GPGGA,005323,2423.5335,N,08135.5081,W,1,7,2.1,14,"
"##MN-00 00 06 0449 01973 5318 445435 349910 200"
"158.03706"
"$GPGGA,005327,2423.5368,N,08135.5085,W,1,7,2.1,14,"
"##MN-00 00 01 0449 01972 5318 445422 349910 200"
"158.037106"
"$GPGGA,005331,2423.5403,N,08135.5088,W,1,7,2.1,14,"
"##MN+00 00 02 0449 01969 5318 445408 349906 200"
"158.037153"
"$GPGGA,005335,2423.5437,N,08135.5092,W,1,7,2.1,14,"
"##MN+00 00 02 0449 01969 5318 445399 349903 200"
"158.037199"
"$GPGGA,005339,2423.5473,N,08135.5097,W,1,7,2.1,14,"
"##MN+00 00 00 0450 01971 5318 445395 349902 200"
"158.037245"
"$GPGGA,005343,2423.5506,N,08135.5101,W,1,7,2.1,14,"
"##MN-00 00 01 0450 01968 5318 445387 349899 200"
"158.037292"
"$GPGGA,005347,2423.5541,N,08135.5105,W,1,7,2.1,14,"
"##MN+00 00 00 0450 01971 5318 445376 349897 200"
"158.037338"
"$GPGGA,005351,2423.5574,N,08135.5109,W,1,7,2.1,14,"
"##MN+00 00 01 0450 01969 5317 445367 349894 200"
"158.037384"
"$GPGGA,005355,2423.5610,N,08135.5112,W,1,7,2.1,14,"
"##MN+00 00 00 0450 01970 5318 445355 349892 200"
"158.037431"
"$GPGGA,005359,2423.5643,N,08135.5116,W,1,7,2.1,14,"
"##MN-00 00 00 0450 01969 5317 445340 349888 200"
"158.037477"
"$GPGGA,005403,2423.5678,N,08135.5120,W,1,7,2.1,14,"
"##MN-00 00 14 0451 01969 5317 445341 349886 200"
"158.037523"
"$GPGGA,005407,2423.5712,N,08135.5123,W,1,7,2.1,14,"
"##MN-00 00 41 0451 01968 5317 445344 349887 200"
"158.037569"
"$GPGGA,005411,2423.5747,N,08135.5127,W,1,7,2.1,14,"
"##MN-00 00 55 0453 01961 5317 445322 349879 200"
"158.037616"
"#increment_net"
"$GPGGA,005415,2423.5780,N,08135.5131,W,1,7,2.1,14,"
"##MN-00 00 57 0454 01952 5317 445277 349870 200"
"158.037662"
"$GPGGA,005419,2423.5813,N,08135.5134,W,1,7,2.1,14,"
"##MN-00 00 59 0455 01945 5317 445226 349865 200"
"158.037708"
"$GPGGA,005423,2423.5845,N,08135.5136,W,1,7,2.1,14,"
"##MN-00 00 59 0457 01942 5317 445192 349864 200"
"158.037755"
"$GPGGA,005427,2423.5878,N,08135.5138,W,1,7,2.1,14,"
"##MN-00 00 62 0458 01942 5317 445186 349848 200"
"158.037801"
"$GPGGA,005431,2423.5910,N,08135.5141,W,1,7,2.1,14,"
"##MN-00 00 62 0459 01947 5316 445193 349845 200"
"158.037847"
"$GPGGA,005435,2423.5943,N,08135.5145,W,1,7,2.1,14,"
"##MN-00 00 63 0460 01950 5316 445201 349847 200"
"158.037894"
"$GPGGA,005439,2423.5975,N,08135.5148,W,1,7,2.1,14,"
"##MN-00 00 63 0461 01957 5317 445201 349847 200"
"158.03794"
"$GPGGA,005443,2423.6008,N,08135.5149,W,1,7,2.1,14,"
"##MN-00 00 63 0462 01963 5317 445204 349844 200"
"158.037986"
"$GPGGA,005447,2423.6041,N,08135.5152,W,1,7,2.1,14,"
"##MN-00 00 63 0463 01965 5317 445213 349843 200"
"158.038032"
"$GPGGA,005451,2423.6073,N,08135.5155,W,1,7,2.1,14,"
"##MN-00 00 63 0464 01969 5317 445218 349843 200"
"158.038079"
"$GPGGA,005455,2423.6105,N,08135.5159,W,1,7,2.1,13,"
"##MN-00 00 63 0465 01973 5317 445226 349843 200"
"158.038125"
"$GPGGA,005459,2423.6138,N,08135.5162,W,1,7,2.1,13,"
"##MN-00 00 63 0467 01969 5317 445254 349849 200"
"158.038171"
"$GPGGA,005503,2423.6169,N,08135.5163,W,1,7,2.1,13,"
"##MN-00 00 64 0468 01969 5317 445275 349855 200"
"158.038218"
"$GPGGA,005507,2423.6199,N,08135.5166,W,1,7,2.1,13,"
"##MN-00 00 64 0470 01968 5317 445276 349853 200"
"158.038264"
"$GPGGA,005511,2423.6228,N,08135.5170,W,1,7,2.1,13,"
"##MN-00 00 64 0471 01970 5317 445271 349855 200"
"158.03831"
"$GPGGA,005515,2423.6259,N,08135.5171,W,1,7,2.1,13,"
"##MN-00 00 64 0472 01970 5316 445268 349855 200"
"158.038356"
"$GPGGA,005519,2423.6289,N,08135.5173,W,1,7,2.1,13,"
"##MN-00 00 64 0473 01971 5316 445265 349854 200"
"158.038403"
"$GPGGA,005523,2423.6319,N,08135.5175,W,1,7,2.1,13,"
"##MN-00 00 64 0475 01970 5316 445261 349853 200"
"158.038449"
"$GPGGA,005527,2423.6350,N,08135.5176,W,1,7,2.1,13,"
"##MN-00 00 63 0476 01969 5316 445269 349853 200"
"158.038495"
"$GPGGA,005531,2423.6379,N,08135.5178,W,1,7,2.1,13,"
"##MN-00 00 64 0477 01971 5316 445289 349857 200"
"158.038542"
"$GPGGA,005535,2423.6409,N,08135.5181,W,1,7,2.1,13,"
"##MN-00 00 63 0479 01973 5315 445304 349858 200"
"158.038588"
"$GPGGA,005539,2423.6438,N,08135.5182,W,1,7,2.1,13,"
"##MN-00 00 64 0480 01972 5315 445311 349862 200"
"158.038634"
"$GPGGA,005543,2423.6467,N,08135.5184,W,1,7,2.1,13,"
"##MN-00 00 63 0481 01971 5315 445323 349864 200"
"158.038681"
"$GPGGA,005547,2423.6498,N,08135.5186,W,1,7,2.1,13,"
"##MN-00 00 63 0483 01974 5315 445335 349869 200"
"158.038727"
"$GPGGA,005551,2423.6527,N,08135.5188,W,1,7,2.1,13,"
"##MN+00 00 63 0484 01973 5315 445346 349874 200"
"158.038773"
"$GPGGA,005555,2423.6556,N,08135.5189,W,1,7,2.1,13,"
"##MN+00 00 63 0485 01972 5315 445369 349879 200"
"158.038819"
"$GPGGA,005559,2423.6585,N,08135.5191,W,1,7,2.1,13,"
"##MN+00 00 64 0486 01975 5315 445404 349882 200"
"158.038866"
"$GPGGA,005603,2423.6614,N,08135.5193,W,1,7,2.1,13,"
"##MN-00 00 63 0488 01973 5315 445450 349897 200"
"158.038912"
"$GPGGA,005607,2423.6642,N,08135.5195,W,1,7,2.1,13,"
"##MN-00 00 63 0489 01975 5315 445489 349902 200"
"158.038958"
"$GPGGA,005611,2423.6672,N,08135.5196,W,1,7,2.1,13,"
"##MN-00 00 63 0490 01975 5315 445505 349908 200"
"158.039005"
"$GPGGA,005615,2423.6700,N,08135.5199,W,1,7,2.1,13,"
"##MN+00 00 63 0491 01977 5315 445509 349916 200"
"158.039051"
"$GPGGA,005619,2423.6729,N,08135.5199,W,1,7,2.1,13,"
"##MN+00 00 63 0493 01977 5315 445500 349919 200"
"158.039097"
"$GPGGA,005623,2423.6756,N,08135.5200,W,1,7,2.1,13,"
"##MN+00 00 75 0494 01980 5315 445474 349920 200"
"158.039144"
"#increment_net"
"$GPGGA,005627,2423.6787,N,08135.5202,W,1,7,2.1,13,"
"##MN-00 00 67 0495 01980 5314 445471 349923 199"
"158.03919"
"$GPGGA,005631,2423.6814,N,08135.5203,W,1,7,2.1,13,"
"##MN-00 00 63 0496 01980 5313 445470 349922 200"
"158.039236"
"$GPGGA,005635,2423.6843,N,08135.5206,W,1,7,2.1,13,"
"##MN-00 00 63 0498 01979 5313 445458 349920 200"
"158.039282"
"$GPGGA,005639,2423.6871,N,08135.5209,W,1,7,2.1,13,"
"##MN-00 00 62 0499 01981 5313 445449 349918 199"
"158.039329"
"$GPGGA,005643,2423.6899,N,08135.5210,W,1,7,2.1,13,"
"##MN-00 00 61 0500 01980 5314 445447 349917 200"
"158.039375"
"$GPGGA,005647,2423.6926,N,08135.5213,W,1,7,2.1,13,"
"##MN-00 00 61 0501 01979 5313 445448 349917 199"
"158.039421"
"$GPGGA,005651,2423.6954,N,08135.5214,W,1,7,2.1,13,"
"##MN-00 00 61 0503 01981 5313 445455 349917 199"
"158.039468"
"$GPGGA,005655,2423.6980,N,08135.5216,W,1,7,2.1,13,"
"##MN-00 00 61 0504 01980 5313 445474 349919 199"
"158.039514"
"$GPGGA,005700,2423.7016,N,08135.5220,W,1,7,2.1,13,"
"##MN-00 00 61 0505 01980 5313 445494 349922 199"
"158.03956"
"$GPGGA,005704,2423.7041,N,08135.5222,W,1,7,2.1,13,"
"##MN-00 00 62 0507 01978 5313 445505 349921 199"
"158.039606"
"$GPGGA,005707,2423.7062,N,08135.5224,W,1,7,2.1,13,"
"##MN-00 00 61 0508 01983 5313 445518 349923 199"
"158.039653"
"$GPGGA,005711,2423.7088,N,08135.5225,W,1,7,2.1,13,"
"##MN-00 00 61 0509 01980 5313 445521 349925 199"
"158.039699"
"$GPGGA,005715,2423.7113,N,08135.5228,W,1,7,2.1,13,"
"##MN-00 00 61 0510 01979 5313 445517 349927 199"
"158.039745"
"$GPGGA,005719,2423.7139,N,08135.5229,W,1,7,2.1,13,"
"##MN-00 00 61 0512 01979 5313 445503 349929 199"
"158.039792"
"$GPGGA,005724,2423.7168,N,08135.5230,W,1,7,2.1,13,"
"##MN-00 00 61 0513 01978 5313 445494 349928 199"
"158.039838"
"$GPGGA,005728,2423.7193,N,08135.5231,W,1,7,2.1,13,"
"##MN-00 00 61 0514 01976 5313 445471 349928 199"
"158.039884"
"$GPGGA,005732,2423.7217,N,08135.5231,W,1,7,2.1,13,"
"##MN-00 00 60 0515 01976 5313 445457 349925 199"
"158.039931"
"$GPGGA,005736,2423.7240,N,08135.5231,W,1,7,2.1,13,"
"##MN-00 00 60 0517 01975 5313 445452 349924 199"
"158.039977"
"$GPGGA,005740,2423.7265,N,08135.5231,W,1,7,2.1,13,"
"##MN-00 00 60 0518 01978 5313 445458 349922 199"
"158.040023"
"$GPGGA,005744,2423.7289,N,08135.5232,W,1,7,2.1,13,"
"##MN-00 00 60 0519 01979 5313 445464 349923 199"
"158.040081"
"$GPGGA,005748,2423.7312,N,08135.5233,W,1,7,2.1,13,"
"##MN-00 00 60 0520 01982 5313 445475 349923 199"
"158.040127"
"$GPGGA,005752,2423.7337,N,08135.5233,W,1,7,2.1,13,"
"##MN-00 00 60 0521 01982 5313 445491 349923 199"
"158.040174"
"$GPGGA,005756,2423.7361,N,08135.5234,W,1,7,2.1,13,"
"##MN-00 00 60 0522 01983 5312 445506 349924 199"
"158.04022"
"$GPGGA,005800,2423.7384,N,08135.5235,W,1,7,2.1,13,"
"##MN+00 00 59 0524 01981 5312 445527 349930 199"
"158.040266"
"$GPGGA,005804,2423.7409,N,08135.5236,W,1,7,2.1,13,"
"##MN+00 00 58 0525 01978 5312 445543 349932 199"
"158.040312"
"$GPGGA,005808,2423.7432,N,08135.5236,W,1,7,2.1,13,"
"##MN+00 00 59 0526 01976 5312 445552 349933 199"
"158.040359"
"$GPGGA,005812,2423.7456,N,08135.5238,W,1,7,2.1,13,"
"##MN-00 00 58 0527 01974 5312 445560 349934 200"
"158.040405"
"$GPGGA,005816,2423.7480,N,08135.5238,W,1,7,2.1,13,"
"##MN-00 00 58 0529 01973 5312 445558 349934 200"
"158.040451"
"$GPGGA,005820,2423.7504,N,08135.5239,W,1,7,2.1,13,"
"##MN-00 00 58 0530 01974 5312 445537 349935 200"
"158.040498"
"$GPGGA,005824,2423.7528,N,08135.5239,W,1,7,2.1,13,"
"##MN+00 00 59 0531 01974 5312 445525 349935 200"
"158.040544"
"$GPGGA,005828,2423.7546,N,08135.5239,W,1,7,2.1,13,"
"##MN+00 00 59 0532 01975 5312 445511 349933 200"
"158.04059"
"$GPGGA,005832,2423.7575,N,08135.5240,W,1,7,2.1,13,"
"##MN+00 00 72 0533 01977 5312 445497 349932 199"
"158.040637"
"$GPGGA,005836,2423.7600,N,08135.5241,W,1,7,2.1,13,"
"##MN-00 00 63 0534 01977 5311 445481 349927 200"
"158.040683"
"$GPGGA,005840,2423.7623,N,08135.5242,W,1,7,2.1,13,"
"##MN-00 00 59 0535 01975 5311 445466 349925 200"
"158.040729"
"#increment_net"
"$GPGGA,005844,2423.7648,N,08135.5243,W,1,7,2.1,13,"
"##MN-00 00 57 0536 01975 5311 445434 349925 200"
"158.040775"
"$GPGGA,005848,2423.7673,N,08135.5245,W,1,7,2.1,13,"
"##MN-00 00 58 0538 01973 5311 445396 349921 200"
"158.040822"
"$GPGGA,005852,2423.7695,N,08135.5244,W,1,7,2.1,13,"
"##MN-00 00 57 0539 01974 5311 445363 349913 200"
"158.040868"
"$GPGGA,005856,2423.7720,N,08135.5245,W,1,7,2.1,13,"
"##MN-00 00 58 0540 01973 5311 445348 349911 200"
"158.040914"
"$GPGGA,005900,2423.7745,N,08135.5246,W,1,7,2.1,13,"
"##MN-00 00 57 0541 01973 5311 445337 349895 200"
"158.040961"
"$GPGGA,005904,2423.7767,N,08135.5247,W,1,7,2.1,13,"
"##MN-00 00 58 0542 01971 5311 445336 349892 200"
"158.041007"
"$GPGGA,005908,2423.7792,N,08135.5247,W,1,7,2.1,13,"
"##MN-00 00 57 0544 01971 5311 445343 349896 200"
"158.041053"
"$GPGGA,005912,2423.7817,N,08135.5249,W,1,7,2.1,13,"
"##MN-00 00 58 0545 01972 5311 445348 349892 200"
"158.0411"
"$GPGGA,005916,2423.7840,N,08135.5249,W,1,7,2.1,13,"
"##MN-00 00 57 0546 01972 5311 445351 349891 200"
"158.041146"
"$GPGGA,005920,2423.7865,N,08135.5250,W,1,7,2.1,13,"
"##MN-00 00 58 0547 01971 5310 445361 349891 200"
"158.041192"
"$GPGGA,005924,2423.7890,N,08135.5250,W,1,7,2.1,13,"
"##MN-00 00 58 0548 01971 5310 445374 349892 200"
"158.041238"
"$GPGGA,005928,2423.7914,N,08135.5251,W,1,7,2.1,12,"
"##MN-00 00 57 0549 01973 5310 445383 349894 200"
"158.041285"
"$GPGGA,005932,2423.7937,N,08135.5252,W,1,7,2.1,12,"
"##MN-00 00 57 0551 01972 5310 445394 349898 200"
"158.041331"
"$GPGGA,005936,2423.7962,N,08135.5253,W,1,7,2.1,12,"
"##MN-00 00 57 0552 01974 5311 445412 349899 200"
"158.041377"
"$GPGGA,005940,2423.7986,N,08135.5254,W,1,7,2.1,12,"
"##MN-00 00 57 0553 01973 5310 445432 349901 200"
"158.041424"
"$GPGGA,005944,2423.8009,N,08135.5257,W,1,7,2.1,12,"
"##MN-00 00 57 0554 01973 5310 445446 349904 200"
"158.04147"
"$GPGGA,005948,2423.8035,N,08135.5258,W,1,7,2.1,12,"
"##MN-00 00 58 0555 01974 5310 445451 349906 200"
"158.041516"
"$GPGGA,005952,2423.8059,N,08135.5260,W,1,7,2.1,12,"
"##MN-00 00 58 0557 01974 5310 445451 349910 200"
"158.041563"
"$GPGGA,005956,2423.8082,N,08135.5260,W,1,7,2.1,12,"
"##MN-00 00 58 0558 01971 5310 445441 349909 200"
"158.041609"
"$GPGGA,010000,2423.8107,N,08135.5261,W,1,7,2.1,12,"
"##MN-00 00 57 0559 01972 5310 445425 349909 200"
"158.041655"
"$GPGGA,010004,2423.8132,N,08135.5262,W,1,7,2.1,12,"
"##MN-00 00 57 0560 01969 5310 445402 349908 200"
"158.041701"
"$GPGGA,010008,2423.8156,N,08135.5264,W,1,7,2.1,12,"
"##MN-00 00 57 0561 01972 5310 445387 349905 200"
"158.041748"
"$GPGGA,010012,2423.8179,N,08135.5265,W,1,7,2.1,12,"
"##MN+00 00 58 0562 01971 5310 445370 349903 200"
"158.041794"
"$GPGGA,010016,2423.8204,N,08135.5266,W,1,7,2.1,12,"
"##MN+00 00 57 0564 01972 5310 445347 349901 200"
"158.04184"
"$GPGGA,010020,2423.8228,N,08135.5267,W,1,7,2.1,12,"
"##MN+00 00 58 0565 01972 5309 445329 349899 200"
"158.041887"
"$GPGGA,010024,2423.8251,N,08135.5268,W,1,7,2.1,12,"
"##MN-00 00 58 0566 01970 5309 445325 349888 200"
"158.041933"
"$GPGGA,010028,2423.8276,N,08135.5271,W,1,7,2.1,12,"
"##MN-00 00 58 0567 01970 5310 445325 349888 200"
"158.041979"
"$GPGGA,010032,2423.8299,N,08135.5271,W,1,7,2.1,12,"
"##MN-00 00 57 0568 01973 5309 445320 349886 200"
"158.042025"
"$GPGGA,010036,2423.8324,N,08135.5272,W,1,7,2.1,12,"
"##MN+00 00 58 0569 01972 5309 445322 349883 200"
"158.042072"
"$GPGGA,010040,2423.8346,N,08135.5274,W,1,7,2.1,12,"
"##MN+00 00 58 0571 01971 5309 445341 349883 199"
"158.042118"
"$GPGGA,010044,2423.8371,N,08135.5275,W,1,7,2.1,12,"
"##MN+00 00 71 0572 01976 5309 445361 349887 199"
"158.042164"
"#increment_net"
"$GPGGA,010048,2423.8395,N,08135.5276,W,1,7,2.1,12,"
"##MN-00 00 64 0573 01976 5309 445376 349892 199"
"158.042211"
"$GPGGA,010052,2423.8418,N,08135.5278,W,1,7,2.1,12,"
"##MN-00 00 60 0574 01973 5308 445385 349892 199"
"158.042257"
"$GPGGA,010056,2423.8443,N,08135.5277,W,1,7,2.1,12,"
"##MN-00 00 58 0575 01973 5308 445386 349894 199"
"158.042303"
"$GPGGA,010100,2423.8465,N,08135.5278,W,1,7,2.1,12,"
"##MN-00 00 58 0576 01973 5309 445375 349892 199"
"158.04235"
"$GPGGA,010104,2423.8490,N,08135.5279,W,1,7,2.1,12,"
"##MN-00 00 58 0578 01972 5308 445360 349888 199"
"158.042396"
"$GPGGA,010108,2423.8515,N,08135.5280,W,1,7,2.1,12,"
"##MN-00 00 57 0579 01972 5308 445353 349886 199"
"158.042442"
"$GPGGA,010112,2423.8539,N,08135.5282,W,1,7,2.1,12,"
"##MN-00 00 57 0580 01972 5309 445359 349887 199"
"158.042488"
"$GPGGA,010116,2423.8564,N,08135.5283,W,1,7,2.1,12,"
"##MN-00 00 58 0581 01971 5308 445359 349887 199"
"158.042535"
"$GPGGA,010120,2423.8587,N,08135.5285,W,1,7,2.1,12,"
"##MN-00 00 58 0583 01971 5308 445360 349887 199"
"158.042581"
"$GPGGA,010124,2423.8612,N,08135.5285,W,1,7,2.1,12,"
"##MN-00 00 58 0584 01970 5308 445367 349887 199"
"158.042627"
"$GPGGA,010128,2423.8635,N,08135.5285,W,1,7,2.1,12,"
"##MN-00 00 58 0585 01971 5308 445371 349888 199"
"158.042674"
"$GPGGA,010132,2423.8660,N,08135.5285,W,1,7,2.1,12,"
"##MN-00 00 58 0586 01971 5308 445377 349888 199"
"158.04272"
"$GPGGA,010136,2423.8685,N,08135.5287,W,1,7,2.1,12,"
"##MN-00 00 58 0587 01971 5308 445390 349888 199"
"158.042766"
"$GPGGA,010140,2423.8709,N,08135.5287,W,1,7,2.1,12,"
"##MN-00 00 58 0589 01973 5308 445394 349891 199"
"158.042813"
"$GPGGA,010144,2423.8734,N,08135.5288,W,1,7,2.1,12,"
"##MN-00 00 57 0590 01971 5308 445395 349892 199"
"158.042859"
"$GPGGA,010148,2423.8757,N,08135.5289,W,1,7,2.1,12,"
"##MN-00 00 58 0591 01970 5308 445401 349893 199"
"158.042905"
"$GPGGA,010152,2423.8782,N,08135.5292,W,1,7,2.1,12,"
"##MN-00 00 57 0592 01972 5308 445405 349894 199"
"158.042951"
"$GPGGA,010156,2423.8807,N,08135.5292,W,1,7,2.1,12,"
"##MN-00 00 58 0593 01970 5308 445412 349894 199"
"158.042998"
"$GPGGA,010200,2423.8830,N,08135.5292,W,1,7,2.1,12,"
"##MN-00 00 58 0595 01970 5308 445427 349893 199"
"158.043044"
"$GPGGA,010204,2423.8855,N,08135.5292,W,1,7,2.1,12,"
"##MN-00 00 58 0596 01971 5308 445436 349897 199"
"158.04309"
"$GPGGA,010209,2423.8886,N,08135.5294,W,1,7,2.1,12,"
"##MN-00 00 58 0597 01970 5308 445442 349899 199"
"158.043137"
"$GPGGA,010213,2423.8909,N,08135.5294,W,1,7,2.1,12,"
"##MN-00 00 57 0598 01970 5307 445445 349901 199"
"158.043183"
"$GPGGA,010217,2423.8934,N,08135.5296,W,1,7,2.1,12,"
"##MN+00 00 58 0599 01970 5307 445441 349900 199"
"158.043229"
"$GPGGA,010221,2423.8959,N,08135.5297,W,1,7,2.1,12,"
"##MN+00 00 58 0601 01970 5307 445432 349899 199"
"158.043275"
"$GPGGA,010225,2423.8984,N,08135.5300,W,1,7,2.1,12,"
"##MN+00 00 58 0602 01971 5307 445430 349898 199"
"158.043333"
"$GPGGA,010229,2423.9003,N,08135.5299,W,1,7,2.1,12,"
"##MN-00 00 58 0603 01970 5307 445431 349900 200"
"158.04338"
"$GPGGA,010233,2423.9027,N,08135.5301,W,1,7,2.1,12,"
"##MN-00 00 58 0604 01971 5307 445427 349901 200"
"158.043426"
"$GPGGA,010237,2423.9050,N,08135.5303,W,1,7,2.1,12,"
"##MN-00 00 58 0605 01971 5307 445413 349899 200"
"158.043472"
"$GPGGA,010241,2423.9075,N,08135.5303,W,1,7,2.1,12,"
"##MN+00 00 58 0607 01970 5307 445403 349898 200"
"158.043519"
"$GPGGA,010245,2423.9107,N,08135.5302,W,1,6,2.9,12,"
"##MN+00 00 58 0608 01971 5307 445400 349896 199"
"158.043565"
"$GPGGA,010249,2423.9126,N,08135.5309,W,1,7,2.1,13,"
"##MN+00 00 71 0609 01975 5307 445402 349894 199"
"158.043611"
"#increment_net"
"$GPGGA,010253,2423.9151,N,08135.5310,W,1,7,2.1,13,"
"##MN-00 00 66 0610 01975 5307 445420 349898 198"
"158.043657"
"$GPGGA,010257,2423.9176,N,08135.5310,W,1,7,2.1,14,"
"##MN-00 00 61 0612 01982 5307 445434 349899 198"
"158.043704"
"$GPGGA,010301,2423.9202,N,08135.5311,W,1,7,2.1,14,"
"##MN-00 00 60 0613 01989 5307 445441 349896 198"
"158.04375"
"$GPGGA,010305,2423.9230,N,08135.5311,W,1,7,2.1,15,"
"##MN-00 00 59 0615 01992 5307 445448 349893 198"
"158.043796"
"$GPGGA,010309,2423.9260,N,08135.5312,W,1,7,1.6,15,"
"##MN-00 00 60 0616 01993 5307 445458 349891 198"
"158.043843"
"$GPGGA,010313,2423.9292,N,08135.5312,W,1,7,1.6,16,"
"##MN-00 00 58 0618 01992 5307 445464 349892 198"
"158.043889"
"$GPGGA,010317,2423.9321,N,08135.5313,W,1,7,1.6,16,"
"##MN-00 00 60 0620 01990 5307 445461 349892 198"
"158.043935"
"$GPGGA,010321,2423.9349,N,08135.5315,W,1,7,1.6,17,"
"##MN-00 00 60 0621 01988 5306 445449 349892 198"
"158.043981"
"$GPGGA,010325,2423.9377,N,08135.5316,W,1,7,1.6,18,"
"##MN-00 00 60 0623 01986 5306 445446 349894 198"
"158.044028"
"$GPGGA,010329,2423.9404,N,08135.5317,W,1,7,1.6,18,"
"##MN-00 00 60 0624 01981 5306 445436 349896 198"
"158.044074"
"$GPGGA,010333,2423.9432,N,08135.5318,W,1,7,1.6,18,"
"##MN-00 00 59 0626 01978 5306 445391 349893 198"
"158.04412"
"$GPGGA,010337,2423.9458,N,08135.5319,W,1,7,1.6,18,"
"##MN-00 00 58 0628 01973 5306 445303 349869 198"
"158.044167"
"$GPGGA,010341,2423.9483,N,08135.5322,W,1,7,1.6,18,"
"##MN-00 00 59 0629 01968 5306 445257 349849 198"
"158.044213"
"$GPGGA,010345,2423.9512,N,08135.5322,W,1,7,1.6,18,"
"##MN-00 00 58 0631 01966 5306 445221 349848 198"
"158.044259"
"$GPGGA,010349,2423.9541,N,08135.5324,W,1,8,1.6,18,"
"##MN-00 00 58 0633 01960 5305 445187 349835 198"
"158.044306"
"$GPGGA,010353,2423.9570,N,08135.5327,W,1,8,1.6,18,"
"##MN-00 00 58 0634 01958 5306 445173 349833 198"
"158.044352"
"$GPGGA,010357,2423.9599,N,08135.5330,W,1,8,1.6,18,"
"##MN-00 00 58 0636 01953 5305 445153 349828 198"
"158.044398"
"$GPGGA,010401,2423.9628,N,08135.5332,W,1,8,1.6,18,"
"##MN-00 00 60 0638 01948 5305 445113 349818 198"
"158.044444"
"$GPGGA,010405,2423.9657,N,08135.5335,W,1,8,1.6,18,"
"##MN-00 00 59 0639 01945 5306 445082 349811 198"
"158.044491"
"$GPGGA,010409,2423.9685,N,08135.5339,W,1,8,1.6,18,"
"##MN-00 00 60 0641 01938 5306 445070 349805 198"
"158.044537"
"$GPGGA,010413,2423.9714,N,08135.5341,W,1,8,1.6,18,"
"##MN-00 00 60 0643 01935 5306 445037 349792 198"
"158.044583"
"$GPGGA,010417,2423.9742,N,08135.5343,W,1,8,1.6,18,"
"##MN-00 00 60 0644 01932 5306 445028 349790 198"
"158.04463"
"$GPGGA,010421,2423.9769,N,08135.5345,W,1,8,1.6,17,"
"##MN-00 00 60 0646 01924 5305 444996 349780 198"
"158.044676"
"$GPGGA,010425,2423.9797,N,08135.5348,W,1,7,2.1,17,"
"##MN-00 00 59 0647 01922 5305 444989 349777 198"
"158.044722"
"$GPGGA,010429,2423.9823,N,08135.5351,W,1,7,2.1,17,"
"##MN-00 00 59 0649 01915 5306 444894 349741 198"
"158.044769"
"$GPGGA,010433,2423.9852,N,08135.5354,W,1,7,2.1,17,"
"##MN-00 00 58 0651 01910 5305 444103 349561 198"
"158.044815"
"$GPGGA,010437,2423.9881,N,08135.5354,W,1,7,2.1,16,"
"##MN-00 00 58 0652 01907 5305 443895 349496 198"
"158.044861"
"$GPGGA,010441,2423.9909,N,08135.5357,W,1,7,2.1,16,"
"##MN-00 00 58 0654 01900 5305 444594 349648 198"
"158.044907"
"$GPGGA,010445,2423.9938,N,08135.5358,W,1,7,2.1,16,"
"##MN-00 00 60 0655 01897 5305 444501 349637 198"
"158.044954"
"$GPGGA,010449,2423.9970,N,08135.5361,W,1,8,1.6,15,"
"##MN-00 00 58 0657 01886 5305 442989 349303 198"
"158.045"
"$GPGGA,010453,2424.0002,N,08135.5362,W,1,8,1.6,15,"
"##MN-00 00 60 0659 01884 5305 442059 349030 198"
"158.045046"
"$GPGGA,010457,2424.0033,N,08135.5365,W,1,7,2.3,16,"
"##MN-00 00 58 0660 01880 5305 441680 348761 198"
"158.045093"
"$GPGGA,010501,2424.0067,N,08135.5365,W,1,8,1.6,16,"
"##MN-00 00 56 0662 01877 5305 441528 348751 198"
"158.045139"
"$GPGGA,010505,2424.0096,N,08135.5366,W,1,8,1.6,16,"
"##MN-00 00 56 0663 01876 5304 441352 348635 198"
"158.045185"
"$GPGGA,010509,2424.0126,N,08135.5368,W,1,8,1.6,16,"
"##MN-00 00 55 0665 01870 5305 441221 348631 198"
"158.045231"
"$GPGGA,010513,2424.0154,N,08135.5370,W,1,8,1.6,17,"
"##MN-00 00 56 0666 01867 5305 441110 348538 198"
"158.045278"
"$GPGGA,010517,2424.0183,N,08135.5374,W,1,8,1.6,17,"
"##MN-00 00 56 0668 01867 5305 440993 348502 198"
"158.045324"
"$GPGGA,010521,2424.0210,N,08135.5377,W,1,8,1.6,17,"
"##MN-00 00 55 0669 01865 5305 440877 348432 198"
"158.04537"
"$GPGGA,010525,2424.0239,N,08135.5380,W,1,8,1.6,17,"
"##MN-00 00 56 0671 01866 5305 440731 348401 198"
"158.045417"
"$GPGGA,010529,2424.0270,N,08135.5383,W,1,8,1.6,17,"
"##MN-00 00 57 0672 01864 5305 440734 348413 198"
"158.045463"
"$GPGGA,010533,2424.0299,N,08135.5387,W,1,8,1.6,18,"
"##MN-00 00 56 0674 01864 5305 440867 348425 198"
"158.045509"
"$GPGGA,010537,2424.0328,N,08135.5390,W,1,8,1.6,18,"
"##MN-00 00 58 0675 01864 5305 441012 348447 198"
"158.045556"
"$GPGGA,010541,2424.0358,N,08135.5392,W,1,8,1.6,18,"
"##MN-00 00 59 0676 01863 5305 441297 351285 198"
"158.045602"
"$GPGGA,010545,2424.0387,N,08135.5395,W,1,8,1.6,18,"
"##MN-00 00 56 0676 01863 5305 444210 701119 198"
"158.045648"
"$GPGGA,010549,2424.0416,N,08135.5398,W,1,8,1.6,19,"
"##MN-00 00 54 0676 01863 5305 448344 898416 198"
"158.045694"
"$GPGGA,010553,2424.0447,N,08135.5402,W,1,8,1.6,19,"
"##MN-00 00 55 0676 01864 5305 451280 924868 198"
"158.045741"
"$GPGGA,010557,2424.0477,N,08135.5405,W,1,8,1.6,19,"
"##MN-00 00 55 0676 01864 5305 453199 924864 198"
"158.045787"
"$GPGGA,010601,2424.0506,N,08135.5409,W,1,8,1.6,19,"
"##MN-00 00 50 0676 01863 5305 455404 925019 198"
"158.045833"
"$GPGGA,010605,2424.0535,N,08135.5411,W,1,8,1.6,19,"
"##MN-00 00 47 0676 01863 5305 457009 925419 198"
