" Tow: L3s-A   RVWS/WS1406"
" Date: 06/06/2014"
" Temperature Probe #  2597    Conductivity Probe #  2870"
" Pressure Probe #  109"
" Flow Meter Calibration  4.71 (m/count)  "
"158.248611"
"$GPGGA,055801,2422.6370,N,08125.7268,W,1,9,1.8,15,"
"##MN-00 00 34 0085 01866 4988 443952 924773 200"
"158.248657"
"$GPGGA,055809,2422.6315,N,08125.7245,W,1,9,1.8,15,"
"##MN-00 00 42 0085 01865 4988 441749 925465 200"
"158.248704"
"$GPGGA,055813,2422.6287,N,08125.7233,W,1,9,1.8,15,"
"##MN-00 00 46 0085 01867 4989 441731 925465 200"
"158.24875"
"$GPGGA,055817,2422.6261,N,08125.7223,W,1,9,1.8,15,"
"##MN-00 00 52 0085 01867 4989 441974 544766 200"
"158.248796"
"$GPGGA,055821,2422.6233,N,08125.7213,W,1,9,1.8,14,"
"##MN-00 00 52 0086 01865 4990 442542 350552 200"
"158.248843"
"$GPGGA,055825,2422.6207,N,08125.7203,W,1,9,1.8,14,"
"##MN-00 00 53 0087 01867 4990 442522 349845 200"
"158.248889"
"$GPGGA,055829,2422.6182,N,08125.7193,W,1,9,1.8,14,"
"##MN-00 00 55 0088 01866 4991 442495 349244 200"
"158.248935"
"$GPGGA,055833,2422.6158,N,08125.7183,W,1,9,1.8,14,"
"##MN-00 00 55 0088 01868 4991 442456 349095 200"
"158.248981"
"$GPGGA,055837,2422.6134,N,08125.7172,W,1,9,1.8,14,"
"##MN-00 00 55 0089 01867 4992 442447 349082 200"
"158.249028"
"$GPGGA,055841,2422.6111,N,08125.7161,W,1,9,1.8,14,"
"##MN-00 00 55 0090 01867 4992 442440 349073 200"
"158.249074"
"$GPGGA,055845,2422.6088,N,08125.7150,W,1,9,1.8,14,"
"##MN-00 00 55 0091 01869 4992 442431 349059 200"
"158.24912"
"$GPGGA,055849,2422.6066,N,08125.7139,W,1,9,1.8,14,"
"##MN-00 00 55 0092 01869 4993 442407 349040 200"
"158.249167"
"$GPGGA,055853,2422.6044,N,08125.7128,W,1,9,1.8,14,"
"##MN-00 00 55 0093 01870 4993 442385 349030 200"
"158.249213"
"$GPGGA,055857,2422.6021,N,08125.7117,W,1,9,1.8,14,"
"##MN-00 00 55 0094 01871 4994 442406 349025 200"
"158.249259"
"$GPGGA,055901,2422.5999,N,08125.7105,W,1,9,1.8,14,"
"##MN-00 00 57 0095 01872 4994 442410 349019 200"
"158.249306"
"$GPGGA,055905,2422.5975,N,08125.7093,W,1,9,1.8,14,"
"##MN-00 00 54 0096 01873 4995 442410 349009 200"
"158.249352"
"$GPGGA,055909,2422.5954,N,08125.7081,W,1,9,1.8,14,"
"##MN-00 00 54 0096 01876 4996 442408 349006 200"
"158.249398"
"$GPGGA,055913,2422.5932,N,08125.7069,W,1,9,1.8,14,"
"##MN-00 00 54 0097 01879 4996 442413 349007 200"
"158.249444"
"$GPGGA,055917,2422.5910,N,08125.7057,W,1,9,1.8,14,"
"##MN-00 00 54 0098 01881 4997 442403 349004 200"
"158.249491"
"$GPGGA,055921,2422.5889,N,08125.7045,W,1,9,1.8,15,"
"##MN-00 00 54 0099 01884 4997 442399 348997 200"
"158.249537"
"$GPGGA,055925,2422.5869,N,08125.7033,W,1,9,1.8,15,"
"##MN-00 00 54 0100 01888 4998 442391 348991 200"
"158.249583"
"$GPGGA,055929,2422.5849,N,08125.7022,W,1,9,2.0,15,"
"##MN-00 00 54 0101 01889 4998 442380 348987 200"
"158.24963"
"$GPGGA,055933,2422.5826,N,08125.7011,W,1,8,2.0,15,"
"##MN-00 00 54 0102 01892 4999 442379 348984 200"
"158.249676"
"$GPGGA,055937,2422.5806,N,08125.7000,W,1,8,2.0,15,"
"##MN-00 00 54 0102 01896 4999 442380 348981 200"
"158.249722"
"$GPGGA,055941,2422.5788,N,08125.6990,W,1,8,2.0,15,"
"##MN-00 00 54 0103 01898 5000 442389 348979 200"
"158.249769"
"$GPGGA,055945,2422.5768,N,08125.6981,W,1,9,2.0,15,"
"##MN-00 00 53 0104 01903 5000 442405 348982 200"
"158.249815"
"$GPGGA,055949,2422.5751,N,08125.6974,W,1,9,1.8,14,"
"##MN-00 00 53 0105 01908 5001 442409 348981 200"
"158.249861"
"$GPGGA,055953,2422.5733,N,08125.6967,W,1,9,2.0,14,"
"##MN-00 00 53 0106 01911 5002 442405 348979 200"
"158.249907"
"$GPGGA,055957,2422.5717,N,08125.6960,W,1,9,1.8,14,"
"##MN-00 00 53 0107 01915 5002 442396 348975 200"
"158.249954"
"$GPGGA,060001,2422.5699,N,08125.6953,W,1,9,1.8,14,"
"##MN-00 00 52 0107 01917 5003 442414 348978 200"
"158.25"
"$GPGGA,060005,2422.5681,N,08125.6946,W,1,9,1.8,14,"
"##MN-00 00 52 0108 01920 5004 442436 348987 200"
"158.250046"
"$GPGGA,060009,2422.5663,N,08125.6939,W,1,9,2.0,14,"
"##MN-00 00 53 0109 01922 5004 442413 348978 200"
"158.250093"
"$GPGGA,060013,2422.5643,N,08125.6932,W,1,9,1.8,14,"
"##MN-00 00 52 0110 01926 5006 442418 348975 200"
"158.250139"
"$GPGGA,060017,2422.5622,N,08125.6925,W,1,9,1.8,14,"
"##MN-00 00 55 0111 01930 5006 442501 348997 200"
"158.250185"
"$GPGGA,060021,2422.5602,N,08125.6918,W,1,9,1.8,15,"
"##MN-00 00 52 0112 01935 5007 442604 349043 200"
"158.250231"
"$GPGGA,060025,2422.5583,N,08125.6911,W,1,9,1.8,15,"
"##MN-00 00 54 0112 01941 5007 442678 349058 200"
"158.250278"
"$GPGGA,060029,2422.5565,N,08125.6905,W,1,9,1.8,15,"
"##MN-00 00 54 0113 01948 5008 442712 349058 200"
"158.250324"
"$GPGGA,060033,2422.5549,N,08125.6900,W,1,9,1.8,15,"
"##MN-00 00 53 0114 01953 5009 442781 349068 200"
"158.25037"
"$GPGGA,060037,2422.5531,N,08125.6895,W,1,9,1.8,15,"
"##MN-00 00 54 0115 01960 5010 442911 349107 200"
"158.250417"
"$GPGGA,060041,2422.5514,N,08125.6890,W,1,8,2.0,15,"
"##MN-00 00 53 0115 01965 5010 443202 349222 200"
"158.250463"
"$GPGGA,060045,2422.5497,N,08125.6887,W,1,9,1.8,15,"
"##MN-00 00 53 0116 01973 5011 443445 349256 200"
"158.250509"
"$GPGGA,060049,2422.5480,N,08125.6884,W,1,9,1.8,15,"
"##MN-00 00 53 0117 01976 5012 443695 349319 200"
"158.250556"
"$GPGGA,060053,2422.5462,N,08125.6881,W,1,9,1.8,15,"
"##MN-00 00 54 0118 01982 5013 444206 349525 200"
"158.250602"
"$GPGGA,060057,2422.5444,N,08125.6877,W,1,9,1.8,15,"
"##MN-00 00 53 0118 01985 5013 444678 349610 200"
"158.250648"
"$GPGGA,060101,2422.5427,N,08125.6875,W,1,9,1.8,15,"
"##MN-00 00 51 0119 01989 5014 445015 349700 200"
"158.250694"
"$GPGGA,060105,2422.5409,N,08125.6871,W,1,8,2.0,15,"
"##MN-00 00 50 0120 01984 5015 445135 349751 200"
"158.250741"
"$GPGGA,060109,2422.5389,N,08125.6867,W,1,8,2.0,15,"
"##MN-00 00 50 0121 01983 5016 445202 349783 200"
"158.250787"
"$GPGGA,060113,2422.5374,N,08125.6865,W,1,8,2.0,15,"
"##MN-00 00 51 0122 01982 5016 445233 349821 200"
"158.250845"
"$GPGGA,060117,2422.5359,N,08125.6862,W,1,9,1.8,15,"
"##MN-00 00 51 0123 01984 5017 445253 349860 200"
"158.250891"
"$GPGGA,060121,2422.5342,N,08125.6858,W,1,9,1.8,16,"
"##MN-00 00 51 0124 01982 5018 445269 349862 200"
"158.250938"
"$GPGGA,060125,2422.5325,N,08125.6853,W,1,9,1.8,16,"
"##MN-00 00 51 0125 01984 5019 445288 349877 200"
"158.250984"
"$GPGGA,060129,2422.5305,N,08125.6847,W,1,9,1.8,16,"
"##MN-00 00 52 0125 01983 5019 445306 349884 200"
"158.25103"
"$GPGGA,060133,2422.5283,N,08125.6841,W,1,8,2.0,16,"
"##MN-00 00 51 0126 01982 5020 445313 349902 200"
"158.251076"
"$GPGGA,060137,2422.5267,N,08125.6836,W,1,9,1.8,17,"
"##MN+00 00 51 0127 01983 5020 445319 349911 200"
"158.251123"
"$GPGGA,060141,2422.5250,N,08125.6831,W,1,9,1.8,17,"
"##MN+00 00 52 0128 01985 5021 445328 349909 200"
"158.251169"
"$GPGGA,060145,2422.5232,N,08125.6826,W,1,9,1.8,17,"
"##MN+00 00 51 0129 01985 5022 445334 349919 200"
"158.251215"
"$GPGGA,060149,2422.5214,N,08125.6821,W,1,9,1.8,17,"
"##MN-00 00 52 0130 01987 5023 445336 349920 200"
"158.251262"
"$GPGGA,060153,2422.5196,N,08125.6816,W,1,9,1.8,17,"
"##MN+00 00 51 0131 01987 5024 445332 349922 200"
"158.251308"
"$GPGGA,060157,2422.5178,N,08125.6811,W,1,9,1.8,17,"
"##MN+00 00 57 0132 01986 5024 445327 349923 199"
"158.251354"
"$GPGGA,060201,2422.5163,N,08125.6807,W,1,8,2.0,17,"
"##MN+00 00 53 0132 01989 5025 445321 349918 199"
"158.2514"
"$GPGGA,060205,2422.5148,N,08125.6803,W,1,8,2.0,17,"
"##MN-00 00 51 0133 01985 5026 445321 349921 198"
"158.251447"
"#increment_net"
"$GPGGA,060209,2422.5135,N,08125.6800,W,1,9,1.8,16,"
"##MN-00 00 49 0134 01984 5027 445322 349922 198"
"158.251493"
"$GPGGA,060213,2422.5119,N,08125.6796,W,1,9,1.8,16,"
"##MN-00 00 50 0135 01984 5028 445321 349921 198"
"158.251539"
"$GPGGA,060218,2422.5105,N,08125.6793,W,1,9,1.8,16,"
"##MN-00 00 50 0136 01984 5029 445317 349921 198"
"158.251586"
"$GPGGA,060221,2422.5094,N,08125.6790,W,1,9,1.8,16,"
"##MN-00 00 50 0137 01984 5029 445318 349921 198"
"158.251632"
"$GPGGA,060226,2422.5072,N,08125.6785,W,1,9,1.8,17,"
"##MN-00 00 50 0137 01985 5030 445319 349922 198"
"158.251678"
"$GPGGA,060230,2422.5055,N,08125.6781,W,1,9,1.8,17,"
"##MN-00 00 50 0138 01983 5031 445321 349922 198"
"158.251725"
"$GPGGA,060234,2422.5038,N,08125.6776,W,1,9,1.8,17,"
"##MN-00 00 50 0139 01982 5032 445321 349922 198"
"158.251771"
"$GPGGA,060238,2422.5022,N,08125.6771,W,1,9,1.7,17,"
"##MN-00 00 50 0140 01983 5032 445321 349922 198"
"158.251817"
"$GPGGA,060242,2422.5004,N,08125.6766,W,1,9,2.0,17,"
"##MN-00 00 50 0141 01982 5033 445315 349922 198"
"158.251863"
"$GPGGA,060246,2422.4987,N,08125.6763,W,1,8,1.7,16,"
"##MN-00 00 50 0142 01983 5034 445306 349919 198"
"158.25191"
"$GPGGA,060250,2422.4972,N,08125.6758,W,1,9,1.7,16,"
"##MN-00 00 50 0142 01982 5034 445303 349918 198"
"158.251956"
"$GPGGA,060254,2422.4957,N,08125.6753,W,1,8,1.7,16,"
"##MN-00 00 51 0143 01983 5035 445302 349918 198"
"158.252002"
"$GPGGA,060258,2422.4939,N,08125.6749,W,1,9,2.0,16,"
"##MN-00 00 50 0144 01982 5036 445304 349918 198"
"158.252049"
"$GPGGA,060302,2422.4918,N,08125.6744,W,1,8,1.7,16,"
"##MN-00 00 50 0145 01981 5037 445305 349918 198"
"158.252095"
"$GPGGA,060306,2422.4906,N,08125.6742,W,1,9,1.7,16,"
"##MN-00 00 51 0146 01982 5037 445302 349917 198"
"158.252141"
"$GPGGA,060310,2422.4890,N,08125.6738,W,1,9,1.7,16,"
"##MN-00 00 51 0147 01981 5038 445294 349916 198"
"158.252187"
"$GPGGA,060314,2422.4872,N,08125.6734,W,1,9,1.7,16,"
"##MN-00 00 50 0147 01980 5039 445280 349915 198"
"158.252234"
"$GPGGA,060318,2422.4852,N,08125.6728,W,1,8,1.7,16,"
"##MN-00 00 50 0148 01980 5039 445275 349911 198"
"158.25228"
"$GPGGA,060322,2422.4837,N,08125.6724,W,1,9,1.7,16,"
"##MN-00 00 50 0149 01979 5040 445268 349908 198"
"158.252326"
"$GPGGA,060326,2422.4823,N,08125.6721,W,1,9,1.7,16,"
"##MN-00 00 51 0150 01982 5041 445255 349903 198"
"158.252373"
"$GPGGA,060330,2422.4800,N,08125.6715,W,1,8,2.0,16,"
"##MN-00 00 51 0151 01983 5042 445250 349901 198"
"158.252419"
"$GPGGA,060334,2422.4785,N,08125.6710,W,1,7,1.7,16,"
"##MN-00 00 51 0152 01982 5042 445250 349901 198"
"158.252465"
"$GPGGA,060338,2422.4760,N,08125.6703,W,1,7,1.7,16,"
"##MN-00 00 50 0152 01978 5043 445255 349901 198"
"158.252512"
"$GPGGA,060342,2422.4741,N,08125.6697,W,1,9,2.0,16,"
"##MN-00 00 50 0153 01982 5044 445270 349903 198"
"158.252558"
"$GPGGA,060346,2422.4723,N,08125.6692,W,1,9,1.7,16,"
"##MN-00 00 50 0154 01981 5044 445277 349905 198"
"158.252604"
"$GPGGA,060350,2422.4708,N,08125.6688,W,1,9,1.7,16,"
"##MN-00 00 51 0155 01981 5045 445284 349908 198"
"158.25265"
"$GPGGA,060354,2422.4693,N,08125.6684,W,1,9,2.0,16,"
"##MN+00 00 51 0156 01980 5046 445292 349912 198"
"158.252697"
"$GPGGA,060358,2422.4675,N,08125.6679,W,1,8,1.7,16,"
"##MN+00 00 50 0157 01982 5046 445293 349912 200"
"158.252743"
"$GPGGA,060402,2422.4657,N,08125.6673,W,1,9,2.2,16,"
"##MN+00 00 51 0157 01981 5047 445294 349912 199"
"158.252789"
"$GPGGA,060406,2422.4635,N,08125.6668,W,1,8,2.0,16,"
"##MN-00 00 49 0158 01981 5048 445302 349915 199"
"158.252836"
"$GPGGA,060410,2422.4619,N,08125.6663,W,1,9,1.7,16,"
"##MN-00 00 51 0159 01981 5049 445309 349917 199"
"158.252882"
"$GPGGA,060414,2422.4605,N,08125.6658,W,1,9,2.0,15,"
"##MN-00 00 50 0160 01980 5050 445312 349919 199"
"158.252928"
"$GPGGA,060418,2422.4592,N,08125.6654,W,1,9,1.7,15,"
"##MN-00 00 51 0161 01980 5050 445317 349919 199"
"158.252975"
"$GPGGA,060422,2422.4574,N,08125.6649,W,1,8,2.0,15,"
"##MN+00 00 51 0162 01980 5051 445322 349920 199"
"158.253021"
"$GPGGA,060426,2422.4556,N,08125.6644,W,1,9,1.7,16,"
"##MN+00 00 59 0162 01985 5052 445324 349922 199"
"158.253067"
"$GPGGA,060430,2422.4539,N,08125.6638,W,1,9,1.7,16,"
"##MN+00 00 55 0163 01982 5052 445318 349921 199"
"158.253113"
"$GPGGA,060434,2422.4524,N,08125.6636,W,1,9,1.7,15,"
"##MN-00 00 50 0164 01980 5052 445307 349919 198"
"158.25316"
"#increment_net"
"$GPGGA,060438,2422.4510,N,08125.6630,W,1,9,1.7,15,"
"##MN-00 00 51 0164 01980 5053 445293 349914 198"
"158.253206"
"$GPGGA,060442,2422.4493,N,08125.6626,W,1,9,1.7,15,"
"##MN-00 00 49 0165 01980 5054 445287 349914 198"
"158.253252"
"$GPGGA,060446,2422.4478,N,08125.6622,W,1,9,1.7,15,"
"##MN-00 00 50 0166 01980 5055 445284 349913 198"
"158.253299"
"$GPGGA,060450,2422.4462,N,08125.6616,W,1,9,1.7,15,"
"##MN-00 00 50 0167 01981 5056 445283 349912 198"
"158.253345"
"$GPGGA,060454,2422.4444,N,08125.6610,W,1,9,1.7,15,"
"##MN-00 00 49 0168 01982 5057 445281 349912 198"
"158.253391"
"$GPGGA,060458,2422.4428,N,08125.6605,W,1,9,1.7,15,"
"##MN-00 00 49 0169 01979 5057 445275 349910 198"
"158.253437"
"$GPGGA,060502,2422.4412,N,08125.6599,W,1,9,1.7,15,"
"##MN-00 00 49 0169 01981 5058 445273 349908 198"
"158.253484"
"$GPGGA,060506,2422.4395,N,08125.6594,W,1,9,1.7,15,"
"##MN-00 00 49 0170 01981 5059 445268 349907 198"
"158.25353"
"$GPGGA,060510,2422.4379,N,08125.6589,W,1,9,1.7,15,"
"##MN-00 00 49 0171 01978 5059 445267 349906 198"
"158.253576"
"$GPGGA,060514,2422.4363,N,08125.6584,W,1,9,1.7,15,"
"##MN-00 00 50 0172 01982 5060 445269 349906 198"
"158.253623"
"$GPGGA,060518,2422.4350,N,08125.6579,W,1,9,1.7,15,"
"##MN-00 00 49 0173 01981 5061 445271 349906 198"
"158.253669"
"$GPGGA,060522,2422.4335,N,08125.6574,W,1,9,1.7,15,"
"##MN-00 00 49 0174 01981 5061 445275 349906 198"
"158.253715"
"$GPGGA,060526,2422.4321,N,08125.6569,W,1,9,1.7,15,"
"##MN-00 00 48 0174 01979 5062 445277 349906 198"
"158.253762"
"$GPGGA,060530,2422.4303,N,08125.6564,W,1,9,1.7,15,"
"##MN-00 00 49 0175 01980 5063 445283 349908 198"
"158.253808"
"$GPGGA,060534,2422.4286,N,08125.6559,W,1,9,1.7,15,"
"##MN-00 00 48 0176 01980 5064 445288 349910 198"
"158.253854"
"$GPGGA,060538,2422.4269,N,08125.6554,W,1,9,1.7,15,"
"##MN-00 00 49 0177 01980 5064 445304 349914 198"
"158.2539"
"$GPGGA,060542,2422.4252,N,08125.6549,W,1,9,1.7,15,"
"##MN-00 00 49 0178 01980 5065 445320 349918 198"
"158.253947"
"$GPGGA,060546,2422.4235,N,08125.6544,W,1,9,1.7,15,"
"##MN-00 00 49 0179 01978 5065 445331 349920 198"
"158.253993"
"$GPGGA,060550,2422.4218,N,08125.6539,W,1,9,1.7,15,"
"##MN-00 00 49 0179 01980 5066 445336 349922 198"
"158.254039"
"$GPGGA,060554,2422.4202,N,08125.6534,W,1,9,1.7,15,"
"##MN-00 00 49 0180 01981 5067 445327 349921 198"
"158.254097"
"$GPGGA,060558,2422.4185,N,08125.6529,W,1,9,1.7,15,"
"##MN-00 00 49 0181 01979 5067 445321 349919 198"
"158.254144"
"$GPGGA,060602,2422.4169,N,08125.6524,W,1,9,1.7,15,"
"##MN-00 00 49 0182 01979 5068 445327 349920 198"
"158.25419"
"$GPGGA,060606,2422.4152,N,08125.6519,W,1,9,1.7,15,"
"##MN-00 00 49 0183 01978 5069 445333 349921 198"
"158.254236"
"$GPGGA,060610,2422.4135,N,08125.6514,W,1,9,1.7,15,"
"##MN-00 00 49 0184 01981 5069 445334 349923 198"
"158.254282"
"$GPGGA,060614,2422.4119,N,08125.6508,W,1,9,1.7,15,"
"##MN-00 00 48 0184 01978 5070 445330 349924 198"
"158.254329"
"$GPGGA,060618,2422.4102,N,08125.6502,W,1,9,1.7,15,"
"##MN-00 00 49 0185 01978 5071 445302 349916 198"
"158.254375"
"$GPGGA,060622,2422.4086,N,08125.6497,W,1,9,1.7,14,"
"##MN+00 00 49 0186 01978 5072 445285 349913 198"
"158.254421"
"$GPGGA,060626,2422.4069,N,08125.6491,W,1,9,1.7,14,"
"##MN+00 00 49 0187 01980 5072 445273 349909 199"
"158.254468"
"$GPGGA,060630,2422.4053,N,08125.6486,W,1,9,1.7,14,"
"##MN+00 00 49 0188 01979 5073 445263 349907 199"
"158.254514"
"$GPGGA,060634,2422.4037,N,08125.6481,W,1,9,1.7,14,"
"##MN-00 00 48 0189 01980 5074 445252 349905 199"
"158.25456"
"$GPGGA,060638,2422.4021,N,08125.6476,W,1,9,1.7,14,"
"##MN-00 00 49 0190 01980 5074 445243 349900 199"
"158.254606"
"$GPGGA,060642,2422.4005,N,08125.6470,W,1,9,1.7,14,"
"##MN-00 00 49 0190 01980 5075 445245 349900 199"
"158.254653"
"$GPGGA,060646,2422.3988,N,08125.6465,W,1,9,1.7,14,"
"##MN-00 00 49 0191 01979 5076 445258 349902 199"
"158.254699"
"$GPGGA,060651,2422.3968,N,08125.6458,W,1,9,1.7,14,"
"##MN+00 00 48 0192 01980 5076 445265 349905 199"
"158.254745"
"$GPGGA,060654,2422.3956,N,08125.6454,W,1,9,1.7,14,"
"##MN+00 00 58 0193 01984 5077 445270 349905 199"
"158.254792"
"$GPGGA,060658,2422.3938,N,08125.6448,W,1,9,1.7,14,"
"##MN+00 00 54 0194 01984 5077 445276 349906 199"
"158.254838"
"#increment_net"
"$GPGGA,060703,2422.3917,N,08125.6440,W,1,9,1.7,14,"
"##MN-00 00 51 0194 01980 5078 445286 349909 199"
"158.254884"
"$GPGGA,060707,2422.3902,N,08125.6435,W,1,9,1.7,14,"
"##MN-00 00 49 0195 01983 5078 445303 349914 199"
"158.254931"
"$GPGGA,060711,2422.3884,N,08125.6429,W,1,9,1.7,14,"
"##MN-00 00 48 0196 01978 5079 445309 349917 199"
"158.254977"
"$GPGGA,060715,2422.3868,N,08125.6424,W,1,9,1.7,14,"
"##MN-00 00 48 0197 01979 5080 445316 349917 199"
"158.255023"
"$GPGGA,060719,2422.3852,N,08125.6420,W,1,9,1.7,14,"
"##MN-00 00 48 0198 01979 5081 445324 349921 199"
"158.255069"
"$GPGGA,060722,2422.3838,N,08125.6413,W,1,9,1.7,14,"
"##MN-00 00 48 0199 01979 5081 445330 349923 199"
"158.255116"
"$GPGGA,060727,2422.3819,N,08125.6406,W,1,9,1.7,14,"
"##MN-00 00 48 0200 01978 5082 445339 349927 199"
"158.255162"
"$GPGGA,060731,2422.3804,N,08125.6402,W,1,9,1.6,14,"
"##MN-00 00 48 0200 01977 5083 445335 349928 199"
"158.255208"
"$GPGGA,060735,2422.3790,N,08125.6398,W,1,9,1.6,14,"
"##MN-00 00 47 0201 01978 5083 445337 349930 199"
"158.255255"
"$GPGGA,060739,2422.3773,N,08125.6391,W,1,9,1.6,14,"
"##MN-00 00 48 0202 01978 5084 445341 349931 199"
"158.255301"
"$GPGGA,060743,2422.3756,N,08125.6386,W,1,9,1.6,15,"
"##MN-00 00 48 0203 01978 5084 445341 349931 199"
"158.255347"
"$GPGGA,060747,2422.3743,N,08125.6380,W,1,9,1.6,15,"
"##MN-00 00 48 0204 01979 5085 445337 349931 199"
"158.255394"
"$GPGGA,060751,2422.3725,N,08125.6374,W,1,9,1.6,15,"
"##MN-00 00 48 0205 01977 5086 445337 349931 199"
"158.25544"
"$GPGGA,060755,2422.3709,N,08125.6369,W,1,10,1.6,15"
"##MN-00 00 48 0206 01977 5086 445346 349932 199"
"158.255486"
"$GPGGA,060759,2422.3693,N,08125.6364,W,1,9,1.6,15,"
"##MN-00 00 48 0206 01978 5087 445363 349936 199"
"158.255532"
"$GPGGA,060803,2422.3678,N,08125.6360,W,1,9,1.6,15,"
"##MN-00 00 48 0207 01977 5087 445371 349939 199"
"158.255579"
"$GPGGA,060807,2422.3660,N,08125.6353,W,1,9,1.7,15,"
"##MN-00 00 48 0208 01978 5088 445374 349943 199"
"158.255625"
"$GPGGA,060811,2422.3644,N,08125.6346,W,1,10,1.6,15"
"##MN-00 00 49 0209 01976 5089 445373 349944 199"
"158.255671"
"$GPGGA,060815,2422.3629,N,08125.6340,W,1,10,1.6,15"
"##MN-00 00 48 0210 01977 5090 445367 349943 199"
"158.255718"
"$GPGGA,060819,2422.3613,N,08125.6335,W,1,10,1.6,15"
"##MN-00 00 49 0211 01977 5090 445363 349942 199"
"158.255764"
"$GPGGA,060823,2422.3597,N,08125.6329,W,1,10,1.6,15"
"##MN-00 00 48 0212 01978 5091 445375 349944 199"
"158.25581"
"$GPGGA,060827,2422.3581,N,08125.6323,W,1,10,1.6,15"
"##MN-00 00 48 0212 01977 5091 445390 349947 199"
"158.255856"
"$GPGGA,060831,2422.3567,N,08125.6318,W,1,10,1.6,15"
"##MN-00 00 48 0213 01976 5092 445398 349948 199"
"158.255903"
"$GPGGA,060835,2422.3548,N,08125.6311,W,1,10,1.6,15"
"##MN-00 00 48 0214 01977 5093 445406 349951 199"
"158.255949"
"$GPGGA,060839,2422.3533,N,08125.6306,W,1,10,1.6,15"
"##MN-00 00 48 0215 01976 5093 445418 349956 199"
"158.255995"
"$GPGGA,060843,2422.3517,N,08125.6301,W,1,10,1.6,15"
"##MN+00 00 48 0216 01977 5094 445429 349959 199"
"158.256042"
"$GPGGA,060847,2422.3498,N,08125.6293,W,1,9,1.7,15,"
"##MN+00 00 48 0217 01977 5094 445431 349961 198"
"158.256088"
"$GPGGA,060851,2422.3481,N,08125.6287,W,1,9,1.7,15,"
"##MN+00 00 48 0218 01977 5095 445435 349962 199"
"158.256134"
"$GPGGA,060855,2422.3468,N,08125.6282,W,1,10,1.6,15"
"##MN-00 00 49 0219 01976 5095 445439 349964 199"
"158.256181"
"$GPGGA,060859,2422.3454,N,08125.6278,W,1,10,1.5,15"
"##MN-00 00 48 0220 01975 5096 445440 349964 199"
"158.256227"
"$GPGGA,060903,2422.3436,N,08125.6273,W,1,9,1.6,15,"
"##MN-00 00 49 0220 01975 5097 445442 349965 199"
"158.256273"
"$GPGGA,060907,2422.3420,N,08125.6268,W,1,9,1.7,15,"
"##MN-00 00 48 0221 01974 5097 445437 349964 199"
"158.256319"
"$GPGGA,060911,2422.3404,N,08125.6262,W,1,10,1.5,15"
"##MN+00 00 48 0222 01974 5098 445432 349963 199"
"158.256366"
"$GPGGA,060915,2422.3385,N,08125.6257,W,1,9,1.6,15,"
"##MN+00 00 59 0223 01976 5099 445425 349961 199"
"158.256412"
"$GPGGA,060919,2422.3367,N,08125.6250,W,1,10,1.5,15"
"##MN+00 00 54 0224 01976 5099 445420 349961 199"
"158.256458"
"#increment_net"
"$GPGGA,060923,2422.3350,N,08125.6244,W,1,10,1.5,15"
"##MN-00 00 52 0225 01975 5099 445415 349959 198"
"158.256505"
"$GPGGA,060927,2422.3335,N,08125.6240,W,1,9,1.6,15,"
"##MN-00 00 50 0226 01975 5100 445406 349957 198"
"158.256551"
"$GPGGA,060931,2422.3315,N,08125.6234,W,1,9,1.6,15,"
"##MN-00 00 49 0226 01974 5101 445399 349955 198"
"158.256597"
"$GPGGA,060935,2422.3300,N,08125.6230,W,1,10,1.5,15"
"##MN-00 00 49 0227 01975 5101 445392 349952 198"
"158.256644"
"$GPGGA,060939,2422.3284,N,08125.6228,W,1,10,1.5,14"
"##MN-00 00 49 0228 01976 5102 445377 349948 198"
"158.25669"
"$GPGGA,060943,2422.3268,N,08125.6223,W,1,10,1.5,14"
"##MN-00 00 49 0229 01975 5102 445358 349944 198"
"158.256736"
"$GPGGA,060947,2422.3252,N,08125.6218,W,1,10,1.5,14"
"##MN-00 00 49 0230 01975 5103 445343 349939 198"
"158.256782"
"$GPGGA,060951,2422.3237,N,08125.6214,W,1,10,1.5,14"
"##MN-00 00 49 0231 01976 5104 445335 349936 198"
"158.256829"
"$GPGGA,060955,2422.3220,N,08125.6210,W,1,10,1.5,14"
"##MN-00 00 49 0232 01975 5104 445328 349934 198"
"158.256875"
"$GPGGA,060959,2422.3203,N,08125.6205,W,1,9,1.6,14,"
"##MN-00 00 49 0233 01974 5105 445319 349930 198"
"158.256921"
"$GPGGA,061003,2422.3191,N,08125.6200,W,1,10,1.5,14"
"##MN-00 00 49 0234 01973 5105 445318 349929 198"
"158.256968"
"$GPGGA,061007,2422.3176,N,08125.6195,W,1,10,1.5,14"
"##MN-00 00 49 0235 01973 5106 445320 349929 198"
"158.257014"
"$GPGGA,061011,2422.3159,N,08125.6190,W,1,10,1.5,14"
"##MN-00 00 49 0236 01974 5106 445329 349930 198"
"158.25706"
"$GPGGA,061015,2422.3143,N,08125.6185,W,1,10,1.5,15"
"##MN-00 00 49 0237 01974 5107 445315 349929 198"
"158.257106"
"$GPGGA,061019,2422.3126,N,08125.6181,W,1,10,1.5,15"
"##MN-00 00 49 0237 01975 5107 445287 349921 198"
"158.257153"
"$GPGGA,061023,2422.3109,N,08125.6175,W,1,10,1.5,15"
"##MN-00 00 49 0238 01973 5108 445280 349918 198"
"158.257199"
"$GPGGA,061027,2422.3093,N,08125.6171,W,1,10,1.5,15"
"##MN-00 00 49 0239 01973 5109 445278 349916 198"
"158.257257"
"$GPGGA,061031,2422.3076,N,08125.6167,W,1,9,1.8,15,"
"##MN-00 00 49 0240 01975 5109 445299 349921 198"
"158.257303"
"$GPGGA,061035,2422.3061,N,08125.6163,W,1,10,1.5,15"
"##MN-00 00 48 0241 01976 5110 445334 349928 198"
"158.25735"
"$GPGGA,061039,2422.3046,N,08125.6158,W,1,10,1.5,15"
"##MN-00 00 49 0242 01975 5110 445350 349934 198"
"158.257396"
"$GPGGA,061043,2422.3029,N,08125.6155,W,1,10,1.5,15"
"##MN-00 00 49 0243 01975 5111 445359 349937 198"
"158.257442"
"$GPGGA,061047,2422.3013,N,08125.6150,W,1,10,1.5,14"
"##MN-00 00 49 0244 01975 5112 445372 349942 198"
"158.257488"
"$GPGGA,061051,2422.2996,N,08125.6145,W,1,10,1.5,14"
"##MN-00 00 49 0245 01974 5112 445383 349943 198"
"158.257535"
"$GPGGA,061055,2422.2980,N,08125.6140,W,1,10,1.5,14"
"##MN-00 00 49 0246 01975 5113 445389 349948 198"
"158.257581"
"$GPGGA,061059,2422.2963,N,08125.6135,W,1,10,1.5,14"
"##MN+00 00 49 0247 01974 5113 445398 349949 198"
"158.257627"
"$GPGGA,061103,2422.2948,N,08125.6130,W,1,10,1.5,14"
"##MN+00 00 49 0247 01976 5114 445404 349952 199"
"158.257674"
"$GPGGA,061107,2422.2934,N,08125.6125,W,1,10,1.5,14"
"##MN+00 00 49 0248 01977 5114 445405 349953 198"
"158.25772"
"$GPGGA,061111,2422.2916,N,08125.6118,W,1,10,1.5,14"
"##MN-00 00 49 0249 01975 5115 445402 349952 199"
"158.257766"
"$GPGGA,061115,2422.2901,N,08125.6113,W,1,10,1.5,14"
"##MN-00 00 49 0250 01975 5115 445393 349950 199"
"158.257813"
"$GPGGA,061119,2422.2884,N,08125.6107,W,1,10,1.5,14"
"##MN-00 00 49 0251 01976 5116 445373 349949 199"
"158.257859"
"$GPGGA,061123,2422.2869,N,08125.6103,W,1,10,1.5,14"
"##MN-00 00 49 0252 01977 5116 445338 349943 199"
"158.257905"
"$GPGGA,061127,2422.2854,N,08125.6098,W,1,10,1.5,14"
"##MN+00 00 49 0253 01975 5117 445285 349932 199"
"158.257951"
"$GPGGA,061131,2422.2838,N,08125.6095,W,1,10,1.5,14"
"##MN+00 00 58 0254 01979 5118 445240 349919 199"
"158.257998"
"$GPGGA,061136,2422.2818,N,08125.6089,W,1,9,1.6,14,"
"##MN+00 00 55 0255 01978 5118 445236 349909 199"
"158.258044"
"#increment_net"
"$GPGGA,061139,2422.2804,N,08125.6085,W,1,10,1.6,14"
"##MN-00 00 52 0256 01984 5118 445246 349910 199"
"158.25809"
"$GPGGA,061143,2422.2789,N,08125.6081,W,1,9,1.6,14,"
"##MN-00 00 48 0257 01990 5119 445258 349911 199"
"158.258137"
"$GPGGA,061147,2422.2772,N,08125.6077,W,1,9,1.6,14,"
"##MN-00 00 46 0258 01994 5119 445280 349916 199"
"158.258183"
"$GPGGA,061151,2422.2757,N,08125.6073,W,1,9,1.6,14,"
"##MN-00 00 45 0260 01996 5120 445308 349921 199"
"158.258229"
"$GPGGA,061156,2422.2733,N,08125.6066,W,1,8,1.6,14,"
"##MN-00 00 45 0261 02000 5120 445332 349927 199"
"158.258275"
"$GPGGA,061159,2422.2720,N,08125.6063,W,1,9,1.6,14,"
"##MN-00 00 43 0262 02005 5121 445347 349932 199"
"158.258322"
"$GPGGA,061204,2422.2699,N,08125.6059,W,1,9,1.6,14,"
"##MN-00 00 42 0263 02006 5122 445354 349935 199"
"158.258368"
"$GPGGA,061208,2422.2681,N,08125.6055,W,1,9,1.6,14,"
"##MN-00 00 42 0264 02010 5122 445361 349935 199"
"158.258414"
"$GPGGA,061212,2422.2663,N,08125.6051,W,1,8,1.9,14,"
"##MN-00 00 41 0265 02011 5123 445369 349936 199"
"158.258461"
"$GPGGA,061216,2422.2654,N,08125.6049,W,1,10,1.5,14"
"##MN-00 00 40 0266 02010 5123 445380 349939 199"
"158.258507"
"$GPGGA,061220,2422.2641,N,08125.6047,W,1,10,1.6,15"
"##MN-00 00 41 0268 02013 5124 445385 349941 199"
"158.258553"
"$GPGGA,061224,2422.2625,N,08125.6044,W,1,10,1.6,15"
"##MN-00 00 41 0269 02014 5124 445388 349942 199"
"158.2586"
"$GPGGA,061228,2422.2609,N,08125.6041,W,1,9,1.5,15,"
"##MN-00 00 41 0270 02010 5125 445391 349943 199"
"158.258646"
"$GPGGA,061232,2422.2591,N,08125.6037,W,1,9,1.6,16,"
"##MN-00 00 42 0271 02004 5125 445393 349945 199"
"158.258692"
"$GPGGA,061236,2422.2576,N,08125.6035,W,1,10,1.6,16"
"##MN-00 00 42 0272 01997 5126 445392 349947 199"
"158.258738"
"$GPGGA,061240,2422.2558,N,08125.6031,W,1,9,1.5,16,"
"##MN-00 00 43 0274 01990 5126 445389 349948 199"
"158.258785"
"$GPGGA,061244,2422.2540,N,08125.6027,W,1,9,1.6,16,"
"##MN-00 00 42 0275 01985 5126 445379 349948 199"
"158.258831"
"$GPGGA,061248,2422.2522,N,08125.6023,W,1,9,1.6,16,"
"##MN-00 00 42 0276 01977 5127 445371 349948 199"
"158.258877"
"$GPGGA,061252,2422.2505,N,08125.6020,W,1,10,1.5,16"
"##MN-00 00 43 0277 01969 5128 445352 349942 199"
"158.258924"
"$GPGGA,061256,2422.2493,N,08125.6016,W,1,10,1.5,16"
"##MN-00 00 43 0279 01962 5128 445322 349938 199"
"158.25897"
"$GPGGA,061300,2422.2476,N,08125.6015,W,1,10,1.6,16"
"##MN-00 00 44 0280 01957 5128 445280 349928 199"
"158.259016"
"$GPGGA,061304,2422.2457,N,08125.6012,W,1,9,1.6,16,"
"##MN-00 00 44 0281 01951 5129 445224 349915 199"
"158.259063"
"$GPGGA,061308,2422.2439,N,08125.6007,W,1,9,1.6,16,"
"##MN-00 00 43 0282 01944 5129 445015 349881 199"
"158.259109"
"$GPGGA,061312,2422.2421,N,08125.6003,W,1,9,1.6,16,"
"##MN-00 00 44 0284 01940 5130 444623 349753 199"
"158.259155"
"$GPGGA,061316,2422.2403,N,08125.5999,W,1,9,1.6,15,"
"##MN-00 00 44 0285 01931 5131 444256 349675 199"
"158.259201"
"$GPGGA,061320,2422.2388,N,08125.5996,W,1,9,1.6,15,"
"##MN-00 00 44 0286 01925 5131 443943 349634 199"
"158.259248"
"$GPGGA,061324,2422.2370,N,08125.5992,W,1,9,1.6,15,"
"##MN-00 00 44 0288 01918 5131 443613 349545 199"
"158.259294"
"$GPGGA,061328,2422.2352,N,08125.5990,W,1,9,1.6,15,"
"##MN-00 00 43 0289 01910 5132 443162 349312 199"
"158.25934"
"$GPGGA,061332,2422.2335,N,08125.5987,W,1,9,1.6,14,"
"##MN-00 00 45 0290 01902 5132 443024 349215 199"
"158.259387"
"$GPGGA,061336,2422.2317,N,08125.5983,W,1,9,1.6,14,"
"##MN-00 00 45 0292 01897 5133 442989 349187 199"
"158.259433"
"$GPGGA,061340,2422.2300,N,08125.5980,W,1,9,1.6,14,"
"##MN-00 00 46 0293 01888 5133 442983 349193 199"
"158.259479"
"$GPGGA,061344,2422.2283,N,08125.5976,W,1,9,1.6,14,"
"##MN-00 00 46 0294 01883 5134 442982 349173 199"
"158.259525"
"$GPGGA,061348,2422.2266,N,08125.5973,W,1,9,1.5,13,"
"##MN-00 00 46 0296 01877 5134 442994 349175 199"
"158.259572"
"$GPGGA,061352,2422.2248,N,08125.5970,W,1,10,1.6,13"
"##MN-00 00 47 0297 01871 5135 443007 349172 199"
"158.259618"
"$GPGGA,061356,2422.2233,N,08125.5966,W,1,10,1.5,13"
"##MN-00 00 49 0298 01867 5136 442997 349168 199"
"158.259664"
"$GPGGA,061400,2422.2215,N,08125.5964,W,1,10,1.5,13"
"##MN-00 00 46 0300 01867 5136 442994 349166 199"
"158.259711"
"$GPGGA,061404,2422.2198,N,08125.5959,W,1,9,1.6,13,"
"##MN-00 00 48 0301 01865 5136 443011 349170 199"
"158.259757"
"$GPGGA,061408,2422.2182,N,08125.5956,W,1,10,1.6,13"
"##MN-00 00 44 0302 01866 5137 443029 349171 199"
"158.259803"
"$GPGGA,061412,2422.2164,N,08125.5952,W,1,9,1.6,13,"
"##MN-00 00 45 0303 01864 5137 443016 349171 199"
"158.25985"
"$GPGGA,061416,2422.2146,N,08125.5948,W,1,9,1.6,13,"
"##MN-00 00 45 0305 01866 5138 443008 349165 199"
"158.259896"
"$GPGGA,061420,2422.2128,N,08125.5945,W,1,9,1.6,13,"
"##MN-00 00 45 0306 01867 5138 442999 349162 199"
"158.259942"
"$GPGGA,061424,2422.2110,N,08125.5943,W,1,9,1.6,13,"
"##MN-00 00 45 0307 01864 5139 442966 349153 199"
"158.259988"
"$GPGGA,061428,2422.2092,N,08125.5940,W,1,9,1.6,13,"
"##MN-00 00 46 0308 01864 5139 442977 349151 199"
"158.260035"
"$GPGGA,061432,2422.2074,N,08125.5937,W,1,9,1.6,13,"
"##MN-00 00 48 0309 01865 5140 442980 349149 199"
"158.260081"
"$GPGGA,061436,2422.2056,N,08125.5933,W,1,9,1.6,13,"
"##MN-00 00 46 0311 01865 5140 442973 349150 199"
"158.260127"
"$GPGGA,061440,2422.2038,N,08125.5932,W,1,9,1.6,12,"
"##MN-00 00 46 0312 01865 5141 442989 349153 199"
"158.260174"
"$GPGGA,061444,2422.2020,N,08125.5928,W,1,9,1.6,12,"
"##MN-00 00 49 0313 01866 5141 442998 349156 199"
"158.26022"
"$GPGGA,061448,2422.2002,N,08125.5925,W,1,9,1.6,12,"
"##MN-00 00 45 0314 01865 5142 443011 349422 199"
"158.260266"
"$GPGGA,061452,2422.1984,N,08125.5922,W,1,9,1.6,12,"
"##MN-00 00 51 0315 01864 5142 443160 364835 199"
