" Tow: L3s-B   RVWS/WS1406"
" Date: 06/06/2014"
" Temperature Probe #  2597    Conductivity Probe #  2870"
" Pressure Probe #  109"
" Flow Meter Calibration  4.71 (m/count)  "
"158.276481"
"$GPGGA,063809,2420.1214,N,08124.8694,W,1,9,1.6,17,"
"##MN-00 00 53 0085 01864 5189 444131 879080 199"
"158.276539"
"$GPGGA,063817,2420.1158,N,08124.8666,W,1,9,1.6,16,"
"##MN-00 00 57 0086 01866 5189 439183 348537 199"
"158.276586"
"$GPGGA,063821,2420.1132,N,08124.8652,W,1,9,1.6,16,"
"##MN-00 00 56 0087 01863 5189 439128 348509 199"
"158.276632"
"$GPGGA,063825,2420.1106,N,08124.8640,W,1,9,1.6,16,"
"##MN-00 00 58 0088 01866 5188 439050 348478 199"
"158.276678"
"$GPGGA,063829,2420.1080,N,08124.8627,W,1,9,1.6,16,"
"##MN-00 00 57 0089 01865 5189 439026 348399 199"
"158.276725"
"$GPGGA,063833,2420.1056,N,08124.8613,W,1,9,1.6,16,"
"##MN-00 00 59 0090 01864 5189 439031 348427 199"
"158.276771"
"$GPGGA,063837,2420.1031,N,08124.8599,W,1,9,1.6,16,"
"##MN-00 00 59 0091 01865 5189 439005 348284 199"
"158.276817"
"$GPGGA,063841,2420.1008,N,08124.8584,W,1,9,1.6,16,"
"##MN-00 00 59 0092 01866 5188 438977 348198 199"
"158.276863"
"$GPGGA,063845,2420.0983,N,08124.8570,W,1,9,1.6,16,"
"##MN-00 00 58 0093 01869 5189 438968 348286 199"
"158.27691"
"$GPGGA,063849,2420.0961,N,08124.8556,W,1,9,1.6,15,"
"##MN-00 00 58 0094 01870 5189 438961 348192 199"
"158.276956"
"$GPGGA,063853,2420.0939,N,08124.8542,W,1,9,1.6,15,"
"##MN-00 00 58 0095 01868 5189 438972 348119 199"
"158.277002"
"$GPGGA,063857,2420.0916,N,08124.8528,W,1,9,1.6,15,"
"##MN-00 00 58 0096 01873 5189 438975 348092 199"
"158.277049"
"$GPGGA,063901,2420.0894,N,08124.8514,W,1,9,1.6,15,"
"##MN-00 00 59 0097 01876 5189 438964 348059 199"
"158.277095"
"$GPGGA,063905,2420.0871,N,08124.8499,W,1,9,1.6,15,"
"##MN-00 00 58 0098 01880 5189 438950 348036 199"
"158.277141"
"$GPGGA,063909,2420.0850,N,08124.8483,W,1,9,1.6,15,"
"##MN-00 00 60 0099 01884 5189 438961 348033 199"
"158.277188"
"$GPGGA,063913,2420.0829,N,08124.8470,W,1,9,1.6,15,"
"##MN-00 00 59 0100 01886 5189 438956 348040 199"
"158.277234"
"$GPGGA,063917,2420.0807,N,08124.8455,W,1,9,1.6,15,"
"##MN-00 00 59 0101 01890 5189 438944 348014 199"
"158.27728"
"$GPGGA,063922,2420.0779,N,08124.8438,W,1,9,1.6,15,"
"##MN-00 00 58 0102 01894 5189 438947 348003 199"
"158.277326"
"$GPGGA,063925,2420.0762,N,08124.8428,W,1,9,1.6,15,"
"##MN-00 00 58 0103 01898 5189 438946 347993 199"
"158.277373"
"$GPGGA,063930,2420.0735,N,08124.8412,W,1,9,1.6,15,"
"##MN-00 00 58 0104 01902 5190 438935 347990 199"
"158.277419"
"$GPGGA,063933,2420.0719,N,08124.8402,W,1,9,1.6,15,"
"##MN-00 00 58 0105 01903 5190 438932 347989 199"
"158.277465"
"$GPGGA,063937,2420.0696,N,08124.8388,W,1,9,1.6,14,"
"##MN-00 00 58 0106 01910 5190 438925 347983 199"
"158.277512"
"$GPGGA,063941,2420.0674,N,08124.8375,W,1,9,1.6,14,"
"##MN-00 00 57 0107 01912 5190 438917 347973 199"
"158.277558"
"$GPGGA,063945,2420.0652,N,08124.8361,W,1,9,1.6,14,"
"##MN-00 00 57 0108 01918 5191 438904 347965 199"
"158.277604"
"$GPGGA,063950,2420.0625,N,08124.8344,W,1,9,1.6,14,"
"##MN-00 00 57 0109 01919 5191 438909 347964 199"
"158.27765"
"$GPGGA,063954,2420.0603,N,08124.8330,W,1,9,1.6,14,"
"##MN-00 00 58 0110 01926 5191 438923 347961 199"
"158.277697"
"$GPGGA,063958,2420.0582,N,08124.8316,W,1,9,1.6,14,"
"##MN-00 00 58 0111 01930 5191 438956 347965 199"
"158.277743"
"$GPGGA,064002,2420.0560,N,08124.8302,W,1,9,1.6,14,"
"##MN-00 00 58 0112 01932 5192 439034 347976 199"
"158.277789"
"$GPGGA,064006,2420.0538,N,08124.8288,W,1,9,1.6,14,"
"##MN-00 00 58 0113 01937 5192 439123 347998 199"
"158.277836"
"$GPGGA,064010,2420.0517,N,08124.8274,W,1,9,1.6,14,"
"##MN-00 00 58 0114 01940 5192 439157 348000 199"
"158.277882"
"$GPGGA,064014,2420.0495,N,08124.8260,W,1,9,1.6,14,"
"##MN-00 00 57 0115 01944 5193 439162 348012 199"
"158.277928"
"$GPGGA,064018,2420.0472,N,08124.8246,W,1,9,1.7,14,"
"##MN-00 00 58 0116 01949 5193 439225 348016 199"
"158.277975"
"$GPGGA,064022,2420.0450,N,08124.8231,W,1,8,1.7,13,"
"##MN-00 00 57 0117 01954 5193 439375 348037 199"
"158.278021"
"$GPGGA,064026,2420.0427,N,08124.8216,W,1,9,1.6,13,"
"##MN-00 00 58 0118 01962 5193 439630 348081 199"
"158.278067"
"$GPGGA,064030,2420.0406,N,08124.8200,W,1,9,1.6,13,"
"##MN-00 00 57 0119 01964 5194 439960 348157 199"
"158.278113"
"$GPGGA,064034,2420.0384,N,08124.8184,W,1,9,1.6,13,"
"##MN-00 00 57 0120 01968 5194 440415 348226 199"
"158.27816"
"$GPGGA,064038,2420.0362,N,08124.8169,W,1,9,1.6,13,"
"##MN-00 00 57 0121 01971 5194 440757 348336 199"
"158.278206"
"$GPGGA,064042,2420.0340,N,08124.8153,W,1,9,1.6,14,"
"##MN-00 00 57 0121 01974 5195 440914 348409 199"
"158.278252"
"$GPGGA,064046,2420.0318,N,08124.8138,W,1,9,1.6,14,"
"##MN-00 00 57 0122 01976 5195 441005 348475 199"
"158.278299"
"$GPGGA,064050,2420.0296,N,08124.8123,W,1,9,1.6,14,"
"##MN-00 00 55 0123 01978 5196 441039 348475 199"
"158.278345"
"$GPGGA,064054,2420.0275,N,08124.8106,W,1,9,1.6,14,"
"##MN-00 00 55 0124 01979 5196 441049 348474 199"
"158.278391"
"$GPGGA,064058,2420.0253,N,08124.8090,W,1,9,1.6,14,"
"##MN-00 00 55 0125 01980 5197 441058 348528 199"
"158.278437"
"$GPGGA,064102,2420.0235,N,08124.8074,W,1,9,1.6,14,"
"##MN-00 00 56 0126 01981 5197 441179 348549 199"
"158.278484"
"$GPGGA,064106,2420.0214,N,08124.8058,W,1,9,1.6,14,"
"##MN-00 00 55 0127 01979 5197 441396 348591 199"
"158.27853"
"$GPGGA,064110,2420.0199,N,08124.8042,W,1,9,1.6,15,"
"##MN-00 00 55 0128 01982 5198 441586 348629 199"
"158.278576"
"$GPGGA,064114,2420.0177,N,08124.8023,W,1,9,1.6,15,"
"##MN-00 00 56 0129 01983 5198 441753 348708 199"
"158.278623"
"$GPGGA,064118,2420.0155,N,08124.8003,W,1,9,1.6,15,"
"##MN-00 00 54 0130 01984 5198 441769 348747 199"
"158.278669"
"$GPGGA,064122,2420.0138,N,08124.7985,W,1,9,1.6,15,"
"##MN-00 00 56 0131 01989 5199 441707 348743 199"
"158.278715"
"$GPGGA,064126,2420.0117,N,08124.7965,W,1,9,1.6,15,"
"##MN-00 00 54 0132 01990 5199 441651 348744 199"
"158.278762"
"$GPGGA,064130,2420.0098,N,08124.7947,W,1,9,1.6,15,"
"##MN-00 00 54 0133 01990 5200 441560 348734 199"
"158.278808"
"$GPGGA,064134,2420.0076,N,08124.7926,W,1,8,1.6,15,"
"##MN-00 00 54 0134 01988 5200 441497 348720 199"
"158.278854"
"$GPGGA,064138,2420.0053,N,08124.7905,W,1,8,1.6,15,"
"##MN-00 00 53 0135 01986 5200 441479 348713 199"
"158.2789"
"$GPGGA,064142,2420.0033,N,08124.7883,W,1,8,1.6,15,"
"##MN-00 00 53 0136 01982 5201 441477 348712 199"
"158.278947"
"$GPGGA,064146,2420.0012,N,08124.7861,W,1,9,1.6,15,"
"##MN-00 00 53 0137 01980 5201 441480 348710 199"
"158.278993"
"$GPGGA,064150,2419.9993,N,08124.7840,W,1,9,1.6,15,"
"##MN-00 00 52 0138 01984 5202 441469 348708 199"
"158.279039"
"$GPGGA,064154,2419.9971,N,08124.7820,W,1,9,1.6,15,"
"##MN-00 00 54 0139 01982 5203 441504 348713 199"
"158.279086"
"$GPGGA,064158,2419.9948,N,08124.7798,W,1,9,1.6,15,"
"##MN-00 00 54 0140 01985 5203 441559 348723 199"
"158.279132"
"$GPGGA,064202,2419.9926,N,08124.7776,W,1,9,1.6,15,"
"##MN-00 00 53 0141 01986 5203 441583 348733 199"
"158.279178"
"$GPGGA,064206,2419.9906,N,08124.7754,W,1,9,1.6,15,"
"##MN-00 00 52 0142 01984 5203 441585 348735 199"
"158.279225"
"$GPGGA,064210,2419.9883,N,08124.7732,W,1,9,1.6,15,"
"##MN-00 00 51 0143 01983 5204 441574 348735 199"
"158.279271"
"$GPGGA,064214,2419.9863,N,08124.7709,W,1,9,1.6,15,"
"##MN-00 00 51 0144 01979 5204 441542 348732 199"
"158.279317"
"$GPGGA,064218,2419.9841,N,08124.7686,W,1,9,1.6,15,"
"##MN-00 00 52 0145 01977 5205 441389 348719 199"
"158.279363"
"$GPGGA,064222,2419.9823,N,08124.7662,W,1,9,1.6,15,"
"##MN-00 00 52 0145 01978 5205 441235 348656 199"
"158.27941"
"$GPGGA,064226,2419.9802,N,08124.7639,W,1,8,1.6,15,"
"##MN+00 00 52 0146 01982 5206 440818 348590 199"
"158.279456"
"$GPGGA,064230,2419.9780,N,08124.7616,W,1,9,1.6,16,"
"##MN+00 00 52 0147 01983 5206 440504 348509 199"
"158.279502"
"$GPGGA,064234,2419.9758,N,08124.7592,W,1,9,1.6,16,"
"##MN+00 00 52 0148 01984 5206 440360 348435 199"
"158.279549"
"$GPGGA,064238,2419.9734,N,08124.7569,W,1,9,1.6,16,"
"##MN+00 00 51 0149 01986 5207 440544 348422 199"
"158.279595"
"$GPGGA,064242,2419.9712,N,08124.7546,W,1,9,1.6,16,"
"##MN+00 00 57 0150 01987 5207 440862 348492 199"
"158.279653"
"$GPGGA,064246,2419.9690,N,08124.7523,W,1,9,1.6,16,"
"##MN+00 00 54 0151 01989 5208 441195 348527 199"
"158.279699"
"#increment_net"
"$GPGGA,064250,2419.9669,N,08124.7498,W,1,9,1.6,16,"
"##MN-00 00 51 0151 01988 5208 441373 348613 199"
"158.279745"
"$GPGGA,064254,2419.9648,N,08124.7474,W,1,9,1.6,16,"
"##MN-00 00 49 0152 01987 5209 441394 348653 199"
"158.279792"
"$GPGGA,064258,2419.9628,N,08124.7450,W,1,9,1.6,16,"
"##MN-00 00 50 0153 01986 5209 441340 348641 199"
"158.279838"
"$GPGGA,064302,2419.9607,N,08124.7425,W,1,9,1.6,15,"
"##MN-00 00 49 0154 01986 5210 441263 348623 199"
"158.279884"
"$GPGGA,064306,2419.9587,N,08124.7400,W,1,9,1.6,15,"
"##MN-00 00 48 0155 01983 5210 441247 348620 199"
"158.279931"
"$GPGGA,064310,2419.9565,N,08124.7375,W,1,9,1.6,15,"
"##MN-00 00 48 0155 01981 5211 441210 348614 199"
"158.279977"
"$GPGGA,064314,2419.9545,N,08124.7349,W,1,9,1.6,15,"
"##MN-00 00 48 0156 01980 5211 441215 348610 199"
"158.280023"
"$GPGGA,064318,2419.9528,N,08124.7324,W,1,9,1.6,15,"
"##MN-00 00 51 0157 01983 5212 441255 348627 199"
"158.280069"
"$GPGGA,064322,2419.9511,N,08124.7297,W,1,9,1.6,15,"
"##MN-00 00 51 0158 01987 5212 441334 348651 199"
"158.280116"
"$GPGGA,064326,2419.9496,N,08124.7272,W,1,9,1.6,15,"
"##MN-00 00 52 0158 01993 5212 441377 348659 199"
"158.280162"
"$GPGGA,064330,2419.9482,N,08124.7248,W,1,9,1.6,15,"
"##MN-00 00 49 0159 01996 5212 441461 348680 199"
"158.280208"
"$GPGGA,064334,2419.9470,N,08124.7226,W,1,9,1.6,15,"
"##MN-00 00 47 0159 01999 5213 441573 348701 199"
"158.280255"
"$GPGGA,064338,2419.9462,N,08124.7209,W,1,8,1.7,15,"
"##MN-00 00 45 0160 01998 5213 441642 348729 199"
"158.280301"
"$GPGGA,064342,2419.9448,N,08124.7179,W,1,8,2.1,15,"
"##MN-00 00 43 0161 01997 5214 441628 348721 199"
"158.280347"
"$GPGGA,064346,2419.9444,N,08124.7155,W,1,7,1.6,15,"
"##MN-00 00 44 0161 02003 5214 441543 348700 199"
"158.280394"
"$GPGGA,064350,2419.9435,N,08124.7129,W,1,8,1.6,15,"
"##MN-00 00 40 0162 02000 5215 441633 348727 199"
"158.28044"
"$GPGGA,064354,2419.9427,N,08124.7103,W,1,9,1.6,16,"
"##MN-00 00 40 0162 02003 5215 441619 348720 199"
"158.280486"
"$GPGGA,064358,2419.9419,N,08124.7080,W,1,9,1.7,16,"
"##MN-00 00 39 0163 02004 5216 441609 348733 199"
"158.280532"
"$GPGGA,064402,2419.9412,N,08124.7057,W,1,9,1.6,16,"
"##MN-00 00 37 0163 02005 5216 441697 348767 199"
"158.280579"
"$GPGGA,064406,2419.9405,N,08124.7036,W,1,9,1.7,16,"
"##MN-00 00 37 0164 02003 5217 441831 348823 199"
"158.280625"
"$GPGGA,064411,2419.9394,N,08124.7007,W,1,8,1.7,16,"
"##MN-00 00 35 0164 02002 5217 441835 348824 199"
"158.280671"
"$GPGGA,064414,2419.9388,N,08124.6991,W,1,8,1.7,16,"
"##MN-00 00 34 0165 02000 5218 441784 348795 199"
"158.280718"
"$GPGGA,064418,2419.9381,N,08124.6969,W,1,8,1.7,16,"
"##MN-00 00 33 0165 02001 5218 441724 348774 199"
"158.280764"
"$GPGGA,064423,2419.9373,N,08124.6941,W,1,8,1.7,15,"
"##MN-00 00 31 0166 02004 5218 441689 348754 199"
"158.28081"
"$GPGGA,064427,2419.9368,N,08124.6918,W,1,8,1.7,15,"
"##MN-00 00 28 0166 02001 5219 441634 348732 199"
"158.280856"
"$GPGGA,064431,2419.9363,N,08124.6894,W,1,8,1.7,15,"
"##MN-00 00 24 0166 01995 5219 441468 348695 199"
"158.280903"
"$GPGGA,064435,2419.9359,N,08124.6869,W,1,8,1.7,15,"
"##MN-00 00 20 0167 01989 5220 441374 348695 199"
"158.280949"
"$GPGGA,064439,2419.9357,N,08124.6844,W,1,7,2.1,14,"
"##MN-00 00 16 0167 01981 5221 441272 348687 199"
"158.280995"
"$GPGGA,064443,2419.9355,N,08124.6819,W,1,8,1.7,14,"
"##MN-00 00 16 0167 01979 5221 440238 348475 199"
"158.281042"
"$GPGGA,064447,2419.9352,N,08124.6794,W,1,8,1.7,14,"
"##MN-00 00 15 0167 01983 5221 439680 348262 199"
"158.281088"
"$GPGGA,064451,2419.9350,N,08124.6770,W,1,8,1.7,14,"
"##MN-00 00 15 0168 01981 5222 439670 348243 199"
"158.281134"
"$GPGGA,064455,2419.9342,N,08124.6750,W,1,7,2.1,14,"
"##MN-00 00 18 0168 01979 5222 439615 348187 199"
"158.281181"
"$GPGGA,064459,2419.9332,N,08124.6735,W,1,7,2.1,13,"
"##MN-00 00 20 0168 01972 5222 439546 348162 199"
"158.281227"
"$GPGGA,064503,2419.9316,N,08124.6724,W,1,8,1.7,13,"
"##MN-00 00 25 0169 01960 5223 439307 348075 199"
"158.281273"
"$GPGGA,064507,2419.9305,N,08124.6718,W,1,8,1.7,13,"
"##MN+00 00 31 0170 01945 5223 439065 350022 199"
"158.281319"
"$GPGGA,064511,2419.9287,N,08124.6716,W,1,8,1.7,13,"
"##MN+00 00 37 0171 01935 5224 438918 348031 199"
"158.281366"
"$GPGGA,064515,2419.9272,N,08124.6711,W,1,8,1.7,13,"
"##MN+00 00 42 0172 01933 5224 438820 347946 199"
"158.281412"
"$GPGGA,064519,2419.9263,N,08124.6703,W,1,8,1.7,13,"
"##MN-00 00 55 0172 01951 5225 438739 347882 199"
"158.281458"
"$GPGGA,064523,2419.9253,N,08124.6694,W,1,8,1.7,13,"
"##MN-00 00 60 0172 01971 5225 438880 347913 199"
"158.281505"
"$GPGGA,064527,2419.9245,N,08124.6683,W,1,8,1.7,13,"
"##MN-00 00 62 0173 01995 5225 439793 348140 199"
"158.281551"
"$GPGGA,064531,2419.9238,N,08124.6671,W,1,8,1.7,13,"
"##MN-00 00 55 0173 02003 5226 441148 348478 199"
"158.281597"
"$GPGGA,064535,2419.9231,N,08124.6657,W,1,8,1.7,13,"
"##MN+00 00 49 0174 02003 5226 441385 348418 199"
"158.281644"
"$GPGGA,064539,2419.9225,N,08124.6645,W,1,8,1.7,13,"
"##MN+00 00 52 0174 02007 5226 441712 348570 199"
"158.28169"
"$GPGGA,064543,2419.9218,N,08124.6633,W,1,8,1.7,13,"
"##MN+00 00 49 0175 02004 5227 441884 348681 199"
"158.281736"
"$GPGGA,064547,2419.9210,N,08124.6624,W,1,8,1.7,13,"
"##MN-00 00 45 0176 01998 5227 441943 348730 199"
"158.281782"
"#increment_net"
"$GPGGA,064551,2419.9202,N,08124.6618,W,1,8,1.7,13,"
"##MN-00 00 43 0177 01996 5228 441841 348724 199"
"158.281829"
"$GPGGA,064555,2419.9193,N,08124.6611,W,1,8,1.7,13,"
"##MN-00 00 45 0178 01976 5228 441190 348616 199"
"158.281875"
"$GPGGA,064559,2419.9184,N,08124.6605,W,1,8,1.7,13,"
"##MN-00 00 42 0179 01965 5229 439929 348370 199"
"158.281921"
"$GPGGA,064603,2419.9176,N,08124.6599,W,1,8,1.7,12,"
"##MN-00 00 47 0180 01960 5229 439221 348076 199"
"158.281968"
"$GPGGA,064607,2419.9169,N,08124.6594,W,1,8,1.7,12,"
"##MN-00 00 48 0181 01957 5229 438932 348022 199"
"158.282014"
"$GPGGA,064611,2419.9162,N,08124.6591,W,1,8,1.7,12,"
"##MN-00 00 50 0182 01949 5230 438864 348008 199"
"158.28206"
"$GPGGA,064615,2419.9155,N,08124.6589,W,1,8,1.7,12,"
"##MN-00 00 51 0183 01945 5231 438810 347932 199"
"158.282106"
"$GPGGA,064619,2419.9147,N,08124.6589,W,1,8,1.7,12,"
"##MN-00 00 50 0184 01938 5231 438818 347923 199"
"158.282153"
"$GPGGA,064623,2419.9140,N,08124.6590,W,1,8,1.7,12,"
"##MN-00 00 54 0185 01930 5232 438837 347933 199"
"158.282199"
"$GPGGA,064627,2419.9133,N,08124.6593,W,1,8,1.7,12,"
"##MN-00 00 55 0186 01930 5233 438824 347931 199"
"158.282245"
"$GPGGA,064631,2419.9126,N,08124.6598,W,1,8,1.7,12,"
"##MN-00 00 58 0187 01934 5233 438800 347916 199"
"158.282292"
"$GPGGA,064635,2419.9118,N,08124.6605,W,1,8,1.7,12,"
"##MN-00 00 58 0188 01939 5233 438791 347923 199"
"158.282338"
"$GPGGA,064639,2419.9110,N,08124.6615,W,1,8,1.7,11,"
"##MN-00 00 60 0189 01939 5234 438793 347920 199"
"158.282384"
"$GPGGA,064643,2419.9101,N,08124.6624,W,1,8,1.7,11,"
"##MN-00 00 61 0190 01942 5235 438803 347917 199"
"158.282431"
"$GPGGA,064647,2419.9091,N,08124.6636,W,1,8,1.7,11,"
"##MN-00 00 61 0192 01944 5235 438803 347900 199"
"158.282477"
"$GPGGA,064651,2419.9079,N,08124.6647,W,1,8,1.7,11,"
"##MN-00 00 63 0193 01946 5236 438820 347903 199"
"158.282523"
"$GPGGA,064655,2419.9065,N,08124.6656,W,1,8,1.7,11,"
"##MN-00 00 62 0194 01952 5236 438836 347900 199"
"158.282569"
"$GPGGA,064659,2419.9052,N,08124.6665,W,1,7,2.1,11,"
"##MN-00 00 64 0195 01956 5236 438852 347899 199"
"158.282616"
"$GPGGA,064703,2419.9043,N,08124.6673,W,1,8,1.7,11,"
"##MN-00 00 63 0196 01962 5237 438843 347900 199"
"158.282662"
"$GPGGA,064707,2419.9027,N,08124.6680,W,1,8,1.7,11,"
"##MN-00 00 63 0198 01968 5237 438864 347897 199"
"158.282708"
"$GPGGA,064711,2419.9010,N,08124.6687,W,1,8,1.7,11,"
"##MN-00 00 64 0199 01973 5238 438906 347898 199"
"158.282755"
"$GPGGA,064715,2419.8985,N,08124.6691,W,1,7,2.1,12,"
"##MN-00 00 63 0200 01976 5238 438979 347900 199"
"158.282801"
"$GPGGA,064719,2419.8958,N,08124.6694,W,1,8,1.7,12,"
"##MN-00 00 64 0201 01975 5239 439117 347958 199"
"158.282847"
"$GPGGA,064723,2419.8953,N,08124.6694,W,1,8,1.7,12,"
"##MN-00 00 64 0203 01976 5240 439524 348035 199"
"158.282905"
"$GPGGA,064727,2419.8928,N,08124.6695,W,1,7,1.7,13,"
"##MN+00 00 64 0204 01977 5240 439773 348079 199"
"158.282951"
"$GPGGA,064731,2419.8900,N,08124.6696,W,1,8,1.7,13,"
"##MN+00 00 64 0206 01980 5240 439777 348087 199"
"158.282998"
"$GPGGA,064735,2419.8878,N,08124.6695,W,1,8,1.7,13,"
"##MN+00 00 64 0207 01981 5241 439844 348099 199"
"158.283044"
"$GPGGA,064739,2419.8856,N,08124.6696,W,1,8,1.7,13,"
"##MN-00 00 63 0208 01981 5241 439821 348121 199"
"158.28309"
"$GPGGA,064743,2419.8837,N,08124.6698,W,1,8,1.7,13,"
"##MN-00 00 62 0210 01981 5242 439622 348089 199"
"158.283137"
"$GPGGA,064747,2419.8816,N,08124.6698,W,1,8,1.7,13,"
"##MN-00 00 64 0211 01980 5242 439490 348081 199"
"158.283183"
"$GPGGA,064751,2419.8797,N,08124.6700,W,1,8,1.7,13,"
"##MN+00 00 64 0212 01980 5243 439535 348085 199"
"158.283229"
"$GPGGA,064755,2419.8776,N,08124.6703,W,1,8,1.7,13,"
"##MN+00 00 76 0214 01986 5244 439501 348080 199"
"158.283275"
"$GPGGA,064759,2419.8756,N,08124.6706,W,1,8,2.1,13,"
"##MN+00 00 69 0214 01984 5244 439881 348190 199"
"158.283322"
"#increment_net"
"$GPGGA,064803,2419.8736,N,08124.6710,W,1,8,2.1,13,"
"##MN-00 00 66 0216 01982 5245 439841 348164 199"
"158.283368"
"$GPGGA,064807,2419.8716,N,08124.6714,W,1,7,2.1,12,"
"##MN-00 00 63 0217 01978 5246 439589 348140 199"
"158.283414"
"$GPGGA,064811,2419.8696,N,08124.6719,W,1,8,1.7,12,"
"##MN-00 00 64 0219 01979 5246 439359 348086 199"
"158.283461"
"$GPGGA,064815,2419.8679,N,08124.6723,W,1,8,2.1,12,"
"##MN-00 00 63 0220 01975 5246 439268 348058 199"
"158.283507"
"$GPGGA,064819,2419.8660,N,08124.6727,W,1,7,1.7,12,"
"##MN-00 00 63 0222 01976 5247 439153 348008 199"
"158.283553"
"$GPGGA,064823,2419.8642,N,08124.6730,W,1,8,1.7,12,"
"##MN-00 00 63 0223 01973 5248 439147 347990 199"
"158.2836"
"$GPGGA,064827,2419.8625,N,08124.6734,W,1,8,1.7,12,"
"##MN-00 00 62 0224 01973 5248 439239 348010 199"
"158.283646"
"$GPGGA,064831,2419.8606,N,08124.6738,W,1,7,1.7,12,"
"##MN-00 00 63 0226 01972 5249 439181 348020 199"
"158.283692"
"$GPGGA,064835,2419.8586,N,08124.6741,W,1,8,1.7,12,"
"##MN-00 00 64 0227 01970 5249 439076 347992 199"
"158.283738"
"$GPGGA,064839,2419.8568,N,08124.6745,W,1,8,1.7,12,"
"##MN-00 00 65 0229 01969 5249 439104 347980 199"
"158.283785"
"$GPGGA,064843,2419.8550,N,08124.6749,W,1,8,1.7,12,"
"##MN-00 00 65 0230 01971 5250 439118 347969 199"
"158.283831"
"$GPGGA,064847,2419.8531,N,08124.6753,W,1,8,1.7,12,"
"##MN-00 00 63 0232 01970 5250 439070 347952 199"
"158.283877"
"$GPGGA,064852,2419.8506,N,08124.6756,W,1,8,1.7,12,"
"##MN-00 00 66 0233 01967 5251 439125 347963 199"
"158.283924"
"$GPGGA,064856,2419.8486,N,08124.6759,W,1,8,1.7,12,"
"##MN-00 00 64 0235 01969 5251 439211 347980 199"
"158.28397"
"$GPGGA,064900,2419.8466,N,08124.6763,W,1,8,1.7,12,"
"##MN-00 00 65 0236 01967 5251 439247 347987 199"
"158.284016"
"$GPGGA,064904,2419.8448,N,08124.6767,W,1,8,1.7,12,"
"##MN-00 00 64 0237 01967 5252 439263 347997 199"
"158.284063"
"$GPGGA,064908,2419.8429,N,08124.6770,W,1,8,1.7,12,"
"##MN-00 00 64 0239 01968 5253 439252 347997 199"
"158.284109"
"$GPGGA,064912,2419.8409,N,08124.6772,W,1,8,1.7,12,"
"##MN-00 00 66 0240 01968 5253 439304 348001 199"
"158.284155"
"$GPGGA,064916,2419.8389,N,08124.6775,W,1,8,1.7,12,"
"##MN-00 00 64 0242 01968 5254 439368 348017 199"
"158.284201"
"$GPGGA,064920,2419.8371,N,08124.6779,W,1,8,1.7,11,"
"##MN-00 00 64 0243 01970 5254 439394 348022 199"
"158.284248"
"$GPGGA,064924,2419.8350,N,08124.6782,W,1,8,1.7,11,"
"##MN-00 00 66 0245 01968 5255 439377 348025 199"
"158.284294"
"$GPGGA,064928,2419.8331,N,08124.6785,W,1,8,1.7,11,"
"##MN-00 00 64 0246 01969 5255 439390 348027 199"
"158.28434"
"$GPGGA,064932,2419.8311,N,08124.6789,W,1,8,1.7,11,"
"##MN+00 00 64 0247 01969 5256 439421 348027 199"
"158.284387"
"$GPGGA,064936,2419.8292,N,08124.6793,W,1,8,1.7,11,"
"##MN+00 00 65 0249 01967 5256 439405 348033 199"
"158.284433"
"$GPGGA,064940,2419.8273,N,08124.6796,W,1,8,1.7,11,"
"##MN+00 00 64 0250 01967 5257 439434 348036 199"
"158.284479"
"$GPGGA,064944,2419.8253,N,08124.6799,W,1,8,1.7,10,"
"##MN-00 00 64 0252 01969 5257 439508 348050 199"
"158.284525"
"$GPGGA,064948,2419.8233,N,08124.6802,W,1,8,1.7,10,"
"##MN-00 00 66 0253 01968 5258 439523 348062 199"
"158.284572"
"$GPGGA,064952,2419.8213,N,08124.6806,W,1,8,1.7,10,"
"##MN-00 00 67 0254 01967 5258 439564 348080 199"
"158.284618"
"$GPGGA,064956,2419.8194,N,08124.6810,W,1,8,1.7,10,"
"##MN-00 00 63 0256 01966 5259 439585 348087 199"
"158.284664"
"$GPGGA,065000,2419.8174,N,08124.6813,W,1,8,1.7,10,"
"##MN+00 00 64 0257 01966 5259 439607 348098 199"
"158.284711"
"$GPGGA,065004,2419.8158,N,08124.6817,W,1,8,1.7,10,"
"##MN+00 00 76 0258 01969 5260 439630 348108 199"
"158.284757"
"#increment_net"
"$GPGGA,065008,2419.8140,N,08124.6819,W,1,8,1.8,10,"
"##MN+00 00 69 0260 01969 5260 439682 348127 199"
"158.284803"
"$GPGGA,065012,2419.8121,N,08124.6824,W,1,8,2.1,10,"
"##MN-00 00 67 0261 01964 5260 439689 348125 199"
"158.28485"
"$GPGGA,065016,2419.8102,N,08124.6828,W,1,8,1.8,10,"
"##MN-00 00 66 0263 01966 5260 439696 348127 199"
"158.284896"
"$GPGGA,065020,2419.8080,N,08124.6832,W,1,8,1.8,10,"
"##MN-00 00 66 0264 01965 5261 439708 348132 199"
"158.284942"
"$GPGGA,065024,2419.8061,N,08124.6835,W,1,8,1.8,10,"
"##MN-00 00 67 0265 01964 5261 439685 348129 199"
"158.284988"
"$GPGGA,065028,2419.8042,N,08124.6839,W,1,8,1.8,10,"
"##MN-00 00 67 0267 01963 5262 439670 348127 199"
"158.285035"
"$GPGGA,065032,2419.8024,N,08124.6842,W,1,8,1.8,10,"
"##MN-00 00 66 0268 01963 5262 439619 348118 199"
"158.285081"
"$GPGGA,065036,2419.8006,N,08124.6846,W,1,8,1.8,10,"
"##MN-00 00 66 0270 01965 5263 439626 348112 199"
"158.285127"
"$GPGGA,065040,2419.7989,N,08124.6849,W,1,8,1.8,11,"
"##MN-00 00 67 0271 01965 5263 439541 348106 199"
"158.285174"
"$GPGGA,065044,2419.7970,N,08124.6854,W,1,8,1.8,11,"
"##MN-00 00 67 0273 01966 5264 439423 348085 199"
"158.28522"
"$GPGGA,065048,2419.7952,N,08124.6857,W,1,8,1.8,11,"
"##MN-00 00 67 0274 01966 5264 439314 348062 199"
"158.285266"
"$GPGGA,065052,2419.7932,N,08124.6861,W,1,8,1.8,11,"
"##MN-00 00 66 0275 01969 5265 439427 348051 199"
"158.285312"
"$GPGGA,065056,2419.7912,N,08124.6865,W,1,8,1.8,11,"
"##MN-00 00 67 0277 01968 5265 439616 348074 199"
"158.285359"
"$GPGGA,065100,2419.7892,N,08124.6868,W,1,8,1.8,11,"
"##MN-00 00 66 0278 01969 5266 439643 348099 199"
"158.285405"
"$GPGGA,065104,2419.7872,N,08124.6872,W,1,8,1.8,11,"
"##MN-00 00 67 0280 01970 5266 439542 348086 199"
"158.285451"
"$GPGGA,065108,2419.7852,N,08124.6875,W,1,8,1.8,11,"
"##MN-00 00 67 0281 01969 5267 439371 348064 199"
"158.285498"
"$GPGGA,065112,2419.7831,N,08124.6879,W,1,8,1.8,11,"
"##MN-00 00 66 0283 01967 5268 439337 348045 199"
"158.285544"
"$GPGGA,065116,2419.7811,N,08124.6882,W,1,8,1.8,11,"
"##MN-00 00 67 0284 01967 5268 439475 348048 199"
"158.28559"
"$GPGGA,065120,2419.7789,N,08124.6886,W,1,8,1.8,11,"
"##MN-00 00 66 0285 01966 5269 439421 348043 199"
"158.285637"
"$GPGGA,065124,2419.7769,N,08124.6889,W,1,8,1.8,11,"
"##MN-00 00 67 0287 01966 5269 439381 348035 199"
"158.285683"
"$GPGGA,065128,2419.7750,N,08124.6893,W,1,8,1.8,11,"
"##MN-00 00 67 0288 01968 5270 439510 348047 199"
"158.285729"
"$GPGGA,065132,2419.7731,N,08124.6896,W,1,8,1.8,11,"
"##MN-00 00 66 0290 01971 5270 439585 348063 199"
"158.285775"
"$GPGGA,065136,2419.7712,N,08124.6901,W,1,8,1.8,11,"
"##MN-00 00 66 0291 01970 5270 439649 348087 199"
"158.285822"
"$GPGGA,065140,2419.7692,N,08124.6905,W,1,8,1.8,11,"
"##MN-00 00 66 0293 01971 5271 439742 348119 199"
"158.285868"
"$GPGGA,065144,2419.7673,N,08124.6907,W,1,8,1.8,11,"
"##MN+00 00 68 0294 01970 5271 439768 348123 199"
"158.285914"
"$GPGGA,065148,2419.7652,N,08124.6910,W,1,8,1.8,11,"
"##MN+00 00 66 0295 01971 5272 439721 348122 199"
"158.285961"
"$GPGGA,065152,2419.7632,N,08124.6913,W,1,8,1.8,11,"
"##MN+00 00 67 0297 01970 5273 439648 348105 199"
"158.286007"
"$GPGGA,065156,2419.7617,N,08124.6915,W,1,8,1.8,11,"
"##MN-00 00 66 0298 01972 5273 439673 348106 199"
"158.286053"
"$GPGGA,065200,2419.7596,N,08124.6919,W,1,8,2.1,11,"
"##MN-00 00 66 0300 01971 5274 439736 348119 199"
"158.2861"
"$GPGGA,065204,2419.7578,N,08124.6923,W,1,7,1.8,11,"
"##MN+00 00 66 0301 01972 5274 439818 348139 199"
"158.286157"
"$GPGGA,065208,2419.7558,N,08124.6929,W,1,8,1.8,11,"
"##MN+00 00 79 0302 01974 5274 439886 348161 199"
"158.286204"
"$GPGGA,065212,2419.7536,N,08124.6934,W,1,7,2.1,11,"
"##MN+00 00 76 0304 01979 5275 439993 348213 199"
"158.28625"
"#increment_net"
"$GPGGA,065216,2419.7519,N,08124.6938,W,1,8,2.1,11,"
"##MN-00 00 72 0305 01987 5276 440059 348227 199"
"158.286296"
"$GPGGA,065220,2419.7495,N,08124.6943,W,1,7,2.1,11,"
"##MN-00 00 70 0307 01996 5275 440219 348253 199"
"158.286343"
"$GPGGA,065224,2419.7477,N,08124.6948,W,1,8,1.8,11,"
"##MN-00 00 71 0309 02004 5276 440717 348309 199"
"158.286389"
"$GPGGA,065228,2419.7457,N,08124.6954,W,1,8,1.8,11,"
"##MN-00 00 72 0310 02007 5276 441206 348465 199"
"158.286435"
"$GPGGA,065232,2419.7437,N,08124.6960,W,1,8,1.8,12,"
"##MN-00 00 74 0312 02008 5277 441388 348581 199"
"158.286481"
"$GPGGA,065236,2419.7417,N,08124.6966,W,1,8,1.8,12,"
"##MN-00 00 72 0314 02011 5277 441453 348600 199"
"158.286528"
"$GPGGA,065240,2419.7395,N,08124.6972,W,1,8,1.8,12,"
"##MN-00 00 73 0315 02009 5277 441466 348608 199"
"158.286574"
"$GPGGA,065244,2419.7374,N,08124.6977,W,1,8,1.8,12,"
"##MN-00 00 72 0317 02010 5278 441443 348640 199"
"158.28662"
"$GPGGA,065248,2419.7352,N,08124.6983,W,1,8,1.8,12,"
"##MN-00 00 70 0318 02008 5278 441347 348622 199"
"158.286667"
"$GPGGA,065252,2419.7330,N,08124.6990,W,1,8,1.8,12,"
"##MN-00 00 72 0320 02008 5279 441170 348580 199"
"158.286713"
"$GPGGA,065256,2419.7309,N,08124.6995,W,1,8,1.8,12,"
"##MN-00 00 70 0322 02004 5279 440910 348533 199"
"158.286759"
"$GPGGA,065300,2419.7287,N,08124.7001,W,1,8,1.8,12,"
"##MN-00 00 70 0324 02004 5280 440725 348472 199"
"158.286806"
"$GPGGA,065304,2419.7265,N,08124.7008,W,1,8,1.8,12,"
"##MN-00 00 72 0325 02002 5280 440673 348451 199"
"158.286852"
"$GPGGA,065308,2419.7244,N,08124.7013,W,1,8,1.8,12,"
"##MN-00 00 71 0327 01999 5281 440665 348449 199"
"158.286898"
"$GPGGA,065312,2419.7222,N,08124.7020,W,1,8,1.8,12,"
"##MN-00 00 71 0328 01994 5281 440638 348429 199"
"158.286944"
"$GPGGA,065316,2419.7199,N,08124.7027,W,1,8,1.8,12,"
"##MN-00 00 72 0330 01991 5282 440593 348423 199"
"158.286991"
"$GPGGA,065320,2419.7178,N,08124.7034,W,1,8,1.8,12,"
"##MN-00 00 70 0332 01988 5282 440686 348428 199"
"158.287037"
"$GPGGA,065324,2419.7157,N,08124.7041,W,1,8,1.8,12,"
"##MN-00 00 71 0333 01986 5283 440627 348410 199"
"158.287083"
"$GPGGA,065328,2419.7136,N,08124.7048,W,1,8,1.8,12,"
"##MN-00 00 71 0334 01981 5283 440342 348321 199"
"158.28713"
"$GPGGA,065333,2419.7111,N,08124.7056,W,1,8,1.8,12,"
"##MN-00 00 71 0336 01978 5283 440012 348226 199"
"158.287176"
"$GPGGA,065337,2419.7092,N,08124.7063,W,1,8,1.8,12,"
"##MN-00 00 72 0337 01974 5284 439567 348150 199"
"158.287222"
"$GPGGA,065341,2419.7070,N,08124.7071,W,1,8,1.8,12,"
"##MN-00 00 73 0339 01969 5284 439201 348002 199"
"158.287269"
"$GPGGA,065345,2419.7056,N,08124.7077,W,1,8,1.8,12,"
"##MN-00 00 72 0340 01964 5285 438954 347929 199"
"158.287315"
"$GPGGA,065348,2419.7039,N,08124.7082,W,1,8,2.1,12,"
"##MN-00 00 72 0342 01961 5285 438895 347895 199"
"158.287361"
"$GPGGA,065353,2419.7005,N,08124.7090,W,1,7,2.1,12,"
"##MN-00 00 72 0343 01956 5285 438799 347865 199"
"158.287407"
"$GPGGA,065357,2419.6987,N,08124.7097,W,1,8,1.8,12,"
"##MN-00 00 72 0345 01950 5286 438766 347852 199"
"158.287454"
"$GPGGA,065401,2419.6967,N,08124.7104,W,1,8,1.8,12,"
"##MN-00 00 72 0346 01945 5286 438782 347853 199"
"158.2875"
"$GPGGA,065405,2419.6945,N,08124.7111,W,1,8,1.8,12,"
"##MN-00 00 71 0348 01941 5286 438760 347842 199"
"158.287546"
"$GPGGA,065409,2419.6926,N,08124.7117,W,1,8,1.8,12,"
"##MN-00 00 71 0349 01939 5287 438709 347829 199"
"158.287593"
"$GPGGA,065413,2419.6904,N,08124.7124,W,1,8,1.8,12,"
"##MN-00 00 72 0350 01931 5287 438725 347831 199"
"158.287639"
"$GPGGA,065417,2419.6881,N,08124.7129,W,1,8,1.8,12,"
"##MN-00 00 71 0351 01930 5288 438707 347822 199"
"158.287685"
"$GPGGA,065421,2419.6861,N,08124.7135,W,1,8,1.8,12,"
"##MN-00 00 70 0353 01926 5288 438671 347820 199"
"158.287731"
"$GPGGA,065425,2419.6839,N,08124.7140,W,1,8,1.8,12,"
"##MN-00 00 69 0354 01921 5288 438657 347811 199"
"158.287778"
"$GPGGA,065429,2419.6816,N,08124.7147,W,1,8,1.8,12,"
"##MN-00 00 68 0355 01917 5289 438654 347815 199"
"158.287824"
"$GPGGA,065433,2419.6794,N,08124.7153,W,1,8,1.8,12,"
"##MN-00 00 72 0356 01912 5290 438668 347813 199"
"158.28787"
"$GPGGA,065437,2419.6771,N,08124.7160,W,1,8,1.8,11,"
"##MN-00 00 72 0357 01909 5290 438673 347814 199"
"158.287917"
"$GPGGA,065441,2419.6750,N,08124.7167,W,1,8,1.8,11,"
"##MN-00 00 73 0358 01902 5290 438690 347816 199"
"158.287963"
"$GPGGA,065445,2419.6728,N,08124.7173,W,1,8,1.8,11,"
"##MN-00 00 75 0359 01902 5290 438681 347813 199"
"158.288009"
"$GPGGA,065449,2419.6706,N,08124.7179,W,1,8,1.8,11,"
"##MN-00 00 74 0360 01898 5291 438665 347812 199"
"158.288056"
"$GPGGA,065453,2419.6684,N,08124.7186,W,1,8,1.8,11,"
"##MN-00 00 74 0361 01895 5291 438659 347811 199"
"158.288102"
"$GPGGA,065457,2419.6667,N,08124.7193,W,1,8,1.8,11,"
"##MN-00 00 76 0362 01890 5292 438665 347811 199"
"158.288148"
"$GPGGA,065501,2419.6647,N,08124.7198,W,1,8,1.8,11,"
"##MN-00 00 75 0363 01887 5292 438680 347816 199"
"158.288194"
"$GPGGA,065505,2419.6628,N,08124.7205,W,1,8,1.8,11,"
"##MN-00 00 75 0365 01885 5292 438683 347816 199"
"158.288241"
"$GPGGA,065509,2419.6608,N,08124.7211,W,1,8,1.8,11,"
"##MN-00 00 76 0366 01881 5293 438675 347814 199"
"158.288287"
"$GPGGA,065513,2419.6587,N,08124.7218,W,1,8,1.8,11,"
"##MN-00 00 75 0367 01877 5293 438677 347814 199"
"158.288333"
"$GPGGA,065517,2419.6568,N,08124.7225,W,1,8,1.8,12,"
"##MN-00 00 74 0368 01874 5294 438684 347817 199"
"158.28838"
"$GPGGA,065521,2419.6546,N,08124.7232,W,1,8,1.8,12,"
"##MN-00 00 76 0369 01874 5294 438708 347823 199"
"158.288426"
"$GPGGA,065525,2419.6525,N,08124.7236,W,1,8,1.8,12,"
"##MN-00 00 75 0370 01870 5295 438719 347830 199"
"158.288472"
"$GPGGA,065529,2419.6503,N,08124.7241,W,1,8,1.8,12,"
"##MN-00 00 75 0372 01867 5295 438729 347832 199"
"158.288519"
"$GPGGA,065533,2419.6482,N,08124.7245,W,1,8,1.8,12,"
"##MN-00 00 73 0373 01866 5296 438706 347827 199"
"158.288565"
"$GPGGA,065537,2419.6461,N,08124.7249,W,1,8,1.8,12,"
"##MN-00 00 74 0374 01866 5296 438717 347830 199"
"158.288611"
"$GPGGA,065541,2419.6440,N,08124.7254,W,1,8,1.8,12,"
"##MN-00 00 75 0376 01866 5297 438712 347828 199"
"158.288657"
"$GPGGA,065545,2419.6420,N,08124.7258,W,1,8,1.8,12,"
"##MN-00 00 73 0377 01865 5297 438695 347824 199"
"158.288704"
"$GPGGA,065549,2419.6399,N,08124.7262,W,1,8,1.8,12,"
"##MN-00 00 71 0378 01863 5298 438690 347823 199"
"158.28875"
"$GPGGA,065553,2419.6378,N,08124.7266,W,1,8,1.8,12,"
"##MN-00 00 72 0379 01864 5298 438685 347823 199"
"158.288796"
"$GPGGA,065557,2419.6358,N,08124.7270,W,1,8,1.8,12,"
"##MN-00 00 75 0381 01864 5298 438721 347832 199"
"158.288843"
"$GPGGA,065601,2419.6337,N,08124.7273,W,1,8,2.0,12,"
"##MN-00 00 75 0382 01863 5299 438755 347840 199"
"158.288889"
"$GPGGA,065605,2419.6317,N,08124.7279,W,1,8,1.8,12,"
"##MN-00 00 73 0383 01863 5299 438758 348103 199"
"158.288935"
"$GPGGA,065609,2419.6294,N,08124.7282,W,1,7,2.1,12,"
"##MN-00 00 69 0384 01862 5300 438809 347868 199"
"158.288981"
"$GPGGA,065613,2419.6276,N,08124.7287,W,1,8,1.8,12,"
"##MN-00 00 75 0384 01862 5301 438845 360576 199"
"158.289028"
"$GPGGA,065617,2419.6257,N,08124.7294,W,1,7,1.8,12,"
"##MN-00 00 73 0385 01863 5302 438880 408810 199"
"158.289074"
"$GPGGA,065621,2419.6245,N,08124.7298,W,1,8,1.8,12,"
"##MN-00 00 68 0385 01862 5303 439603 841184 199"
"158.28912"
"$GPGGA,065625,2419.6229,N,08124.7302,W,1,8,1.8,12,"
"##MN-00 00 67 0385 01861 5303 441642 924934 199"
"158.289167"
"$GPGGA,065629,2419.6209,N,08124.7309,W,1,8,1.8,12,"
"##MN-00 00 75 0385 01863 5302 444757 924877 199"
"158.289213"
"$GPGGA,065633,2419.6190,N,08124.7313,W,1,7,2.1,13,"
"##MN-00 00 62 0385 01861 5302 448000 924883 199"
"158.289259"
"$GPGGA,065637,2419.6171,N,08124.7319,W,1,8,1.8,13,"
"##MN-00 00 63 0385 01863 5302 450299 924900 199"
"158.289306"
"$GPGGA,065641,2419.6149,N,08124.7324,W,1,8,1.8,13,"
"##MN-00 00 56 0385 01862 5302 451815 924939 199"
"158.289352"
"$GPGGA,065645,2419.6125,N,08124.7328,W,1,8,1.8,13,"
"##MN-00 00 40 0385 01862 5303 453000 925271 199"
"158.28941"
"$GPGGA,065649,2419.6102,N,08124.7334,W,1,8,1.8,13,"
"##MN-00 00 42 0385 01862 5303 455045 925423 199"
"158.289456"
"$GPGGA,065653,2419.6079,N,08124.7339,W,1,8,1.8,13,"
"##MN-00 00 33 0385 01862 5304 456091 925430 199"
"158.289502"
"$GPGGA,065657,2419.6055,N,08124.7346,W,1,8,1.8,13,"
"##MN-00 00 31 0385 01862 5305 457237 925433 199"
"158.289549"
"$GPGGA,065701,2419.6032,N,08124.7352,W,1,8,1.8,12,"
"##MN-00 00 32 0385 01862 5305 457731 925434 199"
"158.289595"
"$GPGGA,065705,2419.6008,N,08124.7359,W,1,8,1.8,12,"
"##MN-00 00 41 0385 01863 5305 457732 925447 199"
"158.289641"
"$GPGGA,065709,2419.5984,N,08124.7366,W,1,8,1.8,12,"
"##MN-00 00 43 0385 01862 5306 457462 925461 199"
"158.289687"
"$GPGGA,065713,2419.5961,N,08124.7374,W,1,8,1.8,12,"
"##MN-00 00 39 0385 01862 5306 457293 925135 199"
"158.289734"
"$GPGGA,065717,2419.5936,N,08124.7382,W,1,8,1.8,12,"
"##MN-00 00 40 0385 01861 5307 456989 924912 199"
"158.28978"
"$GPGGA,065721,2419.5914,N,08124.7391,W,1,7,2.0,12,"
"##MN-00 00 44 0385 01862 5307 457396 924914 199"
"158.289826"
"$GPGGA,065725,2419.5894,N,08124.7399,W,1,7,2.0,12,"
"##MN-00 00 54 0385 01862 5307 457318 924916 199"
"158.289873"
"$GPGGA,065729,2419.5867,N,08124.7408,W,1,7,2.0,12,"
"##MN-00 00 55 0385 01862 5307 457156 924947 199"
"158.289919"
"$GPGGA,065733,2419.5842,N,08124.7420,W,1,8,1.8,11,"
"##MN-00 00 55 0385 01862 5308 456931 924973 199"
"158.289965"
"$GPGGA,065737,2419.5814,N,08124.7431,W,1,8,1.8,11,"
"##MN-00 00 56 0385 01862 5308 456527 925103 199"
"158.290012"
"$GPGGA,065741,2419.5802,N,08124.7440,W,1,8,1.8,11,"
"##MN-00 00 57 0385 01861 5309 455857 925380 199"
"158.290058"
"$GPGGA,065745,2419.5777,N,08124.7450,W,1,7,2.0,12,"
"##MN-00 00 56 0385 01860 5309 455450 925393 199"
"158.290104"
"$GPGGA,065749,2419.5763,N,08124.7460,W,1,8,1.8,12,"
"##MN-00 00 58 0385 01862 5310 454880 925395 199"
"158.29015"
"$GPGGA,065753,2419.5748,N,08124.7471,W,1,8,1.8,12,"
"##MN-00 00 57 0385 01862 5310 454137 925397 199"
"158.290197"
"$GPGGA,065757,2419.5716,N,08124.7482,W,1,8,1.8,13,"
"##MN-00 00 58 0385 01862 5311 453381 925398 199"
"158.290243"
"$GPGGA,065801,2419.5688,N,08124.7494,W,1,8,1.8,13,"
"##MN-00 00 63 0385 01861 5311 452897 925400 199"
"158.290289"
"$GPGGA,065805,2419.5662,N,08124.7507,W,1,8,1.8,13,"
"##MN-00 00 66 0385 01860 5311 452731 925401 199"
"158.290336"
"$GPGGA,065809,2419.5636,N,08124.7518,W,1,8,1.8,13,"
"##MN-00 00 66 0385 01862 5312 452651 925403 199"
"158.290382"
"$GPGGA,065813,2419.5611,N,08124.7530,W,1,8,1.8,13,"
"##MN-00 00 68 0385 01862 5312 452557 925404 199"
"158.290428"
"$GPGGA,065818,2419.5578,N,08124.7544,W,1,8,1.8,13,"
"##MN-00 00 73 0385 01862 5312 452106 925404 199"
"158.290475"
"$GPGGA,065822,2419.5550,N,08124.7555,W,1,8,1.8,13,"
"##MN-00 00 82 0385 01861 5313 451756 925406 199"
"158.290521"
"$GPGGA,065826,2419.5524,N,08124.7566,W,1,8,1.8,13,"
"##MN-00 00 90 0385 01862 5313 452046 925407 199"
"158.290567"
"$GPGGA,065830,2419.5497,N,08124.7577,W,1,8,1.8,13,"
"##MN-00 00 90 0385 01862 5314 452897 925400 199"
"158.290613"
"$GPGGA,065833,2419.5477,N,08124.7585,W,1,8,1.8,13,"
"##MN-00 00 90 0385 01863 5314 453108 925414 199"
"158.29066"
"$GPGGA,065837,2419.5450,N,08124.7598,W,1,7,1.8,13,"
"##MN-00 00 90 0385 01864 5315 453353 925462 199"
"158.290706"
"$GPGGA,065842,2419.5415,N,08124.7610,W,1,8,1.8,12,"
"##MN-00 00 90 0385 01862 5315 453463 925472 199"
"158.290752"
"$GPGGA,065846,2419.5394,N,08124.7620,W,1,8,1.8,12,"
"##MN-00 00 90 0385 01862 5315 453533 925474 199"
"158.290799"
"$GPGGA,065850,2419.5372,N,08124.7631,W,1,8,1.8,12,"
"##MN-00 00 90 0385 01861 5315 453288 925474 199"
"158.290845"
"$GPGGA,065854,2419.5348,N,08124.7641,W,1,8,1.8,12,"
"##MN-00 00 90 0385 01861 5316 452862 925476 199"
"158.290891"
"$GPGGA,065858,2419.5324,N,08124.7652,W,1,8,1.8,12,"
"##MN-00 00 90 0385 01861 5316 452632 925477 199"
"158.290938"
"$GPGGA,065902,2419.5301,N,08124.7663,W,1,8,1.8,12,"
"##MN-00 00 90 0385 01862 5317 452342 925477 199"
"158.290984"
"$GPGGA,065906,2419.5278,N,08124.7673,W,1,8,1.8,12,"
"##MN-00 00 90 0385 01861 5317 452478 925478 199"
"158.29103"
"$GPGGA,065910,2419.5254,N,08124.7684,W,1,8,1.8,12,"
"##MN-00 00 90 0385 01861 5317 452209 925478 199"
"158.291076"
"$GPGGA,065914,2419.5230,N,08124.7695,W,1,8,1.8,12,"
"##MN-00 00 90 0385 01862 5318 451814 925478 199"
"158.291123"
"$GPGGA,065918,2419.5206,N,08124.7706,W,1,8,1.8,12,"
"##MN-00 00 90 0385 01862 5318 451614 925479 199"
"158.291169"
"$GPGGA,065922,2419.5181,N,08124.7717,W,1,8,1.8,11,"
"##MN-00 00 90 0385 01861 5318 451409 925480 199"
"158.291215"
"$GPGGA,065926,2419.5156,N,08124.7727,W,1,8,1.8,11,"
"##MN-00 00 90 0385 01862 5319 451213 925480 199"
"158.291262"
"$GPGGA,065930,2419.5134,N,08124.7735,W,1,8,2.0,11,"
"##MN-00 00 90 0385 01862 5319 450601 925480 199"
"158.291308"
"$GPGGA,065934,2419.5113,N,08124.7739,W,1,7,1.8,11,"
"##MN-00 00 90 0385 01862 5319 450453 925480 199"
"158.291354"
"$GPGGA,065938,2419.5094,N,08124.7743,W,1,7,1.8,11,"
"##MN-00 00 90 0385 01863 5320 450316 925480 199"
"158.2914"
"$GPGGA,065942,2419.5077,N,08124.7743,W,1,8,1.8,11,"
"##MN-00 00 90 0385 01862 5320 450366 925481 199"
"158.291447"
"$GPGGA,065946,2419.5065,N,08124.7742,W,1,8,1.8,11,"
"##MN-00 00 90 0385 01861 5320 450014 925481 199"
"158.291493"
"$GPGGA,065950,2419.5051,N,08124.7740,W,1,8,1.8,11,"
"##MN-00 00 90 0385 01861 5320 449640 925483 199"
"158.291539"
"$GPGGA,065954,2419.5036,N,08124.7737,W,1,8,1.8,11,"
"##MN-00 00 90 0385 01862 5321 449381 925483 199"
"158.291586"
"$GPGGA,065958,2419.5022,N,08124.7733,W,1,8,1.8,11,"
"##MN-00 00 90 0385 01861 5321 449098 925483 199"
"158.291632"
"$GPGGA,070002,2419.5005,N,08124.7728,W,1,8,1.8,11,"
"##MN-00 00 90 0385 01863 5321 449430 925483 199"
"158.291678"
"$GPGGA,070006,2419.4993,N,08124.7725,W,1,8,1.8,12,"
"##MN-00 00 90 0385 01862 5322 449863 925484 199"
"158.291725"
"$GPGGA,070010,2419.4975,N,08124.7717,W,1,8,1.8,12,"
"##MN-00 00 90 0385 01863 5322 450151 925484 199"
"158.291771"
"$GPGGA,070014,2419.4960,N,08124.7711,W,1,8,1.8,12,"
"##MN-00 00 90 0385 01861 5322 449917 925484 199"
"158.291817"
"$GPGGA,070018,2419.4946,N,08124.7705,W,1,8,1.8,12,"
"##MN-00 00 90 0385 01861 5323 449217 925484 199"
"158.291863"
"$GPGGA,070022,2419.4931,N,08124.7697,W,1,8,1.8,12,"
"##MN-00 00 90 0385 01861 5323 449396 925484 199"
"158.29191"
"$GPGGA,070026,2419.4917,N,08124.7690,W,1,8,1.8,12,"
"##MN-00 00 90 0385 01862 5323 450047 925485 199"
"158.291956"
"$GPGGA,070030,2419.4906,N,08124.7683,W,1,7,1.8,12,"
"##MN-00 00 90 0385 01861 5323 450525 925484 199"
"158.292002"
"$GPGGA,070034,2419.4897,N,08124.7675,W,1,8,1.8,12,"
"##MN-00 00 90 0385 01862 5323 450587 925485 199"
"158.292049"
"$GPGGA,070038,2419.4886,N,08124.7667,W,1,8,1.8,12,"
"##MN-00 00 90 0385 01861 5324 450717 925484 199"
"158.292095"
"$GPGGA,070042,2419.4874,N,08124.7659,W,1,8,1.8,12,"
"##MN-00 00 90 0385 01860 5324 450905 925476 199"
"158.292141"
"$GPGGA,070046,2419.4860,N,08124.7649,W,1,8,1.8,13,"
"##MN-00 00 90 0385 01859 5324 450847 925472 199"
"158.292187"
"$GPGGA,070050,2419.4848,N,08124.7641,W,1,8,1.8,13,"
"##MN-00 00 90 0385 01862 5325 450777 925472 199"
"158.292234"
"$GPGGA,070054,2419.4836,N,08124.7632,W,1,8,1.8,13,"
"##MN-00 00 90 0385 01861 5325 450672 925473 199"
"158.29228"
"$GPGGA,070058,2419.4825,N,08124.7621,W,1,8,1.8,13,"
"##MN-00 00 90 0385 01862 5325 450763 925473 199"
"158.292326"
"$GPGGA,070102,2419.4816,N,08124.7608,W,1,8,1.8,13,"
"##MN-00 00 90 0385 01863 5326 450774 925474 199"
"158.292373"
"$GPGGA,070106,2419.4805,N,08124.7596,W,1,8,1.8,13,"
"##MN-00 00 90 0385 01860 5326 450462 925474 199"
"158.292419"
"$GPGGA,070110,2419.4796,N,08124.7583,W,1,8,1.8,13,"
"##MN-00 00 90 0385 01861 5326 450559 925474 199"
"158.292465"
"$GPGGA,070114,2419.4787,N,08124.7569,W,1,8,1.8,13,"
"##MN-00 00 90 0385 01861 5326 450565 925474 199"
"158.292512"
"$GPGGA,070118,2419.4778,N,08124.7555,W,1,8,1.9,13,"
"##MN-00 00 90 0385 01862 5327 451070 925474 199"
"158.292558"
"$GPGGA,070122,2419.4769,N,08124.7540,W,1,8,1.9,13,"
"##MN-00 00 90 0385 01864 5327 451205 925474 199"
"158.292604"
"$GPGGA,070126,2419.4762,N,08124.7525,W,1,8,1.8,13,"
"##MN-00 00 90 0385 01862 5327 451320 925474 199"
"158.292662"
"$GPGGA,070130,2419.4755,N,08124.7508,W,1,8,1.9,13,"
"##MN-00 00 90 0385 01861 5327 451193 925474 199"
"158.292708"
"$GPGGA,070134,2419.4749,N,08124.7491,W,1,8,1.9,13,"
"##MN-00 00 90 0385 01862 5327 450979 925474 199"
"158.292755"
"$GPGGA,070138,2419.4744,N,08124.7474,W,1,8,1.9,13,"
"##MN-00 00 90 0385 01861 5328 450694 925475 199"
"158.292801"
"$GPGGA,070142,2419.4740,N,08124.7455,W,1,8,1.9,13,"
"##MN-00 00 90 0385 01861 5328 450518 925475 199"
"158.292847"
"$GPGGA,070146,2419.4735,N,08124.7436,W,1,8,1.9,12,"
"##MN-00 00 90 0385 01859 5328 450193 925476 199"
"158.292894"
"$GPGGA,070150,2419.4731,N,08124.7416,W,1,8,1.9,12,"
"##MN-00 00 90 0385 01860 5328 450109 925476 199"
"158.29294"
"$GPGGA,070154,2419.4728,N,08124.7396,W,1,8,1.9,12,"
"##MN-00 00 90 0385 01860 5329 449946 925476 199"
"158.292986"
"$GPGGA,070158,2419.4723,N,08124.7377,W,1,8,1.9,12,"
"##MN-00 00 90 0385 01861 5329 450039 925476 199"
"158.293032"
"$GPGGA,070202,2419.4720,N,08124.7356,W,1,8,1.9,12,"
"##MN-00 00 90 0385 01861 5329 450209 925477 199"
"158.293079"
"$GPGGA,070206,2419.4717,N,08124.7334,W,1,8,1.9,12,"
"##MN-00 00 90 0385 01862 5329 450314 925477 199"
"158.293125"
"$GPGGA,070210,2419.4715,N,08124.7314,W,1,8,1.9,12,"
"##MN-00 00 90 0385 01861 5329 450236 925477 199"
"158.293171"
"$GPGGA,070214,2419.4711,N,08124.7291,W,1,8,1.9,12,"
"##MN-00 00 90 0385 01861 5329 450228 925477 199"
"158.293218"
"$GPGGA,070218,2419.4708,N,08124.7269,W,1,8,1.9,12,"
"##MN-00 00 90 0385 01861 5330 450292 925477 199"
"158.293264"
"$GPGGA,070222,2419.4706,N,08124.7248,W,1,8,1.9,12,"
"##MN-00 00 90 0385 01859 5330 450405 925478 199"
"158.29331"
"$GPGGA,070226,2419.4704,N,08124.7225,W,1,8,1.9,12,"
"##MN-00 00 90 0385 01863 5330 450478 925478 199"
"158.293356"
"$GPGGA,070230,2419.4703,N,08124.7203,W,1,8,1.9,12,"
"##MN-00 00 90 0385 01861 5330 450382 925478 199"
"158.293403"
"$GPGGA,070234,2419.4702,N,08124.7182,W,1,8,1.9,11,"
"##MN-00 00 90 0385 01860 5331 450224 925479 199"
"158.293449"
"$GPGGA,070239,2419.4699,N,08124.7153,W,1,8,1.9,11,"
"##MN-00 00 90 0385 01862 5331 450214 925479 199"
"158.293495"
"$GPGGA,070242,2419.4698,N,08124.7136,W,1,8,1.9,11,"
"##MN-00 00 90 0385 01861 5331 450037 925480 199"
"158.293542"
"$GPGGA,070246,2419.4697,N,08124.7112,W,1,8,1.9,11,"
"##MN-00 00 90 0385 01860 5331 449887 925480 199"
"158.293588"
"$GPGGA,070250,2419.4697,N,08124.7089,W,1,8,1.9,11,"
"##MN-00 00 90 0385 01861 5331 449708 925480 199"
"158.293634"
"$GPGGA,070254,2419.4695,N,08124.7065,W,1,8,1.9,11,"
"##MN-00 00 90 0385 01862 5331 449557 925479 199"
"158.293681"
"$GPGGA,070259,2419.4693,N,08124.7035,W,1,8,1.9,10,"
"##MN-00 00 90 0385 01861 5331 449569 925480 199"
"158.293727"
"$GPGGA,070303,2419.4693,N,08124.7011,W,1,8,1.9,10,"
"##MN-00 00 90 0385 01861 5332 449570 925480 199"
"158.293773"
"$GPGGA,070307,2419.4693,N,08124.6987,W,1,8,1.9,10,"
"##MN-00 00 90 0385 01862 5332 449468 925480 199"
"158.293819"
"$GPGGA,070311,2419.4690,N,08124.6962,W,1,8,1.9,10,"
"##MN-00 00 90 0385 01863 5332 449310 925480 199"
"158.293866"
"$GPGGA,070315,2419.4688,N,08124.6937,W,1,8,1.9,10,"
"##MN-00 00 90 0385 01861 5333 449194 925481 199"
"158.293912"
"$GPGGA,070319,2419.4687,N,08124.6913,W,1,8,1.9,10,"
"##MN-00 00 90 0385 01861 5332 449289 925481 199"
"158.293958"
"$GPGGA,070323,2419.4686,N,08124.6888,W,1,8,1.9,10,"
"##MN-00 00 90 0385 01862 5333 449348 925481 199"
"158.294005"
"$GPGGA,070327,2419.4684,N,08124.6861,W,1,8,1.9,10,"
"##MN-00 00 90 0385 01861 5332 449209 925481 199"
"158.294051"
"$GPGGA,070331,2419.4685,N,08124.6836,W,1,8,1.9,10,"
"##MN-00 00 90 0385 01861 5333 449059 925480 199"
"158.294097"
"$GPGGA,070335,2419.4685,N,08124.6811,W,1,8,1.9,10,"
"##MN-00 00 90 0385 01860 5333 449051 925481 199"
"158.294144"
"$GPGGA,070339,2419.4683,N,08124.6785,W,1,8,1.9,10,"
"##MN-00 00 90 0385 01862 5333 448818 925481 199"
"158.29419"
"$GPGGA,070343,2419.4682,N,08124.6758,W,1,8,1.9,10,"
"##MN-00 00 90 0385 01862 5333 448650 925481 199"
"158.294236"
"$GPGGA,070347,2419.4682,N,08124.6731,W,1,8,1.9,10,"
"##MN-00 00 90 0385 01859 5333 448555 925481 199"
"158.294282"
"$GPGGA,070351,2419.4681,N,08124.6706,W,1,8,1.9,10,"
"##MN-00 00 90 0385 01862 5333 448523 925482 199"
"158.294329"
"$GPGGA,070355,2419.4678,N,08124.6680,W,1,8,1.9,10,"
"##MN-00 00 90 0385 01861 5333 448348 925482 199"
"158.294375"
"$GPGGA,070359,2419.4677,N,08124.6654,W,1,8,1.9,11,"
"##MN-00 00 90 0385 01861 5334 448222 925482 199"
"158.294421"
"$GPGGA,070403,2419.4675,N,08124.6628,W,1,8,1.9,11,"
"##MN-00 00 90 0385 01863 5334 447929 925481 199"
"158.294468"
"$GPGGA,070407,2419.4675,N,08124.6601,W,1,8,1.9,11,"
"##MN-00 00 90 0385 01862 5334 447505 925481 199"
"158.294514"
"$GPGGA,070411,2419.4675,N,08124.6573,W,1,8,1.9,11,"
"##MN-00 00 90 0385 01862 5334 447235 925481 199"
"158.29456"
"$GPGGA,070415,2419.4675,N,08124.6546,W,1,8,1.9,11,"
"##MN-00 00 90 0385 01862 5334 447027 925482 199"
"158.294606"
"$GPGGA,070419,2419.4675,N,08124.6519,W,1,8,1.9,12,"
"##MN-00 00 90 0385 01861 5334 446590 925481 199"
"158.294653"
"$GPGGA,070423,2419.4674,N,08124.6491,W,1,8,1.9,12,"
"##MN-00 00 90 0385 01861 5334 446477 925481 199"
"158.294699"
"$GPGGA,070427,2419.4675,N,08124.6463,W,1,8,1.9,12,"
"##MN-00 00 90 0385 01861 5334 446343 925482 199"
"158.294745"
"$GPGGA,070431,2419.4675,N,08124.6435,W,1,8,1.9,12,"
"##MN-00 00 90 0385 01861 5334 445146 925481 199"
"158.294792"
"$GPGGA,070435,2419.4676,N,08124.6406,W,1,8,1.9,12,"
"##MN-00 00 90 0385 01864 5334 444306 925481 199"
"158.294838"
"$GPGGA,070439,2419.4682,N,08124.6378,W,1,8,1.9,12,"
"##MN-00 00 90 0385 01862 5335 442533 925482 199"
"158.294884"
"$GPGGA,070443,2419.4685,N,08124.6349,W,1,8,1.9,12,"
"##MN-00 00 90 0385 01861 5334 441992 925482 199"
"158.294931"
"$GPGGA,070447,2419.4682,N,08124.6321,W,1,7,2.0,12,"
"##MN-00 00 90 0385 01861 5334 441333 925482 199"
"158.294977"
"$GPGGA,070451,2419.4680,N,08124.6294,W,1,8,1.9,12,"
"##MN-00 00 90 0385 01863 5335 440903 925482 199"
"158.295023"
"$GPGGA,070455,2419.4673,N,08124.6269,W,1,8,1.9,12,"
"##MN-00 00 90 0385 01862 5335 440320 925482 199"
"158.295069"
"$GPGGA,070459,2419.4665,N,08124.6247,W,1,8,1.9,12,"
"##MN-00 00 90 0385 01860 5335 439704 925482 199"
"158.295116"
"$GPGGA,070503,2419.4652,N,08124.6224,W,1,8,1.9,13,"
"##MN-00 00 90 0385 01862 5335 438917 925482 199"
"158.295162"
"$GPGGA,070507,2419.4637,N,08124.6204,W,1,7,2.0,13,"
"##MN-00 00 90 0385 01860 5335 438182 925482 199"
"158.295208"
"$GPGGA,070511,2419.4621,N,08124.6185,W,1,6,3.3,13,"
"##MN-00 00 90 0385 01863 5335 437687 925482 199"
"158.295255"
"$GPGGA,070515,2419.4596,N,08124.6164,W,1,7,2.0,14,"
"##MN-00 00 90 0385 01862 5335 437044 925483 199"
"158.295301"
"$GPGGA,070519,2419.4571,N,08124.6144,W,1,7,2.0,14,"
"##MN-00 00 90 0385 01862 5335 436671 925482 199"
"158.295347"
"$GPGGA,070523,2419.4549,N,08124.6126,W,1,7,2.0,14,"
"##MN-00 00 90 0385 01861 5335 436574 925483 199"
"158.295394"
"$GPGGA,070527,2419.4523,N,08124.6107,W,1,7,2.0,15,"
"##MN-00 00 90 0385 01860 5335 436357 925483 199"
"158.29544"
"$GPGGA,070531,2419.4499,N,08124.6086,W,1,7,2.0,15,"
"##MN-00 00 90 0385 01862 5335 436338 925482 199"
"158.295486"
"$GPGGA,070535,2419.4473,N,08124.6066,W,1,7,2.0,15,"
"##MN-00 00 90 0385 01861 5335 436651 925482 199"
"158.295532"
"$GPGGA,070539,2419.4445,N,08124.6046,W,1,8,1.9,16,"
"##MN-00 00 90 0385 01860 5335 437195 925482 199"
"158.295579"
"$GPGGA,070543,2419.4415,N,08124.6027,W,1,8,1.9,16,"
"##MN-00 00 90 0385 01863 5335 437431 925482 199"
"158.295625"
"$GPGGA,070547,2419.4386,N,08124.6008,W,1,8,1.9,16,"
"##MN-00 00 90 0385 01860 5336 437764 925482 199"
"158.295671"
"$GPGGA,070551,2419.4357,N,08124.5990,W,1,8,1.9,16,"
"##MN-00 00 90 0385 01859 5336 438270 925481 199"
"158.295718"
"$GPGGA,070555,2419.4326,N,08124.5974,W,1,8,1.9,16,"
"##MN-00 00 90 0385 01862 5335 438759 925481 199"
"158.295764"
"$GPGGA,070559,2419.4296,N,08124.5959,W,1,8,1.9,16,"
"##MN-00 00 90 0385 01861 5336 439277 925481 199"
"158.295822"
"$GPGGA,070603,2419.4269,N,08124.5947,W,1,8,1.9,16,"
"##MN-00 00 90 0385 01863 5336 439717 925482 199"
"158.295868"
"$GPGGA,070607,2419.4242,N,08124.5935,W,1,8,1.9,16,"
"##MN-00 00 90 0385 01861 5336 440126 925482 199"
"158.295914"
"$GPGGA,070611,2419.4217,N,08124.5925,W,1,8,1.9,16,"
"##MN-00 00 90 0385 01862 5336 440628 925481 199"
"158.295961"
"$GPGGA,070615,2419.4195,N,08124.5917,W,1,7,2.0,16,"
"##MN-00 00 90 0385 01862 5336 440960 925481 199"
"158.296007"
"$GPGGA,070619,2419.4176,N,08124.5910,W,1,8,1.9,16,"
"##MN-00 00 90 0385 01861 5336 441356 925482 199"
"158.296053"
"$GPGGA,070623,2419.4157,N,08124.5905,W,1,8,1.9,16,"
"##MN-00 00 90 0385 01862 5336 441366 925482 199"
"158.2961"
"$GPGGA,070627,2419.4141,N,08124.5903,W,1,8,1.9,16,"
"##MN-00 00 90 0385 01861 5336 441009 925482 199"
"158.296146"
"$GPGGA,070631,2419.4126,N,08124.5900,W,1,8,1.9,16,"
"##MN-00 00 90 0385 01864 5336 441097 925482 199"
"158.296192"
"$GPGGA,070635,2419.4113,N,08124.5899,W,1,8,1.9,15,"
"##MN-00 00 90 0385 01860 5336 441322 925482 199"
"158.296238"
"$GPGGA,070639,2419.4102,N,08124.5899,W,1,8,1.9,15,"
"##MN-00 00 90 0385 01861 5336 441648 925481 199"
"158.296285"
"$GPGGA,070643,2419.4094,N,08124.5899,W,1,8,1.9,15,"
"##MN-00 00 90 0385 01860 5336 441904 925482 199"
"158.296331"
"$GPGGA,070647,2419.4090,N,08124.5899,W,1,8,1.9,15,"
"##MN-00 00 90 0385 01861 5336 442517 925482 199"
"158.296377"
"$GPGGA,070651,2419.4088,N,08124.5903,W,1,7,1.9,15,"
"##MN-00 00 90 0385 01863 5336 442865 925482 199"
"158.296424"
"$GPGGA,070655,2419.4086,N,08124.5905,W,1,8,1.9,15,"
"##MN-00 00 90 0385 01861 5336 443189 925482 199"
"158.29647"
"$GPGGA,070659,2419.4087,N,08124.5909,W,1,8,1.9,15,"
"##MN-00 00 90 0385 01862 5336 443130 925482 199"
"158.296516"
"$GPGGA,070703,2419.4089,N,08124.5915,W,1,8,1.9,15,"
"##MN-00 00 90 0385 01862 5336 443251 925482 199"
"158.296562"
"$GPGGA,070707,2419.4090,N,08124.5921,W,1,8,1.9,15,"
"##MN-00 00 90 0385 01861 5335 443504 925483 199"
"158.296609"
"$GPGGA,070711,2419.4093,N,08124.5929,W,1,8,1.9,15,"
"##MN-00 00 90 0385 01861 5336 443776 925483 199"
"158.296655"
"$GPGGA,070715,2419.4096,N,08124.5937,W,1,8,1.9,15,"
"##MN-00 00 90 0385 01860 5336 443847 925482 199"
"158.296701"
"$GPGGA,070719,2419.4100,N,08124.5947,W,1,8,1.9,15,"
"##MN-00 00 90 0385 01861 5336 443636 925483 199"
"158.296748"
"$GPGGA,070723,2419.4101,N,08124.5957,W,1,8,1.9,14,"
"##MN-00 00 90 0385 01860 5336 443484 925483 199"
"158.296794"
"$GPGGA,070727,2419.4107,N,08124.5968,W,1,8,1.9,14,"
"##MN-00 00 90 0385 01861 5336 443654 925482 199"
"158.29684"
"$GPGGA,070731,2419.4111,N,08124.5980,W,1,8,1.9,14,"
"##MN-00 00 90 0385 01861 5335 443781 925483 199"
"158.296887"
"$GPGGA,070736,2419.4115,N,08124.5993,W,1,8,1.9,14,"
"##MN-00 00 90 0385 01862 5335 443922 925483 199"
"158.296933"
"$GPGGA,070740,2419.4118,N,08124.6005,W,1,8,1.9,14,"
"##MN-00 00 90 0385 01859 5336 444277 925483 199"
"158.296979"
"$GPGGA,070744,2419.4121,N,08124.6019,W,1,8,1.9,14,"
"##MN-00 00 90 0385 01860 5336 444402 925483 199"
"158.297025"
"$GPGGA,070748,2419.4122,N,08124.6027,W,1,8,1.9,14,"
"##MN-00 00 90 0385 01861 5335 444530 925483 199"
"158.297072"
"$GPGGA,070752,2419.4126,N,08124.6042,W,1,8,1.9,13,"
"##MN-00 00 90 0385 01861 5336 444609 925483 199"
"158.297118"
"$GPGGA,070756,2419.4126,N,08124.6055,W,1,7,2.0,13,"
"##MN-00 00 90 0385 01863 5336 444717 925483 199"
"158.297164"
"$GPGGA,070800,2419.4130,N,08124.6069,W,1,8,1.9,13,"
"##MN-00 00 90 0385 01862 5335 444819 925483 199"
"158.297211"
"$GPGGA,070804,2419.4133,N,08124.6084,W,1,8,1.9,13,"
"##MN-00 00 90 0385 01860 5335 444927 925484 199"
"158.297257"
"$GPGGA,070808,2419.4134,N,08124.6098,W,1,8,1.9,13,"
"##MN-00 00 90 0385 01861 5335 444726 925473 199"
"158.297303"
"$GPGGA,070812,2419.4133,N,08124.6110,W,1,7,2.0,13,"
"##MN-00 00 90 0385 01863 5335 444671 925472 199"
"158.29735"
"$GPGGA,070816,2419.4131,N,08124.6124,W,1,8,2.0,13,"
"##MN-00 00 90 0385 01859 5336 444717 925473 199"
"158.297396"
"$GPGGA,070820,2419.4133,N,08124.6138,W,1,8,1.9,13,"
"##MN-00 00 90 0385 01863 5335 444547 925473 199"
"158.297442"
"$GPGGA,070824,2419.4130,N,08124.6152,W,1,8,1.9,13,"
"##MN-00 00 90 0385 01861 5335 444455 925474 199"
"158.297488"
"$GPGGA,070828,2419.4129,N,08124.6164,W,1,8,1.9,13,"
"##MN-00 00 90 0385 01862 5335 444448 925473 199"
"158.297535"
"$GPGGA,070832,2419.4128,N,08124.6178,W,1,8,1.9,13,"
"##MN-00 00 90 0385 01860 5335 444714 925474 199"
"158.297581"
"$GPGGA,070836,2419.4128,N,08124.6190,W,1,8,1.9,13,"
"##MN-00 00 90 0385 01862 5335 445035 925473 199"
"158.297627"
"$GPGGA,070840,2419.4128,N,08124.6204,W,1,8,1.9,13,"
"##MN-00 00 90 0385 01861 5335 445265 925474 199"
"158.297674"
"$GPGGA,070844,2419.4126,N,08124.6217,W,1,8,1.9,13,"
"##MN-00 00 90 0385 01862 5335 445095 925473 199"
"158.29772"
"$GPGGA,070848,2419.4126,N,08124.6229,W,1,8,1.9,13,"
"##MN-00 00 90 0385 01861 5335 444563 925473 199"
"158.297766"
"$GPGGA,070852,2419.4124,N,08124.6243,W,1,8,1.9,13,"
"##MN-00 00 90 0385 01862 5335 443950 925474 199"
"158.297813"
"$GPGGA,070856,2419.4122,N,08124.6255,W,1,8,1.9,13,"
"##MN-00 00 90 0385 01861 5335 443969 925474 199"
"158.297859"
"$GPGGA,070900,2419.4122,N,08124.6269,W,1,8,1.9,13,"
"##MN-00 00 90 0385 01861 5335 444219 925474 199"
"158.297905"
"$GPGGA,070904,2419.4119,N,08124.6283,W,1,8,1.9,13,"
"##MN-00 00 90 0385 01862 5334 444426 925474 199"
"158.297951"
"$GPGGA,070908,2419.4118,N,08124.6297,W,1,8,1.9,13,"
"##MN-00 00 90 0385 01861 5334 444534 925474 199"
"158.297998"
"$GPGGA,070912,2419.4118,N,08124.6311,W,1,8,2.1,13,"
"##MN-00 00 90 0385 01862 5334 444796 925473 199"
"158.298044"
"$GPGGA,070916,2419.4117,N,08124.6323,W,1,7,2.1,13,"
"##MN-00 00 90 0385 01860 5335 445015 925474 199"
"158.29809"
"$GPGGA,070920,2419.4118,N,08124.6338,W,1,8,1.9,13,"
"##MN-00 00 90 0385 01861 5334 445287 925474 199"
"158.298137"
"$GPGGA,070924,2419.4119,N,08124.6353,W,1,8,1.9,13,"
"##MN-00 00 90 0385 01861 5335 445391 925475 199"
"158.298183"
"$GPGGA,070928,2419.4122,N,08124.6367,W,1,8,1.9,13,"
"##MN-00 00 90 0385 01861 5334 445549 925474 199"
"158.298229"
"$GPGGA,070932,2419.4125,N,08124.6380,W,1,8,1.9,13,"
"##MN-00 00 90 0385 01861 5334 445668 925475 199"
"158.298275"
"$GPGGA,070936,2419.4126,N,08124.6395,W,1,8,1.9,13,"
"##MN-00 00 90 0385 01862 5334 446020 925474 199"
"158.298322"
"$GPGGA,070940,2419.4129,N,08124.6409,W,1,8,1.9,13,"
"##MN-00 00 90 0385 01862 5334 446469 925475 199"
"158.298368"
"$GPGGA,070944,2419.4130,N,08124.6423,W,1,8,2.1,13,"
"##MN-00 00 90 0385 01863 5334 446757 925475 199"
"158.298414"
"$GPGGA,070948,2419.4133,N,08124.6435,W,1,8,2.1,13,"
"##MN-00 00 90 0385 01862 5334 446845 925474 199"
"158.298461"
"$GPGGA,070952,2419.4136,N,08124.6449,W,1,8,1.9,13,"
"##MN-00 00 90 0385 01860 5334 446792 925475 199"
"158.298507"
"$GPGGA,070956,2419.4140,N,08124.6464,W,1,8,1.9,13,"
"##MN-00 00 90 0385 01861 5334 446640 925475 199"
"158.298553"
"$GPGGA,071000,2419.4141,N,08124.6478,W,1,8,1.9,13,"
"##MN-00 00 90 0385 01861 5334 446609 925475 199"
"158.2986"
"$GPGGA,071004,2419.4144,N,08124.6492,W,1,8,1.9,13,"
"##MN-00 00 90 0385 01862 5334 446422 925475 199"
"158.298646"
"$GPGGA,071008,2419.4146,N,08124.6506,W,1,8,1.9,13,"
"##MN-00 00 90 0385 01862 5334 446718 925475 199"
"158.298692"
"$GPGGA,071012,2419.4144,N,08124.6517,W,1,8,2.1,13,"
"##MN-00 00 90 0385 01862 5334 446783 925476 199"
"158.298738"
"$GPGGA,071016,2419.4144,N,08124.6532,W,1,7,1.9,13,"
"##MN-00 00 90 0385 01863 5334 446842 925476 199"
"158.298785"
"$GPGGA,071020,2419.4144,N,08124.6546,W,1,8,1.9,13,"
"##MN-00 00 90 0385 01862 5334 446919 925475 199"
"158.298831"
"$GPGGA,071024,2419.4144,N,08124.6561,W,1,8,1.9,13,"
"##MN-00 00 90 0385 01861 5334 446990 925475 199"
"158.298877"
"$GPGGA,071028,2419.4144,N,08124.6575,W,1,8,1.9,13,"
"##MN-00 00 90 0385 01861 5333 446951 925475 199"
"158.298935"
"$GPGGA,071032,2419.4143,N,08124.6589,W,1,8,2.0,13,"
"##MN-00 00 90 0385 01861 5333 446801 925476 199"
"158.298981"
"$GPGGA,071036,2419.4142,N,08124.6602,W,1,8,1.9,13,"
"##MN-00 00 90 0385 01862 5333 446712 925475 199"
"158.299028"
"$GPGGA,071040,2419.4140,N,08124.6615,W,1,8,1.9,13,"
"##MN-00 00 90 0385 01860 5333 446618 925476 199"
"158.299074"
"$GPGGA,071044,2419.4139,N,08124.6629,W,1,8,2.0,13,"
"##MN-00 00 90 0385 01861 5333 446751 925476 199"
"158.29912"
"$GPGGA,071048,2419.4137,N,08124.6641,W,1,8,2.0,13,"
"##MN-00 00 90 0385 01862 5333 446804 925477 199"
"158.299167"
"$GPGGA,071052,2419.4133,N,08124.6655,W,1,8,2.0,13,"
"##MN-00 00 90 0385 01860 5333 446896 925476 199"
"158.299213"
"$GPGGA,071056,2419.4131,N,08124.6669,W,1,8,2.0,13,"
"##MN-00 00 90 0385 01861 5333 446706 925477 199"
"158.299259"
"$GPGGA,071100,2419.4129,N,08124.6681,W,1,8,2.0,13,"
"##MN-00 00 90 0385 01862 5333 446220 925477 199"
"158.299306"
"$GPGGA,071104,2419.4128,N,08124.6694,W,1,8,2.0,13,"
"##MN-00 00 90 0385 01863 5333 446028 925477 199"
"158.299352"
"$GPGGA,071108,2419.4126,N,08124.6709,W,1,8,2.0,13,"
"##MN-00 00 90 0385 01862 5333 445865 925478 199"
"158.299398"
"$GPGGA,071112,2419.4126,N,08124.6723,W,1,8,2.0,13,"
"##MN-00 00 90 0385 01861 5333 445702 925478 199"
"158.299444"
"$GPGGA,071116,2419.4124,N,08124.6734,W,1,7,2.0,13,"
"##MN-00 00 90 0385 01862 5333 445682 925477 199"
"158.299491"
"$GPGGA,071120,2419.4126,N,08124.6749,W,1,7,2.0,13,"
"##MN-00 00 90 0385 01861 5333 445813 925478 199"
"158.299537"
"$GPGGA,071124,2419.4126,N,08124.6763,W,1,8,2.0,13,"
"##MN-00 00 90 0385 01862 5333 445952 925478 199"
"158.299583"
"$GPGGA,071128,2419.4129,N,08124.6777,W,1,8,2.0,13,"
"##MN-00 00 90 0385 01862 5333 446013 925477 199"
"158.29963"
"$GPGGA,071132,2419.4132,N,08124.6792,W,1,8,2.0,13,"
"##MN-00 00 90 0385 01861 5333 446166 925478 199"
"158.299676"
"$GPGGA,071136,2419.4135,N,08124.6806,W,1,8,2.0,13,"
"##MN-00 00 90 0385 01861 5332 446429 925478 199"
"158.299722"
"$GPGGA,071140,2419.4137,N,08124.6819,W,1,8,2.0,13,"
"##MN-00 00 90 0385 01863 5333 446659 925478 199"
"158.299769"
"$GPGGA,071144,2419.4137,N,08124.6833,W,1,8,2.0,14,"
"##MN-00 00 90 0385 01861 5332 446829 925477 199"
"158.299815"
"$GPGGA,071148,2419.4140,N,08124.6847,W,1,8,2.0,14,"
"##MN-00 00 90 0385 01861 5332 447027 925479 199"
"158.299861"
"$GPGGA,071152,2419.4144,N,08124.6861,W,1,8,2.0,14,"
"##MN-00 00 90 0385 01860 5332 446968 925478 199"
"158.299907"
"$GPGGA,071156,2419.4147,N,08124.6875,W,1,8,2.0,14,"
"##MN-00 00 90 0385 01862 5332 446980 925477 199"
"158.299954"
"$GPGGA,071200,2419.4150,N,08124.6889,W,1,8,2.0,14,"
"##MN-00 00 90 0385 01861 5332 446955 925478 199"
"158.30"
"$GPGGA,071204,2419.4149,N,08124.6901,W,1,8,2.1,14,"
"##MN-00 00 90 0385 01862 5332 446994 925478 199"
"158.300046"
"$GPGGA,071209,2419.4153,N,08124.6920,W,1,8,2.0,15,"
"##MN-00 00 90 0385 01861 5331 446967 925479 199"
"158.300093"
"$GPGGA,071212,2419.4155,N,08124.6931,W,1,8,2.0,15,"
"##MN-00 00 90 0385 01861 5331 446952 925478 199"
"158.300139"
"$GPGGA,071217,2419.4153,N,08124.6949,W,1,8,2.0,15,"
"##MN-00 00 90 0385 01863 5331 446896 925478 199"
"158.300185"
"$GPGGA,071221,2419.4152,N,08124.6963,W,1,8,2.0,15,"
"##MN-00 00 90 0385 01861 5331 447021 925478 199"
"158.300231"
"$GPGGA,071225,2419.4151,N,08124.6977,W,1,8,2.0,15,"
"##MN-00 00 90 0385 01861 5331 447326 925478 199"
"158.300278"
"$GPGGA,071229,2419.4149,N,08124.6991,W,1,8,2.0,15,"
"##MN-00 00 90 0385 01860 5331 447120 925478 199"
"158.300324"
"$GPGGA,071233,2419.4148,N,08124.7005,W,1,8,2.0,15,"
"##MN-00 00 90 0385 01859 5331 446817 925478 199"
"158.30037"
"$GPGGA,071237,2419.4147,N,08124.7017,W,1,8,2.0,15,"
"##MN-00 00 90 0385 01862 5331 446663 925478 199"
"158.300417"
