" Tow: L4s-A   RVWS/WS1406"
" Date: 06/07/2014"
" Temperature Probe #  2597    Conductivity Probe #  2870"
" Pressure Probe #  109"
" Flow Meter Calibration  4.71 (m/count)  "
"158.514977"
"$GPGGA,122134,2420.6702,N,08112.9402,W,1,8,2.0,17,"
"##MN-00 00 29 0084 01858 5677 425844 925275 199"
"158.515023"
"$GPGGA,122143,2420.6766,N,08112.9383,W,1,9,1.8,18,"
"##MN-00 00 34 0084 01856 5678 423011 925328 199"
"158.515081"
"$GPGGA,122147,2420.6795,N,08112.9375,W,1,9,1.8,18,"
"##MN-00 00 46 0084 01856 5679 424130 925327 199"
"158.515127"
"$GPGGA,122151,2420.6824,N,08112.9368,W,1,9,1.8,18,"
"##MN-00 00 54 0084 01858 5679 425094 925327 199"
"158.515174"
"$GPGGA,122155,2420.6852,N,08112.9359,W,1,9,1.8,18,"
"##MN-00 00 57 0084 01858 5680 425864 925327 199"
"158.51522"
"$GPGGA,122159,2420.6879,N,08112.9350,W,1,9,1.8,18,"
"##MN-00 00 58 0084 01858 5681 429655 533660 200"
"158.515266"
"$GPGGA,122203,2420.6904,N,08112.9341,W,1,8,2.0,18,"
"##MN-00 00 58 0085 01857 5682 438147 400153 200"
"158.515313"
"$GPGGA,122207,2420.6933,N,08112.9329,W,1,8,1.9,18,"
"##MN-00 00 58 0086 01858 5683 438077 372170 199"
"158.515359"
"$GPGGA,122211,2420.6958,N,08112.9319,W,1,8,2.0,18,"
"##MN-00 00 60 0087 01857 5684 438217 347321 199"
"158.515405"
"$GPGGA,122215,2420.6983,N,08112.9310,W,1,8,2.0,18,"
"##MN-00 00 61 0088 01858 5684 438256 347036 199"
"158.515451"
"$GPGGA,122219,2420.7009,N,08112.9299,W,1,8,2.0,18,"
"##MN-00 00 60 0089 01858 5685 438270 346880 199"
"158.515498"
"$GPGGA,122223,2420.7034,N,08112.9288,W,1,8,2.0,18,"
"##MN-00 00 60 0090 01858 5685 438318 347057 199"
"158.515544"
"$GPGGA,122227,2420.7061,N,08112.9276,W,1,8,2.0,18,"
"##MN-00 00 60 0092 01862 5686 438336 347406 199"
"158.51559"
"$GPGGA,122231,2420.7085,N,08112.9264,W,1,8,2.0,18,"
"##MN-00 00 61 0093 01861 5687 438348 347973 199"
"158.515637"
"$GPGGA,122235,2420.7110,N,08112.9252,W,1,8,2.0,18,"
"##MN-00 00 60 0094 01862 5687 438363 347524 199"
"158.515683"
"$GPGGA,122239,2420.7135,N,08112.9241,W,1,8,2.0,18,"
"##MN-00 00 61 0095 01866 5688 438361 347570 200"
"158.515729"
"$GPGGA,122243,2420.7160,N,08112.9228,W,1,8,2.0,18,"
"##MN-00 00 61 0096 01870 5689 438365 347537 199"
"158.515775"
"$GPGGA,122247,2420.7185,N,08112.9216,W,1,8,2.0,18,"
"##MN-00 00 61 0097 01871 5689 438368 347516 199"
"158.515822"
"$GPGGA,122251,2420.7211,N,08112.9204,W,1,8,2.0,18,"
"##MN-00 00 61 0098 01873 5690 438391 347525 199"
"158.515868"
"$GPGGA,122255,2420.7235,N,08112.9192,W,1,7,2.0,18,"
"##MN-00 00 61 0099 01878 5690 438389 347575 199"
"158.515914"
"$GPGGA,122259,2420.7260,N,08112.9178,W,1,8,2.0,18,"
"##MN-00 00 60 0100 01881 5691 438404 347619 200"
"158.515961"
"$GPGGA,122303,2420.7285,N,08112.9163,W,1,8,2.0,18,"
"##MN-00 00 61 0101 01882 5691 438417 347615 199"
"158.516007"
"$GPGGA,122307,2420.7309,N,08112.9148,W,1,8,2.0,18,"
"##MN-00 00 60 0102 01887 5692 438420 347641 199"
"158.516053"
"$GPGGA,122311,2420.7334,N,08112.9136,W,1,8,2.0,18,"
"##MN-00 00 61 0104 01890 5692 438418 347672 199"
"158.5161"
"$GPGGA,122315,2420.7359,N,08112.9124,W,1,8,2.0,19,"
"##MN-00 00 61 0105 01896 5692 438419 347699 199"
"158.516146"
"$GPGGA,122319,2420.7383,N,08112.9114,W,1,7,2.0,19,"
"##MN-00 00 61 0106 01900 5693 438416 347685 199"
"158.516192"
"$GPGGA,122323,2420.7406,N,08112.9100,W,1,8,2.0,19,"
"##MN-00 00 61 0107 01902 5693 438423 347686 199"
"158.516238"
"$GPGGA,122327,2420.7430,N,08112.9089,W,1,8,2.0,19,"
"##MN-00 00 60 0108 01905 5693 438430 347714 199"
"158.516285"
"$GPGGA,122331,2420.7455,N,08112.9076,W,1,8,2.0,19,"
"##MN-00 00 60 0109 01908 5693 438435 347708 199"
"158.516331"
"$GPGGA,122335,2420.7478,N,08112.9063,W,1,8,2.0,19,"
"##MN-00 00 61 0110 01912 5694 438430 347703 199"
"158.516377"
"$GPGGA,122339,2420.7503,N,08112.9050,W,1,8,2.0,19,"
"##MN-00 00 61 0111 01915 5694 438433 347709 199"
"158.516424"
"$GPGGA,122343,2420.7527,N,08112.9038,W,1,8,2.0,19,"
"##MN-00 00 60 0112 01919 5694 438440 347713 199"
"158.51647"
"$GPGGA,122347,2420.7550,N,08112.9026,W,1,8,2.0,19,"
"##MN-00 00 60 0113 01923 5694 438445 347722 199"
"158.516516"
"$GPGGA,122351,2420.7575,N,08112.9012,W,1,8,2.0,19,"
"##MN-00 00 61 0114 01927 5694 438448 347728 199"
"158.516563"
"$GPGGA,122355,2420.7598,N,08112.8999,W,1,8,2.0,19,"
"##MN-00 00 60 0115 01928 5694 438442 347722 199"
"158.516609"
"$GPGGA,122359,2420.7622,N,08112.8988,W,1,8,2.0,19,"
"##MN-00 00 61 0116 01935 5694 438437 347724 199"
"158.516655"
"$GPGGA,122403,2420.7645,N,08112.8976,W,1,8,2.0,18,"
"##MN-00 00 60 0118 01935 5694 438435 347723 199"
"158.516701"
"$GPGGA,122407,2420.7670,N,08112.8963,W,1,8,2.0,18,"
"##MN-00 00 60 0119 01940 5695 438432 347723 199"
"158.516748"
"$GPGGA,122411,2420.7694,N,08112.8951,W,1,8,2.0,18,"
"##MN-00 00 61 0120 01944 5695 438438 347724 199"
"158.516794"
"$GPGGA,122415,2420.7717,N,08112.8939,W,1,8,2.0,18,"
"##MN-00 00 60 0121 01948 5695 438439 347723 199"
"158.51684"
"$GPGGA,122419,2420.7741,N,08112.8926,W,1,8,2.0,17,"
"##MN-00 00 61 0122 01951 5695 438438 347723 199"
"158.516887"
"$GPGGA,122423,2420.7766,N,08112.8914,W,1,8,2.0,17,"
"##MN-00 00 60 0123 01955 5695 438439 347721 199"
"158.516933"
"$GPGGA,122427,2420.7789,N,08112.8902,W,1,8,2.0,17,"
"##MN-00 00 60 0124 01958 5694 438448 347722 199"
"158.516979"
"$GPGGA,122431,2420.7813,N,08112.8889,W,1,8,2.0,17,"
"##MN-00 00 61 0125 01963 5695 438466 347723 199"
"158.517025"
"$GPGGA,122435,2420.7838,N,08112.8877,W,1,8,2.0,17,"
"##MN-00 00 61 0126 01966 5694 438472 347721 199"
"158.517072"
"$GPGGA,122439,2420.7861,N,08112.8865,W,1,8,2.0,17,"
"##MN-00 00 59 0127 01966 5694 438486 347726 199"
"158.517118"
"$GPGGA,122443,2420.7886,N,08112.8852,W,1,8,2.0,17,"
"##MN-00 00 60 0128 01965 5694 438485 347726 199"
"158.517164"
"$GPGGA,122447,2420.7908,N,08112.8840,W,1,8,2.0,16,"
"##MN-00 00 59 0130 01965 5694 438480 347730 199"
"158.517211"
"$GPGGA,122451,2420.7930,N,08112.8827,W,1,8,2.0,16,"
"##MN-00 00 60 0131 01967 5694 438475 347730 199"
"158.517257"
"$GPGGA,122455,2420.7952,N,08112.8813,W,1,8,2.0,16,"
"##MN-00 00 60 0132 01970 5694 438477 347728 199"
"158.517303"
"$GPGGA,122500,2420.7980,N,08112.8794,W,1,8,2.0,16,"
"##MN-00 00 60 0133 01969 5693 438479 347728 199"
"158.51735"
"$GPGGA,122504,2420.7999,N,08112.8779,W,1,8,2.0,17,"
"##MN-00 00 58 0134 01973 5693 438483 347727 199"
"158.517396"
"$GPGGA,122508,2420.8020,N,08112.8764,W,1,8,2.0,17,"
"##MN-00 00 61 0135 01973 5693 438484 347727 199"
"158.517442"
"$GPGGA,122512,2420.8040,N,08112.8749,W,1,8,2.0,17,"
"##MN-00 00 60 0136 01976 5692 438484 347728 199"
"158.517488"
"$GPGGA,122516,2420.8060,N,08112.8733,W,1,8,2.0,17,"
"##MN-00 00 58 0137 01980 5692 438484 347729 199"
"158.517535"
"$GPGGA,122520,2420.8078,N,08112.8718,W,1,8,2.0,17,"
"##MN-00 00 58 0138 01979 5692 438480 347728 199"
"158.517581"
"$GPGGA,122524,2420.8096,N,08112.8703,W,1,8,2.0,17,"
"##MN-00 00 57 0139 01983 5692 438485 347728 199"
"158.517627"
"$GPGGA,122528,2420.8117,N,08112.8686,W,1,8,2.0,17,"
"##MN-00 00 58 0140 01987 5691 438485 347728 199"
"158.517674"
"$GPGGA,122532,2420.8136,N,08112.8671,W,1,8,2.0,17,"
"##MN-00 00 57 0141 01986 5692 438488 347728 199"
"158.51772"
"$GPGGA,122536,2420.8156,N,08112.8654,W,1,8,2.0,17,"
"##MN-00 00 57 0142 01988 5691 438492 347729 199"
"158.517766"
"$GPGGA,122540,2420.8176,N,08112.8638,W,1,8,2.0,17,"
"##MN-00 00 57 0143 01990 5691 438490 347728 199"
"158.517812"
"$GPGGA,122544,2420.8196,N,08112.8623,W,1,8,2.0,17,"
"##MN-00 00 56 0144 01990 5690 438490 347728 199"
"158.517859"
"$GPGGA,122548,2420.8215,N,08112.8607,W,1,8,2.0,17,"
"##MN-00 00 55 0145 01988 5690 438501 347729 199"
"158.517905"
"$GPGGA,122552,2420.8233,N,08112.8592,W,1,8,2.0,17,"
"##MN-00 00 55 0146 01983 5690 438515 347733 199"
"158.517951"
"$GPGGA,122556,2420.8252,N,08112.8576,W,1,8,2.0,17,"
"##MN-00 00 55 0147 01980 5690 438509 347734 199"
"158.517998"
"$GPGGA,122600,2420.8273,N,08112.8560,W,1,8,2.0,17,"
"##MN-00 00 54 0149 01975 5689 438500 347733 199"
"158.518044"
"$GPGGA,122604,2420.8293,N,08112.8544,W,1,8,2.0,17,"
"##MN-00 00 55 0150 01973 5689 438500 347736 199"
"158.51809"
"$GPGGA,122608,2420.8312,N,08112.8528,W,1,8,2.0,17,"
"##MN-00 00 54 0151 01970 5688 438497 347736 199"
"158.518137"
"$GPGGA,122612,2420.8330,N,08112.8513,W,1,8,2.0,17,"
"##MN-00 00 56 0152 01967 5688 438484 347736 199"
"158.518183"
"$GPGGA,122616,2420.8349,N,08112.8498,W,1,8,2.0,17,"
"##MN-00 00 56 0153 01968 5687 438473 347733 199"
"158.518229"
"$GPGGA,122620,2420.8369,N,08112.8478,W,1,8,1.8,17,"
"##MN-00 00 56 0154 01970 5687 438462 347728 199"
"158.518275"
"$GPGGA,122624,2420.8389,N,08112.8461,W,1,9,1.8,17,"
"##MN+00 00 56 0155 01973 5687 438456 347727 199"
"158.518333"
"$GPGGA,122628,2420.8409,N,08112.8443,W,1,8,1.8,17,"
"##MN+00 00 56 0156 01973 5686 438454 347729 199"
"158.51838"
"$GPGGA,122632,2420.8428,N,08112.8425,W,1,9,1.9,17,"
"##MN+00 00 55 0157 01974 5685 438455 347724 199"
"158.518426"
"$GPGGA,122636,2420.8446,N,08112.8411,W,1,8,1.9,17,"
"##MN-00 00 55 0158 01974 5685 438458 347726 199"
"158.518472"
"$GPGGA,122640,2420.8464,N,08112.8395,W,1,9,1.9,17,"
"##MN-00 00 54 0159 01977 5685 438460 347727 199"
"158.518519"
"$GPGGA,122644,2420.8483,N,08112.8377,W,1,9,1.8,17,"
"##MN-00 00 54 0159 01974 5685 438461 347727 199"
"158.518565"
"$GPGGA,122648,2420.8501,N,08112.8358,W,1,9,1.8,17,"
"##MN+00 00 54 0160 01976 5684 438458 347728 199"
"158.518611"
"$GPGGA,122652,2420.8519,N,08112.8342,W,1,9,1.9,17,"
"##MN+00 00 62 0161 01978 5684 438461 347728 199"
"158.518657"
"$GPGGA,122656,2420.8537,N,08112.8327,W,1,8,1.9,17,"
"##MN+00 00 57 0162 01979 5683 438462 347727 199"
"158.518704"
"#increment_net"
"$GPGGA,122700,2420.8554,N,08112.8311,W,1,7,1.9,17,"
"##MN-00 00 54 0163 01980 5683 438462 347727 199"
"158.51875"
"$GPGGA,122704,2420.8572,N,08112.8295,W,1,9,1.8,17,"
"##MN-00 00 53 0164 01978 5682 438458 347726 199"
"158.518796"
"$GPGGA,122708,2420.8590,N,08112.8278,W,1,8,1.8,17,"
"##MN-00 00 53 0165 01974 5682 438454 347726 199"
"158.518843"
"$GPGGA,122712,2420.8608,N,08112.8260,W,1,8,1.8,17,"
"##MN-00 00 53 0166 01975 5681 438450 347724 199"
"158.518889"
"$GPGGA,122716,2420.8626,N,08112.8243,W,1,8,1.8,17,"
"##MN-00 00 52 0167 01972 5681 438451 347722 199"
"158.518935"
"$GPGGA,122720,2420.8641,N,08112.8228,W,1,8,1.8,17,"
"##MN-00 00 52 0168 01969 5680 438448 347722 199"
"158.518981"
"$GPGGA,122724,2420.8656,N,08112.8215,W,1,7,2.3,17,"
"##MN-00 00 52 0169 01971 5680 438447 347722 199"
"158.519028"
"$GPGGA,122728,2420.8670,N,08112.8201,W,1,7,2.3,17,"
"##MN-00 00 52 0170 01972 5679 438450 347722 199"
"158.519074"
"$GPGGA,122732,2420.8685,N,08112.8186,W,1,7,1.8,16,"
"##MN-00 00 53 0170 01972 5679 438447 347722 199"
"158.51912"
"$GPGGA,122736,2420.8700,N,08112.8168,W,1,8,1.8,16,"
"##MN-00 00 52 0171 01972 5678 438444 347721 199"
"158.519167"
"$GPGGA,122740,2420.8717,N,08112.8153,W,1,8,1.8,16,"
"##MN-00 00 53 0172 01973 5678 438446 347720 199"
"158.519213"
"$GPGGA,122744,2420.8731,N,08112.8139,W,1,7,2.3,16,"
"##MN-00 00 52 0173 01972 5677 438451 347721 199"
"158.519259"
"$GPGGA,122748,2420.8747,N,08112.8120,W,1,8,1.8,16,"
"##MN-00 00 52 0174 01972 5676 438445 347724 199"
"158.519306"
"$GPGGA,122752,2420.8764,N,08112.8102,W,1,8,1.8,16,"
"##MN-00 00 52 0175 01970 5676 438442 347725 199"
"158.519352"
"$GPGGA,122756,2420.8782,N,08112.8085,W,1,8,1.8,17,"
"##MN-00 00 52 0176 01971 5675 438445 347725 199"
"158.519398"
"$GPGGA,122800,2420.8796,N,08112.8073,W,1,8,1.8,17,"
"##MN-00 00 52 0177 01971 5675 438460 347726 199"
"158.519444"
"$GPGGA,122804,2420.8811,N,08112.8058,W,1,8,1.8,17,"
"##MN-00 00 52 0178 01972 5674 438465 347726 199"
"158.519491"
"$GPGGA,122808,2420.8826,N,08112.8042,W,1,8,1.8,17,"
"##MN-00 00 52 0179 01973 5674 438461 347726 199"
"158.519537"
"$GPGGA,122812,2420.8840,N,08112.8028,W,1,8,1.8,18,"
"##MN-00 00 53 0180 01971 5673 438455 347725 199"
"158.519583"
"$GPGGA,122816,2420.8855,N,08112.8013,W,1,8,1.8,18,"
"##MN-00 00 53 0180 01969 5672 438452 347723 199"
"158.51963"
"$GPGGA,122820,2420.8869,N,08112.7999,W,1,7,1.8,18,"
"##MN-00 00 52 0181 01969 5672 438451 347722 199"
"158.519676"
"$GPGGA,122824,2420.8884,N,08112.7986,W,1,8,2.3,18,"
"##MN-00 00 53 0182 01968 5671 438444 347721 199"
"158.519722"
"$GPGGA,122828,2420.8895,N,08112.7976,W,1,8,2.3,17,"
"##MN-00 00 52 0183 01968 5671 438447 347720 199"
"158.519769"
"$GPGGA,122832,2420.8912,N,08112.7960,W,1,8,1.8,17,"
"##MN-00 00 54 0184 01968 5670 438456 347721 199"
"158.519815"
"$GPGGA,122836,2420.8924,N,08112.7948,W,1,7,1.8,17,"
"##MN-00 00 52 0185 01970 5670 438479 347728 199"
"158.519861"
"$GPGGA,122840,2420.8941,N,08112.7932,W,1,8,1.8,16,"
"##MN-00 00 54 0186 01969 5669 438483 347728 199"
"158.519907"
"$GPGGA,122844,2420.8955,N,08112.7919,W,1,7,2.2,16,"
"##MN-00 00 53 0187 01970 5669 438481 347728 199"
"158.519954"
"$GPGGA,122848,2420.8970,N,08112.7903,W,1,7,2.3,15,"
"##MN-00 00 52 0188 01970 5668 438473 347727 199"
"158.52"
"$GPGGA,122852,2420.8987,N,08112.7885,W,1,7,1.8,15,"
"##MN+00 00 52 0189 01968 5668 438475 347727 199"
"158.520046"
"$GPGGA,122856,2420.9002,N,08112.7868,W,1,7,2.2,15,"
"##MN+00 00 52 0190 01971 5667 438479 347727 199"
"158.520093"
"$GPGGA,122900,2420.9017,N,08112.7853,W,1,8,2.2,15,"
"##MN+00 00 53 0190 01971 5667 438481 347728 199"
"158.520139"
"$GPGGA,122904,2420.9032,N,08112.7837,W,1,7,1.8,15,"
"##MN-00 00 52 0191 01970 5666 438485 347729 199"
"158.520185"
"$GPGGA,122908,2420.9050,N,08112.7817,W,1,8,1.8,15,"
"##MN-00 00 53 0192 01969 5665 438493 347732 199"
"158.520231"
"$GPGGA,122912,2420.9067,N,08112.7798,W,1,8,1.8,16,"
"##MN+00 00 53 0193 01970 5664 438496 347733 199"
"158.520278"
"$GPGGA,122916,2420.9081,N,08112.7783,W,1,8,1.8,16,"
"##MN+00 00 63 0194 01974 5664 438506 347733 199"
"158.520324"
"$GPGGA,122920,2420.9095,N,08112.7769,W,1,8,2.2,16,"
"##MN+00 00 57 0195 01972 5663 438511 347733 199"
"158.52037"
"#increment_net"
"$GPGGA,122924,2420.9108,N,08112.7757,W,1,7,1.8,16,"
"##MN-00 00 54 0196 01971 5662 438513 347736 199"
"158.520417"
"$GPGGA,122928,2420.9124,N,08112.7741,W,1,7,1.8,16,"
"##MN-00 00 51 0197 01972 5662 438508 347737 199"
"158.520463"
"$GPGGA,122932,2420.9139,N,08112.7726,W,1,7,1.8,16,"
"##MN-00 00 51 0198 01970 5661 438518 347740 199"
"158.520509"
"$GPGGA,122936,2420.9155,N,08112.7709,W,1,7,2.2,16,"
"##MN-00 00 51 0199 01972 5661 438525 347741 199"
"158.520556"
"$GPGGA,122941,2420.9173,N,08112.7691,W,1,7,2.2,16,"
"##MN-00 00 51 0200 01971 5660 438523 347741 199"
"158.520602"
"$GPGGA,122945,2420.9189,N,08112.7675,W,1,8,1.8,16,"
"##MN-00 00 52 0200 01969 5660 438532 347743 199"
"158.520648"
"$GPGGA,122949,2420.9204,N,08112.7662,W,1,8,1.8,16,"
"##MN-00 00 51 0201 01969 5659 438537 347744 199"
"158.520694"
"$GPGGA,122953,2420.9216,N,08112.7650,W,1,7,2.2,16,"
"##MN-00 00 52 0202 01972 5658 438519 347741 199"
"158.520741"
"$GPGGA,122957,2420.9230,N,08112.7636,W,1,7,2.2,16,"
"##MN-00 00 51 0203 01969 5658 438501 347738 199"
"158.520787"
"$GPGGA,123000,2420.9245,N,08112.7621,W,1,7,1.8,15,"
"##MN-00 00 51 0204 01969 5657 438495 347736 199"
"158.520833"
"$GPGGA,123005,2420.9263,N,08112.7603,W,1,7,2.2,16,"
"##MN-00 00 51 0205 01968 5657 438492 347735 199"
"158.52088"
"$GPGGA,123009,2420.9280,N,08112.7586,W,1,7,1.8,15,"
"##MN-00 00 51 0206 01969 5656 438482 347734 199"
"158.520926"
"$GPGGA,123013,2420.9298,N,08112.7568,W,1,8,2.2,16,"
"##MN-00 00 52 0207 01971 5655 438483 347734 199"
"158.520972"
"$GPGGA,123017,2420.9312,N,08112.7555,W,1,8,1.8,16,"
"##MN-00 00 52 0208 01970 5655 438483 347734 199"
"158.521019"
"$GPGGA,123021,2420.9328,N,08112.7539,W,1,8,1.8,16,"
"##MN-00 00 52 0209 01968 5654 438488 347734 199"
"158.521065"
"$GPGGA,123025,2420.9343,N,08112.7522,W,1,8,1.8,16,"
"##MN-00 00 51 0210 01969 5654 438500 347736 199"
"158.521111"
"$GPGGA,123029,2420.9357,N,08112.7510,W,1,8,1.8,16,"
"##MN-00 00 52 0211 01967 5653 438502 347736 199"
"158.521157"
"$GPGGA,123033,2420.9374,N,08112.7494,W,1,8,1.8,16,"
"##MN-00 00 52 0212 01967 5652 438496 347736 199"
"158.521204"
"$GPGGA,123037,2420.9388,N,08112.7481,W,1,8,2.2,16,"
"##MN-00 00 52 0213 01968 5652 438488 347735 199"
"158.52125"
"$GPGGA,123041,2420.9406,N,08112.7460,W,1,8,1.8,16,"
"##MN-00 00 51 0214 01968 5651 438483 347734 199"
"158.521296"
"$GPGGA,123045,2420.9421,N,08112.7444,W,1,8,1.8,16,"
"##MN-00 00 51 0214 01968 5650 438486 347733 199"
"158.521343"
"$GPGGA,123049,2420.9436,N,08112.7426,W,1,8,1.8,16,"
"##MN-00 00 52 0215 01967 5650 438490 347733 199"
"158.521389"
"$GPGGA,123053,2420.9451,N,08112.7413,W,1,8,2.2,16,"
"##MN-00 00 52 0216 01967 5649 438491 347732 199"
"158.521435"
"$GPGGA,123057,2420.9465,N,08112.7399,W,1,8,2.2,16,"
"##MN-00 00 52 0217 01968 5649 438478 347732 199"
"158.521481"
"$GPGGA,123101,2420.9480,N,08112.7385,W,1,7,1.8,16,"
"##MN-00 00 52 0218 01967 5648 438471 347731 199"
"158.521528"
"$GPGGA,123105,2420.9494,N,08112.7371,W,1,7,1.8,16,"
"##MN-00 00 52 0219 01965 5647 438481 347731 199"
"158.521586"
"$GPGGA,123109,2420.9511,N,08112.7354,W,1,8,1.8,16,"
"##MN-00 00 52 0220 01967 5647 438494 347731 199"
"158.521632"
"$GPGGA,123113,2420.9522,N,08112.7343,W,1,7,2.2,16,"
"##MN+00 00 52 0221 01966 5646 438501 347732 199"
"158.521678"
"$GPGGA,123117,2420.9540,N,08112.7323,W,1,7,2.2,16,"
"##MN+00 00 52 0222 01965 5646 438501 347733 199"
"158.521725"
"$GPGGA,123121,2420.9551,N,08112.7311,W,1,8,1.8,16,"
"##MN+00 00 52 0223 01967 5645 438494 347733 199"
"158.521771"
"$GPGGA,123125,2420.9569,N,08112.7292,W,1,8,2.2,16,"
"##MN-00 00 51 0224 01966 5644 438494 347733 199"
"158.521817"
"$GPGGA,123129,2420.9583,N,08112.7277,W,1,8,1.8,15,"
"##MN+00 00 51 0225 01965 5644 438503 347734 199"
"158.521863"
"$GPGGA,123133,2420.9594,N,08112.7267,W,1,7,2.2,15,"
"##MN+00 00 62 0226 01969 5643 438510 347735 199"
"158.52191"
"$GPGGA,123137,2420.9613,N,08112.7248,W,1,7,2.2,15,"
"##MN+00 00 58 0227 01969 5643 438511 347735 199"
"158.521956"
"#increment_net"
"$GPGGA,123141,2420.9623,N,08112.7238,W,1,7,2.2,15,"
"##MN-00 00 54 0227 01967 5642 438509 347735 199"
"158.522002"
"$GPGGA,123145,2420.9642,N,08112.7219,W,1,7,2.2,14,"
"##MN-00 00 52 0228 01967 5641 438507 347736 199"
"158.522049"
"$GPGGA,123149,2420.9657,N,08112.7201,W,1,7,2.2,14,"
"##MN-00 00 51 0229 01967 5641 438522 347737 199"
"158.522095"
"$GPGGA,123153,2420.9668,N,08112.7190,W,1,7,2.2,14,"
"##MN-00 00 51 0230 01966 5640 438525 347738 199"
"158.522141"
"$GPGGA,123157,2420.9688,N,08112.7168,W,1,7,2.2,14,"
"##MN-00 00 51 0231 01967 5639 438526 347740 199"
"158.522188"
"$GPGGA,123201,2420.9704,N,08112.7150,W,1,8,1.8,14,"
"##MN-00 00 50 0232 01967 5639 438535 347742 199"
"158.522234"
"$GPGGA,123205,2420.9718,N,08112.7137,W,1,7,2.2,14,"
"##MN-00 00 51 0233 01969 5638 438544 347743 199"
"158.52228"
"$GPGGA,123209,2420.9733,N,08112.7123,W,1,7,2.2,14,"
"##MN-00 00 50 0234 01967 5637 438551 347745 199"
"158.522326"
"$GPGGA,123213,2420.9749,N,08112.7108,W,1,7,2.2,14,"
"##MN-00 00 51 0235 01967 5637 438540 347744 199"
"158.522373"
"$GPGGA,123217,2420.9764,N,08112.7091,W,1,7,2.2,14,"
"##MN-00 00 51 0236 01968 5637 438529 347743 199"
"158.522419"
"$GPGGA,123221,2420.9780,N,08112.7075,W,1,7,2.2,14,"
"##MN-00 00 51 0237 01967 5636 438554 347745 199"
"158.522465"
"$GPGGA,123225,2420.9794,N,08112.7061,W,1,7,2.2,14,"
"##MN-00 00 51 0238 01969 5635 438592 347754 199"
"158.522512"
"$GPGGA,123229,2420.9809,N,08112.7046,W,1,7,2.2,14,"
"##MN-00 00 50 0239 01968 5635 438601 347757 199"
"158.522558"
"$GPGGA,123233,2420.9826,N,08112.7030,W,1,7,2.2,14,"
"##MN-00 00 51 0240 01968 5634 438580 347756 199"
"158.522604"
"$GPGGA,123237,2420.9841,N,08112.7014,W,1,7,2.2,14,"
"##MN-00 00 51 0241 01967 5634 438556 347753 199"
"158.52265"
"$GPGGA,123241,2420.9856,N,08112.6999,W,1,7,2.2,14,"
"##MN-00 00 51 0242 01966 5633 438547 347748 199"
"158.522697"
"$GPGGA,123245,2420.9873,N,08112.6985,W,1,8,1.8,13,"
"##MN-00 00 51 0243 01968 5632 438558 347749 199"
"158.522743"
"$GPGGA,123249,2420.9891,N,08112.6965,W,1,8,1.8,13,"
"##MN-00 00 50 0244 01968 5632 438555 347748 199"
"158.522789"
"$GPGGA,123253,2420.9906,N,08112.6950,W,1,7,2.2,14,"
"##MN-00 00 51 0245 01967 5631 438544 347746 199"
"158.522836"
"$GPGGA,123257,2420.9921,N,08112.6936,W,1,8,1.8,14,"
"##MN-00 00 51 0246 01970 5631 438559 347747 199"
"158.522882"
"$GPGGA,123301,2420.9938,N,08112.6922,W,1,7,2.2,14,"
"##MN-00 00 51 0247 01971 5630 438580 347752 199"
"158.522928"
"$GPGGA,123305,2420.9953,N,08112.6907,W,1,7,2.2,14,"
"##MN-00 00 51 0248 01968 5630 438590 347754 199"
"158.522975"
"$GPGGA,123309,2420.9970,N,08112.6891,W,1,8,1.8,13,"
"##MN-00 00 51 0249 01970 5629 438603 347757 199"
"158.523021"
"$GPGGA,123313,2420.9986,N,08112.6873,W,1,8,1.8,13,"
"##MN+00 00 51 0250 01969 5628 438626 347764 199"
"158.523067"
"$GPGGA,123317,2421.0003,N,08112.6858,W,1,7,2.2,13,"
"##MN+00 00 51 0250 01969 5628 438616 347764 199"
"158.523113"
"$GPGGA,123321,2421.0018,N,08112.6842,W,1,7,2.2,13,"
"##MN+00 00 51 0251 01970 5627 438611 347761 199"
"158.52316"
"$GPGGA,123325,2421.0033,N,08112.6828,W,1,7,2.2,13,"
"##MN-00 00 50 0252 01970 5626 438600 347760 198"
"158.523206"
"$GPGGA,123329,2421.0050,N,08112.6813,W,1,7,2.2,13,"
"##MN-00 00 51 0253 01972 5626 438583 347758 198"
"158.523252"
"$GPGGA,123333,2421.0065,N,08112.6799,W,1,7,2.2,13,"
"##MN-00 00 50 0254 01971 5626 438572 347754 198"
"158.523299"
"$GPGGA,123337,2421.0082,N,08112.6784,W,1,7,2.2,13,"
"##MN-00 00 50 0255 01969 5625 438569 347753 198"
"158.523345"
"$GPGGA,123341,2421.0097,N,08112.6769,W,1,7,2.2,12,"
"##MN+00 00 50 0256 01972 5624 438568 347753 198"
"158.523391"
"$GPGGA,123345,2421.0112,N,08112.6753,W,1,7,2.2,12,"
"##MN+00 00 61 0257 01974 5624 438579 347753 199"
"158.523438"
"#increment_net"
"$GPGGA,123349,2421.0127,N,08112.6738,W,1,7,2.2,12,"
"##MN+00 00 56 0258 01971 5623 438587 347755 198"
"158.523484"
"$GPGGA,123353,2421.0145,N,08112.6719,W,1,8,1.8,12,"
"##MN-00 00 54 0259 01972 5622 438604 347758 199"
"158.52353"
"$GPGGA,123357,2421.0161,N,08112.6705,W,1,7,2.2,13,"
"##MN-00 00 51 0260 01971 5622 438572 347755 199"
"158.523576"
"$GPGGA,123401,2421.0177,N,08112.6690,W,1,7,2.2,13,"
"##MN-00 00 51 0261 01969 5621 438560 347751 199"
"158.523623"
"$GPGGA,123405,2421.0191,N,08112.6676,W,1,7,2.2,12,"
"##MN-00 00 51 0262 01969 5621 438537 347749 199"
"158.523669"
"$GPGGA,123409,2421.0208,N,08112.6663,W,1,7,2.2,12,"
"##MN-00 00 50 0263 01968 5620 438526 347745 199"
"158.523715"
"$GPGGA,123414,2421.0228,N,08112.6641,W,1,8,1.8,12,"
"##MN-00 00 51 0264 01970 5619 438526 347744 199"
"158.523762"
"$GPGGA,123418,2421.0245,N,08112.6624,W,1,7,1.8,12,"
"##MN-00 00 50 0265 01967 5619 438531 347744 199"
"158.523808"
"$GPGGA,123422,2421.0262,N,08112.6605,W,1,8,1.8,13,"
"##MN-00 00 50 0266 01968 5619 438510 347741 199"
"158.523854"
"$GPGGA,123426,2421.0278,N,08112.6588,W,1,8,1.8,13,"
"##MN-00 00 50 0267 01968 5618 438515 347741 199"
"158.5239"
"$GPGGA,123430,2421.0296,N,08112.6571,W,1,8,1.7,14,"
"##MN-00 00 50 0268 01968 5617 438522 347742 199"
"158.523947"
"$GPGGA,123434,2421.0313,N,08112.6555,W,1,8,1.7,14,"
"##MN-00 00 51 0269 01968 5617 438509 347740 199"
"158.523993"
"$GPGGA,123438,2421.0329,N,08112.6538,W,1,8,1.7,15,"
"##MN-00 00 51 0270 01968 5616 438499 347738 199"
"158.524039"
"$GPGGA,123442,2421.0342,N,08112.6526,W,1,7,2.2,15,"
"##MN-00 00 51 0271 01969 5616 438499 347738 199"
"158.524086"
"$GPGGA,123446,2421.0356,N,08112.6514,W,1,7,2.2,15,"
"##MN-00 00 50 0272 01970 5615 438501 347738 199"
"158.524132"
"$GPGGA,123450,2421.0369,N,08112.6502,W,1,7,2.2,15,"
"##MN-00 00 51 0273 01968 5615 438514 347739 199"
"158.524178"
"$GPGGA,123454,2421.0385,N,08112.6488,W,1,7,1.7,14,"
"##MN-00 00 50 0274 01969 5614 438532 347743 199"
"158.524225"
"$GPGGA,123458,2421.0401,N,08112.6471,W,1,8,1.7,14,"
"##MN-00 00 50 0275 01967 5613 438507 347739 199"
"158.524271"
"$GPGGA,123502,2421.0416,N,08112.6455,W,1,8,1.7,14,"
"##MN-00 00 51 0276 01968 5613 438502 347738 199"
"158.524317"
"$GPGGA,123506,2421.0433,N,08112.6439,W,1,8,1.7,15,"
"##MN-00 00 50 0277 01968 5612 438510 347738 199"
"158.524363"
"$GPGGA,123510,2421.0450,N,08112.6423,W,1,8,1.7,15,"
"##MN-00 00 51 0278 01968 5612 438509 347740 199"
"158.52441"
"$GPGGA,123514,2421.0465,N,08112.6408,W,1,8,1.7,15,"
"##MN-00 00 51 0279 01968 5611 438504 347739 199"
"158.524456"
"$GPGGA,123518,2421.0480,N,08112.6394,W,1,8,1.7,15,"
"##MN-00 00 51 0280 01967 5611 438494 347738 199"
"158.524502"
"$GPGGA,123522,2421.0495,N,08112.6379,W,1,8,1.7,16,"
"##MN-00 00 51 0281 01966 5610 438498 347738 199"
"158.524549"
"$GPGGA,123526,2421.0510,N,08112.6363,W,1,8,1.7,16,"
"##MN-00 00 51 0282 01966 5610 438504 347738 199"
"158.524595"
"$GPGGA,123530,2421.0527,N,08112.6349,W,1,8,1.7,16,"
"##MN-00 00 51 0283 01968 5609 438494 347736 199"
"158.524641"
"$GPGGA,123534,2421.0542,N,08112.6334,W,1,8,1.7,16,"
"##MN+00 00 51 0284 01967 5609 438486 347734 199"
"158.524699"
"$GPGGA,123538,2421.0556,N,08112.6321,W,1,7,1.7,16,"
"##MN+00 00 51 0285 01967 5608 438483 347733 198"
"158.524745"
"$GPGGA,123542,2421.0571,N,08112.6307,W,1,8,1.7,16,"
"##MN+00 00 51 0286 01967 5608 438494 347735 198"
"158.524792"
"$GPGGA,123546,2421.0588,N,08112.6291,W,1,8,1.7,16,"
"##MN+00 00 51 0287 01965 5607 438495 347735 198"
"158.524838"
"$GPGGA,123550,2421.0603,N,08112.6276,W,1,8,1.7,16,"
"##MN+00 00 63 0288 01969 5606 438477 347736 199"
"158.524884"
"#increment_net"
"$GPGGA,123554,2421.0620,N,08112.6261,W,1,8,1.7,16,"
"##MN+00 00 60 0289 01969 5606 438464 347731 199"
"158.524931"
"$GPGGA,123558,2421.0636,N,08112.6246,W,1,8,1.7,16,"
"##MN-00 00 54 0290 01975 5605 438465 347729 199"
"158.524977"
"$GPGGA,123602,2421.0650,N,08112.6231,W,1,8,1.7,16,"
"##MN-00 00 52 0292 01981 5605 438471 347729 199"
"158.525023"
"$GPGGA,123606,2421.0665,N,08112.6218,W,1,8,1.7,16,"
"##MN-00 00 51 0293 01986 5604 438474 347728 199"
"158.525069"
"$GPGGA,123610,2421.0682,N,08112.6204,W,1,8,1.7,16,"
"##MN-00 00 50 0294 01986 5604 438486 347730 199"
"158.525116"
"$GPGGA,123614,2421.0697,N,08112.6191,W,1,8,1.7,16,"
"##MN-00 00 49 0295 01985 5603 438494 347731 199"
"158.525162"
"$GPGGA,123618,2421.0714,N,08112.6178,W,1,8,1.7,16,"
"##MN-00 00 48 0297 01984 5603 438515 347737 199"
"158.525208"
"$GPGGA,123622,2421.0729,N,08112.6166,W,1,8,1.7,16,"
"##MN-00 00 46 0298 01981 5602 438535 347797 199"
"158.525255"
"$GPGGA,123626,2421.0744,N,08112.6153,W,1,8,1.7,16,"
"##MN-00 00 46 0299 01979 5602 438550 347746 199"
"158.525301"
"$GPGGA,123630,2421.0761,N,08112.6141,W,1,8,1.7,16,"
"##MN-00 00 46 0301 01974 5601 438533 347743 199"
"158.525347"
"$GPGGA,123634,2421.0777,N,08112.6128,W,1,8,1.7,15,"
"##MN-00 00 47 0302 01969 5600 438519 347742 199"
"158.525394"
"$GPGGA,123638,2421.0794,N,08112.6116,W,1,8,1.7,15,"
"##MN-00 00 47 0304 01966 5600 438518 347742 199"
"158.52544"
"$GPGGA,123642,2421.0809,N,08112.6104,W,1,8,1.7,15,"
"##MN-00 00 46 0305 01961 5599 438506 347741 199"
"158.525486"
"$GPGGA,123646,2421.0827,N,08112.6091,W,1,8,1.7,15,"
"##MN-00 00 47 0306 01955 5599 438488 347737 199"
"158.525532"
"$GPGGA,123650,2421.0844,N,08112.6079,W,1,8,1.7,15,"
"##MN-00 00 47 0308 01950 5598 438477 347735 199"
"158.525579"
"$GPGGA,123654,2421.0860,N,08112.6067,W,1,8,1.7,15,"
"##MN-00 00 47 0309 01943 5598 438465 347735 199"
"158.525625"
"$GPGGA,123658,2421.0878,N,08112.6054,W,1,8,1.7,15,"
"##MN-00 00 48 0310 01937 5597 438460 347734 199"
"158.525671"
"$GPGGA,123702,2421.0893,N,08112.6042,W,1,8,1.7,15,"
"##MN-00 00 48 0312 01931 5597 438454 347735 199"
"158.525718"
"$GPGGA,123706,2421.0910,N,08112.6031,W,1,8,1.7,15,"
"##MN-00 00 48 0313 01928 5596 438442 347733 199"
"158.525764"
"$GPGGA,123710,2421.0928,N,08112.6019,W,1,8,1.7,15,"
"##MN-00 00 47 0314 01925 5596 438442 347732 199"
"158.52581"
"$GPGGA,123714,2421.0947,N,08112.6008,W,1,8,1.7,15,"
"##MN-00 00 47 0316 01922 5595 438441 347731 199"
"158.525856"
"$GPGGA,123718,2421.0965,N,08112.5997,W,1,8,1.7,15,"
"##MN-00 00 47 0317 01916 5595 438439 347732 199"
"158.525903"
"$GPGGA,123722,2421.0983,N,08112.5987,W,1,8,1.7,15,"
"##MN-00 00 48 0318 01912 5594 438438 347732 199"
"158.525949"
"$GPGGA,123726,2421.1001,N,08112.5977,W,1,8,1.7,15,"
"##MN-00 00 49 0320 01909 5594 438433 347732 199"
"158.525995"
"$GPGGA,123730,2421.1022,N,08112.5967,W,1,8,1.7,15,"
"##MN-00 00 49 0321 01905 5593 438432 347732 199"
"158.526042"
"$GPGGA,123734,2421.1040,N,08112.5957,W,1,8,1.7,15,"
"##MN-00 00 51 0322 01900 5593 438423 347730 199"
"158.526088"
"$GPGGA,123738,2421.1061,N,08112.5947,W,1,8,1.7,15,"
"##MN-00 00 51 0324 01888 5592 438420 347730 199"
"158.526134"
"$GPGGA,123742,2421.1080,N,08112.5936,W,1,8,1.7,15,"
"##MN-00 00 51 0325 01880 5592 438411 347732 199"
"158.526181"
"$GPGGA,123746,2421.1100,N,08112.5926,W,1,8,1.7,15,"
"##MN-00 00 51 0327 01873 5591 438410 347732 199"
"158.526227"
"$GPGGA,123750,2421.1120,N,08112.5917,W,1,8,1.7,15,"
"##MN-00 00 52 0328 01864 5591 438402 347730 199"
"158.526273"
"$GPGGA,123754,2421.1140,N,08112.5907,W,1,8,1.7,15,"
"##MN-00 00 51 0330 01863 5590 438392 347732 199"
"158.526319"
"$GPGGA,123758,2421.1160,N,08112.5896,W,1,8,1.7,15,"
"##MN-00 00 53 0331 01860 5590 438389 347729 199"
"158.526366"
"$GPGGA,123802,2421.1178,N,08112.5886,W,1,8,1.7,14,"
"##MN-00 00 54 0333 01861 5589 438358 347720 199"
"158.526412"
"$GPGGA,123806,2421.1196,N,08112.5876,W,1,8,1.7,14,"
"##MN-00 00 52 0334 01859 5589 438351 347717 199"
"158.526458"
"$GPGGA,123810,2421.1217,N,08112.5866,W,1,8,1.7,14,"
"##MN-00 00 50 0335 01860 5588 438360 349541 199"
"158.526505"
"$GPGGA,123814,2421.1236,N,08112.5857,W,1,8,1.7,14,"
"##MN-00 00 51 0337 01859 5588 438352 347728 199"
"158.526551"
"$GPGGA,123818,2421.1256,N,08112.5847,W,1,8,1.7,14,"
"##MN-00 00 54 0338 01858 5588 438354 347727 199"
"158.526597"
"$GPGGA,123822,2421.1277,N,08112.5838,W,1,8,1.7,14,"
"##MN-00 00 56 0339 01859 5587 438367 347984 199"
