" Tow: L4s-B   RVWS/WS1406"
" Date: 06/07/2014"
" Temperature Probe #  2597    Conductivity Probe #  2870"
" Pressure Probe #  109"
" Flow Meter Calibration  4.71 (m/count)  "
"158.551238"
"$GPGGA,131347,2424.0949,N,08111.4787,W,1,8,1.8,16,"
"##MN-00 00 58 0088 01857 5731 435002 882268 199"
"158.551285"
"$GPGGA,131355,2424.0990,N,08111.4796,W,1,8,1.8,17,"
"##MN-00 00 59 0089 01857 5731 442894 348836 199"
"158.551331"
"$GPGGA,131359,2424.1012,N,08111.4801,W,1,8,1.8,17,"
"##MN-00 00 59 0089 01862 5733 443091 348954 199"
"158.551377"
"$GPGGA,131403,2424.1032,N,08111.4805,W,1,8,1.8,17,"
"##MN-00 00 58 0090 01865 5734 443252 349110 199"
"158.551424"
"$GPGGA,131407,2424.1051,N,08111.4805,W,1,8,1.8,18,"
"##MN-00 00 58 0091 01866 5735 443428 349024 199"
"158.55147"
"$GPGGA,131411,2424.1069,N,08111.4808,W,1,8,1.8,18,"
"##MN-00 00 58 0093 01867 5736 443544 349201 199"
"158.551516"
"$GPGGA,131415,2424.1087,N,08111.4808,W,1,8,1.8,18,"
"##MN-00 00 57 0094 01867 5737 443587 349247 199"
"158.551563"
"$GPGGA,131419,2424.1105,N,08111.4806,W,1,8,1.8,18,"
"##MN-00 00 57 0095 01867 5738 443579 349198 199"
"158.551609"
"$GPGGA,131423,2424.1123,N,08111.4804,W,1,8,1.8,18,"
"##MN-00 00 57 0096 01868 5739 443605 349276 199"
"158.551655"
"$GPGGA,131427,2424.1141,N,08111.4803,W,1,8,1.8,19,"
"##MN-00 00 57 0097 01869 5739 443619 349242 199"
"158.551701"
"$GPGGA,131431,2424.1159,N,08111.4801,W,1,8,1.8,19,"
"##MN-00 00 57 0098 01872 5740 443650 349269 199"
"158.551748"
"$GPGGA,131435,2424.1177,N,08111.4799,W,1,8,1.8,19,"
"##MN-00 00 58 0099 01878 5741 443675 349389 199"
"158.551794"
"$GPGGA,131439,2424.1196,N,08111.4798,W,1,8,1.8,19,"
"##MN-00 00 58 0100 01881 5741 443687 349393 199"
"158.55184"
"$GPGGA,131443,2424.1214,N,08111.4798,W,1,8,1.8,19,"
"##MN-00 00 58 0101 01884 5742 443698 349409 199"
"158.551887"
"$GPGGA,131447,2424.1232,N,08111.4796,W,1,8,1.8,19,"
"##MN-00 00 59 0102 01888 5743 443709 349413 199"
"158.551933"
"$GPGGA,131451,2424.1250,N,08111.4795,W,1,8,1.8,19,"
"##MN-00 00 57 0103 01894 5743 443717 349408 199"
"158.551979"
"$GPGGA,131455,2424.1268,N,08111.4794,W,1,8,1.8,19,"
"##MN-00 00 57 0104 01898 5744 443721 349424 199"
"158.552025"
"$GPGGA,131459,2424.1286,N,08111.4791,W,1,8,1.8,19,"
"##MN-00 00 58 0105 01903 5744 443730 349422 199"
"158.552072"
"$GPGGA,131504,2424.1308,N,08111.4790,W,1,8,1.8,19,"
"##MN-00 00 57 0106 01907 5744 443732 349418 199"
"158.552118"
"$GPGGA,131508,2424.1326,N,08111.4787,W,1,8,1.8,19,"
"##MN-00 00 57 0107 01908 5745 443758 349423 199"
"158.552164"
"$GPGGA,131511,2424.1340,N,08111.4785,W,1,8,1.8,19,"
"##MN-00 00 57 0108 01913 5745 443779 349433 199"
"158.552211"
"$GPGGA,131516,2424.1362,N,08111.4784,W,1,8,2.3,18,"
"##MN-00 00 57 0109 01917 5746 443795 349445 199"
"158.552257"
"$GPGGA,131519,2424.1377,N,08111.4782,W,1,7,2.3,18,"
"##MN-00 00 58 0110 01921 5746 443800 349455 199"
"158.552303"
"$GPGGA,131524,2424.1398,N,08111.4777,W,1,8,1.8,18,"
"##MN-00 00 58 0111 01925 5746 443806 349459 199"
"158.55235"
"$GPGGA,131528,2424.1416,N,08111.4772,W,1,8,1.8,18,"
"##MN-00 00 57 0112 01929 5746 443860 349465 199"
"158.552396"
"$GPGGA,131532,2424.1434,N,08111.4768,W,1,8,1.8,19,"
"##MN-00 00 57 0113 01933 5746 443966 349496 199"
"158.552442"
"$GPGGA,131536,2424.1454,N,08111.4765,W,1,8,1.9,19,"
"##MN-00 00 57 0114 01934 5746 444115 349546 199"
"158.552488"
"$GPGGA,131540,2424.1471,N,08111.4763,W,1,8,1.9,20,"
"##MN-00 00 58 0115 01943 5746 444217 349579 199"
"158.552535"
"$GPGGA,131544,2424.1491,N,08111.4760,W,1,8,1.9,20,"
"##MN-00 00 57 0116 01944 5746 444336 349602 199"
"158.552581"
"$GPGGA,131548,2424.1510,N,08111.4758,W,1,8,1.9,20,"
"##MN-00 00 57 0116 01949 5746 444490 349606 199"
"158.552627"
"$GPGGA,131552,2424.1531,N,08111.4755,W,1,8,1.9,20,"
"##MN-00 00 57 0117 01950 5746 444578 349652 199"
"158.552674"
"$GPGGA,131556,2424.1550,N,08111.4753,W,1,8,1.9,21,"
"##MN-00 00 57 0118 01957 5746 444629 349647 199"
"158.55272"
"$GPGGA,131600,2424.1570,N,08111.4751,W,1,8,1.9,21,"
"##MN-00 00 58 0119 01960 5746 444668 349674 199"
"158.552766"
"$GPGGA,131604,2424.1590,N,08111.4749,W,1,8,1.9,21,"
"##MN-00 00 57 0120 01962 5746 444705 349691 199"
"158.552812"
"$GPGGA,131608,2424.1611,N,08111.4747,W,1,8,1.9,21,"
"##MN-00 00 57 0121 01967 5746 444722 349692 199"
"158.552859"
"$GPGGA,131612,2424.1630,N,08111.4744,W,1,8,1.9,20,"
"##MN-00 00 58 0122 01968 5746 444791 349701 199"
"158.552917"
"$GPGGA,131616,2424.1650,N,08111.4743,W,1,8,1.9,20,"
"##MN-00 00 55 0123 01970 5745 444880 349717 199"
"158.552963"
"$GPGGA,131620,2424.1669,N,08111.4741,W,1,8,1.9,20,"
"##MN-00 00 56 0124 01967 5745 444935 349729 199"
"158.553009"
"$GPGGA,131624,2424.1690,N,08111.4739,W,1,8,2.0,20,"
"##MN-00 00 55 0126 01970 5745 444947 349734 199"
"158.553056"
"$GPGGA,131628,2424.1709,N,08111.4736,W,1,8,1.9,20,"
"##MN-00 00 56 0127 01969 5744 444914 349745 199"
"158.553102"
"$GPGGA,131632,2424.1730,N,08111.4733,W,1,8,1.9,20,"
"##MN-00 00 55 0128 01968 5744 444876 349754 199"
"158.553148"
"$GPGGA,131636,2424.1751,N,08111.4731,W,1,8,1.9,20,"
"##MN-00 00 56 0129 01970 5743 444853 349749 199"
"158.553194"
"$GPGGA,131640,2424.1770,N,08111.4728,W,1,8,1.9,20,"
"##MN-00 00 55 0130 01968 5743 444848 349746 199"
"158.553241"
"$GPGGA,131644,2424.1790,N,08111.4726,W,1,8,1.9,20,"
"##MN-00 00 56 0131 01968 5743 444927 349753 199"
"158.553287"
"$GPGGA,131648,2424.1810,N,08111.4723,W,1,8,1.9,20,"
"##MN-00 00 55 0132 01969 5742 444959 349775 199"
"158.553333"
"$GPGGA,131652,2424.1828,N,08111.4720,W,1,8,1.9,20,"
"##MN-00 00 57 0133 01969 5742 444960 349780 199"
"158.55338"
"$GPGGA,131656,2424.1849,N,08111.4718,W,1,8,1.9,19,"
"##MN+00 00 55 0134 01969 5741 444929 349779 199"
"158.553426"
"$GPGGA,131700,2424.1868,N,08111.4713,W,1,8,1.9,19,"
"##MN+00 00 56 0135 01970 5741 444925 349775 199"
"158.553472"
"$GPGGA,131704,2424.1889,N,08111.4709,W,1,8,1.9,19,"
"##MN+00 00 55 0136 01970 5740 444927 349775 199"
"158.553519"
"$GPGGA,131708,2424.1908,N,08111.4705,W,1,8,1.9,19,"
"##MN-00 00 56 0137 01972 5739 444959 349778 199"
"158.553565"
"$GPGGA,131712,2424.1928,N,08111.4702,W,1,8,1.9,19,"
"##MN+00 00 56 0138 01971 5739 444976 349781 199"
"158.553611"
"$GPGGA,131716,2424.1947,N,08111.4698,W,1,8,1.9,19,"
"##MN+00 00 56 0139 01971 5738 444969 349788 199"
"158.553657"
"$GPGGA,131720,2424.1969,N,08111.4695,W,1,8,1.9,18,"
"##MN+00 00 58 0140 01972 5738 444983 349790 199"
"158.553704"
"$GPGGA,131724,2424.1987,N,08111.4691,W,1,8,1.9,18,"
"##MN-00 00 58 0141 01970 5737 445023 349797 199"
"158.55375"
"$GPGGA,131728,2424.2008,N,08111.4688,W,1,8,1.9,18,"
"##MN-00 00 57 0142 01970 5736 445052 349801 199"
"158.553796"
"$GPGGA,131732,2424.2027,N,08111.4684,W,1,8,1.9,18,"
"##MN-00 00 58 0143 01972 5736 445061 349806 199"
"158.553843"
"#increment_net"
"$GPGGA,131736,2424.2047,N,08111.4680,W,1,8,1.9,18,"
"##MN-00 00 57 0144 01971 5735 445044 349812 199"
"158.553889"
"$GPGGA,131740,2424.2066,N,08111.4676,W,1,8,1.9,17,"
"##MN-00 00 57 0145 01971 5734 445043 349809 199"
"158.553935"
"$GPGGA,131744,2424.2085,N,08111.4672,W,1,8,1.9,17,"
"##MN-00 00 57 0146 01972 5733 445032 349812 199"
"158.553981"
"$GPGGA,131748,2424.2105,N,08111.4668,W,1,8,1.9,17,"
"##MN-00 00 57 0147 01973 5733 445024 349810 199"
"158.554028"
"$GPGGA,131752,2424.2126,N,08111.4666,W,1,8,1.9,17,"
"##MN-00 00 57 0148 01972 5732 445008 349810 199"
"158.554074"
"$GPGGA,131756,2424.2146,N,08111.4662,W,1,8,1.9,16,"
"##MN-00 00 57 0149 01968 5731 444970 349804 199"
"158.55412"
"$GPGGA,131800,2424.2166,N,08111.4660,W,1,8,1.9,16,"
"##MN-00 00 57 0150 01970 5731 444950 349792 199"
"158.554167"
"$GPGGA,131804,2424.2181,N,08111.4657,W,1,8,1.9,16,"
"##MN-00 00 57 0152 01971 5730 444947 349789 199"
"158.554213"
"$GPGGA,131808,2424.2204,N,08111.4651,W,1,8,1.9,16,"
"##MN-00 00 57 0153 01970 5729 444935 349789 199"
"158.554259"
"$GPGGA,131812,2424.2225,N,08111.4647,W,1,8,1.9,16,"
"##MN-00 00 57 0154 01971 5728 444916 349783 199"
"158.554306"
"$GPGGA,131816,2424.2243,N,08111.4643,W,1,8,1.9,16,"
"##MN-00 00 57 0155 01972 5727 444902 349778 199"
"158.554352"
"$GPGGA,131820,2424.2264,N,08111.4638,W,1,8,1.9,16,"
"##MN-00 00 57 0156 01972 5726 444901 349776 199"
"158.554398"
"$GPGGA,131824,2424.2283,N,08111.4634,W,1,8,1.9,16,"
"##MN-00 00 57 0157 01971 5725 444895 349775 199"
"158.554444"
"$GPGGA,131828,2424.2303,N,08111.4630,W,1,8,1.9,16,"
"##MN-00 00 57 0158 01973 5725 444897 349773 199"
"158.554491"
"$GPGGA,131832,2424.2322,N,08111.4626,W,1,8,1.9,16,"
"##MN-00 00 57 0159 01971 5723 444897 349774 199"
"158.554537"
"$GPGGA,131836,2424.2341,N,08111.4621,W,1,8,1.9,16,"
"##MN-00 00 57 0160 01971 5723 444909 349774 199"
"158.554583"
"$GPGGA,131840,2424.2361,N,08111.4617,W,1,8,1.9,16,"
"##MN-00 00 57 0161 01972 5722 444925 349775 199"
"158.55463"
"$GPGGA,131844,2424.2379,N,08111.4614,W,1,8,1.9,16,"
"##MN-00 00 57 0162 01970 5721 444934 349776 199"
"158.554676"
"$GPGGA,131848,2424.2398,N,08111.4609,W,1,8,1.9,16,"
"##MN-00 00 56 0163 01971 5720 444948 349782 199"
"158.554722"
"$GPGGA,131852,2424.2419,N,08111.4608,W,1,8,1.9,16,"
"##MN-00 00 56 0164 01972 5719 444951 349781 199"
"158.554769"
"$GPGGA,131856,2424.2439,N,08111.4606,W,1,8,1.9,16,"
"##MN-00 00 57 0165 01971 5718 444954 349783 199"
"158.554815"
"$GPGGA,131900,2424.2459,N,08111.4600,W,1,8,1.9,16,"
"##MN-00 00 56 0166 01971 5717 444959 349785 199"
"158.554861"
"$GPGGA,131904,2424.2478,N,08111.4595,W,1,8,1.9,16,"
"##MN-00 00 57 0167 01971 5716 444969 349787 199"
"158.554907"
"$GPGGA,131908,2424.2499,N,08111.4590,W,1,8,1.9,16,"
"##MN-00 00 57 0168 01972 5715 444975 349791 199"
"158.554954"
"$GPGGA,131912,2424.2518,N,08111.4585,W,1,8,1.9,16,"
"##MN+00 00 57 0169 01973 5714 444984 349792 199"
"158.555"
"$GPGGA,131916,2424.2538,N,08111.4580,W,1,8,1.9,16,"
"##MN+00 00 57 0170 01974 5713 444993 349794 199"
"158.555046"
"$GPGGA,131920,2424.2558,N,08111.4575,W,1,8,1.9,16,"
"##MN+00 00 57 0171 01974 5712 445008 349798 199"
"158.555093"
"$GPGGA,131924,2424.2576,N,08111.4571,W,1,8,1.9,16,"
"##MN-00 00 57 0172 01975 5712 445017 349801 199"
"158.555139"
"$GPGGA,131928,2424.2597,N,08111.4567,W,1,8,1.9,16,"
"##MN-00 00 57 0173 01974 5710 445022 349797 199"
"158.555185"
"$GPGGA,131932,2424.2616,N,08111.4563,W,1,8,1.9,16,"
"##MN-00 00 57 0174 01973 5709 445023 349805 199"
"158.555231"
"$GPGGA,131936,2424.2634,N,08111.4559,W,1,8,1.9,16,"
"##MN-00 00 58 0175 01973 5708 445016 349804 199"
"158.555278"
"$GPGGA,131940,2424.2654,N,08111.4554,W,1,8,1.9,16,"
"##MN+00 00 57 0176 01975 5707 445030 349805 199"
"158.555324"
"$GPGGA,131945,2424.2677,N,08111.4549,W,1,8,1.9,16,"
"##MN+00 00 56 0177 01973 5706 445042 349811 199"
"158.55537"
"$GPGGA,131949,2424.2697,N,08111.4546,W,1,8,1.9,16,"
"##MN+00 00 64 0178 01976 5705 445050 349811 199"
"158.555417"
"#increment_net"
"$GPGGA,131952,2424.2710,N,08111.4543,W,1,8,1.9,16,"
"##MN-00 00 59 0179 01977 5704 445063 349812 199"
"158.555463"
"$GPGGA,131957,2424.2735,N,08111.4538,W,1,8,1.9,16,"
"##MN-00 00 55 0180 01973 5704 445046 349813 199"
"158.555509"
"$GPGGA,132001,2424.2753,N,08111.4533,W,1,8,1.9,16,"
"##MN-00 00 54 0181 01973 5702 445028 349812 199"
"158.555556"
"$GPGGA,132005,2424.2773,N,08111.4529,W,1,8,1.9,16,"
"##MN-00 00 54 0182 01969 5701 445023 349811 199"
"158.555602"
"$GPGGA,132009,2424.2792,N,08111.4524,W,1,8,1.9,16,"
"##MN-00 00 53 0184 01968 5700 445018 349811 199"
"158.555648"
"$GPGGA,132013,2424.2811,N,08111.4520,W,1,8,1.9,16,"
"##MN-00 00 53 0185 01967 5699 445020 349810 199"
"158.555694"
"$GPGGA,132017,2424.2829,N,08111.4515,W,1,8,1.9,16,"
"##MN-00 00 53 0186 01967 5698 445015 349811 199"
"158.555741"
"$GPGGA,132021,2424.2847,N,08111.4511,W,1,8,1.9,16,"
"##MN-00 00 54 0187 01968 5697 445025 349811 199"
"158.555787"
"$GPGGA,132025,2424.2865,N,08111.4508,W,1,8,1.9,16,"
"##MN-00 00 53 0188 01966 5696 445025 349811 199"
"158.555833"
"$GPGGA,132029,2424.2885,N,08111.4502,W,1,8,1.9,16,"
"##MN-00 00 54 0189 01967 5695 445030 349812 199"
"158.55588"
"$GPGGA,132033,2424.2904,N,08111.4497,W,1,8,1.9,16,"
"##MN-00 00 54 0190 01967 5694 445027 349814 199"
"158.555926"
"$GPGGA,132037,2424.2923,N,08111.4492,W,1,8,1.9,16,"
"##MN-00 00 54 0191 01967 5693 444962 349815 199"
"158.555972"
"$GPGGA,132041,2424.2941,N,08111.4487,W,1,8,1.9,15,"
"##MN-00 00 54 0192 01966 5691 444958 349815 199"
"158.556019"
"$GPGGA,132045,2424.2961,N,08111.4482,W,1,8,1.9,15,"
"##MN-00 00 54 0193 01966 5691 444995 349815 199"
"158.556065"
"$GPGGA,132049,2424.2980,N,08111.4477,W,1,8,1.9,15,"
"##MN-00 00 54 0194 01967 5690 445033 349816 199"
"158.556111"
"$GPGGA,132053,2424.2999,N,08111.4472,W,1,8,1.9,15,"
"##MN-00 00 54 0195 01967 5688 445046 349815 199"
"158.556169"
"$GPGGA,132057,2424.3017,N,08111.4467,W,1,8,1.9,15,"
"##MN-00 00 54 0196 01966 5687 445046 349817 199"
"158.556215"
"$GPGGA,132101,2424.3035,N,08111.4462,W,1,8,1.9,15,"
"##MN-00 00 54 0197 01965 5686 445050 349818 199"
"158.556262"
"$GPGGA,132105,2424.3053,N,08111.4458,W,1,8,1.9,15,"
"##MN-00 00 54 0198 01965 5685 445060 349818 199"
"158.556308"
"$GPGGA,132109,2424.3071,N,08111.4454,W,1,8,1.9,15,"
"##MN-00 00 54 0199 01967 5684 445059 349818 199"
"158.556354"
"$GPGGA,132113,2424.3089,N,08111.4449,W,1,8,1.9,15,"
"##MN-00 00 55 0200 01968 5683 445055 349821 199"
"158.5564"
"$GPGGA,132117,2424.3109,N,08111.4444,W,1,8,1.9,15,"
"##MN-00 00 55 0201 01970 5682 445052 349821 199"
"158.556447"
"$GPGGA,132121,2424.3129,N,08111.4441,W,1,8,1.9,15,"
"##MN-00 00 55 0202 01972 5681 445057 349820 199"
"158.556493"
"$GPGGA,132125,2424.3149,N,08111.4440,W,1,8,1.9,15,"
"##MN-00 00 55 0203 01978 5680 445079 349823 199"
"158.556539"
"$GPGGA,132129,2424.3168,N,08111.4435,W,1,8,1.9,16,"
"##MN-00 00 55 0204 01979 5679 445094 349825 199"
"158.556586"
"$GPGGA,132133,2424.3186,N,08111.4431,W,1,8,1.9,16,"
"##MN+00 00 54 0205 01978 5678 445097 349824 199"
"158.556632"
"$GPGGA,132137,2424.3205,N,08111.4426,W,1,8,1.9,16,"
"##MN+00 00 54 0206 01977 5677 445106 349827 198"
"158.556678"
"$GPGGA,132141,2424.3225,N,08111.4421,W,1,8,1.9,16,"
"##MN+00 00 54 0207 01977 5676 445106 349830 198"
"158.556725"
"$GPGGA,132145,2424.3243,N,08111.4416,W,1,8,1.9,16,"
"##MN-00 00 54 0208 01978 5674 445122 349833 199"
"158.556771"
"$GPGGA,132149,2424.3262,N,08111.4412,W,1,8,1.9,16,"
"##MN+00 00 54 0209 01978 5674 445123 349835 199"
"158.556817"
"$GPGGA,132153,2424.3280,N,08111.4407,W,1,8,1.9,16,"
"##MN+00 00 54 0210 01979 5672 445128 349836 199"
"158.556863"
"$GPGGA,132157,2424.3298,N,08111.4402,W,1,8,1.9,16,"
"##MN+00 00 65 0211 01981 5671 445135 349840 198"
"158.55691"
"#increment_net"
"$GPGGA,132201,2424.3316,N,08111.4398,W,1,8,1.9,16,"
"##MN-00 00 59 0212 01981 5670 445138 349841 199"
"158.556956"
"$GPGGA,132205,2424.3335,N,08111.4393,W,1,8,1.9,16,"
"##MN-00 00 55 0213 01981 5670 445129 349841 199"
"158.557002"
"$GPGGA,132209,2424.3353,N,08111.4388,W,1,8,1.9,16,"
"##MN-00 00 54 0214 01981 5668 445108 349838 199"
"158.557049"
"$GPGGA,132213,2424.3371,N,08111.4384,W,1,8,1.9,16,"
"##MN-00 00 53 0215 01979 5667 445096 349835 199"
"158.557095"
"$GPGGA,132217,2424.3389,N,08111.4379,W,1,8,1.9,16,"
"##MN-00 00 53 0216 01977 5666 445095 349834 199"
"158.557141"
"$GPGGA,132221,2424.3409,N,08111.4375,W,1,8,1.9,16,"
"##MN-00 00 52 0217 01971 5665 445098 349835 199"
"158.557188"
"$GPGGA,132225,2424.3427,N,08111.4368,W,1,8,1.9,16,"
"##MN-00 00 53 0218 01970 5663 445097 349836 199"
"158.557234"
"$GPGGA,132229,2424.3446,N,08111.4363,W,1,8,1.9,16,"
"##MN-00 00 54 0220 01970 5662 445095 349846 199"
"158.55728"
"$GPGGA,132233,2424.3464,N,08111.4357,W,1,8,1.9,15,"
"##MN-00 00 54 0221 01967 5661 445096 349842 199"
"158.557326"
"$GPGGA,132237,2424.3482,N,08111.4352,W,1,8,1.9,15,"
"##MN-00 00 54 0222 01970 5660 445105 349843 199"
"158.557373"
"$GPGGA,132241,2424.3499,N,08111.4347,W,1,8,1.9,15,"
"##MN-00 00 53 0223 01972 5659 445105 349842 199"
"158.557419"
"$GPGGA,132245,2424.3517,N,08111.4342,W,1,8,1.9,15,"
"##MN-00 00 53 0224 01972 5658 445118 349842 199"
"158.557465"
"$GPGGA,132249,2424.3535,N,08111.4339,W,1,8,1.9,15,"
"##MN-00 00 53 0225 01969 5657 445109 349842 199"
"158.557512"
"$GPGGA,132253,2424.3553,N,08111.4333,W,1,8,1.9,15,"
"##MN-00 00 54 0226 01971 5656 445111 349843 199"
"158.557558"
"$GPGGA,132257,2424.3570,N,08111.4328,W,1,8,1.9,15,"
"##MN-00 00 54 0227 01972 5655 445116 349853 199"
"158.557604"
"$GPGGA,132301,2424.3590,N,08111.4322,W,1,8,1.9,15,"
"##MN-00 00 54 0228 01973 5654 445116 349856 199"
"158.55765"
"$GPGGA,132305,2424.3609,N,08111.4317,W,1,8,1.9,15,"
"##MN-00 00 53 0229 01973 5653 445118 349864 199"
"158.557697"
"$GPGGA,132309,2424.3627,N,08111.4311,W,1,8,1.9,15,"
"##MN-00 00 54 0230 01972 5652 445120 349865 199"
"158.557743"
"$GPGGA,132313,2424.3645,N,08111.4306,W,1,8,1.9,15,"
"##MN-00 00 53 0231 01972 5650 445118 349868 199"
"158.557789"
"$GPGGA,132317,2424.3663,N,08111.4301,W,1,8,1.9,15,"
"##MN-00 00 53 0232 01972 5649 445121 349870 199"
"158.557836"
"$GPGGA,132321,2424.3684,N,08111.4296,W,1,8,1.9,15,"
"##MN-00 00 53 0233 01972 5648 445130 349869 199"
"158.557882"
"$GPGGA,132325,2424.3703,N,08111.4290,W,1,8,1.9,14,"
"##MN-00 00 54 0234 01972 5647 445148 349882 199"
"158.557928"
"$GPGGA,132329,2424.3721,N,08111.4285,W,1,8,1.9,14,"
"##MN+00 00 53 0235 01973 5646 445167 349903 199"
"158.557975"
"$GPGGA,132333,2424.3741,N,08111.4278,W,1,8,1.9,14,"
"##MN+00 00 53 0236 01973 5645 445195 349912 198"
"158.558021"
"$GPGGA,132337,2424.3760,N,08111.4273,W,1,8,1.9,14,"
"##MN+00 00 53 0237 01973 5644 445212 349918 198"
"158.558067"
"$GPGGA,132341,2424.3779,N,08111.4267,W,1,8,1.9,14,"
"##MN-00 00 53 0238 01970 5643 445233 349927 197"
"158.558113"
"$GPGGA,132345,2424.3797,N,08111.4262,W,1,8,1.9,14,"
"##MN-00 00 54 0239 01971 5642 445246 349928 197"
"158.55816"
"$GPGGA,132349,2424.3815,N,08111.4256,W,1,8,1.9,14,"
"##MN-00 00 54 0240 01970 5640 445260 349939 197"
"158.558206"
"$GPGGA,132353,2424.3835,N,08111.4250,W,1,8,1.9,14,"
"##MN-00 00 54 0241 01972 5639 445263 349948 197"
"158.558252"
"$GPGGA,132357,2424.3855,N,08111.4244,W,1,8,1.9,14,"
"##MN+00 00 53 0242 01970 5639 445274 349956 197"
"158.558299"
"$GPGGA,132401,2424.3873,N,08111.4238,W,1,8,1.9,14,"
"##MN+00 00 53 0243 01970 5637 445276 349963 198"
"158.558345"
"$GPGGA,132405,2424.3894,N,08111.4233,W,1,8,1.9,14,"
"##MN+00 00 65 0244 01977 5636 445270 349965 198"
"158.558391"
"#increment_net"
"$GPGGA,132409,2424.3913,N,08111.4227,W,1,8,1.9,14,"
"##MN-00 00 59 0245 01973 5635 445242 349951 198"
"158.558438"
"$GPGGA,132413,2424.3933,N,08111.4222,W,1,8,1.9,14,"
"##MN-00 00 56 0246 01973 5634 445229 349945 198"
"158.558484"
"$GPGGA,132418,2424.3958,N,08111.4215,W,1,8,1.9,14,"
"##MN-00 00 55 0248 01971 5633 445239 349944 198"
"158.55853"
"$GPGGA,132422,2424.3977,N,08111.4210,W,1,8,1.9,14,"
"##MN-00 00 54 0249 01972 5632 445267 349955 198"
"158.558576"
"$GPGGA,132426,2424.3996,N,08111.4203,W,1,8,1.9,14,"
"##MN-00 00 52 0250 01971 5631 445260 349957 198"
"158.558623"
"$GPGGA,132430,2424.4017,N,08111.4197,W,1,8,1.9,15,"
"##MN-00 00 53 0251 01972 5630 445245 349950 198"
"158.558669"
"$GPGGA,132434,2424.4038,N,08111.4192,W,1,8,1.9,15,"
"##MN-00 00 53 0252 01973 5629 445234 349946 198"
"158.558715"
"$GPGGA,132437,2424.4052,N,08111.4189,W,1,8,1.9,15,"
"##MN-00 00 53 0253 01969 5628 445229 349943 198"
"158.558762"
"$GPGGA,132441,2424.4072,N,08111.4184,W,1,8,1.9,15,"
"##MN-00 00 54 0254 01971 5627 445226 349938 198"
"158.558808"
"$GPGGA,132445,2424.4092,N,08111.4179,W,1,8,1.9,15,"
"##MN-00 00 53 0255 01973 5626 445228 349934 198"
"158.558854"
"$GPGGA,132450,2424.4117,N,08111.4172,W,1,8,1.9,15,"
"##MN-00 00 53 0256 01975 5625 445228 349936 198"
"158.5589"
"$GPGGA,132454,2424.4136,N,08111.4168,W,1,8,1.9,15,"
"##MN-00 00 53 0257 01971 5623 445234 349940 198"
"158.558947"
"$GPGGA,132458,2424.4155,N,08111.4163,W,1,8,1.9,15,"
"##MN-00 00 54 0258 01971 5622 445236 349941 198"
"158.558993"
"$GPGGA,132502,2424.4176,N,08111.4158,W,1,8,1.9,15,"
"##MN-00 00 54 0259 01972 5621 445237 349942 198"
"158.559039"
"$GPGGA,132506,2424.4195,N,08111.4153,W,1,8,1.9,15,"
"##MN-00 00 53 0260 01970 5621 445239 349942 198"
"158.559086"
"$GPGGA,132510,2424.4216,N,08111.4149,W,1,8,1.9,15,"
"##MN-00 00 53 0262 01970 5619 445241 349943 198"
"158.559132"
"$GPGGA,132514,2424.4237,N,08111.4144,W,1,8,1.9,15,"
"##MN-00 00 54 0263 01969 5619 445264 349953 198"
"158.559178"
"$GPGGA,132518,2424.4258,N,08111.4139,W,1,8,1.9,15,"
"##MN-00 00 54 0264 01967 5617 445337 349989 198"
"158.559225"
"$GPGGA,132522,2424.4278,N,08111.4134,W,1,8,1.9,15,"
"##MN-00 00 54 0265 01966 5616 445430 350029 198"
"158.559271"
"$GPGGA,132526,2424.4301,N,08111.4130,W,1,8,1.9,15,"
"##MN-00 00 54 0266 01966 5615 445479 350076 198"
"158.559317"
"$GPGGA,132530,2424.4323,N,08111.4124,W,1,7,2.1,15,"
"##MN-00 00 53 0267 01966 5614 445516 350112 198"
"158.559363"
"$GPGGA,132534,2424.4343,N,08111.4119,W,1,7,2.1,15,"
"##MN-00 00 54 0268 01966 5613 445515 350124 198"
"158.559421"
"$GPGGA,132538,2424.4366,N,08111.4115,W,1,8,2.1,14,"
"##MN+00 00 54 0269 01965 5612 445516 350126 198"
"158.559468"
"$GPGGA,132542,2424.4382,N,08111.4112,W,1,8,1.9,14,"
"##MN+00 00 54 0270 01965 5611 445526 350133 198"
"158.559514"
"$GPGGA,132546,2424.4411,N,08111.4107,W,1,8,1.9,14,"
"##MN+00 00 54 0272 01967 5610 445524 350134 198"
"158.55956"
"$GPGGA,132550,2424.4433,N,08111.4104,W,1,8,1.9,14,"
"##MN-00 00 55 0273 01969 5609 445520 350132 198"
"158.559606"
"$GPGGA,132554,2424.4449,N,08111.4099,W,1,8,1.6,15,"
"##MN-00 00 56 0274 01973 5608 445524 350129 198"
"158.559653"
"$GPGGA,132558,2424.4473,N,08111.4091,W,1,7,1.6,15,"
"##MN+00 00 54 0275 01971 5607 445495 350113 198"
"158.559699"
"$GPGGA,132602,2424.4494,N,08111.4085,W,1,7,1.8,15,"
"##MN+00 00 54 0276 01970 5606 445447 350082 198"
"158.559745"
"$GPGGA,132606,2424.4516,N,08111.4078,W,1,7,1.8,16,"
"##MN+00 00 68 0277 01973 5605 445439 350072 197"
"158.559792"
"$GPGGA,132610,2424.4538,N,08111.4072,W,1,7,1.8,16,"
"##MN-00 00 64 0278 01976 5604 445429 350064 198"
"158.559838"
"#increment_net"
"$GPGGA,132614,2424.4561,N,08111.4066,W,1,7,1.8,16,"
"##MN-00 00 60 0280 01981 5603 445417 350049 198"
"158.559884"
"$GPGGA,132618,2424.4583,N,08111.4061,W,1,7,1.8,16,"
"##MN-00 00 58 0281 01987 5602 445408 350037 198"
"158.559931"
"$GPGGA,132622,2424.4606,N,08111.4056,W,1,7,1.8,16,"
"##MN-00 00 57 0282 01992 5601 445367 350018 198"
"158.559977"
"$GPGGA,132626,2424.4632,N,08111.4058,W,1,8,1.6,17,"
"##MN-00 00 55 0284 01996 5600 445310 349992 198"
"158.560023"
"$GPGGA,132630,2424.4657,N,08111.4054,W,1,7,1.8,17,"
"##MN-00 00 54 0285 02000 5599 445270 349943 198"
"158.560069"
"$GPGGA,132634,2424.4682,N,08111.4053,W,1,7,1.6,18,"
"##MN-00 00 54 0287 01998 5598 445261 349934 198"
"158.560116"
"$GPGGA,132638,2424.4708,N,08111.4050,W,1,8,1.6,18,"
"##MN-00 00 55 0288 01996 5597 445265 349923 198"
"158.560162"
"$GPGGA,132642,2424.4731,N,08111.4044,W,1,7,1.8,18,"
"##MN-00 00 55 0289 01993 5595 445271 349922 198"
"158.560208"
"$GPGGA,132646,2424.4754,N,08111.4039,W,1,7,1.6,18,"
"##MN-00 00 54 0291 01989 5595 445272 349923 198"
"158.560255"
"$GPGGA,132650,2424.4779,N,08111.4037,W,1,8,1.7,18,"
"##MN-00 00 53 0292 01986 5594 445278 349923 198"
"158.560301"
"$GPGGA,132654,2424.4801,N,08111.4029,W,1,8,1.8,18,"
"##MN-00 00 55 0294 01984 5593 445279 349924 198"
"158.560347"
"$GPGGA,132658,2424.4825,N,08111.4024,W,1,8,1.8,18,"
"##MN-00 00 54 0295 01979 5592 445264 349925 198"
"158.560394"
"$GPGGA,132702,2424.4848,N,08111.4022,W,1,8,1.6,18,"
"##MN-00 00 53 0297 01975 5591 445257 349927 198"
"158.56044"
"$GPGGA,132706,2424.4873,N,08111.4018,W,1,9,1.6,17,"
"##MN-00 00 54 0298 01970 5590 445262 349934 198"
"158.560486"
"$GPGGA,132710,2424.4897,N,08111.4016,W,1,8,1.8,17,"
"##MN-00 00 54 0299 01968 5589 445299 349959 198"
"158.560532"
"$GPGGA,132714,2424.4920,N,08111.4012,W,1,8,1.8,17,"
"##MN-00 00 53 0301 01963 5587 445359 349980 198"
"158.560579"
"$GPGGA,132718,2424.4942,N,08111.4007,W,1,8,2.0,17,"
"##MN-00 00 52 0302 01960 5587 445416 350016 198"
"158.560625"
"$GPGGA,132722,2424.4966,N,08111.4001,W,1,8,1.8,16,"
"##MN-00 00 55 0304 01954 5586 445467 350052 198"
"158.560671"
"$GPGGA,132726,2424.4991,N,08111.3997,W,1,7,1.8,16,"
"##MN-00 00 53 0305 01949 5585 445502 350090 198"
"158.560718"
"$GPGGA,132730,2424.5014,N,08111.3995,W,1,8,1.8,15,"
"##MN-00 00 54 0306 01946 5584 445403 350102 198"
"158.560764"
"$GPGGA,132734,2424.5039,N,08111.3990,W,1,8,1.8,15,"
"##MN-00 00 53 0308 01942 5583 445198 350066 198"
"158.56081"
"$GPGGA,132738,2424.5064,N,08111.3986,W,1,8,1.8,15,"
"##MN-00 00 53 0309 01937 5582 445037 350026 198"
"158.560857"
"$GPGGA,132742,2424.5089,N,08111.3983,W,1,8,1.8,14,"
"##MN-00 00 52 0311 01931 5581 444893 349982 198"
"158.560903"
"$GPGGA,132746,2424.5112,N,08111.3981,W,1,8,1.8,14,"
"##MN-00 00 54 0312 01927 5580 444790 349921 198"
"158.560949"
"$GPGGA,132750,2424.5137,N,08111.3978,W,1,8,1.8,14,"
"##MN-00 00 54 0314 01921 5579 444734 349894 198"
"158.560995"
"$GPGGA,132754,2424.5162,N,08111.3974,W,1,8,1.6,14,"
"##MN-00 00 53 0315 01917 5579 444680 349874 198"
"158.561042"
"$GPGGA,132758,2424.5186,N,08111.3971,W,1,8,2.0,14,"
"##MN-00 00 56 0317 01911 5578 444630 349848 198"
"158.561088"
"$GPGGA,132802,2424.5206,N,08111.3962,W,1,8,1.8,14,"
"##MN-00 00 54 0318 01906 5576 444599 349830 198"
"158.561134"
"$GPGGA,132806,2424.5230,N,08111.3959,W,1,8,1.6,14,"
"##MN-00 00 53 0320 01905 5575 444588 349824 198"
"158.561181"
"$GPGGA,132810,2424.5255,N,08111.3956,W,1,8,1.6,14,"
"##MN-00 00 55 0321 01896 5574 444575 349821 198"
"158.561227"
"$GPGGA,132814,2424.5280,N,08111.3952,W,1,8,1.8,14,"
"##MN-00 00 53 0322 01891 5573 444572 349817 198"
"158.561273"
"$GPGGA,132818,2424.5303,N,08111.3944,W,1,8,1.8,15,"
"##MN-00 00 52 0324 01889 5573 444561 349818 198"
"158.561319"
"$GPGGA,132822,2424.5329,N,08111.3942,W,1,9,1.6,15,"
"##MN-00 00 55 0325 01884 5572 444555 349818 198"
"158.561366"
"$GPGGA,132826,2424.5358,N,08111.3937,W,1,8,1.6,16,"
"##MN-00 00 55 0327 01878 5571 444549 349816 198"
"158.561412"
"$GPGGA,132830,2424.5385,N,08111.3933,W,1,9,1.8,16,"
"##MN-00 00 53 0328 01874 5570 444490 349799 198"
"158.561458"
"$GPGGA,132834,2424.5412,N,08111.3929,W,1,9,1.8,17,"
"##MN-00 00 54 0330 01869 5569 444419 349778 198"
"158.561505"
"$GPGGA,132838,2424.5437,N,08111.3925,W,1,9,1.6,18,"
"##MN-00 00 53 0331 01865 5568 444344 349753 198"
"158.561551"
"$GPGGA,132842,2424.5462,N,08111.3921,W,1,9,1.8,18,"
"##MN-00 00 53 0332 01863 5567 444215 349720 198"
"158.561597"
"$GPGGA,132846,2424.5486,N,08111.3916,W,1,9,1.6,19,"
"##MN-00 00 55 0334 01861 5566 444113 349676 198"
"158.561644"
"$GPGGA,132850,2424.5509,N,08111.3911,W,1,9,1.6,19,"
"##MN-00 00 52 0335 01861 5565 443999 349644 198"
"158.56169"
"$GPGGA,132855,2424.5538,N,08111.3903,W,1,8,1.6,20,"
"##MN-00 00 51 0336 01858 5565 443723 349558 198"
"158.561736"
"$GPGGA,132859,2424.5567,N,08111.3901,W,1,8,1.8,20,"
"##MN-00 00 54 0338 01861 5564 443706 349533 198"
"158.561782"
"$GPGGA,132903,2424.5592,N,08111.3898,W,1,9,1.6,20,"
"##MN-00 00 52 0339 01861 5563 443670 349529 198"
