" Tow: L5s-B   RVWS/WS1406"
" Date: 06/07/2014"
" Temperature Probe #  2597    Conductivity Probe #  2870"
" Pressure Probe #  109"
" Flow Meter Calibration  4.71 (m/count)  "
"158.807894"
"$GPGGA,192315,2423.8490,N,08056.3725,W,1,11,1.5,14"
"##MN-00 00 90 0677 01853 6040 048573 914175 198"
"158.80794"
"$GPGGA,192323,2423.8445,N,08056.3685,W,1,11,1.5,14"
"##MN-00 00 90 0677 01855 6041 378314 914534 198"
"158.807986"
"$GPGGA,192327,2423.8425,N,08056.3665,W,1,11,1.5,14"
"##MN-00 00 90 0677 01853 6042 378528 914543 198"
"158.808032"
"$GPGGA,192331,2423.8402,N,08056.3647,W,1,11,1.5,14"
"##MN-00 00 90 0677 01854 6043 377732 914536 198"
"158.808079"
"$GPGGA,192335,2423.8382,N,08056.3628,W,1,11,1.5,14"
"##MN-00 00 90 0677 01854 6044 376490 914534 198"
"158.808125"
"$GPGGA,192339,2423.8360,N,08056.3609,W,1,11,1.5,14"
"##MN-00 00 90 0677 01854 6044 373900 914532 198"
"158.808171"
"$GPGGA,192343,2423.8338,N,08056.3591,W,1,11,1.5,14"
"##MN-00 00 90 0677 01855 6045 372595 914529 198"
"158.808218"
"$GPGGA,192347,2423.8324,N,08056.3577,W,1,11,1.5,14"
"##MN-00 00 90 0677 01855 6046 374635 914525 198"
"158.808264"
"$GPGGA,192351,2423.8306,N,08056.3562,W,1,11,1.5,14"
"##MN-00 00 90 0677 01854 6047 376037 914523 198"
"158.80831"
"$GPGGA,192355,2423.8279,N,08056.3541,W,1,11,1.5,14"
"##MN-00 00 90 0677 01853 6048 375840 914516 198"
"158.808356"
"$GPGGA,192359,2423.8259,N,08056.3526,W,1,11,1.5,14"
"##MN-00 00 90 0677 01853 6049 374875 914511 198"
"158.808403"
"$GPGGA,192403,2423.8238,N,08056.3509,W,1,11,1.5,15"
"##MN-00 00 90 0677 01854 6050 376984 914508 198"
"158.808449"
"$GPGGA,192407,2423.8223,N,08056.3496,W,1,11,1.5,15"
"##MN-00 00 90 0677 01855 6051 377366 914506 198"
"158.808495"
"$GPGGA,192411,2423.8195,N,08056.3476,W,1,11,1.5,15"
"##MN-00 00 90 0677 01853 6051 377128 914506 198"
"158.808542"
"$GPGGA,192415,2423.8173,N,08056.3457,W,1,11,1.5,15"
"##MN-00 00 90 0677 01854 6052 376935 914497 198"
"158.808588"
"$GPGGA,192419,2423.8151,N,08056.3438,W,1,11,1.5,15"
"##MN-00 00 90 0677 01855 6053 377206 914499 198"
"158.808634"
"$GPGGA,192423,2423.8129,N,08056.3420,W,1,11,1.5,15"
"##MN-00 00 90 0677 01852 6054 378215 914504 198"
"158.808681"
"$GPGGA,192428,2423.8102,N,08056.3397,W,1,11,1.5,15"
"##MN-00 00 83 0677 01854 6055 379786 914498 198"
"158.808727"
"$GPGGA,192432,2423.8079,N,08056.3380,W,1,11,1.5,15"
"##MN-00 00 66 0677 01855 6056 380447 914440 198"
"158.808773"
"$GPGGA,192436,2423.8056,N,08056.3362,W,1,11,1.5,15"
"##MN-00 00 61 0677 01854 6056 381065 914456 198"
"158.808819"
"$GPGGA,192440,2423.8035,N,08056.3346,W,1,11,1.5,15"
"##MN-00 00 54 0677 01854 6057 381991 914463 198"
"158.808866"
"$GPGGA,192444,2423.8013,N,08056.3330,W,1,10,1.5,15"
"##MN-00 00 37 0677 01854 6058 382911 914463 198"
"158.808912"
"$GPGGA,192448,2423.7995,N,08056.3320,W,1,11,1.7,16"
"##MN-00 00 34 0677 01855 6059 385441 914465 198"
"158.80897"
"$GPGGA,192452,2423.7973,N,08056.3303,W,1,11,1.7,16"
"##MN-00 00 42 0677 01854 6060 387806 914465 198"
"158.809016"
"$GPGGA,192456,2423.7950,N,08056.3286,W,1,10,2.2,16"
"##MN-00 00 49 0678 01854 6061 415811 385655 198"
"158.809062"
"$GPGGA,192500,2423.7930,N,08056.3272,W,1,11,1.5,17"
"##MN-00 00 52 0678 01856 6062 428724 346098 198"
"158.809109"
"$GPGGA,192504,2423.7908,N,08056.3254,W,1,11,1.5,17"
"##MN-00 00 57 0679 01854 6063 429152 343482 198"
"158.809155"
"$GPGGA,192508,2423.7889,N,08056.3236,W,1,11,1.5,18"
"##MN-00 00 57 0681 01854 6064 430663 343592 198"
"158.809201"
"$GPGGA,192512,2423.7872,N,08056.3217,W,1,11,1.5,18"
"##MN-00 00 57 0682 01854 6064 430329 343852 198"
"158.809248"
"$GPGGA,192516,2423.7854,N,08056.3197,W,1,11,1.5,18"
"##MN-00 00 60 0683 01854 6065 430272 343726 198"
"158.809294"
"$GPGGA,192520,2423.7838,N,08056.3177,W,1,11,1.5,18"
"##MN-00 00 57 0684 01854 6066 430158 343884 198"
"158.80934"
"$GPGGA,192524,2423.7822,N,08056.3157,W,1,11,1.5,18"
"##MN-00 00 61 0685 01854 6067 430096 343827 198"
"158.809387"
"$GPGGA,192528,2423.7807,N,08056.3138,W,1,11,1.5,18"
"##MN-00 00 58 0686 01852 6068 430374 344222 198"
"158.809433"
"$GPGGA,192532,2423.7794,N,08056.3120,W,1,11,1.5,18"
"##MN-00 00 59 0687 01853 6068 430661 344350 198"
"158.809479"
"$GPGGA,192536,2423.7782,N,08056.3101,W,1,11,1.7,18"
"##MN-00 00 60 0688 01856 6069 431358 344572 198"
"158.809525"
"$GPGGA,192540,2423.7766,N,08056.3080,W,1,10,1.7,18"
"##MN-00 00 60 0689 01857 6070 432148 344685 198"
"158.809572"
"$GPGGA,192544,2423.7750,N,08056.3062,W,1,10,1.5,18"
"##MN-00 00 59 0690 01862 6071 434275 345324 198"
"158.809618"
"$GPGGA,192548,2423.7737,N,08056.3044,W,1,11,1.7,18"
"##MN-00 00 58 0691 01868 6071 435371 345671 198"
"158.809664"
"$GPGGA,192552,2423.7722,N,08056.3027,W,1,11,1.7,18"
"##MN-00 00 58 0692 01874 6072 435952 345724 198"
"158.809711"
"$GPGGA,192556,2423.7706,N,08056.3008,W,1,10,1.7,18"
"##MN-00 00 60 0693 01877 6072 436325 346023 198"
"158.809757"
"$GPGGA,192600,2423.7690,N,08056.2989,W,1,10,1.7,18"
"##MN-00 00 59 0694 01883 6072 436611 346112 198"
"158.809803"
"$GPGGA,192604,2423.7675,N,08056.2970,W,1,10,1.5,17"
"##MN-00 00 60 0695 01894 6073 436895 346291 198"
"158.80985"
"$GPGGA,192608,2423.7663,N,08056.2953,W,1,10,1.7,17"
"##MN-00 00 60 0696 01899 6073 437161 346479 198"
"158.809896"
"$GPGGA,192612,2423.7649,N,08056.2935,W,1,10,1.5,17"
"##MN-00 00 59 0697 01905 6074 437334 346597 198"
"158.809942"
"$GPGGA,192616,2423.7635,N,08056.2917,W,1,11,1.5,17"
"##MN-00 00 60 0698 01909 6074 437486 346622 198"
"158.809988"
"$GPGGA,192620,2423.7623,N,08056.2898,W,1,11,1.5,17"
"##MN-00 00 59 0698 01917 6074 437556 346706 198"
"158.810035"
"$GPGGA,192624,2423.7609,N,08056.2881,W,1,11,1.6,17"
"##MN-00 00 58 0699 01922 6074 437624 346730 198"
"158.810081"
"$GPGGA,192628,2423.7596,N,08056.2865,W,1,11,1.6,16"
"##MN-00 00 59 0700 01928 6074 437644 346755 198"
"158.810127"
"$GPGGA,192632,2423.7583,N,08056.2849,W,1,11,1.6,16"
"##MN-00 00 60 0701 01936 6075 437687 346785 198"
"158.810174"
"$GPGGA,192636,2423.7572,N,08056.2835,W,1,11,1.6,16"
"##MN-00 00 58 0702 01944 6074 437737 346783 198"
"158.81022"
"$GPGGA,192640,2423.7560,N,08056.2826,W,1,11,1.6,16"
"##MN-00 00 59 0703 01947 6075 437783 346814 198"
"158.810266"
"$GPGGA,192644,2423.7548,N,08056.2812,W,1,10,1.7,16"
"##MN-00 00 58 0704 01954 6074 437812 346814 198"
"158.810313"
"$GPGGA,192648,2423.7540,N,08056.2799,W,1,10,1.9,16"
"##MN-00 00 58 0705 01959 6074 437851 346844 198"
"158.810359"
"$GPGGA,192652,2423.7527,N,08056.2791,W,1,10,1.6,17"
"##MN-00 00 58 0706 01966 6074 437899 346852 198"
"158.810405"
"$GPGGA,192656,2423.7518,N,08056.2778,W,1,10,1.6,17"
"##MN-00 00 58 0707 01972 6074 437954 346867 198"
"158.810451"
"$GPGGA,192700,2423.7509,N,08056.2765,W,1,10,1.6,17"
"##MN-00 00 56 0708 01973 6074 438038 346866 198"
"158.810498"
"$GPGGA,192704,2423.7500,N,08056.2751,W,1,11,1.6,17"
"##MN-00 00 55 0709 01972 6073 438102 346899 198"
"158.810544"
"$GPGGA,192708,2423.7491,N,08056.2741,W,1,11,1.6,17"
"##MN-00 00 54 0710 01970 6073 438102 346919 198"
"158.81059"
"$GPGGA,192712,2423.7483,N,08056.2733,W,1,11,1.6,17"
"##MN-00 00 57 0711 01973 6073 438089 346922 198"
"158.810637"
"$GPGGA,192716,2423.7477,N,08056.2723,W,1,11,1.6,17"
"##MN-00 00 55 0712 01970 6072 438091 346928 198"
"158.810683"
"$GPGGA,192720,2423.7471,N,08056.2714,W,1,11,1.6,17"
"##MN-00 00 57 0713 01970 6071 438125 346943 198"
"158.810729"
"$GPGGA,192724,2423.7464,N,08056.2704,W,1,11,1.6,17"
"##MN-00 00 56 0714 01972 6071 438126 346944 198"
"158.810775"
"$GPGGA,192728,2423.7458,N,08056.2693,W,1,11,1.7,18"
"##MN-00 00 56 0715 01971 6071 438098 346945 198"
"158.810822"
"$GPGGA,192732,2423.7459,N,08056.2685,W,1,10,1.6,18"
"##MN-00 00 54 0716 01968 6070 438086 346939 198"
"158.810868"
"$GPGGA,192736,2423.7454,N,08056.2679,W,1,10,1.6,18"
"##MN-00 00 57 0717 01965 6070 438067 346937 198"
"158.810914"
"$GPGGA,192740,2423.7453,N,08056.2674,W,1,11,1.6,19"
"##MN-00 00 56 0719 01961 6069 438039 346930 198"
"158.810961"
"$GPGGA,192744,2423.7446,N,08056.2671,W,1,10,1.9,19"
"##MN-00 00 59 0720 01953 6068 437988 346923 198"
"158.811007"
"$GPGGA,192748,2423.7439,N,08056.2671,W,1,11,1.6,19"
"##MN-00 00 56 0721 01944 6068 437957 346915 198"
"158.811053"
"$GPGGA,192752,2423.7429,N,08056.2677,W,1,10,1.6,19"
"##MN-00 00 61 0723 01936 6067 437928 346908 198"
"158.8111"
"$GPGGA,192756,2423.7418,N,08056.2688,W,1,11,1.6,20"
"##MN-00 00 61 0724 01929 6067 437873 346896 198"
"158.811146"
"$GPGGA,192800,2423.7404,N,08056.2695,W,1,11,1.6,20"
"##MN-00 00 64 0726 01924 6065 437804 346887 198"
"158.811192"
"$GPGGA,192804,2423.7388,N,08056.2702,W,1,10,1.6,20"
"##MN-00 00 65 0727 01916 6064 437716 346875 198"
"158.811238"
"$GPGGA,192808,2423.7371,N,08056.2706,W,1,11,1.6,20"
"##MN-00 00 66 0729 01910 6064 437601 346846 198"
"158.811285"
"$GPGGA,192812,2423.7352,N,08056.2706,W,1,10,2.2,20"
"##MN-00 00 67 0730 01908 6062 437631 346834 198"
"158.811331"
"$GPGGA,192816,2423.7331,N,08056.2710,W,1,10,1.7,20"
"##MN-00 00 67 0732 01906 6062 437703 346843 198"
"158.811377"
"$GPGGA,192820,2423.7305,N,08056.2704,W,1,11,1.6,20"
"##MN-00 00 68 0733 01907 6061 437762 346850 198"
"158.811424"
"$GPGGA,192824,2423.7280,N,08056.2699,W,1,11,1.6,19"
"##MN-00 00 69 0734 01907 6060 437765 346852 198"
"158.81147"
"$GPGGA,192828,2423.7258,N,08056.2693,W,1,11,1.6,19"
"##MN-00 00 67 0736 01908 6059 437730 346852 198"
"158.811516"
"$GPGGA,192832,2423.7235,N,08056.2686,W,1,11,1.9,19"
"##MN-00 00 68 0737 01909 6058 437679 346844 198"
"158.811563"
"$GPGGA,192836,2423.7219,N,08056.2684,W,1,10,1.9,18"
"##MN-00 00 68 0739 01909 6057 437621 346834 198"
"158.811609"
"$GPGGA,192841,2423.7197,N,08056.2675,W,1,10,1.9,19"
"##MN-00 00 68 0740 01912 6056 437619 346822 198"
"158.811655"
"$GPGGA,192844,2423.7182,N,08056.2669,W,1,10,2.2,19"
"##MN-00 00 66 0741 01916 6055 437672 346821 198"
"158.811701"
"$GPGGA,192848,2423.7162,N,08056.2662,W,1,10,1.6,18"
"##MN-00 00 68 0743 01920 6054 437782 346834 198"
"158.811748"
"$GPGGA,192852,2423.7146,N,08056.2649,W,1,11,1.6,18"
"##MN-00 00 66 0744 01922 6053 437868 346851 198"
"158.811794"
"$GPGGA,192856,2423.7132,N,08056.2634,W,1,10,1.6,18"
"##MN-00 00 66 0745 01929 6052 437951 346874 198"
"158.81184"
"$GPGGA,192900,2423.7118,N,08056.2619,W,1,11,1.6,18"
"##MN-00 00 64 0746 01934 6052 437977 346895 198"
"158.811887"
"$GPGGA,192905,2423.7101,N,08056.2600,W,1,11,1.6,17"
"##MN-00 00 65 0747 01940 6051 437968 346895 198"
"158.811933"
"$GPGGA,192909,2423.7089,N,08056.2587,W,1,11,1.6,17"
"##MN-00 00 63 0749 01945 6050 437961 346892 198"
"158.811979"
"$GPGGA,192913,2423.7077,N,08056.2572,W,1,10,1.9,16"
"##MN-00 00 64 0750 01949 6048 437954 346901 198"
"158.812025"
"$GPGGA,192917,2423.7065,N,08056.2560,W,1,11,1.6,16"
"##MN-00 00 62 0751 01953 6047 437961 346901 198"
"158.812072"
"$GPGGA,192921,2423.7053,N,08056.2547,W,1,11,1.6,16"
"##MN-00 00 62 0752 01956 6046 437963 346904 198"
"158.812118"
"$GPGGA,192925,2423.7043,N,08056.2532,W,1,10,1.9,16"
"##MN-00 00 61 0753 01959 6044 437973 346902 198"
"158.812164"
"$GPGGA,192929,2423.7034,N,08056.2518,W,1,11,1.6,15"
"##MN-00 00 60 0754 01964 6044 437993 346904 198"
"158.812222"
"$GPGGA,192933,2423.7024,N,08056.2511,W,1,10,1.7,15"
"##MN-00 00 62 0755 01966 6042 438004 346908 198"
"158.812268"
"$GPGGA,192937,2423.7017,N,08056.2501,W,1,11,1.6,16"
"##MN-00 00 60 0756 01968 6041 438008 346913 198"
"158.812315"
"$GPGGA,192941,2423.7010,N,08056.2489,W,1,11,1.6,16"
"##MN-00 00 59 0757 01972 6040 438004 346914 198"
"158.812361"
"$GPGGA,192945,2423.7003,N,08056.2471,W,1,11,1.6,17"
"##MN+00 00 59 0758 01976 6039 438011 346912 198"
"158.812407"
"$GPGGA,192949,2423.6996,N,08056.2459,W,1,11,1.6,17"
"##MN+00 00 60 0759 01980 6038 438014 346913 198"
"158.812454"
"$GPGGA,192953,2423.6989,N,08056.2448,W,1,11,1.6,17"
"##MN+00 00 57 0760 01981 6036 438024 346916 198"
"158.8125"
"$GPGGA,192957,2423.6983,N,08056.2436,W,1,11,1.6,17"
"##MN-00 00 60 0761 01982 6035 438037 346922 198"
"158.812546"
"$GPGGA,193001,2423.6980,N,08056.2423,W,1,10,1.6,17"
"##MN-00 00 57 0762 01984 6034 438055 346927 198"
"158.812593"
"$GPGGA,193005,2423.6978,N,08056.2411,W,1,11,1.6,17"
"##MN+00 00 57 0763 01987 6033 438071 346933 198"
"158.812639"
"$GPGGA,193009,2423.6977,N,08056.2397,W,1,11,1.6,18"
"##MN+00 00 57 0764 01988 6031 438071 346933 198"
"158.812685"
"$GPGGA,193013,2423.6976,N,08056.2386,W,1,10,1.7,18"
"##MN+00 00 63 0765 01992 6030 438078 346932 198"
"158.812732"
"$GPGGA,193017,2423.6974,N,08056.2376,W,1,11,1.6,18"
"##MN-00 00 58 0766 01994 6029 438094 346932 198"
"158.812778"
"$GPGGA,193021,2423.6973,N,08056.2363,W,1,10,1.9,19"
"##MN-00 00 55 0767 01994 6028 438120 346942 198"
"158.812824"
"$GPGGA,193025,2423.6973,N,08056.2352,W,1,10,1.6,19"
"##MN-00 00 54 0768 01996 6026 438131 346947 198"
"158.81287"
"$GPGGA,193029,2423.6970,N,08056.2341,W,1,11,1.6,19"
"##MN-00 00 54 0768 01995 6025 438135 346947 198"
"158.812917"
"#increment_net"
"$GPGGA,193033,2423.6969,N,08056.2330,W,1,11,1.9,19"
"##MN-00 00 53 0769 01994 6023 438136 346951 198"
"158.812963"
"$GPGGA,193037,2423.6969,N,08056.2321,W,1,11,1.6,19"
"##MN-00 00 52 0770 01992 6022 438133 346949 198"
"158.813009"
"$GPGGA,193041,2423.6971,N,08056.2314,W,1,11,1.6,19"
"##MN-00 00 52 0771 01989 6021 438131 346950 198"
"158.813056"
"$GPGGA,193045,2423.6975,N,08056.2306,W,1,11,1.6,19"
"##MN-00 00 52 0772 01991 6020 438125 346949 198"
"158.813102"
"$GPGGA,193049,2423.6980,N,08056.2298,W,1,11,1.6,19"
"##MN-00 00 52 0773 01986 6018 438119 346950 198"
"158.813148"
"$GPGGA,193053,2423.6986,N,08056.2296,W,1,10,1.6,19"
"##MN-00 00 53 0774 01983 6017 438096 346948 198"
"158.813194"
"$GPGGA,193057,2423.6994,N,08056.2295,W,1,10,1.8,19"
"##MN-00 00 53 0775 01985 6016 438076 346945 198"
"158.813241"
"$GPGGA,193101,2423.7001,N,08056.2290,W,1,11,1.6,20"
"##MN-00 00 53 0776 01981 6014 438068 346941 198"
"158.813287"
"$GPGGA,193105,2423.7011,N,08056.2284,W,1,11,1.6,21"
"##MN-00 00 54 0777 01981 6013 438057 346939 198"
"158.813333"
"$GPGGA,193109,2423.7020,N,08056.2281,W,1,11,1.6,21"
"##MN-00 00 53 0778 01976 6012 438050 346940 198"
"158.81338"
"$GPGGA,193113,2423.7031,N,08056.2277,W,1,11,1.6,22"
"##MN-00 00 53 0779 01975 6010 438046 346940 198"
"158.813426"
"$GPGGA,193117,2423.7045,N,08056.2274,W,1,11,1.6,22"
"##MN-00 00 54 0780 01971 6008 438032 346936 198"
"158.813472"
"$GPGGA,193121,2423.7056,N,08056.2272,W,1,11,1.6,22"
"##MN-00 00 55 0782 01969 6007 438023 346935 198"
"158.813519"
"$GPGGA,193125,2423.7070,N,08056.2264,W,1,11,1.6,22"
"##MN-00 00 55 0783 01966 6005 438018 346932 198"
"158.813565"
"$GPGGA,193129,2423.7085,N,08056.2258,W,1,11,1.6,22"
"##MN-00 00 55 0784 01963 6004 438015 346931 198"
"158.813611"
"$GPGGA,193133,2423.7103,N,08056.2257,W,1,11,1.6,22"
"##MN-00 00 56 0785 01961 6002 438010 346929 198"
"158.813657"
"$GPGGA,193137,2423.7120,N,08056.2256,W,1,11,1.6,21"
"##MN-00 00 56 0786 01960 6001 438008 346927 198"
"158.813704"
"$GPGGA,193141,2423.7138,N,08056.2253,W,1,11,1.6,21"
"##MN-00 00 57 0787 01959 6000 437995 346928 198"
"158.81375"
"$GPGGA,193145,2423.7157,N,08056.2251,W,1,10,1.8,21"
"##MN-00 00 57 0788 01954 5998 437977 346921 198"
"158.813796"
"$GPGGA,193149,2423.7175,N,08056.2251,W,1,11,1.6,20"
"##MN-00 00 58 0789 01954 5997 437968 346921 198"
"158.813843"
"$GPGGA,193153,2423.7196,N,08056.2248,W,1,10,1.8,19"
"##MN-00 00 58 0790 01953 5995 437958 346917 198"
"158.813889"
"$GPGGA,193157,2423.7217,N,08056.2243,W,1,11,1.6,19"
"##MN-00 00 58 0792 01951 5994 437950 346917 198"
"158.813935"
"$GPGGA,193201,2423.7239,N,08056.2237,W,1,11,1.6,18"
"##MN-00 00 58 0793 01948 5993 437945 346916 198"
"158.813981"
"$GPGGA,193205,2423.7262,N,08056.2231,W,1,11,1.6,18"
"##MN+00 00 58 0794 01944 5991 437938 346911 198"
"158.814028"
"$GPGGA,193209,2423.7285,N,08056.2226,W,1,10,1.8,18"
"##MN+00 00 58 0795 01945 5989 437933 346910 198"
"158.814074"
"$GPGGA,193213,2423.7309,N,08056.2219,W,1,11,1.6,17"
"##MN+00 00 58 0796 01943 5989 437925 346907 198"
"158.81412"
"$GPGGA,193217,2423.7334,N,08056.2212,W,1,11,1.6,17"
"##MN-00 00 60 0797 01944 5987 437916 346904 198"
"158.814167"
"$GPGGA,193221,2423.7362,N,08056.2205,W,1,11,1.6,17"
"##MN-00 00 60 0799 01938 5985 437908 346900 198"
"158.814213"
"$GPGGA,193225,2423.7388,N,08056.2201,W,1,11,1.6,17"
"##MN-00 00 61 0800 01938 5984 437903 346899 198"
"158.814259"
"$GPGGA,193229,2423.7419,N,08056.2196,W,1,11,1.6,17"
"##MN-00 00 61 0801 01935 5982 437896 346896 198"
"158.814306"
"$GPGGA,193233,2423.7449,N,08056.2192,W,1,10,1.8,16"
"##MN-00 00 60 0802 01932 5981 437881 346892 198"
"158.814352"
"$GPGGA,193237,2423.7482,N,08056.2186,W,1,10,1.8,16"
"##MN+00 00 61 0804 01928 5980 437871 346890 198"
"158.814398"
"$GPGGA,193241,2423.7517,N,08056.2176,W,1,11,1.6,16"
"##MN+00 00 61 0805 01925 5978 437866 346886 198"
"158.814444"
"$GPGGA,193245,2423.7551,N,08056.2163,W,1,11,1.6,15"
"##MN+00 00 74 0806 01927 5977 437851 346883 198"
"158.814491"
"$GPGGA,193249,2423.7589,N,08056.2151,W,1,11,1.6,15"
"##MN-00 00 66 0807 01925 5974 437840 346881 198"
"158.814537"
"#increment_net"
"$GPGGA,193253,2423.7626,N,08056.2138,W,1,11,1.6,15"
"##MN-00 00 63 0808 01920 5973 437837 346878 198"
"158.814583"
"$GPGGA,193257,2423.7666,N,08056.2126,W,1,11,1.6,15"
"##MN-00 00 63 0810 01918 5972 437829 346877 198"
"158.81463"
"$GPGGA,193301,2423.7705,N,08056.2112,W,1,11,1.6,15"
"##MN-00 00 63 0811 01919 5970 437819 346872 198"
"158.814676"
"$GPGGA,193305,2423.7746,N,08056.2095,W,1,11,1.6,16"
"##MN-00 00 63 0812 01919 5969 437820 346870 198"
"158.814722"
"$GPGGA,193309,2423.7789,N,08056.2076,W,1,10,1.9,16"
"##MN-00 00 62 0813 01919 5967 437828 346870 198"
"158.814769"
"$GPGGA,193313,2423.7832,N,08056.2056,W,1,10,1.9,17"
"##MN-00 00 63 0815 01920 5966 437832 346871 198"
"158.814815"
"$GPGGA,193317,2423.7876,N,08056.2035,W,1,11,1.6,17"
"##MN-00 00 66 0816 01920 5964 437838 346871 198"
"158.814861"
"$GPGGA,193321,2423.7921,N,08056.2013,W,1,11,1.6,18"
"##MN-00 00 63 0817 01921 5963 437851 346873 198"
"158.814907"
"$GPGGA,193325,2423.7963,N,08056.1993,W,1,11,1.6,18"
"##MN-00 00 63 0819 01922 5962 437858 346876 198"
"158.814954"
"$GPGGA,193329,2423.8008,N,08056.1969,W,1,11,1.6,18"
"##MN-00 00 64 0820 01925 5960 437861 346877 198"
"158.815"
"$GPGGA,193333,2423.8051,N,08056.1943,W,1,11,1.6,18"
"##MN-00 00 64 0821 01923 5959 437866 346878 198"
"158.815046"
"$GPGGA,193338,2423.8106,N,08056.1911,W,1,11,1.8,18"
"##MN-00 00 66 0823 01923 5957 437867 346879 198"
"158.815093"
"$GPGGA,193342,2423.8149,N,08056.1884,W,1,11,1.6,19"
"##MN-00 00 66 0824 01930 5956 437872 346878 198"
"158.815139"
"$GPGGA,193346,2423.8187,N,08056.1855,W,1,11,1.6,19"
"##MN-00 00 66 0825 01940 5954 437890 346881 198"
"158.815185"
"$GPGGA,193350,2423.8223,N,08056.1826,W,1,11,1.6,19"
"##MN-00 00 66 0826 01952 5953 437920 346887 198"
"158.815231"
"$GPGGA,193354,2423.8254,N,08056.1796,W,1,11,1.6,19"
"##MN-00 00 67 0827 01965 5952 437952 346894 198"
"158.815278"
"$GPGGA,193358,2423.8283,N,08056.1766,W,1,11,1.6,19"
"##MN-00 00 66 0827 01979 5951 437993 346904 198"
"158.815324"
"$GPGGA,193402,2423.8309,N,08056.1735,W,1,11,1.6,19"
"##MN-00 00 67 0828 01992 5949 438063 346944 198"
"158.81537"
"$GPGGA,193406,2423.8333,N,08056.1703,W,1,11,1.6,19"
"##MN-00 00 66 0829 02008 5947 438316 347035 198"
"158.815417"
"$GPGGA,193410,2423.8356,N,08056.1672,W,1,11,1.6,19"
"##MN-00 00 66 0830 02028 5946 438627 347136 198"
"158.815475"
"$GPGGA,193414,2423.8378,N,08056.1642,W,1,11,1.6,19"
"##MN-00 00 66 0830 02044 5944 438898 347220 198"
"158.815521"
"$GPGGA,193418,2423.8399,N,08056.1613,W,1,11,1.6,19"
"##MN-00 00 64 0831 02059 5943 439774 347444 198"
"158.815567"
"$GPGGA,193422,2423.8418,N,08056.1583,W,1,11,1.6,19"
"##MN-00 00 62 0831 02075 5941 442274 348111 198"
"158.815613"
"$GPGGA,193426,2423.8438,N,08056.1554,W,1,11,1.6,19"
"##MN-00 00 60 0832 02088 5940 443062 348332 198"
"158.81566"
"$GPGGA,193430,2423.8456,N,08056.1525,W,1,11,1.6,19"
"##MN-00 00 57 0833 02096 5939 444102 348626 198"
"158.815706"
"$GPGGA,193434,2423.8474,N,08056.1496,W,1,11,1.6,19"
"##MN-00 00 55 0833 02110 5937 444992 348909 198"
"158.815752"
"$GPGGA,193438,2423.8490,N,08056.1466,W,1,11,1.6,19"
"##MN-00 00 53 0834 02121 5936 445239 348999 198"
"158.815799"
"$GPGGA,193442,2423.8505,N,08056.1438,W,1,11,1.6,18"
"##MN-00 00 51 0834 02129 5934 445541 349054 198"
"158.815845"
"$GPGGA,193446,2423.8521,N,08056.1411,W,1,10,1.6,18"
"##MN-00 00 49 0835 02143 5933 445744 349108 198"
"158.815891"
"$GPGGA,193450,2423.8536,N,08056.1383,W,1,11,1.6,18"
"##MN-00 00 46 0835 02153 5932 445898 349125 198"
"158.815938"
"$GPGGA,193454,2423.8550,N,08056.1354,W,1,11,1.6,18"
"##MN-00 00 44 0836 02161 5930 445991 349143 198"
"158.815984"
"$GPGGA,193458,2423.8562,N,08056.1325,W,1,11,1.6,18"
"##MN-00 00 39 0836 02167 5929 446077 349164 198"
"158.81603"
"$GPGGA,193502,2423.8575,N,08056.1296,W,1,11,1.6,18"
"##MN-00 00 36 0836 02170 5927 446125 349164 198"
"158.816076"
"$GPGGA,193506,2423.8587,N,08056.1267,W,1,11,1.6,18"
"##MN-00 00 31 0837 02170 5926 446140 349182 198"
"158.816123"
"$GPGGA,193510,2423.8598,N,08056.1236,W,1,11,1.6,18"
"##MN+00 00 29 0837 02174 5924 446154 349186 198"
"158.816169"
"$GPGGA,193514,2423.8609,N,08056.1206,W,1,11,1.6,18"
"##MN+00 00 27 0838 02171 5923 446147 349184 198"
"158.816215"
"$GPGGA,193518,2423.8620,N,08056.1176,W,1,11,1.6,18"
"##MN+00 00 24 0838 02171 5922 446117 349178 198"
"158.816262"
"$GPGGA,193522,2423.8630,N,08056.1146,W,1,11,1.6,18"
"##MN-00 00 22 0838 02171 5920 446082 349174 198"
"158.816308"
"$GPGGA,193526,2423.8638,N,08056.1116,W,1,10,1.9,17"
"##MN-00 00 19 0839 02169 5918 446059 349169 198"
"158.816354"
"$GPGGA,193530,2423.8645,N,08056.1085,W,1,11,1.6,17"
"##MN-00 00 16 0839 02165 5917 446046 349166 198"
"158.8164"
"$GPGGA,193534,2423.8655,N,08056.1054,W,1,11,1.6,18"
"##MN-00 00 12 0839 02162 5916 446011 349164 198"
"158.816447"
"$GPGGA,193538,2423.8663,N,08056.1024,W,1,11,1.6,18"
"##MN-00 00 13 0839 02158 5914 445994 349164 198"
"158.816493"
"$GPGGA,193542,2423.8671,N,08056.0995,W,1,11,1.6,18"
"##MN-00 00 07 0840 02151 5912 445977 349165 198"
"158.816539"
"$GPGGA,193546,2423.8678,N,08056.0965,W,1,11,1.6,19"
"##MN-00 00 09 0840 02147 5911 445920 349165 198"
"158.816586"
"$GPGGA,193550,2423.8687,N,08056.0935,W,1,11,1.6,19"
"##MN-00 00 06 0840 02143 5909 445877 349159 198"
"158.816632"
"$GPGGA,193554,2423.8696,N,08056.0907,W,1,11,1.6,19"
"##MN-00 00 07 0840 02146 5908 445770 349138 198"
"158.816678"
"$GPGGA,193558,2423.8706,N,08056.0878,W,1,10,1.6,19"
"##MN-00 00 06 0840 02144 5906 445717 349123 198"
"158.816725"
"$GPGGA,193602,2423.8714,N,08056.0848,W,1,11,1.6,19"
"##MN-00 00 05 0840 02145 5905 445697 349112 198"
"158.816771"
"$GPGGA,193606,2423.8724,N,08056.0819,W,1,11,1.6,19"
"##MN-00 00 04 0840 02146 5903 445696 349117 198"
"158.816817"
"$GPGGA,193610,2423.8735,N,08056.0789,W,1,11,1.6,19"
"##MN-00 00 04 0840 02145 5902 445701 349113 198"
"158.816863"
"$GPGGA,193614,2423.8743,N,08056.0760,W,1,11,1.6,19"
"##MN-00 00 04 0840 02145 5900 445707 349119 198"
"158.81691"
"$GPGGA,193618,2423.8754,N,08056.0730,W,1,11,1.6,19"
"##MN-00 00 04 0840 02144 5899 445714 349115 198"
"158.816956"
"$GPGGA,193622,2423.8765,N,08056.0700,W,1,11,1.6,19"
"##MN-00 00 04 0840 02145 5897 445717 349102 198"
"158.817002"
"$GPGGA,193626,2423.8775,N,08056.0671,W,1,11,1.6,19"
"##MN-00 00 04 0840 02145 5895 445714 349101 198"
"158.817049"
"$GPGGA,193630,2423.8786,N,08056.0643,W,1,11,1.6,20"
"##MN-00 00 06 0840 02146 5894 445706 349099 198"
"158.817095"
"$GPGGA,193634,2423.8797,N,08056.0614,W,1,11,1.6,20"
"##MN-00 00 04 0840 02146 5892 445704 349098 198"
"158.817141"
"$GPGGA,193638,2423.8807,N,08056.0585,W,1,11,1.6,20"
"##MN-00 00 05 0840 02144 5890 445700 349095 198"
"158.817187"
"$GPGGA,193642,2423.8815,N,08056.0557,W,1,11,1.6,20"
"##MN-00 00 04 0840 02143 5888 445700 349090 198"
"158.817234"
"$GPGGA,193646,2423.8826,N,08056.0528,W,1,11,1.6,20"
"##MN-00 00 05 0840 02145 5887 445702 349091 198"
"158.81728"
"$GPGGA,193650,2423.8836,N,08056.0500,W,1,11,1.6,20"
"##MN-00 00 05 0840 02145 5885 445704 349095 198"
"158.817326"
"$GPGGA,193654,2423.8846,N,08056.0472,W,1,11,1.6,20"
"##MN-00 00 04 0840 02146 5883 445703 349087 198"
"158.817373"
"$GPGGA,193658,2423.8855,N,08056.0442,W,1,11,1.6,19"
"##MN-00 00 06 0840 02144 5882 445702 349088 198"
"158.817419"
"$GPGGA,193702,2423.8866,N,08056.0414,W,1,11,1.6,19"
"##MN-00 00 05 0840 02144 5880 445702 349086 198"
"158.817465"
"$GPGGA,193706,2423.8876,N,08056.0382,W,1,11,1.6,19"
"##MN-00 00 06 0840 02146 5879 445708 349092 198"
"158.817512"
"$GPGGA,193710,2423.8886,N,08056.0355,W,1,11,1.6,18"
"##MN-00 00 05 0840 02147 5877 445708 349093 198"
"158.817558"
"$GPGGA,193714,2423.8895,N,08056.0328,W,1,10,1.6,18"
"##MN-00 00 06 0840 02145 5875 445708 349089 198"
"158.817604"
"$GPGGA,193718,2423.8905,N,08056.0304,W,1,10,1.8,17"
"##MN-00 00 06 0840 02145 5873 445709 349084 198"
"158.81765"
"$GPGGA,193722,2423.8916,N,08056.0276,W,1,10,1.8,17"
"##MN-00 00 06 0840 02146 5872 445714 349088 198"
"158.817697"
"$GPGGA,193726,2423.8931,N,08056.0251,W,1,10,1.6,17"
"##MN-00 00 07 0840 02143 5870 445712 349092 198"
"158.817743"
"$GPGGA,193730,2423.8952,N,08056.0229,W,1,11,1.8,17"
"##MN-00 00 09 0841 02142 5868 445660 349091 198"
"158.817789"
"$GPGGA,193734,2423.8976,N,08056.0215,W,1,11,1.8,18"
"##MN-00 00 13 0841 02133 5866 445597 349068 198"
"158.817836"
"$GPGGA,193738,2423.9005,N,08056.0199,W,1,11,1.6,18"
"##MN-00 00 17 0841 02126 5864 445315 349048 198"
"158.817882"
"$GPGGA,193742,2423.9035,N,08056.0194,W,1,11,1.6,18"
"##MN-00 00 23 0842 02107 5862 445146 348961 198"
"158.817928"
"$GPGGA,193746,2423.9072,N,08056.0192,W,1,11,1.6,18"
"##MN-00 00 30 0843 02088 5861 444815 348905 198"
"158.817975"
"$GPGGA,193750,2423.9108,N,08056.0191,W,1,11,1.6,19"
"##MN-00 00 36 0844 02057 5859 443988 348806 198"
"158.818021"
"$GPGGA,193754,2423.9148,N,08056.0191,W,1,11,1.6,19"
"##MN-00 00 41 0846 02033 5858 443314 348759 198"
"158.818067"
"$GPGGA,193758,2423.9191,N,08056.0192,W,1,11,1.6,19"
"##MN-00 00 49 0847 02011 5856 441707 348478 198"
"158.818113"
"$GPGGA,193802,2423.9234,N,08056.0192,W,1,11,1.6,19"
"##MN-00 00 53 0848 01991 5854 439979 348116 198"
"158.81816"
"$GPGGA,193807,2423.9288,N,08056.0195,W,1,10,1.8,18"
"##MN-00 00 54 0850 01975 5852 438999 347904 198"
"158.818206"
"$GPGGA,193811,2423.9328,N,08056.0191,W,1,10,1.8,18"
"##MN-00 00 55 0851 01968 5850 438570 347481 198"
"158.818252"
"$GPGGA,193815,2423.9364,N,08056.0181,W,1,10,1.8,18"
"##MN-00 00 57 0852 01967 5849 438367 347383 198"
"158.818299"
"$GPGGA,193819,2423.9395,N,08056.0170,W,1,10,1.8,17"
"##MN-00 00 58 0853 01967 5847 438299 347280 198"
"158.818345"
"$GPGGA,193823,2423.9426,N,08056.0155,W,1,10,1.8,17"
"##MN-00 00 58 0854 01973 5845 438281 347222 198"
"158.818391"
"$GPGGA,193827,2423.9453,N,08056.0138,W,1,10,1.8,17"
"##MN-00 00 58 0855 01980 5844 438280 347213 198"
"158.818437"
"$GPGGA,193831,2423.9478,N,08056.0119,W,1,10,1.8,16"
"##MN-00 00 58 0856 01986 5843 438291 347102 198"
"158.818484"
"$GPGGA,193835,2423.9500,N,08056.0099,W,1,10,1.8,16"
"##MN-00 00 58 0857 01996 5841 438349 347119 198"
"158.81853"
"$GPGGA,193839,2423.9520,N,08056.0074,W,1,11,1.6,16"
"##MN-00 00 58 0858 02004 5839 438463 347129 198"
"158.818576"
"$GPGGA,193843,2423.9541,N,08056.0051,W,1,10,1.6,16"
"##MN-00 00 57 0858 02014 5837 438641 347158 198"
"158.818623"
"$GPGGA,193847,2423.9559,N,08056.0024,W,1,11,1.6,16"
"##MN-00 00 56 0859 02026 5836 438821 347198 198"
"158.818681"
"$GPGGA,193851,2423.9577,N,08055.9999,W,1,11,1.6,16"
"##MN-00 00 54 0860 02036 5834 439124 347251 198"
"158.818727"
"$GPGGA,193855,2423.9592,N,08055.9977,W,1,10,1.8,16"
"##MN-00 00 53 0860 02045 5833 439492 347316 198"
"158.818773"
"$GPGGA,193859,2423.9610,N,08055.9949,W,1,10,1.6,17"
"##MN-00 00 51 0861 02055 5831 440270 347487 198"
"158.818819"
"$GPGGA,193903,2423.9624,N,08055.9923,W,1,11,1.6,17"
"##MN-00 00 50 0861 02065 5830 441752 347912 198"
"158.818866"
"$GPGGA,193907,2423.9635,N,08055.9907,W,1,11,1.6,17"
"##MN-00 00 45 0862 02074 5828 442569 348134 198"
"158.818912"
"$GPGGA,193911,2423.9650,N,08055.9877,W,1,10,1.8,17"
"##MN-00 00 46 0862 02083 5827 442898 348231 198"
"158.818958"
"$GPGGA,193915,2423.9660,N,08055.9858,W,1,10,1.8,17"
"##MN-00 00 43 0863 02092 5825 443117 348327 198"
"158.819005"
"$GPGGA,193919,2423.9675,N,08055.9823,W,1,10,1.8,17"
"##MN-00 00 40 0863 02099 5824 443458 348434 198"
"158.819051"
"$GPGGA,193923,2423.9689,N,08055.9800,W,1,10,1.8,17"
"##MN-00 00 38 0863 02108 5822 443831 348537 198"
"158.819097"
"$GPGGA,193927,2423.9697,N,08055.9780,W,1,11,1.6,17"
"##MN-00 00 34 0864 02112 5821 444047 348593 198"
"158.819144"
"$GPGGA,193931,2423.9711,N,08055.9745,W,1,10,1.8,16"
"##MN-00 00 32 0864 02118 5819 444118 348620 198"
"158.81919"
"$GPGGA,193935,2423.9722,N,08055.9719,W,1,10,1.8,16"
"##MN-00 00 29 0864 02124 5818 444285 348664 198"
"158.819236"
"$GPGGA,193939,2423.9733,N,08055.9689,W,1,10,1.8,16"
"##MN-00 00 26 0865 02126 5816 444458 348721 198"
"158.819282"
"$GPGGA,193943,2423.9743,N,08055.9663,W,1,10,1.9,16"
"##MN-00 00 24 0865 02134 5815 444555 348743 198"
"158.819329"
"$GPGGA,193947,2423.9751,N,08055.9633,W,1,11,1.6,15"
"##MN-00 00 21 0865 02135 5814 444592 348756 198"
"158.819375"
"$GPGGA,193951,2423.9762,N,08055.9604,W,1,11,1.6,15"
"##MN-00 00 20 0865 02135 5812 444571 348761 198"
"158.819421"
"$GPGGA,193955,2423.9772,N,08055.9575,W,1,11,1.6,15"
"##MN-00 00 18 0865 02137 5811 444525 348749 198"
"158.819468"
"$GPGGA,193959,2423.9782,N,08055.9550,W,1,10,1.8,16"
"##MN-00 00 16 0866 02140 5809 444516 348749 198"
"158.819514"
"$GPGGA,194003,2423.9793,N,08055.9523,W,1,10,1.8,16"
"##MN-00 00 16 0866 02140 5808 444519 348757 198"
"158.81956"
"$GPGGA,194007,2423.9805,N,08055.9496,W,1,10,1.8,16"
"##MN-00 00 15 0866 02141 5806 444409 348743 198"
"158.819606"
"$GPGGA,194011,2423.9818,N,08055.9471,W,1,10,1.8,15"
"##MN-00 00 15 0866 02138 5804 444286 348717 198"
"158.819653"
"$GPGGA,194015,2423.9833,N,08055.9441,W,1,11,1.6,15"
"##MN-00 00 16 0866 02136 5803 444273 348719 198"
"158.819699"
"$GPGGA,194019,2423.9854,N,08055.9416,W,1,11,1.6,16"
"##MN-00 00 17 0867 02129 5801 444210 348702 198"
"158.819745"
"$GPGGA,194023,2423.9887,N,08055.9397,W,1,11,1.6,16"
"##MN-00 00 20 0867 02114 5800 444138 348691 198"
"158.819792"
"$GPGGA,194027,2423.9927,N,08055.9382,W,1,11,1.6,16"
"##MN-00 00 25 0868 02092 5798 444063 348662 198"
"158.819838"
"$GPGGA,194031,2423.9971,N,08055.9369,W,1,11,1.6,17"
"##MN-00 00 32 0869 02075 5796 443742 348641 198"
"158.819884"
"$GPGGA,194035,2424.0022,N,08055.9357,W,1,11,1.6,17"
"##MN-00 00 38 0870 02048 5795 443056 348498 198"
"158.819931"
"$GPGGA,194039,2424.0072,N,08055.9348,W,1,11,1.6,18"
"##MN-00 00 44 0872 02028 5793 441478 347886 198"
"158.819977"
"$GPGGA,194043,2424.0119,N,08055.9339,W,1,11,1.6,18"
"##MN-00 00 45 0873 02012 5792 439752 347663 198"
"158.820023"
"$GPGGA,194047,2424.0159,N,08055.9328,W,1,11,1.6,18"
"##MN-00 00 50 0874 02003 5790 439254 347507 198"
"158.820069"
"$GPGGA,194051,2424.0195,N,08055.9314,W,1,11,1.6,18"
"##MN-00 00 51 0875 01997 5788 438950 347517 198"
"158.820116"
"$GPGGA,194055,2424.0228,N,08055.9299,W,1,11,1.6,18"
"##MN-00 00 53 0876 01991 5787 438766 347376 198"
"158.820162"
"$GPGGA,194059,2424.0262,N,08055.9283,W,1,11,1.6,18"
"##MN-00 00 53 0877 01986 5785 438651 347359 198"
"158.820208"
"$GPGGA,194103,2424.0293,N,08055.9267,W,1,11,1.6,18"
"##MN-00 00 54 0878 01984 5784 438603 347264 198"
"158.820255"
"$GPGGA,194107,2424.0325,N,08055.9252,W,1,11,1.6,18"
"##MN-00 00 54 0879 01979 5783 438542 347267 198"
"158.820301"
"$GPGGA,194111,2424.0360,N,08055.9237,W,1,11,1.6,18"
"##MN-00 00 55 0881 01975 5781 438478 347220 198"
"158.820347"
"$GPGGA,194115,2424.0394,N,08055.9223,W,1,11,1.6,18"
"##MN-00 00 56 0882 01970 5780 438340 347142 198"
"158.820393"
"$GPGGA,194119,2424.0428,N,08055.9209,W,1,11,1.6,18"
"##MN-00 00 56 0883 01966 5779 438168 347098 198"
"158.82044"
"$GPGGA,194123,2424.0462,N,08055.9199,W,1,11,1.6,18"
"##MN-00 00 56 0884 01964 5777 438072 347038 198"
"158.820486"
"$GPGGA,194127,2424.0495,N,08055.9186,W,1,11,1.6,18"
"##MN-00 00 58 0885 01962 5776 438042 347007 198"
"158.820532"
"$GPGGA,194131,2424.0531,N,08055.9173,W,1,11,1.6,18"
"##MN-00 00 58 0887 01959 5775 438030 346999 198"
"158.820579"
"$GPGGA,194135,2424.0567,N,08055.9159,W,1,10,1.7,19"
"##MN+00 00 58 0888 01957 5773 438018 346958 198"
"158.820625"
"$GPGGA,194139,2424.0602,N,08055.9145,W,1,11,1.6,19"
"##MN+00 00 59 0889 01953 5772 437992 346950 197"
"158.820671"
"$GPGGA,194143,2424.0636,N,08055.9131,W,1,11,1.6,19"
"##MN+00 00 71 0890 01956 5771 437934 346922 197"
"158.820718"
"$GPGGA,194147,2424.0672,N,08055.9115,W,1,11,1.6,19"
"##MN-00 00 63 0891 01953 5770 437903 346897 198"
"158.820764"
"#increment_net"
"$GPGGA,194151,2424.0708,N,08055.9100,W,1,11,1.6,19"
"##MN-00 00 60 0893 01952 5769 437886 346881 198"
"158.82081"
"$GPGGA,194155,2424.0744,N,08055.9085,W,1,10,1.7,19"
"##MN-00 00 59 0894 01948 5767 437875 346884 198"
"158.820856"
"$GPGGA,194159,2424.0781,N,08055.9070,W,1,11,1.6,18"
"##MN-00 00 58 0895 01948 5766 437872 346872 198"
"158.820903"
"$GPGGA,194203,2424.0816,N,08055.9055,W,1,10,1.8,18"
"##MN-00 00 58 0896 01945 5764 437885 346873 198"
"158.820949"
"$GPGGA,194207,2424.0852,N,08055.9042,W,1,10,1.8,18"
"##MN-00 00 58 0898 01947 5763 437906 346874 198"
"158.820995"
"$GPGGA,194211,2424.0885,N,08055.9026,W,1,11,1.6,18"
"##MN-00 00 60 0899 01947 5762 437918 346878 198"
"158.821042"
"$GPGGA,194215,2424.0917,N,08055.9008,W,1,11,1.6,18"
"##MN-00 00 58 0900 01951 5760 437924 346875 198"
"158.821088"
"$GPGGA,194219,2424.0947,N,08055.8997,W,1,11,1.6,19"
"##MN-00 00 60 0901 01950 5759 437927 346875 198"
"158.821134"
"$GPGGA,194223,2424.0978,N,08055.8985,W,1,11,1.6,19"
"##MN-00 00 58 0902 01951 5758 437928 346877 198"
"158.821181"
"$GPGGA,194227,2424.1008,N,08055.8974,W,1,11,1.6,19"
"##MN-00 00 58 0903 01953 5757 437945 346878 198"
"158.821227"
"$GPGGA,194231,2424.1037,N,08055.8961,W,1,11,1.6,19"
"##MN-00 00 58 0904 01953 5755 438003 346888 198"
"158.821273"
"$GPGGA,194235,2424.1066,N,08055.8950,W,1,11,1.6,19"
"##MN-00 00 58 0906 01955 5754 438047 346893 198"
"158.821319"
"$GPGGA,194239,2424.1095,N,08055.8939,W,1,11,1.6,18"
"##MN-00 00 58 0907 01957 5753 438089 346902 198"
"158.821366"
"$GPGGA,194243,2424.1123,N,08055.8928,W,1,11,1.6,18"
"##MN-00 00 57 0908 01960 5752 438108 346914 198"
"158.821412"
"$GPGGA,194248,2424.1156,N,08055.8916,W,1,11,1.6,18"
"##MN-00 00 58 0909 01959 5750 438096 346911 198"
"158.821458"
"$GPGGA,194251,2424.1178,N,08055.8908,W,1,11,1.6,18"
"##MN-00 00 57 0910 01963 5750 438070 346913 198"
"158.821505"
"$GPGGA,194256,2424.1212,N,08055.8894,W,1,11,1.6,18"
"##MN-00 00 57 0911 01961 5748 438060 346912 198"
"158.821551"
"$GPGGA,194259,2424.1232,N,08055.8886,W,1,11,1.6,18"
"##MN-00 00 57 0912 01962 5748 438078 346914 198"
"158.821597"
"$GPGGA,194304,2424.1271,N,08055.8871,W,1,11,1.6,17"
"##MN-00 00 56 0914 01963 5746 438115 346915 198"
"158.821644"
"$GPGGA,194307,2424.1293,N,08055.8863,W,1,11,1.6,17"
"##MN-00 00 57 0915 01964 5745 438090 346919 198"
"158.82169"
"$GPGGA,194312,2424.1329,N,08055.8849,W,1,11,1.6,17"
"##MN-00 00 56 0916 01962 5744 438059 346917 198"
"158.821736"
"$GPGGA,194316,2424.1359,N,08055.8839,W,1,11,1.6,16"
"##MN-00 00 56 0917 01962 5743 438044 346913 198"
"158.821794"
"$GPGGA,194320,2424.1389,N,08055.8830,W,1,11,1.6,16"
"##MN+00 00 57 0918 01959 5741 438007 346909 198"
"158.82184"
"$GPGGA,194324,2424.1420,N,08055.8820,W,1,11,1.6,16"
"##MN+00 00 56 0919 01954 5740 437966 346900 197"
"158.821887"
"$GPGGA,194328,2424.1451,N,08055.8810,W,1,11,1.6,16"
"##MN+00 00 56 0921 01957 5739 437933 346896 198"
"158.821933"
"$GPGGA,194332,2424.1481,N,08055.8799,W,1,10,2.0,16"
"##MN-00 00 57 0922 01954 5738 437911 346888 198"
"158.821979"
"$GPGGA,194336,2424.1513,N,08055.8790,W,1,10,1.6,16"
"##MN-00 00 58 0923 01952 5737 437898 346883 198"
"158.822025"
"$GPGGA,194340,2424.1546,N,08055.8783,W,1,10,2.0,16"
"##MN-00 00 57 0924 01950 5736 437887 346883 198"
"158.822072"
"$GPGGA,194344,2424.1581,N,08055.8772,W,1,10,1.8,16"
"##MN-00 00 58 0926 01948 5735 437875 346875 198"
"158.822118"
"$GPGGA,194348,2424.1614,N,08055.8762,W,1,10,1.8,17"
"##MN+00 00 58 0927 01946 5734 437870 346871 198"
"158.822164"
"$GPGGA,194352,2424.1647,N,08055.8748,W,1,11,1.6,17"
"##MN+00 00 58 0928 01947 5733 437868 346867 197"
"158.822211"
"$GPGGA,194356,2424.1680,N,08055.8736,W,1,11,1.6,18"
"##MN+00 00 73 0929 01948 5731 437862 346858 198"
"158.822257"
"$GPGGA,194400,2424.1712,N,08055.8727,W,1,11,1.6,18"
"##MN-00 00 65 0930 01948 5731 437856 346856 198"
"158.822303"
"#increment_net"
"$GPGGA,194404,2424.1745,N,08055.8716,W,1,10,1.8,19"
"##MN-00 00 61 0932 01950 5729 437831 346850 198"
"158.82235"
"$GPGGA,194408,2424.1777,N,08055.8705,W,1,11,1.6,20"
"##MN-00 00 61 0933 01948 5728 437810 346845 198"
"158.822396"
"$GPGGA,194412,2424.1810,N,08055.8690,W,1,11,1.6,21"
"##MN-00 00 59 0934 01950 5727 437802 346844 198"
"158.822442"
"$GPGGA,194416,2424.1843,N,08055.8684,W,1,10,1.8,21"
"##MN-00 00 60 0935 01949 5726 437798 346840 198"
"158.822488"
"$GPGGA,194420,2424.1878,N,08055.8673,W,1,10,1.8,21"
"##MN-00 00 59 0937 01949 5725 437799 346837 198"
"158.822535"
"$GPGGA,194424,2424.1913,N,08055.8654,W,1,11,1.6,21"
"##MN-00 00 60 0938 01948 5724 437801 346834 198"
"158.822581"
"$GPGGA,194428,2424.1947,N,08055.8643,W,1,11,1.6,21"
"##MN-00 00 60 0939 01949 5723 437797 346832 198"
"158.822627"
"$GPGGA,194432,2424.1980,N,08055.8633,W,1,11,1.6,21"
"##MN-00 00 61 0940 01951 5722 437795 346831 198"
"158.822674"
"$GPGGA,194436,2424.2016,N,08055.8623,W,1,11,1.6,21"
"##MN-00 00 60 0942 01952 5721 437795 346830 198"
"158.82272"
"$GPGGA,194440,2424.2049,N,08055.8612,W,1,11,1.6,21"
"##MN-00 00 60 0943 01951 5720 437794 346829 198"
"158.822766"
"$GPGGA,194444,2424.2085,N,08055.8601,W,1,10,1.8,21"
"##MN-00 00 61 0944 01953 5719 437785 346826 198"
"158.822812"
"$GPGGA,194448,2424.2120,N,08055.8589,W,1,11,1.6,21"
"##MN-00 00 60 0945 01956 5718 437774 346827 198"
"158.822859"
"$GPGGA,194452,2424.2153,N,08055.8573,W,1,11,1.6,20"
"##MN-00 00 61 0946 01958 5717 437771 346908 198"
"158.822905"
"$GPGGA,194456,2424.2186,N,08055.8558,W,1,10,1.6,20"
"##MN-00 00 60 0948 01957 5716 437770 346886 198"
"158.822951"
"$GPGGA,194500,2424.2220,N,08055.8551,W,1,10,1.8,20"
"##MN-00 00 61 0949 01958 5716 437757 346883 198"
"158.822998"
"$GPGGA,194504,2424.2253,N,08055.8539,W,1,10,1.6,20"
"##MN-00 00 60 0950 01961 5714 437744 346880 198"
"158.823044"
"$GPGGA,194508,2424.2286,N,08055.8524,W,1,11,1.8,19"
"##MN-00 00 61 0952 01961 5714 437739 346877 198"
"158.82309"
"$GPGGA,194512,2424.2319,N,08055.8516,W,1,9,1.8,19,"
"##MN-00 00 60 0953 01964 5713 437739 346876 198"
"158.823137"
"$GPGGA,194516,2424.2351,N,08055.8504,W,1,10,1.6,19"
"##MN-00 00 60 0954 01963 5712 437739 346876 198"
"158.823183"
"$GPGGA,194520,2424.2384,N,08055.8494,W,1,11,1.8,18"
"##MN-00 00 60 0955 01964 5711 437748 346876 198"
"158.823229"
"$GPGGA,194524,2424.2417,N,08055.8484,W,1,10,1.8,18"
"##MN-00 00 60 0957 01964 5709 437755 346877 198"
"158.823275"
"$GPGGA,194528,2424.2449,N,08055.8472,W,1,10,1.8,17"
"##MN-00 00 60 0958 01963 5709 437755 346878 198"
"158.823322"
"$GPGGA,194532,2424.2482,N,08055.8457,W,1,10,1.6,17"
"##MN+00 00 59 0959 01964 5708 437752 346879 198"
"158.823368"
"$GPGGA,194536,2424.2514,N,08055.8445,W,1,11,1.8,17"
"##MN+00 00 61 0960 01963 5707 437757 346880 197"
"158.823414"
"$GPGGA,194540,2424.2546,N,08055.8431,W,1,11,1.6,17"
"##MN+00 00 60 0962 01964 5706 437757 346881 197"
"158.823461"
"$GPGGA,194544,2424.2578,N,08055.8419,W,1,11,1.6,17"
"##MN-00 00 61 0963 01965 5705 437760 346882 197"
"158.823507"
"$GPGGA,194548,2424.2609,N,08055.8407,W,1,11,1.6,17"
"##MN-00 00 60 0964 01965 5705 437762 346882 198"
"158.823553"
"$GPGGA,194552,2424.2641,N,08055.8396,W,1,11,1.6,18"
"##MN-00 00 61 0966 01963 5704 437767 346885 197"
"158.823599"
"$GPGGA,194556,2424.2673,N,08055.8385,W,1,11,1.6,18"
"##MN+00 00 60 0967 01964 5703 437777 346887 197"
"158.823646"
"$GPGGA,194600,2424.2706,N,08055.8375,W,1,11,1.6,18"
"##MN+00 00 60 0968 01965 5702 437782 346887 197"
"158.823692"
"$GPGGA,194604,2424.2738,N,08055.8367,W,1,10,1.8,18"
"##MN+00 00 74 0969 01969 5701 437803 346892 197"
"158.823738"
"#increment_net"
"$GPGGA,194608,2424.2770,N,08055.8354,W,1,11,1.6,17"
"##MN-00 00 69 0971 01974 5701 437840 346902 197"
"158.823785"
"$GPGGA,194612,2424.2803,N,08055.8337,W,1,11,1.6,17"
"##MN-00 00 65 0972 01981 5700 437870 346908 197"
"158.823831"
"$GPGGA,194616,2424.2836,N,08055.8331,W,1,11,1.6,17"
"##MN-00 00 62 0974 01990 5699 437962 346926 197"
"158.823877"
"$GPGGA,194620,2424.2871,N,08055.8320,W,1,11,1.6,17"
"##MN-00 00 63 0975 01997 5697 438274 346987 197"
"158.823924"
"$GPGGA,194624,2424.2905,N,08055.8311,W,1,11,1.6,17"
"##MN-00 00 58 0977 02002 5697 438735 347129 197"
"158.82397"
"$GPGGA,194628,2424.2939,N,08055.8301,W,1,11,1.6,17"
"##MN-00 00 64 0978 01998 5696 438984 347265 197"
"158.824016"
"$GPGGA,194632,2424.2963,N,08055.8297,W,1,11,1.6,17"
"##MN-00 00 62 0980 01994 5695 439019 347283 197"
"158.824063"
"$GPGGA,194636,2424.3004,N,08055.8287,W,1,11,1.6,17"
"##MN-00 00 63 0982 01986 5693 438919 347270 197"
"158.824109"
"$GPGGA,194640,2424.3028,N,08055.8281,W,1,11,1.6,18"
"##MN-00 00 61 0983 01989 5693 438631 347213 197"
"158.824155"
"$GPGGA,194644,2424.3070,N,08055.8272,W,1,11,1.6,18"
"##MN-00 00 61 0985 01983 5692 438243 347171 197"
"158.824201"
"$GPGGA,194648,2424.3102,N,08055.8266,W,1,11,1.6,18"
"##MN-00 00 61 0987 01977 5691 438007 347106 197"
"158.824248"
"$GPGGA,194652,2424.3125,N,08055.8261,W,1,11,1.6,18"
"##MN-00 00 60 0988 01972 5691 437898 347074 197"
"158.824294"
"$GPGGA,194656,2424.3165,N,08055.8254,W,1,11,1.6,19"
"##MN-00 00 61 0990 01965 5690 437857 347067 197"
"158.82434"
"$GPGGA,194700,2424.3197,N,08055.8248,W,1,11,1.6,18"
"##MN-00 00 60 0992 01962 5689 437835 347001 197"
"158.824387"
"$GPGGA,194704,2424.3228,N,08055.8243,W,1,11,1.6,18"
"##MN-00 00 60 0993 01957 5688 437796 346971 197"
"158.824433"
"$GPGGA,194708,2424.3259,N,08055.8238,W,1,11,1.6,18"
"##MN-00 00 61 0995 01949 5687 437756 346962 197"
"158.824479"
"$GPGGA,194712,2424.3291,N,08055.8234,W,1,11,1.6,18"
"##MN-00 00 60 0997 01943 5687 437721 346951 197"
"158.824525"
"$GPGGA,194716,2424.3320,N,08055.8229,W,1,11,1.6,17"
"##MN-00 00 61 0998 01937 5686 437683 346933 197"
"158.824572"
"$GPGGA,194720,2424.3353,N,08055.8226,W,1,11,1.6,17"
"##MN-00 00 61 1000 01932 5685 437658 346924 197"
"158.824618"
"$GPGGA,194724,2424.3382,N,08055.8219,W,1,10,1.6,17"
"##MN-00 00 61 1002 01925 5684 437620 346919 197"
"158.824664"
"$GPGGA,194728,2424.3411,N,08055.8218,W,1,10,1.8,17"
"##MN-00 00 59 1003 01918 5683 437548 346889 197"
"158.824711"
"$GPGGA,194732,2424.3442,N,08055.8216,W,1,10,1.8,16"
"##MN-00 00 61 1005 01911 5682 437490 346876 197"
"158.824757"
"$GPGGA,194737,2424.3478,N,08055.8213,W,1,10,1.8,16"
"##MN-00 00 58 1006 01907 5682 437452 346874 197"
"158.824803"
"$GPGGA,194741,2424.3504,N,08055.8202,W,1,11,1.6,15"
"##MN-00 00 56 1008 01908 5681 437424 346857 197"
"158.82485"
"$GPGGA,194745,2424.3529,N,08055.8191,W,1,11,1.6,15"
"##MN-00 00 52 1009 01908 5680 437410 346849 197"
"158.824896"
"$GPGGA,194748,2424.3547,N,08055.8179,W,1,11,1.6,16"
"##MN-00 00 50 1011 01906 5679 437410 346844 197"
"158.824942"
"$GPGGA,194753,2424.3575,N,08055.8161,W,1,11,1.6,16"
"##MN-00 00 47 1012 01906 5679 437424 346845 197"
"158.825"
"$GPGGA,194757,2424.3597,N,08055.8146,W,1,11,1.6,17"
"##MN-00 00 44 1013 01909 5678 437439 346847 197"
"158.825046"
"$GPGGA,194801,2424.3620,N,08055.8131,W,1,11,1.6,17"
"##MN-00 00 42 1014 01912 5678 437446 346850 197"
"158.825093"
"$GPGGA,194805,2424.3642,N,08055.8116,W,1,11,1.6,17"
"##MN-00 00 42 1015 01911 5677 437460 346853 197"
"158.825139"
"$GPGGA,194809,2424.3667,N,08055.8103,W,1,11,1.6,18"
"##MN-00 00 42 1016 01913 5675 437468 346855 197"
"158.825185"
"$GPGGA,194813,2424.3694,N,08055.8093,W,1,11,1.6,18"
"##MN-00 00 43 1017 01911 5675 437468 346855 197"
"158.825231"
"$GPGGA,194817,2424.3721,N,08055.8082,W,1,11,1.6,18"
"##MN-00 00 45 1019 01908 5674 437466 346854 197"
"158.825278"
"$GPGGA,194821,2424.3750,N,08055.8073,W,1,11,1.6,19"
"##MN-00 00 46 1020 01906 5673 437464 346855 197"
"158.825324"
"$GPGGA,194825,2424.3779,N,08055.8064,W,1,11,1.6,19"
"##MN-00 00 46 1021 01904 5672 437455 346852 197"
"158.82537"
"$GPGGA,194829,2424.3811,N,08055.8055,W,1,11,1.6,19"
"##MN-00 00 49 1022 01902 5672 437423 346848 197"
"158.825417"
"$GPGGA,194833,2424.3843,N,08055.8046,W,1,11,1.6,19"
"##MN-00 00 50 1024 01892 5671 437389 346837 197"
"158.825463"
"$GPGGA,194837,2424.3876,N,08055.8036,W,1,10,1.9,19"
"##MN-00 00 52 1025 01886 5670 437340 346826 197"
"158.825509"
"$GPGGA,194841,2424.3908,N,08055.8027,W,1,11,1.6,19"
"##MN-00 00 51 1027 01876 5669 437177 346804 197"
"158.825556"
"$GPGGA,194845,2424.3941,N,08055.8019,W,1,11,1.6,19"
"##MN-00 00 53 1028 01872 5669 436719 346698 197"
"158.825602"
"$GPGGA,194849,2424.3974,N,08055.8011,W,1,10,1.6,20"
"##MN-00 00 54 1029 01868 5668 436447 346567 197"
"158.825648"
"$GPGGA,194853,2424.4007,N,08055.8002,W,1,10,1.6,20"
"##MN-00 00 55 1031 01865 5667 436273 346504 197"
"158.825694"
"$GPGGA,194857,2424.4041,N,08055.7990,W,1,10,1.6,20"
"##MN-00 00 55 1032 01863 5667 436057 346469 197"
