" Tow: L5s-A   RVWS/WS1406"
" Date: 06/07/2014"
" Temperature Probe #  2597    Conductivity Probe #  2870"
" Pressure Probe #  109"
" Flow Meter Calibration  4.71 (m/count)  "
"158.768785"
"$GPGGA,182703,2426.8202,N,08058.7590,W,1,10,1.6,14"
"##MN-00 00 49 0346 01845 6733 259385 149498 198"
"158.768831"
"$GPGGA,182711,2426.8168,N,08058.7538,W,1,10,1.6,14"
"##MN-00 00 51 0346 01843 6733 431069 357680 198"
"158.768877"
"$GPGGA,182715,2426.8151,N,08058.7513,W,1,10,1.6,14"
"##MN-00 00 51 0347 01845 6732 433991 343342 198"
"158.768935"
"$GPGGA,182719,2426.8136,N,08058.7487,W,1,10,1.6,14"
"##MN-00 00 52 0348 01846 6731 436103 345215 198"
"158.768981"
"$GPGGA,182723,2426.8120,N,08058.7463,W,1,10,1.6,14"
"##MN-00 00 51 0349 01845 6731 437077 345996 198"
"158.769028"
"$GPGGA,182727,2426.8105,N,08058.7439,W,1,10,1.6,14"
"##MN-00 00 51 0350 01844 6731 437618 346131 198"
"158.769074"
"$GPGGA,182731,2426.8091,N,08058.7416,W,1,10,1.6,14"
"##MN-00 00 52 0351 01844 6730 437076 345986 198"
"158.76912"
"$GPGGA,182735,2426.8078,N,08058.7393,W,1,10,1.6,13"
"##MN-00 00 51 0352 01846 6730 437262 346156 198"
"158.769167"
"$GPGGA,182739,2426.8065,N,08058.7371,W,1,10,1.6,13"
"##MN-00 00 51 0353 01845 6730 437683 346202 198"
"158.769213"
"$GPGGA,182743,2426.8053,N,08058.7350,W,1,10,1.6,13"
"##MN-00 00 49 0354 01846 6729 437538 346670 198"
"158.769259"
"$GPGGA,182747,2426.8042,N,08058.7327,W,1,10,1.6,13"
"##MN-00 00 52 0355 01844 6728 438054 347074 198"
"158.769306"
"$GPGGA,182751,2426.8029,N,08058.7304,W,1,10,1.6,13"
"##MN-00 00 50 0355 01845 6727 438179 347034 198"
"158.769352"
"$GPGGA,182755,2426.8017,N,08058.7280,W,1,10,1.6,13"
"##MN-00 00 53 0356 01850 6727 438794 347308 198"
"158.769398"
"$GPGGA,182759,2426.8006,N,08058.7257,W,1,10,1.6,12"
"##MN-00 00 56 0357 01864 6726 440543 347880 198"
"158.769444"
"$GPGGA,182803,2426.7995,N,08058.7233,W,1,10,1.6,12"
"##MN-00 00 57 0357 01876 6725 442115 348403 198"
"158.769491"
"$GPGGA,182808,2426.7980,N,08058.7204,W,1,10,1.6,12"
"##MN-00 00 56 0358 01895 6724 443425 348882 198"
"158.769537"
"$GPGGA,182812,2426.7968,N,08058.7181,W,1,10,1.6,12"
"##MN-00 00 56 0358 01910 6723 443839 348901 198"
"158.769583"
"$GPGGA,182816,2426.7957,N,08058.7158,W,1,10,1.6,12"
"##MN-00 00 56 0359 01923 6722 444090 349000 198"
"158.76963"
"$GPGGA,182820,2426.7949,N,08058.7138,W,1,9,1.6,12,"
"##MN-00 00 55 0359 01940 6721 444340 349074 198"
"158.769676"
"$GPGGA,182824,2426.7948,N,08058.7121,W,1,10,1.6,12"
"##MN-00 00 55 0360 01954 6720 444476 349102 198"
"158.769722"
"$GPGGA,182828,2426.7937,N,08058.7101,W,1,10,1.6,13"
"##MN-00 00 55 0360 01968 6718 444747 349186 198"
"158.769769"
"$GPGGA,182832,2426.7923,N,08058.7080,W,1,9,1.6,13,"
"##MN-00 00 54 0361 01984 6717 444983 349247 198"
"158.769815"
"$GPGGA,182836,2426.7908,N,08058.7058,W,1,10,2.7,14"
"##MN-00 00 54 0361 01996 6716 445081 349257 198"
"158.769861"
"$GPGGA,182840,2426.7895,N,08058.7039,W,1,10,1.6,14"
"##MN-00 00 46 0362 01995 6714 445059 349211 198"
"158.769907"
"$GPGGA,182844,2426.7880,N,08058.7018,W,1,10,2.7,14"
"##MN-00 00 45 0363 01994 6713 445068 349221 198"
"158.769954"
"$GPGGA,182848,2426.7867,N,08058.7000,W,1,10,1.6,13"
"##MN-00 00 44 0364 01992 6711 445079 349248 198"
"158.77"
"$GPGGA,182852,2426.7856,N,08058.6982,W,1,10,1.6,13"
"##MN-00 00 44 0364 01988 6709 445076 349231 198"
"158.770046"
"$GPGGA,182856,2426.7847,N,08058.6963,W,1,10,1.6,13"
"##MN-00 00 45 0365 01987 6708 445071 349234 198"
"158.770093"
"$GPGGA,182900,2426.7836,N,08058.6946,W,1,10,1.6,13"
"##MN-00 00 44 0366 01984 6706 445068 349241 198"
"158.770139"
"$GPGGA,182904,2426.7825,N,08058.6931,W,1,10,1.6,13"
"##MN-00 00 44 0367 01979 6704 445063 349256 198"
"158.770185"
"$GPGGA,182908,2426.7815,N,08058.6917,W,1,10,1.6,13"
"##MN-00 00 43 0368 01975 6702 445054 349252 198"
"158.770231"
"$GPGGA,182912,2426.7810,N,08058.6907,W,1,9,2.7,13,"
"##MN-00 00 44 0369 01969 6700 444986 349249 198"
"158.770278"
"$GPGGA,182916,2426.7805,N,08058.6899,W,1,10,1.6,14"
"##MN-00 00 44 0370 01962 6698 444816 349230 198"
"158.770324"
"$GPGGA,182920,2426.7791,N,08058.6891,W,1,10,1.6,14"
"##MN-00 00 45 0371 01953 6696 444631 349191 198"
"158.77037"
"$GPGGA,182924,2426.7772,N,08058.6883,W,1,10,1.6,14"
"##MN-00 00 48 0372 01944 6694 444526 349160 198"
"158.770417"
"$GPGGA,182928,2426.7754,N,08058.6882,W,1,10,1.4,14"
"##MN-00 00 49 0373 01937 6692 444427 349116 198"
"158.770463"
"$GPGGA,182932,2426.7737,N,08058.6883,W,1,11,1.4,14"
"##MN-00 00 52 0374 01925 6690 444341 349101 198"
"158.770509"
"$GPGGA,182936,2426.7718,N,08058.6886,W,1,11,1.4,14"
"##MN-00 00 53 0375 01916 6687 444212 349079 198"
"158.770556"
"$GPGGA,182940,2426.7699,N,08058.6889,W,1,10,1.6,14"
"##MN-00 00 57 0377 01904 6685 444062 349032 198"
"158.770602"
"$GPGGA,182944,2426.7675,N,08058.6888,W,1,10,1.4,15"
"##MN-00 00 60 0378 01893 6683 443886 348989 198"
"158.770648"
"$GPGGA,182948,2426.7649,N,08058.6885,W,1,11,1.4,15"
"##MN-00 00 60 0379 01891 6680 443781 348998 198"
"158.770694"
"$GPGGA,182952,2426.7623,N,08058.6879,W,1,11,1.4,15"
"##MN-00 00 62 0381 01885 6677 443611 348945 198"
"158.770741"
"$GPGGA,182956,2426.7594,N,08058.6871,W,1,11,1.4,15"
"##MN-00 00 63 0382 01884 6675 443258 348905 198"
"158.770787"
"$GPGGA,183000,2426.7565,N,08058.6859,W,1,11,1.6,16"
"##MN-00 00 64 0384 01885 6672 442591 348696 198"
"158.770833"
"$GPGGA,183004,2426.7536,N,08058.6847,W,1,10,1.4,16"
"##MN-00 00 63 0385 01883 6670 442668 348723 198"
"158.77088"
"$GPGGA,183008,2426.7504,N,08058.6833,W,1,11,2.7,16"
"##MN-00 00 64 0386 01881 6668 443090 348723 198"
"158.770926"
"$GPGGA,183012,2426.7478,N,08058.6821,W,1,9,1.6,16,"
"##MN-00 00 65 0388 01883 6665 442986 348707 198"
"158.770972"
"$GPGGA,183016,2426.7453,N,08058.6808,W,1,10,2.7,17"
"##MN-00 00 67 0389 01880 6662 442519 348646 198"
"158.771019"
"$GPGGA,183020,2426.7418,N,08058.6793,W,1,10,1.6,17"
"##MN-00 00 66 0391 01885 6659 442372 348527 198"
"158.771065"
"$GPGGA,183024,2426.7385,N,08058.6777,W,1,9,2.7,17,"
"##MN-00 00 66 0392 01885 6657 442489 348515 198"
"158.771111"
"$GPGGA,183028,2426.7359,N,08058.6762,W,1,10,2.7,17"
"##MN-00 00 64 0393 01887 6654 442379 348494 198"
"158.771157"
"$GPGGA,183032,2426.7335,N,08058.6747,W,1,9,1.6,17,"
"##MN-00 00 66 0395 01891 6652 442315 348459 198"
"158.771204"
"$GPGGA,183036,2426.7317,N,08058.6732,W,1,10,1.6,17"
"##MN-00 00 65 0396 01897 6649 442441 348466 198"
"158.77125"
"$GPGGA,183040,2426.7300,N,08058.6720,W,1,10,1.6,17"
"##MN-00 00 64 0397 01900 6646 442683 348483 198"
"158.771296"
"$GPGGA,183044,2426.7282,N,08058.6702,W,1,10,1.6,17"
"##MN-00 00 64 0398 01904 6643 443067 348531 198"
"158.771343"
"$GPGGA,183048,2426.7262,N,08058.6684,W,1,10,1.4,17"
"##MN-00 00 63 0399 01911 6640 443348 348586 198"
"158.771389"
"$GPGGA,183052,2426.7243,N,08058.6665,W,1,11,1.4,17"
"##MN-00 00 63 0400 01914 6637 443529 348676 198"
"158.771435"
"$GPGGA,183056,2426.7222,N,08058.6642,W,1,11,1.4,17"
"##MN-00 00 61 0401 01921 6634 443614 348775 198"
"158.771482"
"$GPGGA,183100,2426.7207,N,08058.6623,W,1,11,1.4,17"
"##MN-00 00 62 0402 01928 6631 443709 348781 198"
"158.771528"
"$GPGGA,183104,2426.7193,N,08058.6605,W,1,11,1.4,17"
"##MN-00 00 60 0403 01933 6628 443866 348831 198"
"158.771574"
"$GPGGA,183108,2426.7178,N,08058.6585,W,1,11,1.4,17"
"##MN-00 00 60 0404 01940 6625 443987 348862 198"
"158.77162"
"$GPGGA,183112,2426.7164,N,08058.6565,W,1,10,1.6,17"
"##MN-00 00 59 0405 01944 6622 444069 348935 198"
"158.771667"
"$GPGGA,183116,2426.7150,N,08058.6546,W,1,10,1.6,17"
"##MN-00 00 57 0406 01950 6620 444148 348931 198"
"158.771713"
"$GPGGA,183120,2426.7135,N,08058.6526,W,1,10,2.6,17"
"##MN-00 00 56 0407 01951 6617 444246 348970 198"
"158.771759"
"$GPGGA,183124,2426.7121,N,08058.6506,W,1,10,1.6,17"
"##MN-00 00 57 0408 01956 6613 444316 349001 198"
"158.771806"
"$GPGGA,183128,2426.7105,N,08058.6485,W,1,10,1.6,17"
"##MN-00 00 55 0409 01958 6610 444340 349007 198"
"158.771852"
"$GPGGA,183132,2426.7094,N,08058.6466,W,1,10,1.6,17"
"##MN-00 00 55 0410 01959 6607 444351 349028 198"
"158.771898"
"$GPGGA,183136,2426.7081,N,08058.6448,W,1,10,1.6,17"
"##MN-00 00 53 0410 01966 6604 444364 349044 198"
"158.771944"
"$GPGGA,183140,2426.7066,N,08058.6428,W,1,10,1.6,17"
"##MN-00 00 55 0411 01964 6601 444375 349054 198"
"158.771991"
"$GPGGA,183144,2426.7052,N,08058.6408,W,1,10,1.6,17"
"##MN-00 00 52 0412 01967 6598 444378 349064 198"
"158.772037"
"$GPGGA,183148,2426.7038,N,08058.6389,W,1,10,1.6,16"
"##MN-00 00 52 0413 01966 6595 444374 349065 198"
"158.772083"
"$GPGGA,183152,2426.7025,N,08058.6370,W,1,10,1.6,16"
"##MN-00 00 50 0414 01965 6591 444360 349064 198"
"158.772141"
"$GPGGA,183156,2426.7011,N,08058.6348,W,1,9,1.6,16,"
"##MN-00 00 52 0415 01960 6589 444343 349063 198"
"158.772187"
"$GPGGA,183200,2426.6998,N,08058.6327,W,1,11,1.4,16"
"##MN-00 00 48 0416 01960 6586 444317 349059 198"
"158.772234"
"$GPGGA,183204,2426.6985,N,08058.6307,W,1,11,1.4,16"
"##MN-00 00 52 0417 01955 6582 444289 349053 198"
"158.77228"
"$GPGGA,183208,2426.6973,N,08058.6289,W,1,10,1.4,16"
"##MN-00 00 48 0417 01951 6580 444272 349048 198"
"158.772326"
"$GPGGA,183212,2426.6962,N,08058.6272,W,1,11,1.3,16"
"##MN-00 00 50 0418 01951 6576 444256 349049 198"
"158.772373"
"$GPGGA,183216,2426.6951,N,08058.6254,W,1,10,1.3,16"
"##MN-00 00 51 0419 01952 6573 444244 349050 198"
"158.772419"
"$GPGGA,183220,2426.6938,N,08058.6236,W,1,10,1.5,16"
"##MN-00 00 50 0420 01953 6570 444236 349051 198"
"158.772465"
"$GPGGA,183224,2426.6927,N,08058.6221,W,1,11,1.3,16"
"##MN-00 00 48 0421 01953 6566 444226 349047 198"
"158.772512"
"$GPGGA,183228,2426.6915,N,08058.6206,W,1,11,1.3,16"
"##MN-00 00 50 0421 01950 6564 444210 349040 198"
"158.772558"
"$GPGGA,183232,2426.6902,N,08058.6192,W,1,10,1.3,16"
"##MN-00 00 49 0422 01949 6560 444193 349032 198"
"158.772604"
"$GPGGA,183236,2426.6888,N,08058.6179,W,1,11,1.3,16"
"##MN-00 00 51 0423 01946 6556 444181 349031 198"
"158.77265"
"$GPGGA,183241,2426.6871,N,08058.6166,W,1,11,1.3,16"
"##MN-00 00 49 0424 01945 6553 444175 349030 198"
"158.772697"
"$GPGGA,183245,2426.6861,N,08058.6158,W,1,9,2.0,17,"
"##MN-00 00 50 0425 01943 6550 444155 349027 198"
"158.772743"
"$GPGGA,183249,2426.6850,N,08058.6151,W,1,12,1.3,17"
"##MN+00 00 51 0426 01941 6547 444132 349026 198"
"158.772789"
"$GPGGA,183253,2426.6834,N,08058.6142,W,1,11,1.5,17"
"##MN+00 00 51 0427 01939 6543 444099 349020 198"
"158.772836"
"$GPGGA,183256,2426.6824,N,08058.6135,W,1,12,1.3,17"
"##MN+00 00 52 0428 01934 6540 444029 349015 198"
"158.772882"
"$GPGGA,183300,2426.6806,N,08058.6124,W,1,12,1.3,18"
"##MN-00 00 53 0429 01933 6536 443939 348988 198"
"158.772928"
"$GPGGA,183304,2426.6792,N,08058.6114,W,1,12,1.3,18"
"##MN-00 00 54 0430 01936 6533 443860 348973 198"
"158.772975"
"$GPGGA,183309,2426.6768,N,08058.6096,W,1,11,1.5,18"
"##MN-00 00 54 0431 01934 6530 443825 348947 198"
"158.773021"
"$GPGGA,183313,2426.6750,N,08058.6080,W,1,11,1.5,18"
"##MN-00 00 55 0432 01937 6526 443807 348932 198"
"158.773067"
"$GPGGA,183317,2426.6732,N,08058.6063,W,1,11,1.5,18"
"##MN-00 00 54 0433 01936 6523 443805 348922 198"
"158.773113"
"$GPGGA,183321,2426.6713,N,08058.6047,W,1,11,1.5,17"
"##MN-00 00 54 0434 01935 6519 443807 348916 198"
"158.77316"
"$GPGGA,183325,2426.6695,N,08058.6031,W,1,11,1.5,17"
"##MN-00 00 54 0435 01936 6516 443813 348916 198"
"158.773206"
"$GPGGA,183329,2426.6678,N,08058.6016,W,1,11,1.5,17"
"##MN-00 00 54 0436 01932 6513 443797 348912 198"
"158.773252"
"$GPGGA,183333,2426.6663,N,08058.6003,W,1,12,1.3,17"
"##MN-00 00 55 0437 01933 6509 443792 348911 198"
"158.773299"
"$GPGGA,183337,2426.6644,N,08058.5988,W,1,11,1.5,17"
"##MN-00 00 55 0438 01931 6506 443769 348907 198"
"158.773345"
"$GPGGA,183341,2426.6624,N,08058.5974,W,1,12,1.3,17"
"##MN-00 00 56 0439 01928 6503 443767 348907 198"
"158.773391"
"$GPGGA,183345,2426.6608,N,08058.5964,W,1,12,1.3,16"
"##MN-00 00 56 0440 01930 6500 443776 348906 198"
"158.773438"
"$GPGGA,183349,2426.6592,N,08058.5954,W,1,12,1.3,16"
"##MN-00 00 57 0441 01930 6497 443793 348907 198"
"158.773484"
"$GPGGA,183353,2426.6576,N,08058.5945,W,1,12,1.3,16"
"##MN-00 00 57 0442 01930 6493 443804 348909 198"
"158.77353"
"$GPGGA,183357,2426.6558,N,08058.5935,W,1,12,1.3,16"
"##MN-00 00 57 0443 01930 6490 443781 348909 198"
"158.773576"
"$GPGGA,183401,2426.6539,N,08058.5925,W,1,12,1.3,16"
"##MN-00 00 57 0444 01933 6486 443763 348902 198"
"158.773623"
"$GPGGA,183405,2426.6521,N,08058.5914,W,1,12,1.3,16"
"##MN-00 00 56 0445 01932 6483 443750 348896 198"
"158.773669"
"$GPGGA,183409,2426.6503,N,08058.5904,W,1,12,1.3,16"
"##MN-00 00 57 0446 01933 6479 443748 348897 198"
"158.773715"
"$GPGGA,183413,2426.6485,N,08058.5895,W,1,12,1.3,16"
"##MN-00 00 57 0447 01932 6476 443731 348893 198"
"158.773762"
"$GPGGA,183417,2426.6467,N,08058.5886,W,1,12,1.3,16"
"##MN-00 00 58 0448 01933 6472 443722 348888 198"
"158.773808"
"$GPGGA,183421,2426.6447,N,08058.5877,W,1,11,1.4,16"
"##MN-00 00 58 0449 01934 6469 443696 348883 198"
"158.773854"
"$GPGGA,183425,2426.6428,N,08058.5867,W,1,11,1.4,16"
"##MN-00 00 58 0450 01937 6466 443690 348880 198"
"158.7739"
"$GPGGA,183429,2426.6413,N,08058.5855,W,1,11,1.3,16"
"##MN-00 00 57 0451 01937 6463 443700 348882 198"
"158.773947"
"$GPGGA,183433,2426.6395,N,08058.5843,W,1,12,1.3,16"
"##MN-00 00 58 0452 01937 6459 443684 348875 198"
"158.773993"
"$GPGGA,183437,2426.6377,N,08058.5834,W,1,12,1.3,16"
"##MN-00 00 57 0453 01939 6455 443672 348870 198"
"158.774039"
"$GPGGA,183441,2426.6360,N,08058.5824,W,1,12,1.3,16"
"##MN-00 00 59 0455 01940 6452 443706 348867 198"
"158.774086"
"$GPGGA,183445,2426.6344,N,08058.5816,W,1,11,1.3,16"
"##MN-00 00 58 0456 01940 6449 443718 348867 198"
"158.774132"
"$GPGGA,183449,2426.6328,N,08058.5807,W,1,11,1.3,16"
"##MN-00 00 60 0457 01945 6445 443723 348866 198"
"158.774178"
"$GPGGA,183453,2426.6309,N,08058.5797,W,1,12,1.3,16"
"##MN-00 00 58 0458 01946 6442 443734 348875 198"
"158.774225"
"$GPGGA,183457,2426.6297,N,08058.5792,W,1,12,1.3,16"
"##MN-00 00 58 0459 01945 6439 443733 348876 198"
"158.774271"
"$GPGGA,183501,2426.6279,N,08058.5783,W,1,12,1.3,17"
"##MN-00 00 60 0460 01947 6435 443738 348879 198"
"158.774317"
"$GPGGA,183505,2426.6258,N,08058.5771,W,1,12,1.3,17"
"##MN+00 00 58 0461 01947 6432 443753 348879 198"
"158.774363"
"$GPGGA,183509,2426.6236,N,08058.5759,W,1,11,1.3,17"
"##MN+00 00 57 0462 01948 6429 443753 348879 198"
"158.77441"
"$GPGGA,183513,2426.6219,N,08058.5750,W,1,12,1.3,17"
"##MN+00 00 68 0463 01948 6426 443759 348875 198"
"158.774456"
"$GPGGA,183517,2426.6205,N,08058.5744,W,1,11,1.3,17"
"##MN-00 00 58 0464 01950 6422 443779 348876 198"
"158.774502"
"$GPGGA,183521,2426.6191,N,08058.5738,W,1,12,1.3,17"
"##MN-00 00 57 0465 01947 6419 443716 348859 198"
"158.774549"
"#increment_net"
"$GPGGA,183525,2426.6171,N,08058.5726,W,1,10,2.0,17"
"##MN-00 00 57 0466 01945 6416 443651 348841 198"
"158.774595"
"$GPGGA,183529,2426.6156,N,08058.5719,W,1,12,1.3,17"
"##MN-00 00 55 0467 01946 6413 443613 348836 198"
"158.774641"
"$GPGGA,183533,2426.6142,N,08058.5711,W,1,11,1.5,18"
"##MN-00 00 58 0468 01944 6409 443598 348818 198"
"158.774688"
"$GPGGA,183537,2426.6124,N,08058.5701,W,1,11,1.5,18"
"##MN-00 00 56 0470 01943 6406 443617 348821 198"
"158.774734"
"$GPGGA,183541,2426.6107,N,08058.5691,W,1,11,1.5,18"
"##MN-00 00 57 0471 01941 6402 443626 348818 198"
"158.77478"
"$GPGGA,183545,2426.6089,N,08058.5679,W,1,11,1.3,18"
"##MN-00 00 57 0472 01943 6399 443625 348815 198"
"158.774826"
"$GPGGA,183549,2426.6073,N,08058.5670,W,1,11,1.3,18"
"##MN-00 00 57 0473 01944 6396 443611 348814 198"
"158.774873"
"$GPGGA,183553,2426.6053,N,08058.5668,W,1,12,1.3,18"
"##MN-00 00 58 0474 01948 6392 443569 348809 198"
"158.774919"
"$GPGGA,183557,2426.6037,N,08058.5659,W,1,12,1.3,19"
"##MN-00 00 58 0475 01947 6389 443557 348801 198"
"158.774965"
"$GPGGA,183601,2426.6019,N,08058.5649,W,1,11,1.4,19"
"##MN-00 00 57 0476 01952 6386 443573 348797 198"
"158.775012"
"$GPGGA,183605,2426.6002,N,08058.5641,W,1,12,1.3,19"
"##MN-00 00 59 0477 01953 6383 443623 348803 198"
"158.775058"
"$GPGGA,183609,2426.5984,N,08058.5634,W,1,11,1.4,19"
"##MN-00 00 56 0478 01955 6379 443621 348807 198"
"158.775104"
"$GPGGA,183613,2426.5968,N,08058.5623,W,1,12,1.3,19"
"##MN-00 00 58 0479 01956 6376 443621 348801 198"
"158.77515"
"$GPGGA,183617,2426.5950,N,08058.5613,W,1,11,1.3,19"
"##MN-00 00 57 0480 01956 6373 443625 348805 198"
"158.775197"
"$GPGGA,183621,2426.5934,N,08058.5603,W,1,12,1.3,19"
"##MN-00 00 57 0481 01957 6369 443621 348804 198"
"158.775243"
"$GPGGA,183625,2426.5918,N,08058.5597,W,1,12,1.3,19"
"##MN-00 00 57 0482 01956 6366 443615 348802 198"
"158.775289"
"$GPGGA,183629,2426.5900,N,08058.5591,W,1,11,1.4,19"
"##MN-00 00 56 0483 01958 6363 443605 348796 198"
"158.775336"
"$GPGGA,183633,2426.5885,N,08058.5580,W,1,12,1.3,19"
"##MN-00 00 57 0484 01956 6360 443605 348795 198"
"158.775393"
"$GPGGA,183637,2426.5867,N,08058.5570,W,1,12,1.3,19"
"##MN-00 00 57 0485 01955 6356 443605 348793 198"
"158.77544"
"$GPGGA,183641,2426.5853,N,08058.5559,W,1,12,1.3,19"
"##MN-00 00 57 0486 01957 6353 443606 348794 198"
"158.775486"
"$GPGGA,183645,2426.5838,N,08058.5550,W,1,12,1.3,19"
"##MN-00 00 56 0487 01957 6350 443606 348792 198"
"158.775532"
"$GPGGA,183649,2426.5824,N,08058.5541,W,1,12,1.3,19"
"##MN-00 00 58 0488 01957 6347 443596 348789 198"
"158.775579"
"$GPGGA,183653,2426.5808,N,08058.5532,W,1,12,1.3,19"
"##MN-00 00 56 0489 01957 6343 443581 348788 198"
"158.775625"
"$GPGGA,183657,2426.5795,N,08058.5523,W,1,12,1.3,19"
"##MN-00 00 57 0491 01959 6340 443549 348779 198"
"158.775671"
"$GPGGA,183701,2426.5778,N,08058.5517,W,1,10,1.7,19"
"##MN+00 00 57 0492 01959 6337 443539 348774 198"
"158.775718"
"$GPGGA,183705,2426.5767,N,08058.5514,W,1,12,1.3,19"
"##MN+00 00 57 0493 01961 6334 443556 348773 198"
"158.775764"
"$GPGGA,183709,2426.5752,N,08058.5507,W,1,11,1.5,19"
"##MN+00 00 57 0494 01963 6331 443552 348774 198"
"158.77581"
"$GPGGA,183713,2426.5741,N,08058.5500,W,1,11,1.3,19"
"##MN-00 00 56 0495 01961 6327 443551 348775 198"
"158.775856"
"$GPGGA,183717,2426.5723,N,08058.5490,W,1,12,1.3,19"
"##MN-00 00 57 0496 01958 6324 443545 348775 198"
"158.775903"
"$GPGGA,183721,2426.5708,N,08058.5479,W,1,12,1.3,19"
"##MN+00 00 57 0497 01961 6321 443506 348773 198"
"158.775949"
"$GPGGA,183725,2426.5690,N,08058.5467,W,1,12,1.3,19"
"##MN+00 00 57 0498 01962 6318 443471 348766 198"
"158.775995"
"$GPGGA,183729,2426.5673,N,08058.5454,W,1,12,1.3,20"
"##MN+00 00 69 0499 01965 6315 443492 348760 198"
"158.776042"
"$GPGGA,183734,2426.5654,N,08058.5438,W,1,12,1.3,20"
"##MN-00 00 61 0500 01964 6311 443544 348765 198"
"158.776088"
"#increment_net"
"$GPGGA,183738,2426.5634,N,08058.5423,W,1,11,1.3,20"
"##MN-00 00 59 0501 01964 6307 443574 348774 198"
"158.776134"
"$GPGGA,183742,2426.5614,N,08058.5407,W,1,12,1.3,20"
"##MN-00 00 56 0502 01963 6304 443606 348779 198"
"158.776181"
"$GPGGA,183746,2426.5594,N,08058.5390,W,1,12,1.3,20"
"##MN-00 00 55 0503 01963 6301 443621 348781 198"
"158.776227"
"$GPGGA,183749,2426.5579,N,08058.5379,W,1,11,1.6,20"
"##MN-00 00 55 0504 01961 6298 443606 348781 198"
"158.776273"
"$GPGGA,183754,2426.5555,N,08058.5364,W,1,11,1.3,20"
"##MN-00 00 55 0505 01959 6295 443569 348778 198"
"158.776319"
"$GPGGA,183758,2426.5536,N,08058.5352,W,1,12,1.3,20"
"##MN-00 00 56 0506 01960 6292 443530 348765 198"
"158.776366"
"$GPGGA,183802,2426.5517,N,08058.5339,W,1,12,1.3,20"
"##MN-00 00 55 0507 01958 6290 443501 348757 198"
"158.776412"
"$GPGGA,183806,2426.5499,N,08058.5326,W,1,12,1.3,19"
"##MN-00 00 57 0508 01961 6287 443479 348755 198"
"158.776458"
"$GPGGA,183810,2426.5482,N,08058.5315,W,1,12,1.3,19"
"##MN-00 00 56 0510 01959 6283 443459 348750 198"
"158.776505"
"$GPGGA,183814,2426.5466,N,08058.5304,W,1,12,1.3,19"
"##MN-00 00 55 0511 01958 6280 443439 348745 198"
"158.776551"
"$GPGGA,183818,2426.5448,N,08058.5291,W,1,12,1.3,19"
"##MN-00 00 56 0512 01957 6277 443438 348745 198"
"158.776597"
"$GPGGA,183822,2426.5432,N,08058.5280,W,1,12,1.3,19"
"##MN-00 00 57 0513 01959 6274 443442 348747 198"
"158.776644"
"$GPGGA,183826,2426.5414,N,08058.5269,W,1,12,1.3,18"
"##MN-00 00 57 0514 01957 6271 443444 348748 198"
"158.77669"
"$GPGGA,183830,2426.5398,N,08058.5256,W,1,12,1.3,18"
"##MN-00 00 56 0515 01958 6268 443446 348750 198"
"158.776736"
"$GPGGA,183834,2426.5381,N,08058.5243,W,1,12,1.6,18"
"##MN-00 00 56 0516 01957 6265 443438 348751 198"
"158.776782"
"$GPGGA,183838,2426.5362,N,08058.5231,W,1,11,1.6,17"
"##MN-00 00 57 0517 01956 6262 443411 348747 198"
"158.776829"
"$GPGGA,183842,2426.5343,N,08058.5220,W,1,11,1.3,17"
"##MN-00 00 55 0518 01956 6259 443387 348728 198"
"158.776875"
"$GPGGA,183846,2426.5325,N,08058.5209,W,1,12,1.3,17"
"##MN-00 00 58 0519 01956 6256 443374 348728 198"
"158.776921"
"$GPGGA,183850,2426.5307,N,08058.5198,W,1,11,1.5,17"
"##MN-00 00 56 0520 01958 6253 443359 348722 198"
"158.776968"
"$GPGGA,183854,2426.5289,N,08058.5185,W,1,11,1.5,17"
"##MN-00 00 57 0521 01956 6250 443344 348716 198"
"158.777014"
"$GPGGA,183858,2426.5272,N,08058.5170,W,1,11,1.5,17"
"##MN-00 00 57 0523 01956 6247 443337 348716 198"
"158.77706"
"$GPGGA,183902,2426.5253,N,08058.5154,W,1,11,1.5,17"
"##MN-00 00 56 0524 01955 6244 443334 348712 198"
"158.777106"
"$GPGGA,183906,2426.5235,N,08058.5138,W,1,11,1.5,17"
"##MN-00 00 58 0525 01956 6241 443342 348710 198"
"158.777153"
"$GPGGA,183910,2426.5218,N,08058.5124,W,1,11,1.3,17"
"##MN+00 00 56 0526 01955 6238 443374 348713 198"
"158.777199"
"$GPGGA,183914,2426.5199,N,08058.5107,W,1,11,1.5,17"
"##MN+00 00 58 0527 01956 6235 443376 348719 198"
"158.777245"
"$GPGGA,183918,2426.5178,N,08058.5091,W,1,11,1.5,17"
"##MN+00 00 56 0528 01955 6232 443367 348720 198"
"158.777292"
"$GPGGA,183922,2426.5159,N,08058.5075,W,1,11,1.5,17"
"##MN-00 00 57 0529 01957 6229 443357 348715 198"
"158.777338"
"$GPGGA,183926,2426.5139,N,08058.5059,W,1,11,1.5,17"
"##MN-00 00 56 0530 01957 6226 443350 348716 198"
"158.777384"
"$GPGGA,183930,2426.5123,N,08058.5047,W,1,12,1.3,16"
"##MN-00 00 57 0531 01956 6223 443292 348712 198"
"158.777431"
"$GPGGA,183934,2426.5106,N,08058.5034,W,1,12,1.3,16"
"##MN-00 00 56 0532 01955 6220 443246 348700 198"
"158.777477"
"$GPGGA,183938,2426.5091,N,08058.5021,W,1,12,1.3,17"
"##MN+00 00 57 0533 01956 6218 443183 348694 198"
"158.777523"
"$GPGGA,183942,2426.5072,N,08058.5006,W,1,11,1.3,17"
"##MN+00 00 56 0535 01956 6215 443067 348683 198"
"158.777569"
"$GPGGA,183946,2426.5054,N,08058.4993,W,1,12,1.3,17"
"##MN+00 00 69 0536 01958 6212 442994 348634 198"
"158.777616"
"$GPGGA,183950,2426.5036,N,08058.4981,W,1,12,1.3,17"
"##MN-00 00 61 0537 01958 6209 443084 348631 198"
"158.777662"
"#increment_net"
"$GPGGA,183954,2426.5018,N,08058.4970,W,1,12,1.3,17"
"##MN-00 00 57 0538 01956 6206 443215 348661 198"
"158.777708"
"$GPGGA,183958,2426.5000,N,08058.4959,W,1,12,1.3,17"
"##MN-00 00 57 0539 01957 6203 443218 348665 198"
"158.777755"
"$GPGGA,184002,2426.4980,N,08058.4948,W,1,12,1.3,18"
"##MN-00 00 55 0540 01955 6200 443124 348662 198"
"158.777801"
"$GPGGA,184006,2426.4964,N,08058.4937,W,1,12,1.5,18"
"##MN-00 00 55 0541 01958 6197 442972 348636 198"
"158.777847"
"$GPGGA,184010,2426.4951,N,08058.4930,W,1,12,1.3,18"
"##MN-00 00 56 0542 01955 6195 442938 348614 198"
"158.777894"
"$GPGGA,184014,2426.4936,N,08058.4921,W,1,12,1.3,19"
"##MN-00 00 56 0543 01959 6192 442958 348610 198"
"158.77794"
"$GPGGA,184018,2426.4919,N,08058.4911,W,1,12,1.3,19"
"##MN-00 00 56 0545 01956 6189 442975 348606 198"
"158.777986"
"$GPGGA,184022,2426.4902,N,08058.4900,W,1,12,1.3,19"
"##MN-00 00 56 0546 01957 6186 443012 348606 198"
"158.778032"
"$GPGGA,184026,2426.4884,N,08058.4890,W,1,12,1.3,20"
"##MN-00 00 56 0547 01955 6183 442968 348594 198"
"158.778079"
"$GPGGA,184030,2426.4867,N,08058.4878,W,1,12,1.3,20"
"##MN-00 00 55 0548 01956 6181 442918 348580 198"
"158.778125"
"$GPGGA,184034,2426.4852,N,08058.4867,W,1,12,1.4,20"
"##MN-00 00 55 0549 01955 6178 442927 348574 198"
"158.778171"
"$GPGGA,184038,2426.4834,N,08058.4855,W,1,11,1.3,20"
"##MN-00 00 56 0550 01957 6175 442956 348583 198"
"158.778218"
"$GPGGA,184042,2426.4820,N,08058.4845,W,1,12,1.3,20"
"##MN-00 00 56 0551 01956 6172 443056 348605 198"
"158.778264"
"$GPGGA,184046,2426.4805,N,08058.4833,W,1,12,1.3,20"
"##MN-00 00 55 0552 01957 6169 443062 348606 198"
"158.77831"
"$GPGGA,184050,2426.4788,N,08058.4821,W,1,12,1.3,20"
"##MN-00 00 55 0554 01957 6167 443058 348610 198"
"158.778356"
"$GPGGA,184054,2426.4772,N,08058.4810,W,1,12,1.5,20"
"##MN-00 00 56 0555 01958 6164 443055 348617 198"
"158.778403"
"$GPGGA,184058,2426.4755,N,08058.4798,W,1,11,1.5,20"
"##MN-00 00 57 0556 01955 6161 443046 348615 198"
"158.778449"
"$GPGGA,184102,2426.4738,N,08058.4787,W,1,12,1.3,20"
"##MN-00 00 55 0557 01956 6159 443179 348636 198"
"158.778495"
"$GPGGA,184106,2426.4722,N,08058.4775,W,1,12,1.3,19"
"##MN-00 00 56 0558 01956 6156 443131 348636 198"
"158.778542"
"$GPGGA,184110,2426.4704,N,08058.4763,W,1,12,1.3,19"
"##MN-00 00 55 0559 01958 6153 442965 348619 198"
"158.778588"
"$GPGGA,184114,2426.4686,N,08058.4750,W,1,12,1.3,19"
"##MN-00 00 55 0560 01957 6150 442977 348598 198"
"158.778646"
"$GPGGA,184118,2426.4668,N,08058.4737,W,1,12,1.3,19"
"##MN-00 00 56 0561 01955 6148 443109 348609 198"
"158.778692"
"$GPGGA,184122,2426.4650,N,08058.4724,W,1,12,1.3,19"
"##MN-00 00 55 0562 01957 6145 443245 348635 198"
"158.778738"
"$GPGGA,184126,2426.4633,N,08058.4711,W,1,12,1.3,18"
"##MN+00 00 56 0564 01957 6142 443278 348653 198"
"158.778785"
"$GPGGA,184130,2426.4615,N,08058.4698,W,1,12,1.3,18"
"##MN+00 00 55 0565 01957 6140 443204 348647 198"
"158.778831"
"$GPGGA,184134,2426.4599,N,08058.4685,W,1,12,1.3,18"
"##MN+00 00 55 0566 01957 6137 443052 348620 198"
"158.778877"
"$GPGGA,184138,2426.4581,N,08058.4671,W,1,12,1.3,18"
"##MN-00 00 55 0567 01954 6134 443018 348592 197"
"158.778924"
"$GPGGA,184142,2426.4563,N,08058.4657,W,1,12,1.3,17"
"##MN-00 00 55 0568 01957 6132 443093 348603 198"
"158.77897"
"$GPGGA,184146,2426.4545,N,08058.4643,W,1,12,1.3,17"
"##MN+00 00 55 0569 01955 6129 443188 348628 198"
"158.779016"
"$GPGGA,184150,2426.4527,N,08058.4628,W,1,12,1.3,17"
"##MN+00 00 56 0570 01955 6126 443239 348640 198"
"158.779063"
"$GPGGA,184154,2426.4509,N,08058.4612,W,1,12,1.6,17"
"##MN+00 00 69 0571 01962 6124 443253 348647 198"
"158.779109"
"$GPGGA,184159,2426.4487,N,08058.4595,W,1,11,1.3,16"
"##MN-00 00 62 0573 01959 6121 443278 348652 197"
"158.779155"
"#increment_net"
"$GPGGA,184202,2426.4473,N,08058.4583,W,1,12,1.3,16"
"##MN-00 00 58 0574 01956 6118 443315 348670 198"
"158.779201"
"$GPGGA,184206,2426.4453,N,08058.4570,W,1,11,1.3,16"
"##MN-00 00 57 0575 01955 6115 443298 348669 198"
"158.779248"
"$GPGGA,184211,2426.4431,N,08058.4555,W,1,12,1.3,16"
"##MN-00 00 55 0576 01961 6113 443231 348653 198"
"158.779294"
"$GPGGA,184215,2426.4415,N,08058.4540,W,1,12,1.3,16"
"##MN-00 00 55 0577 01959 6110 443196 348645 198"
"158.77934"
"$GPGGA,184219,2426.4397,N,08058.4526,W,1,12,1.3,16"
"##MN-00 00 56 0578 01958 6108 443145 348637 198"
"158.779387"
"$GPGGA,184223,2426.4379,N,08058.4512,W,1,12,1.3,16"
"##MN-00 00 55 0580 01954 6105 443110 348626 198"
"158.779433"
"$GPGGA,184227,2426.4361,N,08058.4499,W,1,11,1.3,16"
"##MN-00 00 55 0581 01956 6103 443171 348622 198"
"158.779479"
"$GPGGA,184231,2426.4342,N,08058.4485,W,1,12,1.3,16"
"##MN-00 00 55 0582 01956 6101 443135 348615 198"
"158.779525"
"$GPGGA,184235,2426.4325,N,08058.4474,W,1,12,1.3,16"
"##MN-00 00 55 0583 01954 6098 443114 348610 198"
"158.779572"
"$GPGGA,184239,2426.4314,N,08058.4466,W,1,11,1.4,17"
"##MN-00 00 55 0584 01956 6096 443150 348619 198"
"158.779618"
"$GPGGA,184243,2426.4296,N,08058.4453,W,1,12,1.3,17"
"##MN-00 00 55 0585 01955 6093 443106 348607 198"
"158.779664"
"$GPGGA,184247,2426.4279,N,08058.4440,W,1,12,1.3,17"
"##MN-00 00 56 0587 01956 6090 443096 348605 198"
"158.779711"
"$GPGGA,184251,2426.4263,N,08058.4428,W,1,12,1.3,18"
"##MN-00 00 55 0588 01955 6088 443118 348608 198"
"158.779757"
"$GPGGA,184255,2426.4246,N,08058.4415,W,1,12,1.3,18"
"##MN-00 00 56 0589 01956 6085 443182 348616 198"
"158.779803"
"$GPGGA,184259,2426.4229,N,08058.4403,W,1,12,1.3,18"
"##MN-00 00 55 0590 01953 6083 443182 348623 198"
"158.77985"
"$GPGGA,184303,2426.4212,N,08058.4390,W,1,11,1.4,18"
"##MN-00 00 55 0591 01957 6080 443234 348638 198"
"158.779896"
"$GPGGA,184307,2426.4196,N,08058.4378,W,1,11,1.4,18"
"##MN-00 00 55 0593 01953 6078 443189 348630 198"
"158.779942"
"$GPGGA,184311,2426.4180,N,08058.4365,W,1,12,1.3,18"
"##MN-00 00 56 0594 01954 6076 443178 348623 198"
"158.779988"
"$GPGGA,184315,2426.4163,N,08058.4353,W,1,12,1.3,18"
"##MN-00 00 56 0595 01955 6073 443125 348615 198"
"158.780035"
"$GPGGA,184319,2426.4148,N,08058.4342,W,1,12,1.3,18"
"##MN-00 00 56 0596 01956 6070 443170 348611 198"
"158.780081"
"$GPGGA,184323,2426.4133,N,08058.4330,W,1,12,1.3,18"
"##MN-00 00 57 0597 01952 6068 443150 348602 198"
"158.780127"
"$GPGGA,184327,2426.4119,N,08058.4321,W,1,12,1.3,18"
"##MN+00 00 55 0598 01954 6066 443151 348596 198"
"158.780174"
"$GPGGA,184331,2426.4104,N,08058.4310,W,1,11,1.6,18"
"##MN+00 00 56 0599 01954 6063 443191 348607 198"
"158.78022"
"$GPGGA,184335,2426.4088,N,08058.4301,W,1,11,1.6,18"
"##MN+00 00 57 0601 01955 6061 443229 348611 198"
"158.780266"
"$GPGGA,184339,2426.4074,N,08058.4291,W,1,12,1.3,18"
"##MN-00 00 55 0602 01954 6059 443234 348614 198"
"158.780313"
"$GPGGA,184343,2426.4059,N,08058.4282,W,1,12,1.3,18"
"##MN-00 00 56 0603 01953 6056 443212 348612 198"
"158.780359"
"$GPGGA,184347,2426.4044,N,08058.4272,W,1,12,1.3,17"
"##MN-00 00 56 0604 01954 6053 443228 348619 198"
"158.780405"
"$GPGGA,184351,2426.4028,N,08058.4262,W,1,12,1.3,17"
"##MN+00 00 56 0605 01956 6051 443306 348631 198"
"158.780451"
"$GPGGA,184355,2426.4014,N,08058.4253,W,1,12,1.3,17"
"##MN+00 00 56 0606 01957 6049 443324 348646 198"
"158.780498"
"$GPGGA,184359,2426.3997,N,08058.4243,W,1,12,1.3,17"
"##MN+00 00 71 0608 01961 6047 443251 348627 198"
"158.780544"
"$GPGGA,184403,2426.3981,N,08058.4234,W,1,12,1.3,17"
"##MN-00 00 63 0609 01961 6044 443246 348612 199"
"158.78059"
"#increment_net"
"$GPGGA,184407,2426.3965,N,08058.4225,W,1,12,1.3,16"
"##MN-00 00 61 0610 01965 6042 443333 348624 199"
"158.780637"
"$GPGGA,184411,2426.3949,N,08058.4215,W,1,12,1.3,16"
"##MN-00 00 59 0612 01972 6040 443388 348647 199"
"158.780683"
"$GPGGA,184415,2426.3931,N,08058.4207,W,1,12,1.3,16"
"##MN-00 00 58 0613 01978 6037 443396 348653 199"
"158.780729"
"$GPGGA,184419,2426.3913,N,08058.4199,W,1,12,1.3,15"
"##MN-00 00 58 0614 01982 6034 443458 348659 199"
"158.780775"
"$GPGGA,184423,2426.3896,N,08058.4191,W,1,12,1.3,15"
"##MN-00 00 56 0616 01982 6032 443569 348702 199"
"158.780822"
"$GPGGA,184427,2426.3880,N,08058.4183,W,1,12,1.3,15"
"##MN-00 00 54 0617 01988 6030 443683 348730 199"
"158.780868"
"$GPGGA,184431,2426.3864,N,08058.4174,W,1,11,1.6,15"
"##MN-00 00 55 0619 01984 6027 443687 348742 199"
"158.780914"
"$GPGGA,184435,2426.3848,N,08058.4167,W,1,12,1.3,15"
"##MN-00 00 56 0620 01982 6026 443623 348729 199"
"158.780961"
"$GPGGA,184439,2426.3830,N,08058.4159,W,1,11,1.3,15"
"##MN-00 00 56 0622 01978 6023 443501 348692 199"
"158.781007"
"$GPGGA,184443,2426.3815,N,08058.4151,W,1,11,1.4,15"
"##MN-00 00 55 0623 01978 6020 443466 348675 199"
"158.781053"
"$GPGGA,184447,2426.3798,N,08058.4141,W,1,12,1.3,16"
"##MN-00 00 55 0624 01975 6018 443460 348668 199"
"158.7811"
"$GPGGA,184451,2426.3779,N,08058.4130,W,1,11,1.4,16"
"##MN-00 00 54 0626 01972 6016 443463 348668 199"
"158.781146"
"$GPGGA,184455,2426.3758,N,08058.4114,W,1,11,1.4,16"
"##MN-00 00 56 0627 01969 6013 443479 348669 199"
"158.781192"
"$GPGGA,184459,2426.3739,N,08058.4100,W,1,11,1.3,17"
"##MN-00 00 54 0629 01964 6011 443508 348677 199"
"158.781238"
"$GPGGA,184503,2426.3721,N,08058.4084,W,1,12,1.3,17"
"##MN-00 00 54 0630 01963 6009 443638 348702 199"
"158.781285"
"$GPGGA,184507,2426.3703,N,08058.4070,W,1,12,1.6,17"
"##MN-00 00 55 0632 01959 6007 443626 348712 199"
"158.781331"
"$GPGGA,184511,2426.3682,N,08058.4053,W,1,12,1.3,17"
"##MN-00 00 55 0633 01955 6005 443526 348688 199"
"158.781377"
"$GPGGA,184515,2426.3662,N,08058.4037,W,1,11,1.6,17"
"##MN-00 00 54 0635 01951 6003 443391 348655 199"
"158.781424"
"$GPGGA,184519,2426.3642,N,08058.4020,W,1,12,1.3,17"
"##MN-00 00 55 0636 01949 6001 443322 348627 199"
"158.78147"
"$GPGGA,184523,2426.3620,N,08058.4004,W,1,12,1.3,16"
"##MN-00 00 54 0638 01944 5998 443224 348600 199"
"158.781516"
"$GPGGA,184527,2426.3599,N,08058.3987,W,1,12,1.3,16"
"##MN-00 00 55 0639 01940 5996 443048 348531 199"
"158.781562"
"$GPGGA,184531,2426.3581,N,08058.3973,W,1,11,1.6,16"
"##MN-00 00 55 0641 01935 5994 443035 348524 199"
"158.781609"
"$GPGGA,184535,2426.3560,N,08058.3958,W,1,10,1.6,16"
"##MN-00 00 53 0642 01930 5992 443022 348517 199"
"158.781655"
"$GPGGA,184539,2426.3537,N,08058.3939,W,1,11,1.9,17"
"##MN-00 00 54 0644 01927 5989 442988 348497 199"
"158.781701"
"$GPGGA,184543,2426.3513,N,08058.3922,W,1,12,1.3,17"
"##MN-00 00 55 0645 01922 5987 442983 348500 199"
"158.781748"
"$GPGGA,184547,2426.3487,N,08058.3903,W,1,11,1.4,17"
"##MN-00 00 55 0647 01920 5985 442994 348503 199"
"158.781794"
"$GPGGA,184551,2426.3466,N,08058.3887,W,1,12,1.3,17"
"##MN-00 00 57 0648 01915 5982 442998 348506 199"
"158.78184"
"$GPGGA,184555,2426.3443,N,08058.3869,W,1,12,1.3,17"
"##MN-00 00 56 0650 01911 5980 443003 348506 199"
"158.781898"
"$GPGGA,184559,2426.3419,N,08058.3851,W,1,12,1.3,17"
"##MN-00 00 57 0651 01907 5979 443066 348520 199"
"158.781944"
"$GPGGA,184603,2426.3396,N,08058.3833,W,1,12,1.3,17"
"##MN-00 00 57 0653 01904 5977 443057 348526 199"
"158.781991"
"$GPGGA,184607,2426.3373,N,08058.3814,W,1,11,1.6,17"
"##MN-00 00 57 0654 01900 5974 442873 348469 199"
"158.782037"
"$GPGGA,184611,2426.3351,N,08058.3796,W,1,11,1.6,17"
"##MN-00 00 56 0656 01896 5972 442968 348496 199"
"158.782164"
"$GPGGA,184619,2426.3310,N,08058.3763,W,1,12,1.3,17"
"##MN-00 00 55 0660 01887 5966 442855 348465 199"
"158.782211"
"$GPGGA,184627,2426.3263,N,08058.3723,W,1,11,1.6,17"
"##MN-00 00 57 0662 01882 5964 441967 348206 199"
"158.782257"
"$GPGGA,184631,2426.3241,N,08058.3703,W,1,12,1.3,17"
"##MN-00 00 57 0663 01874 5962 441548 348104 199"
"158.782303"
"$GPGGA,184635,2426.3215,N,08058.3682,W,1,11,1.6,17"
"##MN-00 00 57 0665 01868 5960 441388 348031 199"
"158.78235"
"$GPGGA,184639,2426.3195,N,08058.3663,W,1,12,1.3,17"
"##MN-00 00 57 0666 01861 5958 441185 347977 199"
"158.782396"
"$GPGGA,184643,2426.3172,N,08058.3641,W,1,11,1.6,17"
"##MN-00 00 58 0668 01858 5956 440813 347829 199"
"158.782442"
"$GPGGA,184647,2426.3149,N,08058.3620,W,1,11,1.6,17"
"##MN-00 00 57 0670 01855 5954 440474 347717 199"
"158.782488"
"$GPGGA,184651,2426.3127,N,08058.3599,W,1,12,1.3,17"
"##MN-00 00 59 0671 01856 5951 440280 347703 199"
"158.782535"
"$GPGGA,184655,2426.3108,N,08058.3580,W,1,11,1.6,17"
"##MN-00 00 59 0673 01857 5949 438710 347306 199"
"158.782581"
"$GPGGA,184659,2426.3086,N,08058.3559,W,1,12,1.3,17"
"##MN-00 00 54 0674 01854 5947 435442 346293 199"
"158.782627"
"$GPGGA,184703,2426.3064,N,08058.3537,W,1,11,1.6,17"
"##MN-00 00 54 0676 01856 5946 432616 345917 198"
"158.782674"
"$GPGGA,184707,2426.3042,N,08058.3514,W,1,11,1.6,17"
"##MN-00 00 57 0677 01855 5944 431972 361195 199"
"158.78272"
"$GPGGA,184711,2426.3018,N,08058.3490,W,1,11,1.6,17"
"##MN-00 00 57 0677 01854 5942 433625 629836 199"
"158.782766"
"$GPGGA,184715,2426.2996,N,08058.3469,W,1,11,1.6,17"
"##MN-00 00 52 0677 01857 5940 440132 876344 199"
"158.782813"
"$GPGGA,184719,2426.2972,N,08058.3445,W,1,12,1.3,16"
"##MN-00 00 57 0677 01854 5938 443619 914414 199"
