" Tow: L6s-B   RVWS/WS1406"
" Date: 06/07/2014"
" Temperature Probe #  2597    Conductivity Probe #  2870"
" Pressure Probe #  109"
" Flow Meter Calibration  4.71 (m/count)  "
"159.039641"
"$GPGGA,005658,2434.2543,N,08042.1374,W,1,6,3.0,20,"
"##MN-00 00 40 0389 01861 5473 454550 917185 197"
"159.039687"
"$GPGGA,005706,2434.2522,N,08042.1406,W,1,5,2.2,19,"
"##MN-00 00 46 0389 01862 5473 454611 917475 197"
"159.039734"
"$GPGGA,005710,2434.2514,N,08042.1420,W,1,5,2.2,19,"
"##MN-00 00 49 0389 01861 5472 453963 917465 197"
"159.03978"
"$GPGGA,005714,2434.2509,N,08042.1428,W,1,6,2.9,19,"
"##MN-00 00 53 0389 01861 5472 452728 917441 197"
"159.039826"
"$GPGGA,005718,2434.2504,N,08042.1441,W,1,5,2.9,19,"
"##MN-00 00 55 0389 01861 5472 451495 917441 197"
"159.039873"
"$GPGGA,005722,2434.2496,N,08042.1452,W,1,6,2.2,19,"
"##MN-00 00 54 0389 01860 5471 450602 879907 197"
"159.039919"
"$GPGGA,005726,2434.2491,N,08042.1467,W,1,7,2.1,19,"
"##MN-00 00 56 0390 01861 5471 433285 358452 197"
"159.039965"
"$GPGGA,005730,2434.2488,N,08042.1474,W,1,6,2.1,19,"
"##MN-00 00 57 0391 01861 5470 431673 386591 197"
"159.040012"
"$GPGGA,005734,2434.2487,N,08042.1478,W,1,6,2.1,19,"
"##MN-00 00 56 0392 01861 5470 431731 346070 197"
"159.040058"
"$GPGGA,005738,2434.2484,N,08042.1485,W,1,6,2.1,18,"
"##MN-00 00 57 0393 01861 5469 432029 345755 197"
"159.040104"
"$GPGGA,005742,2434.2482,N,08042.1492,W,1,7,2.1,18,"
"##MN-00 00 59 0394 01863 5469 432520 347722 197"
"159.04015"
"$GPGGA,005746,2434.2478,N,08042.1499,W,1,7,2.1,18,"
"##MN-00 00 55 0395 01860 5468 432228 345422 197"
"159.040197"
"$GPGGA,005750,2434.2478,N,08042.1507,W,1,7,2.1,18,"
"##MN-00 00 57 0396 01862 5467 432417 345338 197"
"159.040243"
"$GPGGA,005754,2434.2476,N,08042.1514,W,1,7,2.1,18,"
"##MN-00 00 57 0397 01859 5467 432787 345475 197"
"159.040289"
"$GPGGA,005758,2434.2471,N,08042.1519,W,1,6,2.1,18,"
"##MN-00 00 57 0398 01865 5467 433491 345645 197"
"159.040336"
"$GPGGA,005802,2434.2469,N,08042.1525,W,1,7,2.1,18,"
"##MN-00 00 57 0399 01867 5466 435117 346141 197"
"159.040382"
"$GPGGA,005806,2434.2465,N,08042.1530,W,1,7,2.2,18,"
"##MN-00 00 57 0400 01867 5466 437041 346466 197"
"159.040428"
"$GPGGA,005810,2434.2467,N,08042.1536,W,1,6,2.1,18,"
"##MN-00 00 58 0400 01873 5466 439018 347122 197"
"159.040475"
"$GPGGA,005814,2434.2462,N,08042.1540,W,1,6,2.2,18,"
"##MN-00 00 56 0401 01878 5465 439959 347423 197"
"159.040521"
"$GPGGA,005818,2434.2457,N,08042.1550,W,1,7,2.2,18,"
"##MN-00 00 57 0402 01881 5465 440351 347484 197"
"159.040567"
"$GPGGA,005822,2434.2454,N,08042.1554,W,1,6,2.2,19,"
"##MN-00 00 56 0403 01887 5464 440652 347546 197"
"159.040613"
"$GPGGA,005827,2434.2450,N,08042.1561,W,1,6,2.2,19,"
"##MN-00 00 56 0404 01890 5464 440912 347713 197"
"159.04066"
"$GPGGA,005831,2434.2450,N,08042.1563,W,1,6,2.2,20,"
"##MN-00 00 56 0405 01897 5464 441123 347804 197"
"159.040706"
"$GPGGA,005835,2434.2449,N,08042.1565,W,1,6,2.1,20,"
"##MN-00 00 57 0406 01903 5464 441363 347937 197"
"159.040752"
"$GPGGA,005839,2434.2450,N,08042.1568,W,1,7,2.2,20,"
"##MN-00 00 56 0406 01907 5463 441569 347991 197"
"159.04081"
"$GPGGA,005843,2434.2453,N,08042.1572,W,1,7,2.2,20,"
"##MN-00 00 55 0407 01910 5463 441867 348114 197"
"159.040856"
"$GPGGA,005846,2434.2455,N,08042.1576,W,1,6,2.1,20,"
"##MN-00 00 57 0408 01916 5463 442162 348265 197"
"159.040903"
"$GPGGA,005850,2434.2453,N,08042.1577,W,1,7,2.1,20,"
"##MN-00 00 55 0409 01921 5463 442311 348322 197"
"159.040949"
"$GPGGA,005854,2434.2454,N,08042.1584,W,1,5,2.1,19,"
"##MN-00 00 57 0410 01927 5462 442396 348341 197"
"159.040995"
"$GPGGA,005859,2434.2447,N,08042.1593,W,1,6,2.2,20,"
"##MN-00 00 56 0411 01933 5462 442494 348373 197"
"159.041042"
"$GPGGA,005903,2434.2447,N,08042.1593,W,1,6,2.1,20,"
"##MN-00 00 57 0412 01937 5462 442599 348392 197"
"159.041088"
"$GPGGA,005907,2434.2446,N,08042.1600,W,1,6,2.2,20,"
"##MN-00 00 55 0413 01942 5462 442681 348452 197"
"159.041134"
"$GPGGA,005911,2434.2442,N,08042.1605,W,1,6,2.2,20,"
"##MN-00 00 56 0413 01949 5461 442785 348508 197"
"159.041181"
"$GPGGA,005915,2434.2444,N,08042.1611,W,1,7,2.1,21,"
"##MN-00 00 56 0414 01956 5461 442968 348552 197"
"159.041227"
"$GPGGA,005919,2434.2442,N,08042.1613,W,1,7,2.1,21,"
"##MN-00 00 56 0415 01958 5461 443196 348626 197"
"159.041273"
"$GPGGA,005923,2434.2452,N,08042.1622,W,1,7,2.1,22,"
"##MN-00 00 56 0416 01966 5461 443547 348689 197"
"159.041319"
"$GPGGA,005927,2434.2457,N,08042.1626,W,1,7,2.1,22,"
"##MN-00 00 56 0417 01969 5461 444107 348833 197"
"159.041366"
"$GPGGA,005931,2434.2457,N,08042.1627,W,1,7,2.1,22,"
"##MN-00 00 55 0418 01974 5460 444478 348978 197"
"159.041412"
"$GPGGA,005935,2434.2458,N,08042.1631,W,1,7,1.9,23,"
"##MN-00 00 54 0419 01973 5460 444819 349091 197"
"159.041458"
"$GPGGA,005939,2434.2457,N,08042.1633,W,1,5,3.1,23,"
"##MN-00 00 53 0420 01974 5460 444934 349185 197"
"159.041505"
"$GPGGA,005943,2434.2473,N,08042.1644,W,1,7,1.9,24,"
"##MN-00 00 54 0421 01974 5459 444969 349125 197"
"159.041551"
"$GPGGA,005947,2434.2475,N,08042.1649,W,1,8,1.9,24,"
"##MN-00 00 54 0422 01976 5459 445013 349159 197"
"159.041597"
"$GPGGA,005951,2434.2467,N,08042.1642,W,1,7,2.0,25,"
"##MN-00 00 53 0423 01974 5459 445038 349237 197"
"159.041644"
"$GPGGA,005955,2434.2465,N,08042.1647,W,1,8,1.9,25,"
"##MN-00 00 54 0424 01973 5458 445046 349282 197"
"159.04169"
"$GPGGA,005959,2434.2464,N,08042.1651,W,1,7,2.2,25,"
"##MN-00 00 54 0425 01976 5458 445046 349281 197"
"159.041736"
"$GPGGA,010003,2434.2458,N,08042.1653,W,1,7,2.0,25,"
"##MN-00 00 54 0426 01978 5458 445042 349284 197"
"159.041782"
"$GPGGA,010007,2434.2459,N,08042.1656,W,1,8,1.5,25,"
"##MN-00 00 54 0427 01978 5458 445038 349278 197"
"159.041829"
"$GPGGA,010011,2434.2457,N,08042.1658,W,1,8,1.9,26,"
"##MN-00 00 54 0427 01978 5457 445036 349292 197"
"159.041875"
"$GPGGA,010015,2434.2459,N,08042.1662,W,1,8,1.5,26,"
"##MN-00 00 53 0428 01981 5457 445035 349291 197"
"159.041921"
"$GPGGA,010019,2434.2457,N,08042.1663,W,1,6,1.6,26,"
"##MN-00 00 52 0429 01977 5456 445030 349294 197"
"159.041968"
"$GPGGA,010023,2434.2453,N,08042.1662,W,1,8,1.9,26,"
"##MN-00 00 52 0430 01973 5456 445020 349299 197"
"159.042014"
"$GPGGA,010027,2434.2446,N,08042.1660,W,1,8,1.9,26,"
"##MN-00 00 52 0431 01975 5456 445007 349295 197"
"159.04206"
"$GPGGA,010031,2434.2448,N,08042.1662,W,1,8,1.9,26,"
"##MN-00 00 52 0432 01975 5455 444969 349288 197"
"159.042106"
"$GPGGA,010035,2434.2448,N,08042.1662,W,1,7,2.0,26,"
"##MN+00 00 52 0433 01976 5455 444919 349276 197"
"159.042153"
"$GPGGA,010039,2434.2441,N,08042.1659,W,1,8,1.9,26,"
"##MN+00 00 52 0434 01976 5455 444868 349265 197"
"159.042199"
"$GPGGA,010043,2434.2441,N,08042.1660,W,1,8,1.9,26,"
"##MN+00 00 52 0435 01975 5455 444741 349228 197"
"159.042245"
"$GPGGA,010047,2434.2440,N,08042.1660,W,1,8,1.9,26,"
"##MN-00 00 52 0436 01976 5454 444701 349219 197"
"159.042292"
"$GPGGA,010051,2434.2437,N,08042.1658,W,1,7,2.0,25,"
"##MN+00 00 52 0437 01975 5454 444814 349222 197"
"159.042338"
"$GPGGA,010055,2434.2441,N,08042.1660,W,1,9,1.5,25,"
"##MN+00 00 52 0438 01977 5454 444884 349241 197"
"159.042384"
"$GPGGA,010059,2434.2439,N,08042.1659,W,1,8,1.9,25,"
"##MN+00 00 59 0439 01980 5453 444969 349260 197"
"159.042431"
"$GPGGA,010103,2434.2439,N,08042.1660,W,1,9,1.5,25,"
"##MN-00 00 55 0439 01980 5453 444993 349286 197"
"159.042477"
"#increment_net"
"$GPGGA,010107,2434.2438,N,08042.1660,W,1,8,1.5,25,"
"##MN-00 00 52 0440 01977 5453 445036 349305 197"
"159.042523"
"$GPGGA,010111,2434.2436,N,08042.1660,W,1,9,1.5,25,"
"##MN-00 00 51 0441 01975 5453 445029 349302 197"
"159.042569"
"$GPGGA,010115,2434.2435,N,08042.1659,W,1,9,1.5,25,"
"##MN-00 00 51 0442 01975 5452 445014 349301 197"
"159.042616"
"$GPGGA,010119,2434.2426,N,08042.1656,W,1,8,1.9,24,"
"##MN-00 00 51 0443 01972 5452 445018 349299 197"
"159.042662"
"$GPGGA,010123,2434.2432,N,08042.1660,W,1,8,2.0,24,"
"##MN-00 00 51 0444 01973 5451 445030 349302 197"
"159.042708"
"$GPGGA,010127,2434.2434,N,08042.1660,W,1,8,2.0,24,"
"##MN-00 00 51 0445 01972 5451 445041 349307 197"
"159.042755"
"$GPGGA,010131,2434.2436,N,08042.1660,W,1,9,1.9,23,"
"##MN-00 00 51 0446 01970 5451 445045 349308 197"
"159.042801"
"$GPGGA,010135,2434.2437,N,08042.1662,W,1,7,2.0,23,"
"##MN-00 00 51 0447 01973 5450 445038 349309 197"
"159.042847"
"$GPGGA,010139,2434.2438,N,08042.1665,W,1,9,1.5,23,"
"##MN-00 00 51 0448 01973 5450 445025 349307 197"
"159.042894"
"$GPGGA,010143,2434.2439,N,08042.1666,W,1,8,1.9,23,"
"##MN-00 00 52 0449 01975 5449 445022 349306 197"
"159.04294"
"$GPGGA,010147,2434.2436,N,08042.1664,W,1,8,1.9,22,"
"##MN-00 00 52 0449 01975 5449 444970 349295 197"
"159.042986"
"$GPGGA,010151,2434.2436,N,08042.1664,W,1,8,1.9,22,"
"##MN-00 00 52 0450 01977 5449 444992 349294 197"
"159.043032"
"$GPGGA,010155,2434.2439,N,08042.1665,W,1,8,1.9,22,"
"##MN-00 00 51 0451 01975 5448 445048 349300 197"
"159.043079"
"$GPGGA,010159,2434.2442,N,08042.1667,W,1,8,1.9,21,"
"##MN-00 00 51 0452 01975 5448 445061 349311 197"
"159.043125"
"$GPGGA,010203,2434.2446,N,08042.1669,W,1,8,1.9,21,"
"##MN-00 00 51 0453 01976 5447 445077 349317 197"
"159.043171"
"$GPGGA,010207,2434.2446,N,08042.1670,W,1,7,1.9,21,"
"##MN-00 00 51 0454 01974 5447 445108 349326 197"
"159.043218"
"$GPGGA,010211,2434.2442,N,08042.1669,W,1,9,1.9,21,"
"##MN-00 00 51 0455 01976 5447 445086 349327 197"
"159.043264"
"$GPGGA,010215,2434.2442,N,08042.1671,W,1,8,2.0,21,"
"##MN-00 00 51 0456 01977 5446 445078 349327 197"
"159.04331"
"$GPGGA,010219,2434.2440,N,08042.1671,W,1,9,2.0,21,"
"##MN-00 00 52 0457 01975 5446 445029 349327 197"
"159.043356"
"$GPGGA,010223,2434.2444,N,08042.1674,W,1,9,1.5,21,"
"##MN-00 00 50 0457 01975 5446 444967 349310 197"
"159.043403"
"$GPGGA,010227,2434.2446,N,08042.1676,W,1,9,1.5,21,"
"##MN-00 00 51 0458 01976 5445 444923 349291 197"
"159.043449"
"$GPGGA,010231,2434.2452,N,08042.1680,W,1,9,1.5,21,"
"##MN-00 00 51 0459 01973 5445 444911 349293 197"
"159.043495"
"$GPGGA,010235,2434.2453,N,08042.1682,W,1,8,1.5,21,"
"##MN-00 00 51 0460 01972 5444 444904 349283 197"
"159.043542"
"$GPGGA,010239,2434.2454,N,08042.1683,W,1,8,1.5,21,"
"##MN-00 00 51 0461 01973 5444 444910 349280 197"
"159.043588"
"$GPGGA,010243,2434.2457,N,08042.1684,W,1,9,1.5,21,"
"##MN+00 00 51 0462 01975 5444 444913 349281 197"
"159.043634"
"$GPGGA,010247,2434.2461,N,08042.1687,W,1,7,2.0,22,"
"##MN+00 00 51 0463 01974 5444 444924 349282 197"
"159.043681"
"$GPGGA,010251,2434.2458,N,08042.1686,W,1,8,1.9,22,"
"##MN+00 00 51 0464 01975 5443 444962 349287 197"
"159.043727"
"$GPGGA,010255,2434.2455,N,08042.1685,W,1,9,1.5,22,"
"##MN-00 00 51 0465 01974 5442 444940 349291 197"
"159.043773"
"$GPGGA,010259,2434.2453,N,08042.1685,W,1,9,1.5,22,"
"##MN-00 00 51 0465 01974 5442 444894 349284 197"
"159.043819"
"$GPGGA,010303,2434.2447,N,08042.1685,W,1,9,1.5,21,"
"##MN-00 00 51 0466 01974 5442 444804 349258 197"
"159.043866"
"$GPGGA,010307,2434.2445,N,08042.1684,W,1,9,1.5,21,"
"##MN-00 00 51 0467 01972 5441 444774 349240 197"
"159.043912"
"$GPGGA,010311,2434.2444,N,08042.1683,W,1,9,1.5,21,"
"##MN+00 00 52 0468 01976 5441 444745 349234 197"
"159.043958"
"$GPGGA,010316,2434.2442,N,08042.1684,W,1,9,1.9,21,"
"##MN+00 00 51 0469 01974 5441 444727 349227 197"
"159.044005"
"$GPGGA,010320,2434.2439,N,08042.1683,W,1,8,1.9,21,"
"##MN+00 00 61 0470 01979 5440 444724 349218 197"
"159.044063"
"#increment_net"
"$GPGGA,010324,2434.2437,N,08042.1684,W,1,8,1.9,21,"
"##MN-00 00 56 0471 01976 5440 444784 349221 197"
"159.044109"
"$GPGGA,010327,2434.2435,N,08042.1683,W,1,8,1.9,20,"
"##MN-00 00 51 0472 01977 5439 444865 349196 197"
"159.044155"
"$GPGGA,010332,2434.2432,N,08042.1684,W,1,8,1.9,20,"
"##MN-00 00 51 0473 01975 5439 444858 349197 197"
"159.044201"
"$GPGGA,010336,2434.2432,N,08042.1684,W,1,9,1.5,20,"
"##MN-00 00 49 0473 01975 5438 444815 349192 197"
"159.044248"
"$GPGGA,010340,2434.2429,N,08042.1682,W,1,9,1.9,20,"
"##MN-00 00 51 0474 01974 5438 444802 349240 197"
"159.044294"
"$GPGGA,010344,2434.2425,N,08042.1682,W,1,9,1.5,20,"
"##MN-00 00 49 0475 01973 5437 444802 349239 197"
"159.04434"
"$GPGGA,010348,2434.2425,N,08042.1680,W,1,9,1.5,20,"
"##MN-00 00 50 0476 01972 5437 444793 349225 197"
"159.044387"
"$GPGGA,010352,2434.2425,N,08042.1678,W,1,9,1.8,20,"
"##MN-00 00 50 0477 01970 5437 444752 349185 197"
"159.044433"
"$GPGGA,010356,2434.2425,N,08042.1674,W,1,8,1.8,20,"
"##MN-00 00 50 0478 01973 5437 444768 349172 197"
"159.044479"
"$GPGGA,010400,2434.2424,N,08042.1675,W,1,9,1.5,20,"
"##MN-00 00 49 0479 01973 5436 444801 349175 197"
"159.044525"
"$GPGGA,010404,2434.2424,N,08042.1673,W,1,8,1.8,20,"
"##MN-00 00 49 0480 01973 5436 444824 349183 197"
"159.044572"
"$GPGGA,010408,2434.2422,N,08042.1673,W,1,9,1.5,20,"
"##MN-00 00 50 0481 01971 5436 444823 349188 197"
"159.044618"
"$GPGGA,010412,2434.2421,N,08042.1670,W,1,8,1.5,20,"
"##MN-00 00 50 0482 01971 5435 444848 349199 197"
"159.044664"
"$GPGGA,010416,2434.2418,N,08042.1667,W,1,9,1.5,20,"
"##MN-00 00 49 0482 01972 5435 445016 349245 197"
"159.044711"
"$GPGGA,010420,2434.2415,N,08042.1669,W,1,9,1.5,20,"
"##MN-00 00 49 0483 01970 5434 445067 349259 197"
"159.044757"
"$GPGGA,010424,2434.2413,N,08042.1667,W,1,9,1.5,20,"
"##MN-00 00 50 0484 01974 5434 445015 349252 197"
"159.044803"
"$GPGGA,010428,2434.2410,N,08042.1667,W,1,9,1.9,20,"
"##MN-00 00 49 0485 01972 5434 444966 349237 197"
"159.04485"
"$GPGGA,010432,2434.2406,N,08042.1665,W,1,8,1.9,19,"
"##MN-00 00 50 0486 01972 5433 444964 349234 197"
"159.044896"
"$GPGGA,010436,2434.2403,N,08042.1665,W,1,9,1.5,19,"
"##MN-00 00 49 0487 01973 5433 445005 349239 197"
"159.044942"
"$GPGGA,010440,2434.2403,N,08042.1663,W,1,9,1.5,19,"
"##MN-00 00 49 0488 01974 5432 445011 349247 197"
"159.044988"
"$GPGGA,010444,2434.2400,N,08042.1662,W,1,9,1.9,19,"
"##MN-00 00 50 0489 01972 5432 444948 349239 197"
"159.045035"
"$GPGGA,010448,2434.2397,N,08042.1661,W,1,8,1.9,19,"
"##MN-00 00 49 0490 01972 5432 444859 349219 197"
"159.045081"
"$GPGGA,010452,2434.2394,N,08042.1661,W,1,8,1.9,19,"
"##MN-00 00 50 0491 01973 5431 444754 349175 197"
"159.045127"
"$GPGGA,010456,2434.2394,N,08042.1660,W,1,8,1.9,19,"
"##MN+00 00 49 0491 01973 5431 444735 349158 197"
"159.045174"
"$GPGGA,010500,2434.2392,N,08042.1659,W,1,8,1.9,19,"
"##MN+00 00 50 0492 01975 5430 444723 349158 197"
"159.04522"
"$GPGGA,010504,2434.2398,N,08042.1658,W,1,9,1.5,19,"
"##MN+00 00 49 0493 01974 5430 444697 349152 197"
"159.045266"
"$GPGGA,010508,2434.2402,N,08042.1657,W,1,9,1.5,19,"
"##MN-00 00 50 0494 01974 5430 444664 349142 197"
"159.045312"
"$GPGGA,010512,2434.2403,N,08042.1656,W,1,9,1.5,20,"
"##MN-00 00 49 0495 01977 5429 444657 349134 197"
"159.045359"
"$GPGGA,010516,2434.2404,N,08042.1655,W,1,9,1.5,20,"
"##MN-00 00 50 0496 01973 5429 444658 349141 197"
"159.045405"
"$GPGGA,010520,2434.2406,N,08042.1653,W,1,9,1.5,21,"
"##MN-00 00 49 0497 01977 5428 444657 349154 197"
"159.045451"
"$GPGGA,010524,2434.2408,N,08042.1652,W,1,9,1.5,21,"
"##MN+00 00 50 0498 01974 5428 444659 349139 197"
"159.045498"
"$GPGGA,010528,2434.2410,N,08042.1654,W,1,9,1.9,21,"
"##MN+00 00 49 0499 01974 5428 444662 349130 197"
"159.045544"
"$GPGGA,010532,2434.2407,N,08042.1650,W,1,7,1.9,22,"
"##MN+00 00 58 0499 01982 5427 444667 349132 197"
"159.04559"
"$GPGGA,010536,2434.2404,N,08042.1651,W,1,8,1.9,21,"
"##MN-00 00 54 0500 01978 5427 444679 349132 197"
"159.045637"
"#increment_net"
"$GPGGA,010540,2434.2402,N,08042.1650,W,1,7,1.9,21,"
"##MN-00 00 51 0501 01979 5426 444724 349136 197"
"159.045683"
"$GPGGA,010544,2434.2406,N,08042.1650,W,1,7,1.9,21,"
"##MN-00 00 49 0502 01978 5426 444774 349147 197"
"159.045729"
"$GPGGA,010548,2434.2410,N,08042.1649,W,1,7,1.9,21,"
"##MN-00 00 48 0503 01979 5426 444847 349180 197"
"159.045775"
"$GPGGA,010552,2434.2411,N,08042.1654,W,1,8,1.5,20,"
"##MN-00 00 48 0504 01979 5426 444897 349200 197"
"159.045822"
"$GPGGA,010556,2434.2415,N,08042.1658,W,1,9,1.5,20,"
"##MN-00 00 48 0505 01978 5425 444914 349203 197"
"159.045868"
"$GPGGA,010600,2434.2417,N,08042.1659,W,1,9,1.5,20,"
"##MN-00 00 48 0506 01976 5424 444919 349204 197"
"159.045914"
"$GPGGA,010604,2434.2420,N,08042.1662,W,1,9,1.5,20,"
"##MN-00 00 48 0506 01978 5424 444917 349205 197"
"159.045961"
"$GPGGA,010608,2434.2421,N,08042.1662,W,1,9,1.5,20,"
"##MN-00 00 48 0507 01977 5423 444906 349202 197"
"159.046007"
"$GPGGA,010612,2434.2421,N,08042.1663,W,1,9,1.5,21,"
"##MN-00 00 48 0508 01977 5423 444888 349203 197"
"159.046053"
"$GPGGA,010616,2434.2421,N,08042.1665,W,1,9,1.5,21,"
"##MN-00 00 48 0509 01978 5423 444851 349201 197"
"159.0461"
"$GPGGA,010620,2434.2421,N,08042.1667,W,1,9,1.5,21,"
"##MN-00 00 46 0510 01976 5422 444798 349191 197"
"159.046146"
"$GPGGA,010624,2434.2424,N,08042.1669,W,1,9,1.5,21,"
"##MN-00 00 46 0511 01971 5422 444737 349175 197"
"159.046192"
"$GPGGA,010628,2434.2426,N,08042.1670,W,1,9,1.5,21,"
"##MN-00 00 48 0512 01972 5422 444689 349160 197"
"159.046238"
"$GPGGA,010632,2434.2428,N,08042.1673,W,1,9,1.5,21,"
"##MN-00 00 49 0513 01969 5422 444678 349140 197"
"159.046285"
"$GPGGA,010636,2434.2428,N,08042.1673,W,1,9,1.5,21,"
"##MN-00 00 48 0514 01969 5421 444677 349132 197"
"159.046331"
"$GPGGA,010640,2434.2430,N,08042.1676,W,1,9,1.5,21,"
"##MN-00 00 49 0515 01969 5421 444664 349129 197"
"159.046377"
"$GPGGA,010644,2434.2430,N,08042.1677,W,1,9,1.5,21,"
"##MN-00 00 49 0516 01969 5420 444651 349124 197"
"159.046424"
"$GPGGA,010648,2434.2432,N,08042.1678,W,1,9,1.5,21,"
"##MN-00 00 49 0516 01970 5420 444651 349124 197"
"159.04647"
"$GPGGA,010652,2434.2435,N,08042.1679,W,1,9,1.5,21,"
"##MN-00 00 49 0517 01968 5419 444657 349127 197"
"159.046516"
"$GPGGA,010656,2434.2435,N,08042.1681,W,1,9,1.5,21,"
"##MN-00 00 48 0518 01970 5419 444668 349128 197"
"159.046562"
"$GPGGA,010700,2434.2436,N,08042.1684,W,1,9,1.5,21,"
"##MN-00 00 49 0519 01967 5419 444679 349130 197"
"159.046609"
"$GPGGA,010704,2434.2437,N,08042.1685,W,1,9,1.5,21,"
"##MN-00 00 49 0520 01967 5419 444674 349137 197"
"159.046655"
"$GPGGA,010708,2434.2437,N,08042.1688,W,1,9,1.5,21,"
"##MN-00 00 49 0521 01967 5418 444655 349129 197"
"159.046701"
"$GPGGA,010712,2434.2445,N,08042.1691,W,1,9,1.5,20,"
"##MN+00 00 49 0522 01966 5418 444654 349127 197"
"159.046748"
"$GPGGA,010716,2434.2449,N,08042.1693,W,1,9,1.5,21,"
"##MN+00 00 49 0523 01967 5417 444682 349131 197"
"159.046794"
"$GPGGA,010720,2434.2450,N,08042.1698,W,1,9,1.5,21,"
"##MN+00 00 49 0524 01967 5417 444722 349136 197"
"159.04684"
"$GPGGA,010724,2434.2451,N,08042.1699,W,1,9,1.5,21,"
"##MN-00 00 50 0525 01964 5417 444762 349152 197"
"159.046887"
"$GPGGA,010728,2434.2451,N,08042.1702,W,1,9,1.5,21,"
"##MN-00 00 49 0526 01968 5416 444794 349166 197"
"159.046933"
"$GPGGA,010732,2434.2453,N,08042.1705,W,1,9,1.5,21,"
"##MN-00 00 50 0527 01965 5416 444799 349174 197"
"159.046979"
"$GPGGA,010737,2434.2456,N,08042.1709,W,1,9,1.5,21,"
"##MN+00 00 50 0528 01964 5416 444793 349172 197"
"159.047025"
"$GPGGA,010740,2434.2457,N,08042.1710,W,1,9,1.5,21,"
"##MN+00 00 50 0529 01964 5415 444785 349169 197"
"159.047072"
"$GPGGA,010744,2434.2460,N,08042.1713,W,1,9,1.5,21,"
"##MN+00 00 60 0530 01966 5415 444753 349167 197"
"159.047118"
"#increment_net"
"$GPGGA,010748,2434.2462,N,08042.1716,W,1,9,1.5,21,"
"##MN-00 00 55 0531 01966 5415 444755 349161 197"
"159.047164"
"$GPGGA,010752,2434.2464,N,08042.1720,W,1,9,1.5,21,"
"##MN-00 00 52 0532 01964 5415 444741 349158 197"
"159.047211"
"$GPGGA,010756,2434.2466,N,08042.1723,W,1,9,1.5,21,"
"##MN-00 00 51 0533 01965 5414 444680 349155 197"
"159.047257"
"$GPGGA,010800,2434.2466,N,08042.1727,W,1,9,1.5,21,"
"##MN-00 00 51 0534 01969 5414 444641 349138 197"
"159.047315"
"$GPGGA,010805,2434.2467,N,08042.1734,W,1,9,1.5,21,"
"##MN-00 00 50 0535 01967 5413 444621 349120 197"
"159.047361"
"$GPGGA,010809,2434.2468,N,08042.1738,W,1,9,1.5,22,"
"##MN-00 00 49 0536 01967 5413 444624 349118 197"
"159.047407"
"$GPGGA,010813,2434.2467,N,08042.1745,W,1,9,1.5,22,"
"##MN-00 00 49 0537 01967 5412 444621 349120 197"
"159.047454"
"$GPGGA,010817,2434.2468,N,08042.1750,W,1,9,1.5,22,"
"##MN-00 00 49 0538 01965 5412 444623 349118 197"
"159.0475"
"$GPGGA,010821,2434.2471,N,08042.1750,W,1,9,1.5,22,"
"##MN-00 00 49 0539 01968 5412 444628 349119 197"
"159.047546"
"$GPGGA,010825,2434.2471,N,08042.1752,W,1,9,1.5,22,"
"##MN-00 00 49 0540 01968 5411 444630 349121 197"
"159.047593"
"$GPGGA,010829,2434.2473,N,08042.1754,W,1,9,1.5,22,"
"##MN-00 00 50 0541 01970 5411 444625 349119 197"
"159.047639"
"$GPGGA,010833,2434.2474,N,08042.1757,W,1,9,1.5,22,"
"##MN-00 00 50 0542 01968 5411 444631 349119 197"
"159.047685"
"$GPGGA,010837,2434.2475,N,08042.1760,W,1,9,1.5,22,"
"##MN-00 00 49 0543 01970 5410 444676 349127 197"
"159.047731"
"$GPGGA,010841,2434.2477,N,08042.1763,W,1,9,1.5,22,"
"##MN-00 00 49 0544 01969 5410 444698 349137 197"
"159.047778"
"$GPGGA,010845,2434.2478,N,08042.1767,W,1,9,1.5,22,"
"##MN-00 00 49 0544 01970 5410 444731 349147 197"
"159.047824"
"$GPGGA,010849,2434.2479,N,08042.1770,W,1,9,1.5,22,"
"##MN-00 00 49 0545 01971 5409 444763 349161 197"
"159.04787"
"$GPGGA,010853,2434.2480,N,08042.1771,W,1,9,1.5,22,"
"##MN-00 00 50 0546 01970 5409 444790 349175 197"
"159.047917"
"$GPGGA,010857,2434.2482,N,08042.1772,W,1,9,1.5,22,"
"##MN-00 00 50 0547 01969 5409 444816 349167 197"
"159.047963"
"$GPGGA,010901,2434.2486,N,08042.1774,W,1,9,1.5,21,"
"##MN-00 00 49 0548 01971 5408 444851 349183 197"
"159.048009"
"$GPGGA,010905,2434.2488,N,08042.1775,W,1,9,1.5,21,"
"##MN-00 00 49 0549 01970 5408 444894 349192 197"
"159.048056"
"$GPGGA,010909,2434.2489,N,08042.1776,W,1,9,1.5,21,"
"##MN-00 00 49 0550 01972 5408 444927 349212 197"
"159.048102"
"$GPGGA,010913,2434.2496,N,08042.1778,W,1,9,1.5,21,"
"##MN-00 00 49 0551 01969 5407 444952 349228 197"
"159.048148"
"$GPGGA,010917,2434.2499,N,08042.1781,W,1,9,1.5,21,"
"##MN+00 00 49 0552 01970 5407 444975 349232 197"
"159.048194"
"$GPGGA,010921,2434.2500,N,08042.1782,W,1,9,1.5,21,"
"##MN+00 00 49 0553 01968 5407 444991 349239 197"
"159.048241"
"$GPGGA,010925,2434.2500,N,08042.1785,W,1,9,1.5,21,"
"##MN+00 00 49 0554 01970 5407 445005 349245 197"
"159.048287"
"$GPGGA,010929,2434.2501,N,08042.1788,W,1,9,1.5,21,"
"##MN-00 00 49 0555 01970 5406 445018 349247 197"
"159.048333"
"$GPGGA,010933,2434.2502,N,08042.1792,W,1,9,1.5,20,"
"##MN-00 00 49 0556 01968 5405 445026 349251 197"
"159.04838"
"$GPGGA,010937,2434.2504,N,08042.1796,W,1,9,1.5,20,"
"##MN-00 00 49 0557 01970 5405 445037 349254 197"
"159.048426"
"$GPGGA,010941,2434.2505,N,08042.1799,W,1,9,1.5,20,"
"##MN+00 00 49 0558 01970 5405 445041 349257 197"
"159.048472"
"$GPGGA,010945,2434.2507,N,08042.1800,W,1,9,1.5,20,"
"##MN+00 00 49 0559 01968 5405 445045 349262 195"
"159.048519"
"$GPGGA,010949,2434.2507,N,08042.1806,W,1,9,1.5,20,"
"##MN+00 00 60 0560 01971 5404 445048 349264 197"
"159.048565"
"#increment_net"
"$GPGGA,010953,2434.2509,N,08042.1810,W,1,9,1.5,20,"
"##MN-00 00 57 0561 01972 5404 445088 349272 197"
"159.048611"
"$GPGGA,010957,2434.2510,N,08042.1813,W,1,9,1.9,20,"
"##MN-00 00 52 0562 01977 5404 445120 349285 197"
"159.048657"
"$GPGGA,011001,2434.2513,N,08042.1814,W,1,9,1.5,20,"
"##MN-00 00 49 0563 01983 5404 445152 349287 197"
"159.048704"
"$GPGGA,011005,2434.2511,N,08042.1819,W,1,9,1.5,20,"
"##MN-00 00 48 0565 01990 5403 445203 349293 197"
"159.04875"
"$GPGGA,011009,2434.2511,N,08042.1824,W,1,9,1.5,20,"
"##MN-00 00 46 0566 01992 5403 445283 349322 197"
"159.048796"
"$GPGGA,011013,2434.2513,N,08042.1824,W,1,8,1.5,20,"
"##MN-00 00 46 0567 01984 5402 445348 349348 197"
"159.048843"
"$GPGGA,011017,2434.2514,N,08042.1826,W,1,8,1.9,20,"
"##MN-00 00 46 0568 01976 5402 445331 349356 197"
"159.048889"
"$GPGGA,011021,2434.2514,N,08042.1832,W,1,8,1.9,20,"
"##MN-00 00 45 0570 01971 5401 445279 349347 197"
"159.048935"
"$GPGGA,011025,2434.2515,N,08042.1835,W,1,9,1.9,20,"
"##MN-00 00 46 0571 01965 5401 445190 349326 197"
"159.048981"
"$GPGGA,011029,2434.2516,N,08042.1837,W,1,8,1.9,20,"
"##MN-00 00 46 0573 01957 5401 445035 349283 197"
"159.049028"
"$GPGGA,011033,2434.2520,N,08042.1840,W,1,8,1.5,20,"
"##MN-00 00 45 0574 01948 5400 444749 349227 197"
"159.049074"
"$GPGGA,011037,2434.2522,N,08042.1844,W,1,8,1.9,20,"
"##MN-00 00 45 0575 01941 5400 444527 349162 197"
"159.04912"
"$GPGGA,011041,2434.2520,N,08042.1851,W,1,9,1.5,20,"
"##MN-00 00 44 0577 01933 5400 444093 349107 197"
"159.049167"
"$GPGGA,011045,2434.2524,N,08042.1857,W,1,9,1.5,20,"
"##MN-00 00 44 0578 01923 5399 443482 348963 197"
"159.049213"
"$GPGGA,011049,2434.2523,N,08042.1864,W,1,9,1.5,20,"
"##MN-00 00 45 0579 01912 5399 443052 348763 197"
"159.049259"
"$GPGGA,011053,2434.2525,N,08042.1868,W,1,9,1.5,21,"
"##MN-00 00 46 0581 01905 5399 442823 348596 197"
"159.049306"
"$GPGGA,011057,2434.2525,N,08042.1873,W,1,9,1.5,21,"
"##MN-00 00 46 0582 01895 5398 442658 348518 197"
"159.049352"
"$GPGGA,011101,2434.2524,N,08042.1878,W,1,8,1.9,21,"
"##MN-00 00 47 0584 01886 5398 442485 348484 197"
"159.049398"
"$GPGGA,011105,2434.2524,N,08042.1883,W,1,9,1.5,22,"
"##MN-00 00 47 0585 01879 5398 442240 348466 197"
"159.049444"
"$GPGGA,011109,2434.2522,N,08042.1887,W,1,9,1.5,22,"
"##MN-00 00 47 0586 01868 5397 441372 348118 197"
"159.049491"
"$GPGGA,011113,2434.2519,N,08042.1893,W,1,9,1.5,22,"
"##MN-00 00 46 0588 01865 5397 439934 347982 197"
"159.049537"
"$GPGGA,011117,2434.2518,N,08042.1897,W,1,9,1.5,21,"
"##MN-00 00 45 0589 01863 5397 436267 346936 197"
"159.049583"
"$GPGGA,011121,2434.2520,N,08042.1902,W,1,9,1.5,21,"
"##MN-00 00 49 0590 01863 5397 433407 346225 197"
"159.04963"
"$GPGGA,011125,2434.2520,N,08042.1906,W,1,9,1.5,21,"
"##MN-00 00 52 0591 01862 5396 433217 345612 197"
"159.049676"
"$GPGGA,011129,2434.2522,N,08042.1911,W,1,9,1.5,21,"
"##MN-00 00 48 0591 01862 5397 442070 436898 197"
"159.049722"
"$GPGGA,011133,2434.2524,N,08042.1916,W,1,9,1.5,21,"
"##MN-00 00 47 0591 01863 5396 451317 837278 197"
"159.049769"
"$GPGGA,011137,2434.2523,N,08042.1922,W,1,9,1.5,21,"
"##MN-00 00 43 0591 01864 5396 456560 913199 197"
