" Tow: L6s-A   RVWS/WS1406"
" Date: 06/07/2014"
" Temperature Probe #  2597    Conductivity Probe #  2870"
" Pressure Probe #  109"
" Flow Meter Calibration  4.71 (m/count)  "
"159.009259"
"$GPGGA,001314,2431.6824,N,08042.2732,W,1,9,1.6,21,"
"##MN-00 00 59 0089 01857 5860 431640 854993 199"
"159.009306"
"$GPGGA,001321,2431.6825,N,08042.2738,W,1,9,1.6,21,"
"##MN-00 00 61 0090 01856 5860 432067 345226 199"
"159.009352"
"$GPGGA,001325,2431.6828,N,08042.2740,W,1,9,1.6,21,"
"##MN-00 00 59 0091 01855 5860 432017 345235 199"
"159.009398"
"$GPGGA,001329,2431.6828,N,08042.2742,W,1,8,1.6,21,"
"##MN-00 00 60 0092 01856 5860 431949 345223 199"
"159.009444"
"$GPGGA,001333,2431.6829,N,08042.2744,W,1,9,1.6,21,"
"##MN-00 00 57 0093 01857 5859 431917 345219 199"
"159.009491"
"$GPGGA,001337,2431.6829,N,08042.2745,W,1,9,1.6,21,"
"##MN-00 00 59 0094 01855 5860 431860 345208 199"
"159.009537"
"$GPGGA,001341,2431.6829,N,08042.2747,W,1,9,1.6,21,"
"##MN-00 00 60 0095 01857 5859 431875 345224 199"
"159.009583"
"$GPGGA,001345,2431.6831,N,08042.2749,W,1,9,1.6,21,"
"##MN-00 00 58 0095 01860 5859 431895 345235 199"
"159.00963"
"$GPGGA,001349,2431.6832,N,08042.2753,W,1,9,1.6,21,"
"##MN-00 00 57 0096 01861 5859 432098 345224 199"
"159.009676"
"$GPGGA,001353,2431.6835,N,08042.2754,W,1,9,1.6,21,"
"##MN-00 00 57 0097 01864 5859 432559 345344 199"
"159.009722"
"$GPGGA,001357,2431.6835,N,08042.2756,W,1,8,1.6,21,"
"##MN-00 00 58 0098 01867 5859 433087 345508 199"
"159.009769"
"$GPGGA,001401,2431.6834,N,08042.2757,W,1,8,1.6,21,"
"##MN-00 00 57 0099 01871 5859 433365 345596 199"
"159.009815"
"$GPGGA,001405,2431.6837,N,08042.2760,W,1,9,1.6,21,"
"##MN-00 00 58 0100 01874 5858 433629 345721 199"
"159.009861"
"$GPGGA,001409,2431.6839,N,08042.2763,W,1,9,1.6,20,"
"##MN-00 00 58 0101 01877 5858 434127 345824 199"
"159.009907"
"$GPGGA,001413,2431.6840,N,08042.2767,W,1,9,1.6,20,"
"##MN-00 00 58 0102 01884 5857 435278 346090 199"
"159.009954"
"$GPGGA,001417,2431.6841,N,08042.2768,W,1,8,1.6,20,"
"##MN-00 00 58 0103 01884 5857 435865 346279 199"
"159.01"
"$GPGGA,001421,2431.6841,N,08042.2770,W,1,8,1.6,20,"
"##MN-00 00 58 0104 01890 5856 436196 346408 199"
"159.010046"
"$GPGGA,001425,2431.6842,N,08042.2773,W,1,9,1.6,20,"
"##MN-00 00 59 0105 01896 5856 436334 346513 199"
"159.010093"
"$GPGGA,001429,2431.6842,N,08042.2778,W,1,9,1.6,20,"
"##MN-00 00 58 0106 01900 5856 436422 346586 199"
"159.010139"
"$GPGGA,001433,2431.6842,N,08042.2780,W,1,9,1.6,19,"
"##MN-00 00 59 0107 01904 5856 436534 346670 199"
"159.010185"
"$GPGGA,001437,2431.6842,N,08042.2785,W,1,9,1.6,19,"
"##MN-00 00 59 0108 01907 5855 436638 346664 199"
"159.010231"
"$GPGGA,001441,2431.6839,N,08042.2789,W,1,9,1.6,19,"
"##MN-00 00 58 0109 01909 5855 436759 346724 199"
"159.010278"
"$GPGGA,001445,2431.6839,N,08042.2793,W,1,9,1.6,19,"
"##MN-00 00 60 0110 01913 5854 436897 346770 199"
"159.010324"
"$GPGGA,001450,2431.6839,N,08042.2798,W,1,9,1.6,19,"
"##MN-00 00 58 0111 01913 5854 437029 346797 199"
"159.01037"
"$GPGGA,001454,2431.6839,N,08042.2804,W,1,9,1.6,19,"
"##MN-00 00 60 0112 01916 5854 437147 346854 199"
"159.010428"
"$GPGGA,001458,2431.6839,N,08042.2809,W,1,9,1.6,18,"
"##MN-00 00 60 0113 01922 5854 437294 346886 199"
"159.010475"
"$GPGGA,001502,2431.6839,N,08042.2814,W,1,9,1.6,18,"
"##MN-00 00 60 0114 01925 5853 437570 346860 199"
"159.010521"
"$GPGGA,001506,2431.6837,N,08042.2818,W,1,9,1.6,18,"
"##MN-00 00 60 0116 01928 5853 437745 346952 199"
"159.010567"
"$GPGGA,001510,2431.6837,N,08042.2821,W,1,9,1.6,18,"
"##MN-00 00 60 0117 01930 5852 437876 347031 199"
"159.010613"
"$GPGGA,001514,2431.6835,N,08042.2822,W,1,9,1.6,18,"
"##MN-00 00 60 0118 01936 5852 437976 347099 199"
"159.01066"
"$GPGGA,001518,2431.6833,N,08042.2826,W,1,9,1.6,18,"
"##MN-00 00 60 0119 01940 5851 438062 347122 199"
"159.010706"
"$GPGGA,001522,2431.6832,N,08042.2830,W,1,9,1.6,18,"
"##MN-00 00 61 0120 01943 5851 438173 347143 199"
"159.010752"
"$GPGGA,001526,2431.6829,N,08042.2833,W,1,8,1.6,18,"
"##MN-00 00 60 0121 01947 5850 438256 347176 199"
"159.010799"
"$GPGGA,001530,2431.6825,N,08042.2836,W,1,8,1.6,18,"
"##MN-00 00 60 0122 01951 5849 438317 347180 199"
"159.010845"
"$GPGGA,001534,2431.6822,N,08042.2837,W,1,8,1.6,18,"
"##MN-00 00 60 0123 01956 5849 438392 347245 199"
"159.010891"
"$GPGGA,001538,2431.6818,N,08042.2839,W,1,9,1.6,18,"
"##MN-00 00 61 0124 01957 5848 438452 347279 199"
"159.010937"
"$GPGGA,001542,2431.6814,N,08042.2843,W,1,9,1.6,18,"
"##MN-00 00 60 0125 01961 5848 438503 347285 199"
"159.010984"
"$GPGGA,001546,2431.6808,N,08042.2844,W,1,8,1.6,18,"
"##MN-00 00 60 0126 01965 5847 438562 347332 199"
"159.01103"
"$GPGGA,001550,2431.6803,N,08042.2845,W,1,8,1.6,18,"
"##MN-00 00 59 0127 01967 5847 438648 347353 199"
"159.011076"
"$GPGGA,001554,2431.6799,N,08042.2847,W,1,8,1.6,18,"
"##MN-00 00 60 0129 01969 5846 438754 347365 199"
"159.011123"
"$GPGGA,001558,2431.6796,N,08042.2850,W,1,8,1.6,18,"
"##MN-00 00 59 0130 01967 5845 438802 347369 199"
"159.011169"
"$GPGGA,001602,2431.6792,N,08042.2850,W,1,8,1.6,18,"
"##MN-00 00 60 0131 01966 5845 438821 347371 199"
"159.011215"
"$GPGGA,001606,2431.6789,N,08042.2851,W,1,8,1.6,18,"
"##MN-00 00 59 0132 01967 5844 438841 347390 199"
"159.011262"
"$GPGGA,001610,2431.6787,N,08042.2852,W,1,8,1.6,18,"
"##MN-00 00 61 0133 01967 5843 438851 347423 199"
"159.011308"
"$GPGGA,001614,2431.6785,N,08042.2854,W,1,8,1.6,18,"
"##MN-00 00 60 0134 01967 5842 438859 347424 199"
"159.011354"
"$GPGGA,001618,2431.6781,N,08042.2852,W,1,8,1.6,18,"
"##MN-00 00 59 0136 01968 5842 438862 347420 199"
"159.0114"
"$GPGGA,001622,2431.6776,N,08042.2852,W,1,8,1.6,17,"
"##MN-00 00 60 0137 01969 5841 438858 347419 199"
"159.011447"
"$GPGGA,001626,2431.6772,N,08042.2853,W,1,9,1.6,17,"
"##MN-00 00 59 0138 01969 5840 438857 347428 199"
"159.011493"
"$GPGGA,001630,2431.6770,N,08042.2854,W,1,9,1.6,17,"
"##MN-00 00 60 0139 01970 5839 438855 347433 199"
"159.011539"
"$GPGGA,001634,2431.6768,N,08042.2855,W,1,9,1.6,17,"
"##MN-00 00 59 0140 01970 5838 438863 347441 199"
"159.011586"
"$GPGGA,001638,2431.6765,N,08042.2857,W,1,9,1.6,17,"
"##MN-00 00 60 0142 01971 5838 438864 347439 199"
"159.011632"
"$GPGGA,001642,2431.6763,N,08042.2858,W,1,8,2.2,17,"
"##MN-00 00 58 0143 01973 5837 438863 347439 199"
"159.011678"
"$GPGGA,001646,2431.6756,N,08042.2857,W,1,8,1.6,17,"
"##MN-00 00 60 0144 01971 5836 438867 347445 199"
"159.011725"
"$GPGGA,001650,2431.6752,N,08042.2857,W,1,9,1.6,17,"
"##MN-00 00 58 0145 01968 5835 438867 347451 199"
"159.011771"
"$GPGGA,001654,2431.6751,N,08042.2858,W,1,9,1.6,18,"
"##MN-00 00 58 0146 01967 5835 438834 347451 199"
"159.011817"
"$GPGGA,001658,2431.6749,N,08042.2861,W,1,9,1.6,18,"
"##MN-00 00 60 0148 01967 5833 438798 347447 199"
"159.011863"
"$GPGGA,001702,2431.6749,N,08042.2863,W,1,9,1.6,18,"
"##MN-00 00 57 0149 01965 5833 438762 347441 199"
"159.01191"
"$GPGGA,001706,2431.6749,N,08042.2865,W,1,9,1.6,18,"
"##MN-00 00 60 0150 01965 5832 438723 347422 199"
"159.011956"
"$GPGGA,001710,2431.6749,N,08042.2868,W,1,9,1.6,19,"
"##MN-00 00 59 0151 01966 5831 438691 347411 199"
"159.012002"
"$GPGGA,001714,2431.6749,N,08042.2870,W,1,9,1.6,19,"
"##MN+00 00 59 0152 01967 5830 438678 347405 199"
"159.012049"
"$GPGGA,001718,2431.6748,N,08042.2872,W,1,9,1.6,19,"
"##MN+00 00 59 0153 01967 5829 438662 347410 199"
"159.012095"
"$GPGGA,001722,2431.6749,N,08042.2879,W,1,8,1.6,19,"
"##MN+00 00 58 0154 01968 5828 438633 347408 199"
"159.012141"
"$GPGGA,001726,2431.6751,N,08042.2884,W,1,9,1.6,18,"
"##MN-00 00 60 0156 01967 5827 438611 347402 199"
"159.012187"
"$GPGGA,001730,2431.6749,N,08042.2886,W,1,8,1.6,18,"
"##MN+00 00 60 0157 01968 5827 438599 347399 199"
"159.012234"
"$GPGGA,001734,2431.6746,N,08042.2887,W,1,9,1.6,18,"
"##MN+00 00 59 0158 01965 5826 438585 347393 199"
"159.01228"
"$GPGGA,001738,2431.6743,N,08042.2890,W,1,9,1.6,18,"
"##MN+00 00 67 0159 01968 5825 438558 347382 199"
"159.012326"
"#increment_net"
"$GPGGA,001742,2431.6742,N,08042.2891,W,1,9,1.6,18,"
"##MN-00 00 62 0160 01966 5824 438555 347375 199"
"159.012373"
"$GPGGA,001746,2431.6742,N,08042.2897,W,1,9,1.6,18,"
"##MN-00 00 58 0161 01965 5823 438543 347367 199"
"159.012419"
"$GPGGA,001750,2431.6742,N,08042.2899,W,1,9,1.6,18,"
"##MN-00 00 58 0162 01963 5822 438513 347371 199"
"159.012465"
"$GPGGA,001754,2431.6741,N,08042.2902,W,1,9,1.6,18,"
"##MN-00 00 58 0164 01964 5821 438486 347367 199"
"159.012512"
"$GPGGA,001758,2431.6740,N,08042.2905,W,1,9,1.6,18,"
"##MN-00 00 58 0165 01960 5820 438469 347356 199"
"159.012558"
"$GPGGA,001802,2431.6738,N,08042.2908,W,1,9,1.6,18,"
"##MN-00 00 58 0166 01957 5820 438455 347351 199"
"159.012604"
"$GPGGA,001806,2431.6736,N,08042.2910,W,1,9,1.6,18,"
"##MN-00 00 58 0167 01959 5819 438446 347350 199"
"159.01265"
"$GPGGA,001810,2431.6736,N,08042.2912,W,1,9,1.6,18,"
"##MN-00 00 57 0168 01961 5817 438437 347341 199"
"159.012697"
"$GPGGA,001814,2431.6736,N,08042.2913,W,1,9,1.6,18,"
"##MN-00 00 58 0169 01957 5817 438429 347338 199"
"159.012743"
"$GPGGA,001818,2431.6734,N,08042.2916,W,1,9,1.6,18,"
"##MN-00 00 58 0170 01958 5816 438422 347335 199"
"159.012789"
"$GPGGA,001822,2431.6732,N,08042.2919,W,1,9,1.6,18,"
"##MN-00 00 58 0172 01957 5815 438414 347331 199"
"159.012836"
"$GPGGA,001826,2431.6730,N,08042.2919,W,1,9,1.6,18,"
"##MN-00 00 59 0173 01958 5814 438400 347329 199"
"159.012882"
"$GPGGA,001830,2431.6730,N,08042.2921,W,1,9,1.6,18,"
"##MN-00 00 59 0174 01957 5813 438388 347326 199"
"159.012928"
"$GPGGA,001834,2431.6730,N,08042.2923,W,1,9,1.6,18,"
"##MN-00 00 59 0175 01961 5812 438374 347320 199"
"159.012975"
"$GPGGA,001838,2431.6729,N,08042.2925,W,1,9,1.6,18,"
"##MN-00 00 60 0176 01960 5811 438372 347310 199"
"159.013021"
"$GPGGA,001842,2431.6727,N,08042.2927,W,1,8,1.6,18,"
"##MN-00 00 58 0177 01962 5810 438383 347311 199"
"159.013067"
"$GPGGA,001846,2431.6727,N,08042.2929,W,1,9,1.6,18,"
"##MN-00 00 58 0178 01959 5809 438387 347311 199"
"159.013113"
"$GPGGA,001850,2431.6725,N,08042.2931,W,1,9,1.6,18,"
"##MN-00 00 59 0179 01960 5808 438375 347304 199"
"159.01316"
"$GPGGA,001854,2431.6724,N,08042.2934,W,1,9,1.6,18,"
"##MN-00 00 60 0180 01960 5807 438364 347305 199"
"159.013206"
"$GPGGA,001858,2431.6724,N,08042.2935,W,1,9,1.6,18,"
"##MN-00 00 58 0181 01961 5806 438366 347304 199"
"159.013252"
"$GPGGA,001902,2431.6726,N,08042.2937,W,1,9,1.6,17,"
"##MN-00 00 59 0183 01960 5805 438365 347303 199"
"159.013299"
"$GPGGA,001906,2431.6722,N,08042.2938,W,1,9,1.6,17,"
"##MN-00 00 58 0184 01960 5804 438353 347301 199"
"159.013345"
"$GPGGA,001910,2431.6722,N,08042.2939,W,1,8,1.6,17,"
"##MN-00 00 59 0185 01963 5803 438356 347297 199"
"159.013391"
"$GPGGA,001914,2431.6720,N,08042.2941,W,1,8,1.6,17,"
"##MN+00 00 58 0186 01961 5802 438359 347297 199"
"159.013437"
"$GPGGA,001919,2431.6720,N,08042.2945,W,1,9,1.6,17,"
"##MN+00 00 59 0187 01961 5801 438362 347298 199"
"159.013484"
"$GPGGA,001923,2431.6719,N,08042.2946,W,1,9,1.6,17,"
"##MN+00 00 58 0188 01959 5800 438358 347300 199"
"159.01353"
"$GPGGA,001927,2431.6717,N,08042.2947,W,1,9,1.6,17,"
"##MN-00 00 58 0189 01961 5799 438354 347300 199"
"159.013576"
"$GPGGA,001931,2431.6716,N,08042.2948,W,1,9,1.6,17,"
"##MN-00 00 59 0190 01960 5798 438344 347300 199"
"159.013623"
"$GPGGA,001935,2431.6716,N,08042.2949,W,1,9,1.6,16,"
"##MN-00 00 58 0191 01960 5798 438327 347295 199"
"159.013681"
"$GPGGA,001939,2431.6714,N,08042.2951,W,1,9,1.6,16,"
"##MN-00 00 60 0193 01960 5796 438321 347295 199"
"159.013727"
"$GPGGA,001943,2431.6713,N,08042.2952,W,1,9,1.6,16,"
"##MN+00 00 58 0194 01961 5795 438341 347292 199"
"159.013773"
"$GPGGA,001947,2431.6713,N,08042.2953,W,1,8,1.6,16,"
"##MN+00 00 59 0195 01960 5794 438340 347293 199"
"159.013819"
"$GPGGA,001951,2431.6712,N,08042.2954,W,1,9,1.6,16,"
"##MN+00 00 70 0196 01964 5793 438322 347288 199"
"159.013866"
"#increment_net"
"$GPGGA,001955,2431.6711,N,08042.2956,W,1,9,1.6,16,"
"##MN-00 00 63 0197 01964 5792 438339 347286 199"
"159.013912"
"$GPGGA,001959,2431.6709,N,08042.2957,W,1,8,1.6,16,"
"##MN-00 00 59 0198 01963 5791 438348 347287 199"
"159.013958"
"$GPGGA,002003,2431.6709,N,08042.2959,W,1,9,1.6,15,"
"##MN-00 00 59 0199 01961 5790 438352 347288 199"
"159.014005"
"$GPGGA,002007,2431.6706,N,08042.2962,W,1,9,1.6,15,"
"##MN-00 00 58 0200 01962 5789 438337 347288 199"
"159.014051"
"$GPGGA,002011,2431.6706,N,08042.2963,W,1,9,1.6,15,"
"##MN-00 00 58 0202 01961 5788 438301 347283 199"
"159.014097"
"$GPGGA,002015,2431.6704,N,08042.2966,W,1,9,1.6,15,"
"##MN-00 00 58 0203 01959 5787 438279 347275 199"
"159.014144"
"$GPGGA,002019,2431.6704,N,08042.2966,W,1,9,1.6,15,"
"##MN-00 00 58 0204 01959 5787 438264 347273 199"
"159.01419"
"$GPGGA,002023,2431.6702,N,08042.2967,W,1,9,1.6,15,"
"##MN-00 00 58 0205 01959 5786 438246 347268 199"
"159.014236"
"$GPGGA,002027,2431.6702,N,08042.2970,W,1,9,1.6,15,"
"##MN-00 00 58 0206 01959 5784 438232 347260 199"
"159.014282"
"$GPGGA,002031,2431.6701,N,08042.2970,W,1,9,1.6,15,"
"##MN-00 00 58 0207 01959 5784 438219 347258 199"
"159.014329"
"$GPGGA,002035,2431.6699,N,08042.2973,W,1,9,1.6,15,"
"##MN-00 00 58 0209 01958 5782 438216 347256 199"
"159.014375"
"$GPGGA,002039,2431.6698,N,08042.2973,W,1,9,1.6,15,"
"##MN-00 00 58 0210 01959 5781 438210 347256 199"
"159.014421"
"$GPGGA,002043,2431.6697,N,08042.2974,W,1,9,1.6,15,"
"##MN-00 00 58 0211 01959 5781 438203 347252 199"
"159.014468"
"$GPGGA,002047,2431.6695,N,08042.2975,W,1,9,1.6,15,"
"##MN-00 00 59 0212 01960 5779 438201 347249 199"
"159.014514"
"$GPGGA,002051,2431.6694,N,08042.2977,W,1,9,1.6,15,"
"##MN-00 00 58 0213 01962 5778 438208 347248 199"
"159.01456"
"$GPGGA,002055,2431.6693,N,08042.2978,W,1,9,1.6,15,"
"##MN-00 00 58 0214 01964 5778 438211 347248 199"
"159.014606"
"$GPGGA,002059,2431.6691,N,08042.2978,W,1,9,1.6,15,"
"##MN-00 00 58 0215 01961 5777 438210 347249 199"
"159.014653"
"$GPGGA,002103,2431.6691,N,08042.2980,W,1,9,1.6,15,"
"##MN-00 00 58 0216 01962 5776 438204 347249 199"
"159.014699"
"$GPGGA,002107,2431.6691,N,08042.2980,W,1,9,1.6,15,"
"##MN-00 00 58 0218 01962 5775 438196 347249 199"
"159.014745"
"$GPGGA,002111,2431.6688,N,08042.2981,W,1,9,1.6,15,"
"##MN-00 00 58 0219 01961 5774 438189 347248 199"
"159.014792"
"$GPGGA,002115,2431.6687,N,08042.2984,W,1,9,1.6,15,"
"##MN-00 00 58 0220 01962 5773 438185 347245 199"
"159.014838"
"$GPGGA,002119,2431.6686,N,08042.2984,W,1,9,1.6,15,"
"##MN-00 00 58 0221 01963 5772 438185 347244 199"
"159.014884"
"$GPGGA,002123,2431.6685,N,08042.2985,W,1,9,1.6,15,"
"##MN-00 00 58 0222 01961 5771 438177 347242 199"
"159.014931"
"$GPGGA,002127,2431.6685,N,08042.2987,W,1,9,1.6,16,"
"##MN+00 00 57 0223 01961 5770 438167 347242 199"
"159.014977"
"$GPGGA,002131,2431.6684,N,08042.2989,W,1,9,1.6,16,"
"##MN+00 00 58 0224 01960 5769 438154 347236 199"
"159.015023"
"$GPGGA,002135,2431.6684,N,08042.2991,W,1,9,1.6,16,"
"##MN+00 00 58 0226 01963 5768 438152 347234 198"
"159.015069"
"$GPGGA,002139,2431.6682,N,08042.2992,W,1,9,1.6,16,"
"##MN-00 00 58 0227 01960 5767 438168 347235 198"
"159.015116"
"$GPGGA,002143,2431.6681,N,08042.2993,W,1,9,1.6,16,"
"##MN-00 00 58 0228 01960 5766 438181 347237 198"
"159.015162"
"$GPGGA,002147,2431.6680,N,08042.2994,W,1,9,1.6,16,"
"##MN-00 00 58 0229 01960 5765 438178 347233 198"
"159.015208"
"$GPGGA,002151,2431.6680,N,08042.2995,W,1,9,1.6,17,"
"##MN+00 00 58 0230 01962 5764 438167 347236 198"
"159.015255"
"$GPGGA,002155,2431.6677,N,08042.2995,W,1,9,1.6,17,"
"##MN+00 00 58 0231 01962 5763 438161 347235 198"
"159.015301"
"$GPGGA,002159,2431.6676,N,08042.2996,W,1,9,1.6,17,"
"##MN+00 00 71 0233 01965 5763 438161 347233 199"
"159.015347"
"#increment_net"
"$GPGGA,002203,2431.6675,N,08042.2998,W,1,9,1.6,17,"
"##MN-00 00 63 0234 01966 5762 438207 347245 198"
"159.015394"
"$GPGGA,002207,2431.6674,N,08042.2999,W,1,9,1.6,17,"
"##MN-00 00 61 0235 01962 5761 438250 347255 199"
"159.01544"
"$GPGGA,002211,2431.6673,N,08042.3000,W,1,9,1.6,17,"
"##MN-00 00 58 0236 01963 5760 438267 347260 199"
"159.015486"
"$GPGGA,002215,2431.6673,N,08042.3002,W,1,9,1.6,17,"
"##MN-00 00 58 0237 01962 5758 438270 347262 199"
"159.015532"
"$GPGGA,002219,2431.6671,N,08042.3003,W,1,9,1.6,17,"
"##MN-00 00 58 0238 01962 5758 438259 347263 199"
"159.015579"
"$GPGGA,002223,2431.6669,N,08042.3004,W,1,9,1.6,17,"
"##MN-00 00 57 0239 01963 5756 438222 347260 199"
"159.015625"
"$GPGGA,002227,2431.6669,N,08042.3006,W,1,9,1.6,17,"
"##MN-00 00 57 0241 01962 5755 438206 347253 199"
"159.015671"
"$GPGGA,002231,2431.6666,N,08042.3008,W,1,9,1.6,17,"
"##MN-00 00 57 0242 01962 5755 438207 347242 199"
"159.015718"
"$GPGGA,002235,2431.6665,N,08042.3010,W,1,9,1.6,17,"
"##MN-00 00 58 0243 01962 5754 438219 347248 199"
"159.015764"
"$GPGGA,002239,2431.6665,N,08042.3011,W,1,9,1.6,17,"
"##MN-00 00 57 0244 01962 5753 438220 347244 199"
"159.01581"
"$GPGGA,002243,2431.6665,N,08042.3012,W,1,9,1.6,17,"
"##MN-00 00 57 0245 01961 5752 438198 347243 199"
"159.015856"
"$GPGGA,002247,2431.6662,N,08042.3014,W,1,9,1.6,17,"
"##MN-00 00 57 0246 01962 5751 438182 347241 199"
"159.015903"
"$GPGGA,002251,2431.6662,N,08042.3016,W,1,9,1.6,17,"
"##MN-00 00 57 0248 01963 5750 438172 347233 198"
"159.015949"
"$GPGGA,002255,2431.6662,N,08042.3017,W,1,9,1.6,17,"
"##MN-00 00 57 0249 01960 5749 438175 347231 199"
"159.015995"
"$GPGGA,002259,2431.6660,N,08042.3018,W,1,9,1.6,17,"
"##MN-00 00 57 0250 01961 5748 438182 347230 198"
"159.016042"
"$GPGGA,002303,2431.6659,N,08042.3020,W,1,9,1.6,17,"
"##MN-00 00 58 0251 01962 5747 438187 347234 198"
"159.016088"
"$GPGGA,002307,2431.6659,N,08042.3021,W,1,9,1.6,17,"
"##MN-00 00 57 0252 01962 5746 438196 347241 199"
"159.016134"
"$GPGGA,002311,2431.6657,N,08042.3022,W,1,9,1.6,17,"
"##MN-00 00 58 0253 01962 5745 438206 347242 199"
"159.016181"
"$GPGGA,002315,2431.6657,N,08042.3024,W,1,9,1.6,17,"
"##MN-00 00 57 0255 01961 5744 438214 347245 198"
"159.016227"
"$GPGGA,002319,2431.6657,N,08042.3025,W,1,9,1.6,17,"
"##MN-00 00 57 0256 01962 5743 438217 347245 198"
"159.016273"
"$GPGGA,002323,2431.6658,N,08042.3027,W,1,9,1.6,17,"
"##MN-00 00 57 0257 01962 5742 438225 347247 199"
"159.016319"
"$GPGGA,002327,2431.6657,N,08042.3028,W,1,9,1.6,17,"
"##MN-00 00 58 0258 01960 5741 438232 347249 198"
"159.016366"
"$GPGGA,002331,2431.6655,N,08042.3029,W,1,9,1.6,17,"
"##MN+00 00 58 0259 01962 5740 438228 347250 198"
"159.016412"
"$GPGGA,002335,2431.6655,N,08042.3031,W,1,9,1.6,17,"
"##MN+00 00 56 0260 01962 5740 438229 347241 198"
"159.016458"
"$GPGGA,002339,2431.6655,N,08042.3031,W,1,9,1.6,17,"
"##MN+00 00 57 0262 01960 5739 438234 347242 198"
"159.016505"
"$GPGGA,002343,2431.6653,N,08042.3032,W,1,9,1.6,17,"
"##MN-00 00 57 0263 01961 5738 438238 347242 198"
"159.016551"
"$GPGGA,002347,2431.6652,N,08042.3033,W,1,9,1.6,17,"
"##MN-00 00 58 0264 01962 5737 438239 347245 198"
"159.016597"
"$GPGGA,002351,2431.6651,N,08042.3035,W,1,9,1.6,17,"
"##MN-00 00 57 0265 01962 5736 438241 347247 198"
"159.016644"
"$GPGGA,002356,2431.6651,N,08042.3036,W,1,9,1.6,17,"
"##MN+00 00 58 0266 01961 5735 438248 347248 198"
"159.01669"
"$GPGGA,002400,2431.6651,N,08042.3038,W,1,9,1.6,17,"
"##MN+00 00 57 0268 01963 5734 438266 347250 198"
"159.016736"
"$GPGGA,002404,2431.6649,N,08042.3040,W,1,9,1.6,17,"
"##MN+00 00 70 0269 01966 5733 438278 347256 198"
"159.016782"
"#increment_net"
"$GPGGA,002408,2431.6648,N,08042.3041,W,1,9,1.6,17,"
"##MN-00 00 63 0270 01966 5732 438298 347264 198"
"159.016829"
"$GPGGA,002412,2431.6647,N,08042.3043,W,1,9,1.6,17,"
"##MN-00 00 58 0271 01965 5732 438323 347265 198"
"159.016875"
"$GPGGA,002416,2431.6646,N,08042.3044,W,1,9,1.6,16,"
"##MN-00 00 58 0272 01963 5731 438317 347272 198"
"159.016933"
"$GPGGA,002420,2431.6646,N,08042.3046,W,1,9,1.6,16,"
"##MN-00 00 57 0273 01962 5730 438306 347268 198"
"159.016979"
"$GPGGA,002424,2431.6644,N,08042.3047,W,1,9,1.6,16,"
"##MN-00 00 55 0275 01962 5729 438280 347263 198"
"159.017025"
"$GPGGA,002428,2431.6644,N,08042.3048,W,1,9,1.6,16,"
"##MN-00 00 58 0276 01961 5728 438238 347252 198"
"159.017072"
"$GPGGA,002432,2431.6644,N,08042.3050,W,1,9,1.6,16,"
"##MN-00 00 56 0277 01962 5727 438197 347243 198"
"159.017118"
"$GPGGA,002436,2431.6642,N,08042.3051,W,1,9,1.6,16,"
"##MN-00 00 58 0278 01961 5726 438163 347237 198"
"159.017164"
"$GPGGA,002440,2431.6642,N,08042.3052,W,1,9,1.6,16,"
"##MN-00 00 57 0280 01962 5725 438137 347230 198"
"159.017211"
"$GPGGA,002444,2431.6641,N,08042.3054,W,1,9,1.6,16,"
"##MN-00 00 57 0281 01959 5724 438102 347215 198"
"159.017257"
"$GPGGA,002448,2431.6640,N,08042.3055,W,1,9,1.6,16,"
"##MN-00 00 57 0282 01962 5723 438081 347208 198"
"159.017303"
"$GPGGA,002452,2431.6640,N,08042.3056,W,1,9,1.6,16,"
"##MN-00 00 58 0283 01960 5723 438077 347205 198"
"159.01735"
"$GPGGA,002456,2431.6637,N,08042.3057,W,1,9,1.6,16,"
"##MN-00 00 57 0284 01961 5722 438068 347199 198"
"159.017396"
"$GPGGA,002500,2431.6637,N,08042.3058,W,1,9,1.6,16,"
"##MN-00 00 57 0286 01960 5721 438054 347197 198"
"159.017442"
"$GPGGA,002504,2431.6635,N,08042.3059,W,1,9,1.6,16,"
"##MN-00 00 57 0287 01961 5720 438051 347196 198"
"159.017488"
"$GPGGA,002508,2431.6635,N,08042.3060,W,1,9,1.6,16,"
"##MN-00 00 57 0288 01959 5719 438048 347194 198"
"159.017535"
"$GPGGA,002512,2431.6634,N,08042.3061,W,1,9,1.6,16,"
"##MN-00 00 57 0289 01960 5718 438047 347193 198"
"159.017581"
"$GPGGA,002516,2431.6635,N,08042.3063,W,1,9,1.6,16,"
"##MN-00 00 58 0290 01961 5717 438045 347181 198"
"159.017627"
"$GPGGA,002520,2431.6635,N,08042.3063,W,1,9,1.6,15,"
"##MN-00 00 57 0292 01960 5717 438041 347110 198"
"159.017674"
"$GPGGA,002524,2431.6635,N,08042.3065,W,1,9,1.6,15,"
"##MN-00 00 58 0293 01960 5716 438035 347120 198"
"159.01772"
"$GPGGA,002528,2431.6635,N,08042.3067,W,1,9,1.6,15,"
"##MN-00 00 57 0294 01959 5715 438027 347157 198"
"159.017766"
"$GPGGA,002532,2431.6635,N,08042.3069,W,1,9,1.6,15,"
"##MN+00 00 58 0295 01961 5714 438022 347080 198"
"159.017813"
"$GPGGA,002536,2431.6634,N,08042.3070,W,1,9,1.6,15,"
"##MN+00 00 57 0296 01960 5713 438016 347088 198"
"159.017859"
"$GPGGA,002540,2431.6633,N,08042.3072,W,1,9,1.6,15,"
"##MN+00 00 58 0298 01960 5712 438015 347085 198"
"159.017905"
"$GPGGA,002544,2431.6632,N,08042.3074,W,1,9,1.6,15,"
"##MN-00 00 58 0299 01961 5711 438014 347085 198"
"159.017951"
"$GPGGA,002548,2431.6632,N,08042.3075,W,1,9,1.6,15,"
"##MN-00 00 58 0300 01961 5711 438018 347083 198"
"159.017998"
"$GPGGA,002552,2431.6629,N,08042.3076,W,1,8,1.6,15,"
"##MN-00 00 57 0301 01964 5710 438021 347083 198"
"159.018044"
"$GPGGA,002556,2431.6632,N,08042.3079,W,1,9,1.6,15,"
"##MN+00 00 58 0302 01962 5709 438020 347084 198"
"159.01809"
"$GPGGA,002600,2431.6632,N,08042.3081,W,1,9,1.6,15,"
"##MN+00 00 58 0304 01963 5708 438019 347085 198"
"159.018137"
"$GPGGA,002604,2431.6633,N,08042.3082,W,1,9,1.6,15,"
"##MN+00 00 72 0305 01968 5707 438016 347078 198"
"159.018183"
"#increment_net"
"$GPGGA,002608,2431.6633,N,08042.3085,W,1,9,1.6,15,"
"##MN-00 00 66 0306 01968 5707 438021 347137 198"
"159.018229"
"$GPGGA,002612,2431.6630,N,08042.3086,W,1,9,1.6,15,"
"##MN-00 00 61 0308 01976 5706 438058 347151 198"
"159.018275"
"$GPGGA,002616,2431.6628,N,08042.3088,W,1,9,1.6,15,"
"##MN-00 00 61 0309 01983 5705 438172 347198 198"
"159.018322"
"$GPGGA,002620,2431.6626,N,08042.3092,W,1,9,1.6,15,"
"##MN-00 00 57 0310 01989 5704 438296 347240 198"
"159.018368"
"$GPGGA,002624,2431.6625,N,08042.3093,W,1,9,1.6,15,"
"##MN-00 00 58 0312 01989 5704 438439 347266 198"
"159.018414"
"$GPGGA,002628,2431.6622,N,08042.3096,W,1,9,1.6,15,"
"##MN-00 00 60 0314 01990 5703 438540 347313 198"
"159.018461"
"$GPGGA,002632,2431.6618,N,08042.3100,W,1,9,1.6,15,"
"##MN-00 00 57 0315 01989 5701 438573 347324 198"
"159.018507"
"$GPGGA,002636,2431.6615,N,08042.3101,W,1,9,1.6,16,"
"##MN-00 00 57 0317 01989 5701 438597 347342 198"
"159.018553"
"$GPGGA,002640,2431.6612,N,08042.3105,W,1,9,1.6,16,"
"##MN-00 00 56 0318 01986 5700 438597 347352 198"
"159.0186"
"$GPGGA,002644,2431.6610,N,08042.3108,W,1,9,1.6,16,"
"##MN-00 00 57 0320 01984 5699 438566 347347 198"
"159.018646"
"$GPGGA,002648,2431.6608,N,08042.3111,W,1,9,1.6,16,"
"##MN-00 00 55 0321 01983 5698 438518 347337 198"
"159.018692"
"$GPGGA,002652,2431.6604,N,08042.3114,W,1,9,1.6,16,"
"##MN-00 00 56 0323 01979 5697 438461 347319 198"
"159.018738"
"$GPGGA,002656,2431.6601,N,08042.3117,W,1,9,1.6,16,"
"##MN-00 00 55 0324 01978 5696 438406 347301 198"
"159.018785"
"$GPGGA,002700,2431.6598,N,08042.3121,W,1,9,1.6,16,"
"##MN-00 00 56 0326 01974 5696 438370 347303 198"
"159.018831"
"$GPGGA,002704,2431.6594,N,08042.3124,W,1,9,1.6,16,"
"##MN-00 00 57 0327 01971 5695 438325 347292 198"
"159.018877"
"$GPGGA,002708,2431.6591,N,08042.3129,W,1,9,1.6,16,"
"##MN-00 00 55 0329 01967 5694 438255 347275 198"
"159.018924"
"$GPGGA,002712,2431.6587,N,08042.3132,W,1,9,1.6,16,"
"##MN-00 00 56 0330 01964 5693 438153 347253 198"
"159.01897"
"$GPGGA,002716,2431.6583,N,08042.3137,W,1,9,1.6,16,"
"##MN-00 00 56 0332 01963 5693 438072 347236 198"
"159.019016"
"$GPGGA,002720,2431.6580,N,08042.3141,W,1,9,1.6,17,"
"##MN-00 00 57 0333 01956 5692 438004 347215 198"
"159.019063"
"$GPGGA,002724,2431.6577,N,08042.3145,W,1,9,1.6,17,"
"##MN-00 00 55 0335 01954 5691 437966 347193 198"
"159.019109"
"$GPGGA,002728,2431.6573,N,08042.3150,W,1,9,1.7,17,"
"##MN-00 00 56 0336 01949 5690 437870 347152 198"
"159.019155"
"$GPGGA,002732,2431.6571,N,08042.3154,W,1,8,1.7,17,"
"##MN-00 00 56 0338 01947 5690 437814 347151 198"
"159.019201"
"$GPGGA,002736,2431.6565,N,08042.3158,W,1,8,1.7,17,"
"##MN-00 00 55 0339 01944 5689 437798 347144 198"
"159.019248"
"$GPGGA,002740,2431.6561,N,08042.3162,W,1,8,1.7,17,"
"##MN-00 00 56 0341 01940 5688 437788 347143 198"
"159.019294"
"$GPGGA,002744,2431.6557,N,08042.3168,W,1,8,1.7,18,"
"##MN-00 00 55 0342 01935 5687 437780 347133 198"
"159.01934"
"$GPGGA,002748,2431.6553,N,08042.3172,W,1,8,1.7,18,"
"##MN-00 00 55 0344 01932 5686 437766 347129 198"
"159.019387"
"$GPGGA,002752,2431.6550,N,08042.3175,W,1,8,1.7,18,"
"##MN-00 00 55 0346 01929 5685 437762 347129 198"
"159.019433"
"$GPGGA,002756,2431.6545,N,08042.3179,W,1,8,1.7,18,"
"##MN-00 00 57 0347 01926 5685 437760 347126 198"
"159.019479"
"$GPGGA,002800,2431.6541,N,08042.3184,W,1,8,1.7,18,"
"##MN-00 00 56 0349 01922 5684 437761 347129 198"
"159.019525"
"$GPGGA,002804,2431.6539,N,08042.3187,W,1,8,1.7,18,"
"##MN-00 00 56 0350 01918 5683 437763 347127 198"
"159.019572"
"$GPGGA,002808,2431.6534,N,08042.3190,W,1,8,1.7,18,"
"##MN-00 00 55 0352 01917 5682 437761 347124 198"
"159.019618"
"$GPGGA,002812,2431.6530,N,08042.3194,W,1,8,1.7,18,"
"##MN-00 00 55 0353 01913 5682 437751 347118 198"
"159.019664"
"$GPGGA,002816,2431.6528,N,08042.3198,W,1,8,1.7,18,"
"##MN-00 00 54 0354 01910 5681 437718 347113 198"
"159.019711"
"$GPGGA,002821,2431.6524,N,08042.3202,W,1,8,1.7,18,"
"##MN-00 00 54 0356 01906 5680 437647 347094 198"
"159.019757"
"$GPGGA,002824,2431.6521,N,08042.3204,W,1,8,1.7,18,"
"##MN-00 00 54 0357 01904 5679 437555 347082 198"
"159.019803"
"$GPGGA,002828,2431.6518,N,08042.3208,W,1,8,1.7,18,"
"##MN-00 00 54 0359 01900 5679 437525 347077 198"
"159.01985"
"$GPGGA,002832,2431.6515,N,08042.3212,W,1,8,1.7,18,"
"##MN-00 00 54 0360 01899 5678 437497 347063 198"
"159.019896"
"$GPGGA,002837,2431.6511,N,08042.3215,W,1,8,1.7,18,"
"##MN-00 00 55 0362 01895 5677 437432 347041 198"
"159.019942"
"$GPGGA,002841,2431.6510,N,08042.3219,W,1,8,1.7,18,"
"##MN-00 00 54 0363 01892 5676 437307 347006 198"
"159.019988"
"$GPGGA,002845,2431.6507,N,08042.3223,W,1,8,1.7,18,"
"##MN-00 00 54 0365 01886 5676 437173 346950 198"
"159.020035"
"$GPGGA,002849,2431.6503,N,08042.3224,W,1,8,1.7,18,"
"##MN-00 00 54 0366 01884 5675 436983 346913 198"
"159.020081"
"$GPGGA,002853,2431.6499,N,08042.3228,W,1,8,1.7,18,"
"##MN-00 00 54 0368 01880 5675 436825 346851 198"
"159.020127"
"$GPGGA,002857,2431.6498,N,08042.3231,W,1,8,1.7,19,"
"##MN-00 00 54 0369 01878 5674 436348 346757 198"
"159.020185"
"$GPGGA,002900,2431.6494,N,08042.3232,W,1,8,1.7,19,"
"##MN-00 00 55 0371 01873 5673 435880 346628 198"
"159.020231"
"$GPGGA,002905,2431.6492,N,08042.3237,W,1,8,1.7,19,"
"##MN-00 00 54 0372 01869 5673 435534 346488 198"
"159.020278"
"$GPGGA,002909,2431.6488,N,08042.3240,W,1,8,1.7,19,"
"##MN-00 00 54 0374 01865 5672 434966 346463 198"
"159.020324"
"$GPGGA,002913,2431.6487,N,08042.3242,W,1,8,1.7,19,"
"##MN-00 00 54 0375 01863 5671 433658 346049 198"
"159.02037"
"$GPGGA,002917,2431.6484,N,08042.3248,W,1,8,1.7,19,"
"##MN-00 00 54 0377 01862 5670 432688 345695 198"
"159.020417"
"$GPGGA,002921,2431.6480,N,08042.3251,W,1,8,1.7,19,"
"##MN-00 00 54 0378 01863 5670 432181 345562 198"
"159.020463"
"$GPGGA,002925,2431.6476,N,08042.3253,W,1,8,1.7,19,"
"##MN-00 00 56 0380 01862 5669 431893 345431 198"
"159.020509"
"$GPGGA,002929,2431.6472,N,08042.3258,W,1,8,1.7,19,"
"##MN-00 00 56 0381 01860 5669 431803 345304 198"
"159.020556"
"$GPGGA,002933,2431.6469,N,08042.3262,W,1,8,1.7,20,"
"##MN-00 00 55 0383 01859 5668 431764 345214 198"
"159.020602"
"$GPGGA,002937,2431.6467,N,08042.3266,W,1,8,1.7,20,"
"##MN-00 00 55 0384 01863 5667 431770 345218 198"
"159.020648"
"$GPGGA,002941,2431.6463,N,08042.3268,W,1,8,1.7,20,"
"##MN-00 00 55 0385 01861 5667 431795 345184 198"
"159.020694"
"$GPGGA,002945,2431.6460,N,08042.3273,W,1,8,1.7,20,"
"##MN-00 00 58 0387 01859 5666 431879 345333 198"
"159.020741"
"$GPGGA,002949,2431.6457,N,08042.3277,W,1,8,1.7,20,"
"##MN-00 00 55 0388 01861 5666 431985 350174 198"
"159.020787"
"$GPGGA,002953,2431.6456,N,08042.3281,W,1,8,1.7,20,"
"##MN-00 00 57 0389 01860 5665 434226 478408 198"
"159.020833"
"$GPGGA,002957,2431.6451,N,08042.3287,W,1,8,1.7,20,"
"##MN-00 00 54 0389 01861 5665 440726 799817 198"
"159.02088"
"$GPGGA,003001,2431.6449,N,08042.3291,W,1,8,1.7,20,"
"##MN-00 00 50 0389 01861 5664 446981 858174 198"
"159.020926"
"$GPGGA,003005,2431.6445,N,08042.3295,W,1,8,1.7,20,"
"##MN-00 00 53 0389 01860 5663 451912 911260 198"
"159.020972"
"$GPGGA,003009,2431.6440,N,08042.3299,W,1,8,1.7,20,"
"##MN-00 00 46 0389 01860 5662 455798 916553 198"
"159.021019"
"$GPGGA,003013,2431.6436,N,08042.3303,W,1,8,1.7,20,"
"##MN-00 00 44 0389 01860 5661 458275 655543 198"
"159.021065"
"$GPGGA,003017,2431.6432,N,08042.3307,W,1,8,1.7,20,"
"##MN-00 00 34 0389 01859 5661 458856 849895 198"
"159.021111"
"$GPGGA,003021,2431.6427,N,08042.3311,W,1,8,1.7,20,"
"##MN-00 00 36 0389 01857 5660 459266 916467 198"
"159.021157"
"$GPGGA,003025,2431.6423,N,08042.3316,W,1,8,1.7,20,"
"##MN-00 00 41 0389 01857 5660 458420 916471 198"
"159.021204"
"$GPGGA,003029,2431.6418,N,08042.3321,W,1,8,1.7,20,"
"##MN-00 00 43 0389 01859 5659 458947 916594 198"
"159.02125"
"$GPGGA,003033,2431.6413,N,08042.3327,W,1,8,1.7,20,"
"##MN-00 00 35 0389 01860 5659 458884 916725 198"
"159.021296"
"$GPGGA,003037,2431.6409,N,08042.3332,W,1,8,1.7,20,"
"##MN-00 00 31 0389 01859 5658 459194 917353 198"
"159.021343"
"$GPGGA,003041,2431.6403,N,08042.3338,W,1,8,1.7,20,"
"##MN-00 00 38 0389 01858 5658 459896 917903 198"
"159.021389"
"$GPGGA,003045,2431.6398,N,08042.3342,W,1,8,1.7,20,"
"##MN-00 00 44 0389 01858 5657 460164 918185 198"
"159.021435"
"$GPGGA,003049,2431.6393,N,08042.3349,W,1,8,1.7,20,"
"##MN-00 00 55 0389 01859 5657 459353 918295 198"
"159.021481"
"$GPGGA,003053,2431.6387,N,08042.3356,W,1,8,1.7,20,"
"##MN-00 00 59 0389 01859 5656 458337 918137 198"
"159.021528"
"$GPGGA,003057,2431.6382,N,08042.3360,W,1,8,1.7,20,"
"##MN-00 00 63 0389 01859 5655 456466 918248 198"
"159.021574"
"$GPGGA,003101,2431.6376,N,08042.3367,W,1,8,1.7,20,"
"##MN-00 00 71 0389 01861 5655 454958 918441 198"
"159.02162"
"$GPGGA,003105,2431.6369,N,08042.3374,W,1,8,1.7,20,"
"##MN-00 00 76 0389 01860 5655 454476 918557 198"
"159.021667"
"$GPGGA,003109,2431.6362,N,08042.3382,W,1,8,1.7,20,"
"##MN-00 00 81 0389 01859 5654 453532 916727 198"
"159.021713"
"$GPGGA,003113,2431.6356,N,08042.3389,W,1,8,1.7,19,"
"##MN-00 00 87 0389 01858 5654 452518 916543 198"
"159.021759"
"$GPGGA,003117,2431.6348,N,08042.3399,W,1,8,1.7,19,"
"##MN-00 00 90 0389 01859 5653 452921 916509 198"
"159.021806"
"$GPGGA,003121,2431.6340,N,08042.3405,W,1,8,1.7,19,"
"##MN-00 00 90 0389 01859 5653 453322 916644 198"
"159.021852"
"$GPGGA,003125,2431.6335,N,08042.3411,W,1,8,1.7,19,"
"##MN-00 00 90 0389 01861 5653 453429 916919 198"
"159.021898"
"$GPGGA,003129,2431.6326,N,08042.3421,W,1,8,1.7,19,"
"##MN-00 00 90 0389 01860 5652 454089 918572 198"
"159.021944"
"$GPGGA,003133,2431.6317,N,08042.3428,W,1,8,1.7,19,"
"##MN-00 00 90 0389 01858 5652 454479 918984 198"
"159.021991"
"$GPGGA,003137,2431.6310,N,08042.3436,W,1,8,1.7,19,"
"##MN-00 00 90 0389 01858 5651 454929 918759 198"
"159.022037"
"$GPGGA,003141,2431.6302,N,08042.3444,W,1,8,1.7,19,"
"##MN-00 00 90 0389 01858 5651 455233 918912 198"
"159.022083"
"$GPGGA,003145,2431.6294,N,08042.3451,W,1,8,1.7,19,"
"##MN-00 00 90 0389 01857 5650 455114 918963 198"
"159.02213"
"$GPGGA,003149,2431.6286,N,08042.3459,W,1,8,1.7,19,"
"##MN-00 00 90 0389 01859 5649 454436 918966 198"
"159.022176"
"$GPGGA,003153,2431.6279,N,08042.3468,W,1,8,1.7,19,"
"##MN-00 00 90 0389 01860 5649 453909 918986 198"
"159.022222"
"$GPGGA,003157,2431.6272,N,08042.3475,W,1,8,1.7,19,"
"##MN-00 00 90 0389 01860 5649 453450 918949 198"
"159.022269"
"$GPGGA,003201,2431.6263,N,08042.3483,W,1,8,1.7,19,"
"##MN-00 00 90 0389 01858 5648 453274 918956 198"
"159.022315"
"$GPGGA,003205,2431.6255,N,08042.3491,W,1,8,1.7,19,"
"##MN-00 00 90 0389 01860 5648 452770 918970 198"
"159.022361"
"$GPGGA,003209,2431.6247,N,08042.3499,W,1,8,1.7,19,"
"##MN-00 00 90 0389 01857 5648 452911 918968 198"
"159.022407"
"$GPGGA,003213,2431.6240,N,08042.3508,W,1,8,1.7,19,"
"##MN-00 00 90 0389 01857 5647 454116 918969 198"
"159.022454"
"$GPGGA,003217,2431.6232,N,08042.3516,W,1,8,1.7,19,"
"##MN-00 00 90 0389 01857 5646 454602 918995 198"
"159.0225"
"$GPGGA,003221,2431.6225,N,08042.3524,W,1,8,1.7,19,"
"##MN-00 00 90 0389 01860 5646 454945 918968 198"
"159.022546"
"$GPGGA,003225,2431.6217,N,08042.3533,W,1,8,1.7,19,"
"##MN-00 00 90 0389 01860 5646 455315 918911 198"
"159.022593"
"$GPGGA,003229,2431.6210,N,08042.3540,W,1,8,1.7,19,"
"##MN-00 00 90 0389 01858 5645 455377 918907 198"
"159.022639"
"$GPGGA,003233,2431.6203,N,08042.3549,W,1,8,1.7,19,"
"##MN-00 00 90 0389 01859 5645 455411 918858 198"
"159.022685"
"$GPGGA,003237,2431.6196,N,08042.3558,W,1,8,1.7,19,"
"##MN-00 00 90 0389 01860 5645 455458 918867 198"
"159.022731"
"$GPGGA,003241,2431.6187,N,08042.3566,W,1,8,1.7,19,"
"##MN-00 00 90 0389 01857 5644 455435 918892 198"
"159.022778"
"$GPGGA,003245,2431.6179,N,08042.3576,W,1,8,1.7,19,"
"##MN-00 00 90 0389 01860 5644 455747 918752 198"
"159.022824"
"$GPGGA,003249,2431.6171,N,08042.3582,W,1,8,1.7,19,"
"##MN-00 00 90 0389 01858 5643 456319 918915 198"
"159.02287"
"$GPGGA,003253,2431.6164,N,08042.3591,W,1,8,1.7,19,"
"##MN-00 00 90 0389 01860 5643 456823 918943 198"
"159.022917"
"$GPGGA,003258,2431.6154,N,08042.3600,W,1,8,1.7,19,"
"##MN-00 00 90 0389 01857 5643 456656 918952 198"
"159.022963"
"$GPGGA,003301,2431.6149,N,08042.3606,W,1,8,1.7,18,"
"##MN-00 00 90 0389 01858 5643 456605 918957 198"
"159.023009"
"$GPGGA,003305,2431.6142,N,08042.3613,W,1,8,1.7,18,"
"##MN-00 00 90 0389 01859 5642 455785 918955 198"
"159.023056"
"$GPGGA,003309,2431.6134,N,08042.3621,W,1,8,1.7,18,"
"##MN-00 00 90 0389 01860 5641 455536 918799 198"
"159.023102"
"$GPGGA,003313,2431.6126,N,08042.3629,W,1,8,1.7,18,"
"##MN-00 00 90 0389 01859 5641 455504 919023 198"
"159.023148"
"$GPGGA,003317,2431.6120,N,08042.3638,W,1,8,1.7,18,"
"##MN-00 00 90 0389 01858 5641 455373 918930 198"
"159.023194"
"$GPGGA,003321,2431.6113,N,08042.3647,W,1,8,1.7,18,"
"##MN-00 00 90 0389 01859 5641 454855 918937 198"
"159.023241"
"$GPGGA,003326,2431.6102,N,08042.3657,W,1,8,1.7,18,"
"##MN-00 00 90 0389 01858 5640 454781 918931 198"
"159.023287"
"$GPGGA,003330,2431.6095,N,08042.3665,W,1,8,1.7,18,"
"##MN-00 00 90 0389 01860 5640 454628 918940 198"
"159.023345"
"$GPGGA,003334,2431.6086,N,08042.3674,W,1,8,1.7,18,"
"##MN-00 00 90 0389 01858 5639 454480 918949 198"
"159.023391"
"$GPGGA,003338,2431.6078,N,08042.3681,W,1,8,1.7,18,"
"##MN-00 00 90 0389 01859 5639 454000 918923 198"
"159.023438"
"$GPGGA,003342,2431.6070,N,08042.3689,W,1,8,1.7,18,"
"##MN-00 00 90 0389 01858 5638 453704 918936 198"
"159.023484"
"$GPGGA,003346,2431.6062,N,08042.3696,W,1,8,1.7,17,"
"##MN-00 00 90 0389 01859 5638 454069 918933 198"
"159.02353"
"$GPGGA,003350,2431.6055,N,08042.3704,W,1,8,1.7,17,"
"##MN-00 00 90 0389 01860 5638 453891 918940 198"
"159.023576"
"$GPGGA,003354,2431.6048,N,08042.3714,W,1,8,1.7,17,"
"##MN-00 00 90 0389 01856 5637 453148 918933 198"
"159.023623"
"$GPGGA,003358,2431.6039,N,08042.3722,W,1,8,1.7,17,"
"##MN-00 00 90 0389 01857 5637 453020 918929 198"
"159.023669"
"$GPGGA,003402,2431.6031,N,08042.3732,W,1,8,1.7,17,"
"##MN-00 00 90 0389 01858 5637 452931 918929 198"
"159.023715"
"$GPGGA,003406,2431.6023,N,08042.3740,W,1,8,1.7,17,"
"##MN-00 00 90 0389 01857 5637 452962 918923 198"
"159.023762"
"$GPGGA,003410,2431.6016,N,08042.3750,W,1,8,1.7,17,"
"##MN-00 00 90 0389 01859 5636 453027 918919 198"
"159.023808"
"$GPGGA,003414,2431.6009,N,08042.3758,W,1,8,1.7,17,"
"##MN-00 00 90 0389 01860 5635 451983 918915 198"
"159.023854"
"$GPGGA,003418,2431.6002,N,08042.3768,W,1,8,1.7,17,"
"##MN-00 00 90 0389 01857 5635 451322 918913 198"
"159.0239"
"$GPGGA,003422,2431.5994,N,08042.3776,W,1,8,1.7,17,"
"##MN-00 00 90 0389 01858 5635 451152 918909 198"
"159.023947"
"$GPGGA,003426,2431.5987,N,08042.3784,W,1,8,1.7,17,"
"##MN-00 00 90 0389 01857 5634 450817 918906 198"
"159.023993"
"$GPGGA,003430,2431.5979,N,08042.3793,W,1,8,1.7,17,"
"##MN-00 00 90 0389 01858 5634 450543 918898 198"
"159.024039"
"$GPGGA,003434,2431.5972,N,08042.3801,W,1,8,1.7,16,"
"##MN-00 00 90 0389 01860 5634 450518 918893 198"
"159.024086"
"$GPGGA,003438,2431.5965,N,08042.3809,W,1,8,1.7,16,"
"##MN-00 00 90 0389 01859 5633 450545 918881 198"
"159.024132"
"$GPGGA,003442,2431.5959,N,08042.3815,W,1,8,1.7,16,"
"##MN-00 00 90 0389 01859 5633 451764 918879 198"
"159.024178"
"$GPGGA,003446,2431.5954,N,08042.3817,W,1,8,1.7,16,"
"##MN-00 00 90 0389 01860 5632 452713 918132 198"
"159.024225"
"$GPGGA,003450,2431.5953,N,08042.3820,W,1,8,1.7,16,"
"##MN-00 00 90 0389 01859 5632 453209 917857 198"
"159.024271"
"$GPGGA,003454,2431.5953,N,08042.3821,W,1,8,1.6,16,"
"##MN-00 00 90 0389 01861 5632 453308 917866 198"
"159.024317"
"$GPGGA,003458,2431.5953,N,08042.3821,W,1,8,1.6,16,"
"##MN-00 00 90 0389 01858 5631 453370 917873 198"
"159.024363"
"$GPGGA,003502,2431.5954,N,08042.3820,W,1,8,1.6,16,"
"##MN-00 00 90 0389 01859 5631 453307 917885 198"
"159.02441"
"$GPGGA,003506,2431.5956,N,08042.3819,W,1,8,1.6,16,"
"##MN-00 00 90 0389 01858 5630 453461 917882 198"
"159.024456"
"$GPGGA,003510,2431.5958,N,08042.3815,W,1,8,1.6,16,"
"##MN-00 00 90 0389 01859 5629 453947 917888 198"
"159.024502"
"$GPGGA,003514,2431.5963,N,08042.3811,W,1,8,1.6,16,"
"##MN-00 00 90 0389 01858 5630 454552 917905 198"
"159.024549"
"$GPGGA,003518,2431.5968,N,08042.3806,W,1,8,1.6,16,"
"##MN-00 00 90 0389 01859 5629 454889 917909 198"
"159.024595"
"$GPGGA,003522,2431.5972,N,08042.3801,W,1,8,1.6,16,"
"##MN-00 00 90 0389 01857 5629 454759 917907 198"
"159.024641"
"$GPGGA,003526,2431.5978,N,08042.3795,W,1,8,1.6,16,"
"##MN-00 00 90 0389 01860 5628 454924 917905 198"
"159.024687"
"$GPGGA,003530,2431.5985,N,08042.3788,W,1,8,1.6,16,"
"##MN-00 00 90 0389 01858 5628 454956 917874 198"
"159.024734"
"$GPGGA,003534,2431.5989,N,08042.3784,W,1,8,1.6,16,"
"##MN-00 00 90 0389 01860 5628 454665 917876 198"
"159.02478"
"$GPGGA,003538,2431.5990,N,08042.3784,W,1,8,1.6,16,"
"##MN-00 00 90 0389 01859 5627 454676 917890 198"
"159.024826"
"$GPGGA,003542,2431.5983,N,08042.3790,W,1,8,1.6,16,"
"##MN-00 00 90 0389 01860 5627 454881 917893 198"
"159.024873"
"$GPGGA,003546,2431.5965,N,08042.3805,W,1,8,1.6,16,"
"##MN-00 00 90 0389 01859 5626 454578 917909 198"
"159.024919"
"$GPGGA,003550,2431.5938,N,08042.3831,W,1,8,1.6,16,"
"##MN-00 00 90 0389 01860 5626 453822 917921 198"
"159.024965"
"$GPGGA,003554,2431.5909,N,08042.3865,W,1,8,1.6,16,"
"##MN-00 00 90 0389 01858 5626 453315 917947 198"
"159.025012"
"$GPGGA,003558,2431.5885,N,08042.3910,W,1,8,2.1,16,"
"##MN-00 00 90 0389 01859 5625 453391 917886 198"
"159.025058"
"$GPGGA,003602,2431.5868,N,08042.3968,W,1,8,1.6,16,"
"##MN-00 00 90 0389 01859 5624 452979 917851 198"
"159.025104"
"$GPGGA,003606,2431.5849,N,08042.4037,W,1,8,1.6,17,"
"##MN-00 00 90 0389 01859 5624 452712 917836 198"
"159.02515"
"$GPGGA,003610,2431.5833,N,08042.4115,W,1,8,1.6,17,"
"##MN-00 00 90 0389 01858 5624 452677 917818 198"
"159.025197"
"$GPGGA,003614,2431.5824,N,08042.4195,W,1,8,1.6,17,"
"##MN-00 00 90 0389 01857 5624 452664 917831 198"
"159.025243"
"$GPGGA,003618,2431.5820,N,08042.4277,W,1,8,1.6,17,"
"##MN-00 00 90 0389 01858 5623 452644 917810 198"
"159.025289"
"$GPGGA,003622,2431.5824,N,08042.4361,W,1,8,1.6,17,"
"##MN-00 00 90 0389 01857 5623 452781 917786 198"
"159.025336"
"$GPGGA,003626,2431.5835,N,08042.4447,W,1,8,1.6,18,"
"##MN-00 00 90 0389 01859 5622 452617 917805 198"
"159.025382"
"$GPGGA,003630,2431.5852,N,08042.4535,W,1,8,1.6,18,"
"##MN-00 00 90 0389 01859 5622 451930 917785 198"
"159.025428"
"$GPGGA,003634,2431.5874,N,08042.4624,W,1,8,1.6,18,"
"##MN-00 00 90 0389 01860 5621 451515 917779 198"
"159.025475"
"$GPGGA,003638,2431.5899,N,08042.4711,W,1,8,1.6,18,"
"##MN-00 00 90 0389 01858 5621 451362 917762 198"
"159.025521"
"$GPGGA,003642,2431.5929,N,08042.4798,W,1,8,1.6,19,"
"##MN-00 00 90 0389 01858 5620 451183 917768 198"
"159.025567"
"$GPGGA,003646,2431.5968,N,08042.4879,W,1,8,1.6,19,"
"##MN-00 00 90 0389 01858 5620 451223 917761 198"
"159.025613"
"$GPGGA,003650,2431.6015,N,08042.4954,W,1,7,1.6,19,"
"##MN-00 00 90 0389 01859 5620 452262 917757 198"
"159.02566"
"$GPGGA,003654,2431.6069,N,08042.5022,W,1,8,1.6,19,"
"##MN-00 00 90 0389 01861 5619 452671 917754 198"
"159.025706"
"$GPGGA,003658,2431.6130,N,08042.5094,W,1,8,1.6,19,"
"##MN-00 00 90 0389 01859 5619 453013 917738 198"
"159.025752"
"$GPGGA,003702,2431.6198,N,08042.5162,W,1,8,1.6,20,"
"##MN-00 00 90 0389 01858 5618 453040 917743 198"
"159.025799"
"$GPGGA,003706,2431.6272,N,08042.5227,W,1,8,1.6,20,"
"##MN-00 00 90 0389 01861 5618 452740 917761 198"
"159.025845"
"$GPGGA,003710,2431.6357,N,08042.5285,W,1,8,1.6,20,"
"##MN-00 00 90 0389 01859 5618 452748 917759 198"
"159.025891"
"$GPGGA,003714,2431.6445,N,08042.5333,W,1,8,1.6,20,"
"##MN-00 00 90 0389 01858 5617 452566 917362 198"
"159.025938"
"$GPGGA,003718,2431.6543,N,08042.5376,W,1,7,1.6,20,"
"##MN-00 00 90 0389 01858 5617 452288 917150 198"
"159.025984"
"$GPGGA,003722,2431.6647,N,08042.5410,W,1,8,1.6,20,"
"##MN-00 00 90 0389 01859 5616 452180 917325 198"
"159.02603"
"$GPGGA,003726,2431.6754,N,08042.5437,W,1,7,1.6,21,"
"##MN-00 00 90 0389 01859 5616 452185 917140 198"
"159.026076"
"$GPGGA,003730,2431.6863,N,08042.5453,W,1,8,1.6,21,"
"##MN-00 00 90 0389 01860 5615 451940 917133 198"
"159.026123"
"$GPGGA,003734,2431.6973,N,08042.5460,W,1,8,1.6,21,"
"##MN-00 00 90 0389 01857 5615 451730 917119 198"
"159.026169"
"$GPGGA,003738,2431.7088,N,08042.5463,W,1,7,2.1,21,"
"##MN-00 00 90 0389 01858 5614 451783 917148 198"
"159.026215"
"$GPGGA,003742,2431.7200,N,08042.5458,W,1,7,1.6,21,"
"##MN-00 00 90 0389 01858 5614 451895 917069 198"
"159.026262"
"$GPGGA,003747,2431.7345,N,08042.5447,W,1,7,1.6,21,"
"##MN-00 00 90 0389 01858 5614 451719 917012 198"
"159.026308"
"$GPGGA,003750,2431.7434,N,08042.5438,W,1,8,1.6,21,"
"##MN-00 00 90 0389 01862 5613 451772 917004 198"
"159.026354"
"$GPGGA,003754,2431.7556,N,08042.5425,W,1,8,1.6,21,"
"##MN-00 00 90 0389 01859 5613 451984 917139 198"
"159.0264"
"$GPGGA,003758,2431.7674,N,08042.5409,W,1,8,1.6,21,"
"##MN-00 00 90 0389 01861 5612 452293 917111 198"
"159.026458"
"$GPGGA,003802,2431.7793,N,08042.5394,W,1,8,1.6,22,"
"##MN-00 00 90 0389 01859 5612 452148 917267 198"
"159.026505"
"$GPGGA,003807,2431.7940,N,08042.5376,W,1,8,1.6,22,"
"##MN-00 00 90 0389 01860 5612 451997 917789 198"
"159.026551"
"$GPGGA,003811,2431.8057,N,08042.5362,W,1,8,1.6,23,"
"##MN-00 00 90 0389 01859 5611 451939 917815 198"
"159.026597"
"$GPGGA,003815,2431.8176,N,08042.5347,W,1,8,1.6,23,"
"##MN-00 00 90 0389 01859 5611 452464 917785 198"
"159.026644"
"$GPGGA,003819,2431.8294,N,08042.5330,W,1,8,1.6,23,"
"##MN-00 00 90 0389 01858 5610 452426 917800 198"
"159.02669"
"$GPGGA,003823,2431.8413,N,08042.5314,W,1,8,1.6,23,"
"##MN-00 00 90 0389 01858 5610 452190 917890 198"
"159.026736"
"$GPGGA,003827,2431.8529,N,08042.5295,W,1,7,1.6,23,"
"##MN-00 00 90 0389 01857 5609 452105 917973 198"
"159.026782"
"$GPGGA,003831,2431.8644,N,08042.5273,W,1,8,1.6,24,"
"##MN-00 00 90 0389 01861 5609 451882 917801 198"
"159.026829"
"$GPGGA,003835,2431.8764,N,08042.5255,W,1,8,1.6,24,"
"##MN-00 00 90 0389 01861 5608 451727 917757 198"
"159.026875"
"$GPGGA,003839,2431.8883,N,08042.5238,W,1,8,1.6,25,"
"##MN-00 00 90 0389 01860 5608 451538 917870 198"
"159.026921"
"$GPGGA,003843,2431.9001,N,08042.5220,W,1,8,1.6,26,"
"##MN-00 00 90 0389 01857 5607 451258 918173 198"
"159.026968"
"$GPGGA,003847,2431.9119,N,08042.5204,W,1,8,1.6,27,"
"##MN-00 00 90 0389 01860 5607 451444 918185 198"
"159.027014"
"$GPGGA,003851,2431.9238,N,08042.5187,W,1,8,1.6,27,"
"##MN-00 00 90 0389 01860 5606 451603 918203 198"
"159.02706"
"$GPGGA,003855,2431.9355,N,08042.5169,W,1,8,1.6,27,"
"##MN-00 00 90 0389 01858 5606 451608 918209 198"
"159.027106"
"$GPGGA,003859,2431.9443,N,08042.5154,W,1,8,1.6,27,"
"##MN-00 00 90 0389 01861 5606 451535 918217 198"
"159.027153"
"$GPGGA,003903,2431.9590,N,08042.5127,W,1,7,2.0,27,"
"##MN-00 00 90 0389 01860 5605 451656 918202 198"
"159.027199"
"$GPGGA,003907,2431.9707,N,08042.5103,W,1,7,2.0,27,"
"##MN-00 00 90 0389 01860 5605 451716 918200 198"
"159.027245"
"$GPGGA,003911,2431.9822,N,08042.5071,W,1,8,1.6,26,"
"##MN-00 00 90 0389 01858 5604 451663 918210 198"
"159.027292"
"$GPGGA,003915,2431.9935,N,08042.5034,W,1,8,1.6,26,"
"##MN-00 00 90 0389 01858 5604 451670 918183 198"
"159.027338"
"$GPGGA,003919,2432.0053,N,08042.4997,W,1,8,1.6,26,"
"##MN-00 00 90 0389 01857 5603 451791 918160 198"
"159.027384"
"$GPGGA,003923,2432.0168,N,08042.4958,W,1,8,1.6,26,"
"##MN-00 00 90 0389 01859 5603 451767 918157 198"
"159.027431"
"$GPGGA,003927,2432.0284,N,08042.4919,W,1,8,1.6,26,"
"##MN-00 00 90 0389 01860 5603 451767 918183 198"
"159.027477"
"$GPGGA,003931,2432.0400,N,08042.4879,W,1,8,1.6,26,"
"##MN-00 00 90 0389 01860 5602 451723 918171 198"
"159.027523"
"$GPGGA,003935,2432.0517,N,08042.4840,W,1,8,1.6,26,"
"##MN-00 00 90 0389 01861 5601 451658 918158 198"
"159.027569"
"$GPGGA,003939,2432.0632,N,08042.4800,W,1,8,1.6,26,"
"##MN-00 00 90 0389 01859 5601 451763 918139 198"
"159.027616"
"$GPGGA,003943,2432.0751,N,08042.4763,W,1,8,1.6,26,"
"##MN-00 00 90 0389 01860 5601 451828 918133 198"
"159.027662"
"$GPGGA,003947,2432.0867,N,08042.4730,W,1,7,2.0,25,"
"##MN-00 00 90 0389 01858 5600 451992 918124 198"
"159.027708"
"$GPGGA,003951,2432.0989,N,08042.4704,W,1,7,2.0,25,"
"##MN-00 00 90 0389 01859 5599 452097 918110 198"
"159.027755"
"$GPGGA,003955,2432.1108,N,08042.4679,W,1,7,2.0,24,"
"##MN-00 00 90 0389 01860 5599 452106 918107 198"
"159.027801"
"$GPGGA,003959,2432.1227,N,08042.4656,W,1,7,2.0,23,"
"##MN-00 00 90 0389 01859 5599 452121 918086 198"
"159.027847"
"$GPGGA,004003,2432.1346,N,08042.4632,W,1,7,2.0,22,"
"##MN-00 00 90 0389 01858 5598 452321 918058 198"
"159.027894"
"$GPGGA,004007,2432.1465,N,08042.4608,W,1,7,2.0,21,"
"##MN-00 00 90 0389 01859 5597 452210 918059 198"
"159.02794"
"$GPGGA,004011,2432.1585,N,08042.4584,W,1,7,2.0,21,"
"##MN-00 00 90 0389 01860 5597 452170 918046 198"
"159.027986"
"$GPGGA,004015,2432.1702,N,08042.4558,W,1,7,2.0,20,"
"##MN-00 00 90 0389 01859 5597 452248 918054 198"
"159.028032"
"$GPGGA,004019,2432.1821,N,08042.4528,W,1,8,1.6,20,"
"##MN-00 00 90 0389 01860 5596 452240 918025 198"
"159.028079"
"$GPGGA,004023,2432.1936,N,08042.4495,W,1,8,1.6,20,"
"##MN-00 00 90 0389 01860 5596 452021 918033 198"
"159.028125"
"$GPGGA,004027,2432.2054,N,08042.4462,W,1,8,1.6,20,"
"##MN-00 00 90 0389 01859 5595 451790 918010 198"
"159.028171"
"$GPGGA,004031,2432.2170,N,08042.4426,W,1,8,1.6,20,"
"##MN-00 00 90 0389 01860 5595 451720 917991 198"
"159.028218"
"$GPGGA,004035,2432.2283,N,08042.4388,W,1,8,1.6,21,"
"##MN-00 00 90 0389 01859 5594 452034 917978 198"
"159.028264"
"$GPGGA,004039,2432.2399,N,08042.4351,W,1,7,2.1,21,"
"##MN-00 00 90 0389 01858 5594 452196 917957 198"
"159.02831"
"$GPGGA,004043,2432.2517,N,08042.4316,W,1,8,1.6,20,"
"##MN-00 00 90 0389 01860 5594 452388 917964 198"
"159.028356"
"$GPGGA,004047,2432.2634,N,08042.4280,W,1,8,1.6,21,"
"##MN-00 00 90 0389 01857 5593 452615 917953 198"
"159.028403"
"$GPGGA,004051,2432.2749,N,08042.4246,W,1,7,2.1,20,"
"##MN-00 00 90 0389 01857 5593 452844 917939 198"
"159.028449"
"$GPGGA,004055,2432.2868,N,08042.4215,W,1,7,2.0,20,"
"##MN-00 00 90 0389 01859 5592 452922 917947 198"
"159.028495"
"$GPGGA,004059,2432.2984,N,08042.4187,W,1,6,2.6,20,"
"##MN-00 00 90 0389 01859 5592 452952 917931 198"
"159.028542"
"$GPGGA,004103,2432.3103,N,08042.4160,W,1,7,2.0,20,"
"##MN-00 00 90 0389 01860 5591 453060 917903 198"
"159.028588"
"$GPGGA,004107,2432.3225,N,08042.4136,W,1,7,2.0,20,"
"##MN-00 00 90 0389 01860 5591 453274 917897 198"
"159.028634"
"$GPGGA,004111,2432.3344,N,08042.4110,W,1,7,2.0,20,"
"##MN-00 00 90 0389 01860 5590 453250 917881 198"
"159.028681"
"$GPGGA,004115,2432.3458,N,08042.4081,W,1,6,2.6,21,"
"##MN-00 00 90 0389 01859 5590 453216 917878 198"
"159.028727"
"$GPGGA,004119,2432.3576,N,08042.4052,W,1,6,2.6,20,"
"##MN-00 00 90 0389 01861 5589 453347 917875 198"
"159.028773"
"$GPGGA,004123,2432.3695,N,08042.4022,W,1,8,1.6,20,"
"##MN-00 00 90 0389 01859 5589 453505 917880 198"
"159.028819"
"$GPGGA,004127,2432.3810,N,08042.3986,W,1,8,1.6,20,"
"##MN-00 00 90 0389 01861 5588 453236 917866 198"
"159.028866"
"$GPGGA,004131,2432.3924,N,08042.3952,W,1,8,1.6,21,"
"##MN-00 00 90 0389 01861 5588 453184 917835 198"
"159.028912"
"$GPGGA,004135,2432.4041,N,08042.3917,W,1,8,1.6,22,"
"##MN-00 00 90 0389 01861 5587 453231 917837 198"
"159.028958"
"$GPGGA,004139,2432.4158,N,08042.3884,W,1,8,1.6,23,"
"##MN-00 00 90 0389 01859 5587 453312 917818 198"
"159.029005"
"$GPGGA,004143,2432.4276,N,08042.3850,W,1,8,1.6,23,"
"##MN-00 00 90 0389 01859 5586 453353 917814 198"
"159.029051"
"$GPGGA,004147,2432.4392,N,08042.3816,W,1,8,1.6,23,"
"##MN-00 00 90 0389 01860 5586 453238 917803 198"
"159.029097"
"$GPGGA,004151,2432.4509,N,08042.3782,W,1,8,1.6,23,"
"##MN-00 00 90 0389 01860 5585 453236 917817 198"
"159.029144"
"$GPGGA,004155,2432.4627,N,08042.3748,W,1,8,1.6,23,"
"##MN-00 00 90 0389 01860 5585 453158 917794 198"
"159.02919"
"$GPGGA,004159,2432.4744,N,08042.3715,W,1,8,1.6,23,"
"##MN-00 00 90 0389 01862 5585 453113 917775 198"
"159.029236"
"$GPGGA,004203,2432.4863,N,08042.3684,W,1,8,1.6,24,"
"##MN-00 00 90 0389 01859 5584 452971 917756 198"
"159.029282"
"$GPGGA,004207,2432.4977,N,08042.3650,W,1,8,1.6,24,"
"##MN-00 00 90 0389 01859 5583 452761 917750 198"
"159.029329"
"$GPGGA,004211,2432.5093,N,08042.3621,W,1,7,2.0,24,"
"##MN-00 00 90 0389 01859 5583 452773 917735 198"
"159.029375"
"$GPGGA,004215,2432.5210,N,08042.3596,W,1,7,2.0,24,"
"##MN-00 00 90 0389 01860 5582 452897 917727 198"
"159.029421"
"$GPGGA,004219,2432.5327,N,08042.3568,W,1,7,2.0,23,"
"##MN-00 00 90 0389 01860 5582 453224 917709 198"
"159.029468"
"$GPGGA,004223,2432.5444,N,08042.3541,W,1,7,2.0,23,"
"##MN-00 00 90 0389 01860 5581 453548 917710 198"
"159.029514"
"$GPGGA,004227,2432.5560,N,08042.3512,W,1,8,1.6,23,"
"##MN-00 00 90 0389 01860 5581 453553 917696 198"
"159.02956"
"$GPGGA,004231,2432.5676,N,08042.3482,W,1,8,1.6,22,"
"##MN-00 00 90 0389 01860 5580 453541 917692 198"
"159.029606"
"$GPGGA,004236,2432.5812,N,08042.3443,W,1,8,1.6,22,"
"##MN-00 00 90 0389 01859 5580 453500 917671 198"
"159.029653"
"$GPGGA,004240,2432.5925,N,08042.3413,W,1,8,2.1,23,"
"##MN-00 00 90 0389 01859 5579 453352 917673 198"
"159.029711"
"$GPGGA,004244,2432.6037,N,08042.3377,W,1,7,2.1,23,"
"##MN-00 00 90 0389 01859 5579 453014 917666 198"
"159.029757"
"$GPGGA,004248,2432.6152,N,08042.3342,W,1,7,2.1,24,"
"##MN-00 00 90 0389 01858 5578 452831 917645 198"
"159.029803"
"$GPGGA,004252,2432.6270,N,08042.3309,W,1,7,2.1,24,"
"##MN-00 00 90 0389 01861 5578 452772 917628 198"
"159.02985"
"$GPGGA,004256,2432.6387,N,08042.3276,W,1,7,2.1,24,"
"##MN-00 00 90 0389 01859 5578 452839 917612 198"
"159.029896"
"$GPGGA,004300,2432.6505,N,08042.3243,W,1,7,2.1,23,"
"##MN-00 00 90 0389 01859 5577 453154 917668 198"
"159.029942"
"$GPGGA,004304,2432.6622,N,08042.3209,W,1,7,2.1,23,"
"##MN-00 00 90 0389 01860 5576 453142 917594 198"
"159.029988"
"$GPGGA,004308,2432.6740,N,08042.3175,W,1,7,2.1,22,"
"##MN-00 00 90 0389 01860 5576 453091 917599 198"
"159.030035"
"$GPGGA,004312,2432.6855,N,08042.3139,W,1,7,2.1,22,"
"##MN-00 00 90 0389 01861 5576 453075 917594 198"
"159.030081"
"$GPGGA,004316,2432.6971,N,08042.3105,W,1,7,2.1,22,"
"##MN-00 00 90 0389 01861 5575 453207 917585 198"
"159.030127"
"$GPGGA,004320,2432.7088,N,08042.3078,W,1,6,2.6,23,"
"##MN-00 00 90 0389 01859 5574 453192 917576 198"
"159.030174"
"$GPGGA,004324,2432.7207,N,08042.3050,W,1,6,2.1,23,"
"##MN-00 00 90 0389 01859 5574 452990 917582 198"
"159.03022"
"$GPGGA,004328,2432.7323,N,08042.3018,W,1,6,2.1,23,"
"##MN-00 00 90 0389 01861 5573 452893 917559 198"
"159.030266"
"$GPGGA,004332,2432.7439,N,08042.2986,W,1,7,2.1,23,"
"##MN-00 00 90 0389 01859 5573 453067 917561 198"
"159.030313"
"$GPGGA,004336,2432.7556,N,08042.2954,W,1,7,2.1,23,"
"##MN-00 00 90 0389 01861 5573 453314 917547 198"
"159.030359"
"$GPGGA,004340,2432.7672,N,08042.2924,W,1,7,2.1,24,"
"##MN-00 00 90 0389 01860 5572 453556 917543 198"
"159.030405"
"$GPGGA,004344,2432.7789,N,08042.2891,W,1,7,2.1,24,"
"##MN-00 00 90 0389 01859 5572 453499 917532 198"
"159.030451"
"$GPGGA,004348,2432.7905,N,08042.2857,W,1,7,2.1,24,"
"##MN-00 00 90 0389 01860 5571 453595 917528 198"
"159.030498"
"$GPGGA,004352,2432.8022,N,08042.2823,W,1,7,2.1,24,"
"##MN-00 00 90 0389 01858 5571 453609 917516 198"
"159.030544"
"$GPGGA,004356,2432.8136,N,08042.2787,W,1,7,2.1,24,"
"##MN-00 00 90 0389 01860 5570 453610 917508 198"
"159.03059"
"$GPGGA,004400,2432.8254,N,08042.2751,W,1,7,2.1,24,"
"##MN-00 00 90 0389 01859 5570 453794 917492 198"
"159.030637"
"$GPGGA,004404,2432.8370,N,08042.2715,W,1,7,2.1,23,"
"##MN-00 00 90 0389 01859 5569 453891 917471 198"
"159.030683"
"$GPGGA,004408,2432.8486,N,08042.2680,W,1,7,2.1,23,"
"##MN-00 00 90 0389 01860 5569 454002 917463 198"
"159.030729"
"$GPGGA,004412,2432.8602,N,08042.2648,W,1,7,2.1,23,"
"##MN-00 00 90 0389 01858 5568 453786 917458 198"
"159.030775"
"$GPGGA,004416,2432.8720,N,08042.2616,W,1,6,2.1,23,"
"##MN-00 00 90 0389 01859 5567 453929 917475 198"
"159.030822"
"$GPGGA,004420,2432.8837,N,08042.2585,W,1,7,2.6,22,"
"##MN-00 00 90 0389 01861 5567 453989 917452 198"
"159.030868"
"$GPGGA,004424,2432.8955,N,08042.2553,W,1,7,2.1,22,"
"##MN-00 00 90 0389 01859 5567 453894 917454 198"
"159.030914"
"$GPGGA,004428,2432.9072,N,08042.2523,W,1,6,2.1,21,"
"##MN-00 00 90 0389 01860 5566 453867 917457 198"
"159.030961"
"$GPGGA,004432,2432.9190,N,08042.2494,W,1,7,2.1,21,"
"##MN-00 00 90 0389 01859 5566 453859 917464 198"
"159.031007"
"$GPGGA,004436,2432.9306,N,08042.2461,W,1,7,2.1,21,"
"##MN-00 00 90 0389 01861 5565 453805 917429 198"
"159.031053"
"$GPGGA,004440,2432.9422,N,08042.2432,W,1,7,2.1,21,"
"##MN-00 00 90 0389 01860 5565 453705 917406 198"
"159.0311"
"$GPGGA,004444,2432.9538,N,08042.2400,W,1,6,2.1,21,"
"##MN-00 00 90 0389 01859 5564 453662 917415 198"
"159.031146"
"$GPGGA,004448,2432.9655,N,08042.2369,W,1,7,2.1,21,"
"##MN-00 00 90 0389 01861 5564 453520 917418 198"
"159.031192"
"$GPGGA,004452,2432.9768,N,08042.2329,W,1,7,2.1,21,"
"##MN-00 00 90 0389 01860 5563 453519 917397 198"
"159.031238"
"$GPGGA,004456,2432.9883,N,08042.2292,W,1,7,2.1,21,"
"##MN-00 00 90 0389 01861 5563 453471 917399 198"
"159.031285"
"$GPGGA,004500,2432.9999,N,08042.2258,W,1,7,2.1,22,"
"##MN-00 00 90 0389 01860 5562 453685 917392 198"
"159.031331"
"$GPGGA,004504,2433.0115,N,08042.2221,W,1,7,2.1,22,"
"##MN-00 00 90 0389 01859 5562 453794 917380 198"
"159.031377"
"$GPGGA,004508,2433.0233,N,08042.2186,W,1,7,2.1,23,"
"##MN-00 00 90 0389 01858 5561 453891 917376 198"
"159.031424"
"$GPGGA,004512,2433.0350,N,08042.2150,W,1,7,2.1,23,"
"##MN-00 00 90 0389 01859 5561 453980 917464 198"
"159.03147"
"$GPGGA,004516,2433.0468,N,08042.2114,W,1,7,2.1,23,"
"##MN-00 00 90 0389 01860 5560 453974 917369 198"
"159.031516"
"$GPGGA,004520,2433.0584,N,08042.2080,W,1,7,2.1,23,"
"##MN-00 00 90 0389 01860 5560 453945 917296 198"
"159.031562"
"$GPGGA,004524,2433.0701,N,08042.2048,W,1,7,2.1,22,"
"##MN-00 00 90 0389 01859 5559 453822 917338 198"
"159.031609"
"$GPGGA,004528,2433.0820,N,08042.2017,W,1,7,2.1,22,"
"##MN-00 00 90 0389 01860 5559 453926 917331 198"
"159.031655"
"$GPGGA,004532,2433.0936,N,08042.1987,W,1,7,2.1,22,"
"##MN-00 00 90 0389 01859 5558 454006 917429 198"
"159.031701"
"$GPGGA,004536,2433.1054,N,08042.1958,W,1,7,2.6,21,"
"##MN-00 00 90 0389 01859 5558 453877 917320 198"
"159.031748"
"$GPGGA,004540,2433.1171,N,08042.1930,W,1,7,2.1,21,"
"##MN-00 00 90 0389 01859 5557 453823 917326 198"
"159.031794"
"$GPGGA,004544,2433.1286,N,08042.1898,W,1,7,2.1,21,"
"##MN-00 00 90 0389 01861 5557 453981 917426 198"
"159.03184"
"$GPGGA,004548,2433.1402,N,08042.1868,W,1,7,2.1,21,"
"##MN-00 00 90 0389 01861 5556 454030 917292 198"
"159.031887"
"$GPGGA,004552,2433.1517,N,08042.1836,W,1,7,2.1,21,"
"##MN-00 00 90 0389 01859 5556 453981 917357 198"
