" Tow: L7s-A   RVWS/WS1406"
" Date: 06/08/2014"
" Temperature Probe #  2597    Conductivity Probe #  2870"
" Pressure Probe #  109"
" Flow Meter Calibration  4.71 (m/count)  "
"159.266806"
"$GPGGA,062404,2441.2500,N,08036.3727,W,1,8,1.6,20,"
"##MN-00 00 59 0085 01862 5132 441762 912694 198"
"159.266852"
"$GPGGA,062413,2441.2441,N,08036.3693,W,1,9,1.6,21,"
"##MN-00 00 62 0086 01862 5133 437994 436256 198"
"159.266898"
"$GPGGA,062417,2441.2412,N,08036.3677,W,1,8,1.6,21,"
"##MN-00 00 62 0087 01863 5133 437565 347597 198"
"159.266944"
"$GPGGA,062421,2441.2385,N,08036.3659,W,1,9,1.6,21,"
"##MN-00 00 61 0088 01865 5134 437516 346789 198"
"159.266991"
"$GPGGA,062425,2441.2357,N,08036.3640,W,1,8,1.6,21,"
"##MN-00 00 64 0089 01866 5135 437434 346784 198"
"159.267037"
"$GPGGA,062429,2441.2331,N,08036.3618,W,1,8,1.6,21,"
"##MN-00 00 63 0091 01864 5135 437425 346774 198"
"159.267083"
"$GPGGA,062433,2441.2309,N,08036.3602,W,1,9,1.6,21,"
"##MN-00 00 63 0092 01866 5136 437402 346758 198"
"159.26713"
"$GPGGA,062437,2441.2287,N,08036.3582,W,1,8,1.6,21,"
"##MN-00 00 63 0093 01864 5137 437361 346742 198"
"159.267176"
"$GPGGA,062441,2441.2267,N,08036.3565,W,1,9,1.6,21,"
"##MN-00 00 63 0095 01866 5138 437426 346755 198"
"159.267222"
"$GPGGA,062445,2441.2247,N,08036.3545,W,1,8,1.6,21,"
"##MN-00 00 62 0096 01865 5138 437779 346763 198"
"159.267269"
"$GPGGA,062449,2441.2231,N,08036.3532,W,1,9,1.6,21,"
"##MN-00 00 62 0097 01870 5139 437767 346804 198"
"159.267315"
"$GPGGA,062453,2441.2216,N,08036.3517,W,1,8,1.6,21,"
"##MN-00 00 61 0098 01872 5140 437593 346798 198"
"159.267361"
"$GPGGA,062457,2441.2204,N,08036.3502,W,1,9,1.6,21,"
"##MN-00 00 61 0099 01880 5141 437760 346794 198"
"159.267407"
"$GPGGA,062501,2441.2186,N,08036.3484,W,1,8,1.7,21,"
"##MN-00 00 61 0100 01885 5141 438431 346933 198"
"159.267454"
"$GPGGA,062505,2441.2171,N,08036.3468,W,1,9,1.7,21,"
"##MN-00 00 61 0101 01894 5142 439908 347208 198"
"159.2675"
"$GPGGA,062509,2441.2155,N,08036.3453,W,1,8,1.6,21,"
"##MN-00 00 60 0102 01899 5143 441474 347706 198"
"159.267546"
"$GPGGA,062513,2441.2137,N,08036.3436,W,1,8,1.7,21,"
"##MN-00 00 60 0103 01908 5144 442419 348175 198"
"159.267593"
"$GPGGA,062517,2441.2122,N,08036.3423,W,1,9,1.6,20,"
"##MN-00 00 59 0104 01914 5144 442845 348309 198"
"159.267639"
"$GPGGA,062521,2441.2107,N,08036.3410,W,1,8,1.6,20,"
"##MN-00 00 60 0105 01919 5145 443061 348468 198"
"159.267685"
"$GPGGA,062525,2441.2095,N,08036.3397,W,1,8,1.6,20,"
"##MN-00 00 60 0105 01927 5146 443168 348540 198"
"159.267731"
"$GPGGA,062529,2441.2081,N,08036.3387,W,1,8,1.7,20,"
"##MN-00 00 59 0106 01934 5146 443320 348569 198"
"159.267778"
"$GPGGA,062533,2441.2060,N,08036.3371,W,1,8,1.7,20,"
"##MN-00 00 59 0107 01940 5147 443442 348636 198"
"159.267824"
"$GPGGA,062537,2441.2045,N,08036.3360,W,1,9,1.6,20,"
"##MN-00 00 58 0108 01946 5148 443600 348730 198"
"159.26787"
"$GPGGA,062541,2441.2030,N,08036.3350,W,1,9,1.6,20,"
"##MN-00 00 58 0109 01954 5148 443700 348779 198"
"159.267917"
"$GPGGA,062545,2441.2016,N,08036.3340,W,1,8,1.7,20,"
"##MN-00 00 58 0110 01961 5149 443873 348830 198"
"159.267963"
"$GPGGA,062549,2441.1998,N,08036.3330,W,1,9,1.6,20,"
"##MN-00 00 58 0111 01968 5150 444065 348858 198"
"159.268009"
"$GPGGA,062553,2441.1983,N,08036.3320,W,1,8,1.7,20,"
"##MN-00 00 57 0112 01972 5151 444278 348921 198"
"159.268056"
"$GPGGA,062557,2441.1965,N,08036.3308,W,1,9,1.6,20,"
"##MN-00 00 57 0113 01975 5151 444480 348991 198"
"159.268102"
"$GPGGA,062601,2441.1951,N,08036.3298,W,1,9,1.6,20,"
"##MN-00 00 54 0114 01975 5152 444642 349036 198"
"159.268148"
"$GPGGA,062605,2441.1933,N,08036.3288,W,1,7,1.9,20,"
"##MN-00 00 54 0115 01975 5153 444641 349041 198"
"159.268194"
"$GPGGA,062609,2441.1915,N,08036.3278,W,1,9,1.6,20,"
"##MN-00 00 55 0116 01973 5153 444587 349080 198"
"159.268241"
"$GPGGA,062613,2441.1900,N,08036.3269,W,1,9,1.6,20,"
"##MN-00 00 55 0117 01972 5154 444514 349074 198"
"159.268287"
"$GPGGA,062617,2441.1884,N,08036.3260,W,1,8,1.7,21,"
"##MN-00 00 55 0118 01973 5154 444466 349077 198"
"159.268333"
"$GPGGA,062621,2441.1868,N,08036.3250,W,1,8,1.7,21,"
"##MN-00 00 55 0119 01972 5155 444415 349071 198"
"159.268391"
"$GPGGA,062625,2441.1851,N,08036.3241,W,1,8,1.7,21,"
"##MN-00 00 56 0120 01971 5156 444393 349071 198"
"159.268438"
"$GPGGA,062629,2441.1835,N,08036.3232,W,1,8,1.7,21,"
"##MN-00 00 55 0121 01973 5156 444428 349078 198"
"159.268484"
"$GPGGA,062633,2441.1825,N,08036.3225,W,1,9,1.6,21,"
"##MN-00 00 55 0122 01973 5157 444570 349094 198"
"159.26853"
"$GPGGA,062637,2441.1811,N,08036.3217,W,1,9,1.6,21,"
"##MN-00 00 55 0123 01974 5157 444748 349156 198"
"159.268576"
"$GPGGA,062641,2441.1794,N,08036.3209,W,1,9,1.6,21,"
"##MN-00 00 56 0124 01973 5158 444925 349213 198"
"159.268623"
"$GPGGA,062645,2441.1781,N,08036.3199,W,1,9,1.6,21,"
"##MN-00 00 55 0125 01972 5158 444988 349251 198"
"159.268669"
"$GPGGA,062649,2441.1768,N,08036.3190,W,1,8,1.6,21,"
"##MN+00 00 57 0126 01973 5159 445008 349261 198"
"159.268715"
"$GPGGA,062653,2441.1751,N,08036.3184,W,1,9,1.6,21,"
"##MN+00 00 55 0127 01971 5160 445028 349254 198"
"159.268762"
"$GPGGA,062657,2441.1738,N,08036.3177,W,1,9,1.6,21,"
"##MN+00 00 56 0128 01970 5160 445050 349283 197"
"159.268808"
"$GPGGA,062701,2441.1724,N,08036.3170,W,1,9,1.6,21,"
"##MN-00 00 56 0129 01971 5161 445068 349290 197"
"159.268854"
"$GPGGA,062705,2441.1709,N,08036.3163,W,1,9,1.6,21,"
"##MN-00 00 56 0130 01969 5162 445080 349294 198"
"159.2689"
"$GPGGA,062709,2441.1693,N,08036.3156,W,1,9,1.6,21,"
"##MN+00 00 57 0131 01970 5162 445096 349298 198"
"159.268947"
"$GPGGA,062713,2441.1677,N,08036.3149,W,1,9,1.6,21,"
"##MN+00 00 56 0133 01970 5163 445110 349309 197"
"159.268993"
"$GPGGA,062717,2441.1662,N,08036.3144,W,1,9,1.6,21,"
"##MN+00 00 56 0134 01969 5163 445141 349313 197"
"159.269039"
"$GPGGA,062721,2441.1647,N,08036.3137,W,1,9,1.6,21,"
"##MN-00 00 64 0135 01971 5163 445157 349328 197"
"159.269086"
"$GPGGA,062725,2441.1631,N,08036.3132,W,1,9,1.6,21,"
"##MN-00 00 59 0136 01970 5164 445160 349336 197"
"159.269132"
"#increment_net"
"$GPGGA,062729,2441.1615,N,08036.3124,W,1,7,1.9,21,"
"##MN-00 00 55 0137 01970 5165 445095 349335 197"
"159.269178"
"$GPGGA,062733,2441.1594,N,08036.3116,W,1,9,1.6,21,"
"##MN-00 00 55 0138 01966 5166 444944 349307 197"
"159.269225"
"$GPGGA,062737,2441.1576,N,08036.3107,W,1,8,1.7,20,"
"##MN-00 00 55 0139 01967 5166 444853 349291 197"
"159.269271"
"$GPGGA,062741,2441.1559,N,08036.3098,W,1,8,1.7,20,"
"##MN-00 00 55 0140 01968 5166 444800 349266 197"
"159.269317"
"$GPGGA,062745,2441.1544,N,08036.3091,W,1,9,1.6,20,"
"##MN-00 00 56 0141 01967 5167 444789 349244 197"
"159.269363"
"$GPGGA,062749,2441.1532,N,08036.3085,W,1,9,1.6,20,"
"##MN-00 00 56 0142 01970 5167 444793 349243 197"
"159.26941"
"$GPGGA,062753,2441.1519,N,08036.3077,W,1,9,1.6,20,"
"##MN-00 00 56 0143 01971 5168 444809 349241 197"
"159.269456"
"$GPGGA,062758,2441.1500,N,08036.3067,W,1,9,1.6,20,"
"##MN-00 00 57 0144 01973 5168 444830 349236 197"
"159.269502"
"$GPGGA,062802,2441.1485,N,08036.3057,W,1,9,1.6,20,"
"##MN-00 00 56 0145 01973 5169 444871 349241 197"
"159.269549"
"$GPGGA,062805,2441.1474,N,08036.3051,W,1,9,1.6,20,"
"##MN-00 00 55 0146 01971 5169 444963 349253 197"
"159.269595"
"$GPGGA,062810,2441.1456,N,08036.3041,W,1,9,1.6,20,"
"##MN-00 00 56 0147 01971 5170 445054 349266 197"
"159.269641"
"$GPGGA,062814,2441.1440,N,08036.3031,W,1,9,1.6,20,"
"##MN-00 00 57 0148 01969 5170 445106 349263 197"
"159.269687"
"$GPGGA,062818,2441.1423,N,08036.3021,W,1,8,1.7,20,"
"##MN-00 00 55 0149 01970 5171 445138 349283 197"
"159.269734"
"$GPGGA,062822,2441.1410,N,08036.3013,W,1,9,1.6,20,"
"##MN-00 00 56 0150 01970 5171 445134 349308 197"
"159.26978"
"$GPGGA,062826,2441.1395,N,08036.3005,W,1,9,1.6,19,"
"##MN-00 00 57 0151 01969 5171 445085 349308 197"
"159.269826"
"$GPGGA,062830,2441.1380,N,08036.2996,W,1,9,1.6,19,"
"##MN-00 00 56 0152 01970 5172 445001 349305 197"
"159.269873"
"$GPGGA,062834,2441.1364,N,08036.2988,W,1,9,1.6,19,"
"##MN-00 00 57 0153 01972 5172 444938 349295 197"
"159.269919"
"$GPGGA,062838,2441.1348,N,08036.2980,W,1,9,1.6,19,"
"##MN-00 00 57 0154 01973 5173 444914 349277 197"
"159.269965"
"$GPGGA,062842,2441.1335,N,08036.2973,W,1,9,1.6,18,"
"##MN-00 00 57 0155 01975 5173 444919 349270 197"
"159.270012"
"$GPGGA,062846,2441.1320,N,08036.2966,W,1,9,1.6,18,"
"##MN-00 00 56 0156 01975 5174 444974 349276 197"
"159.270058"
"$GPGGA,062850,2441.1305,N,08036.2959,W,1,9,1.6,18,"
"##MN-00 00 57 0157 01974 5174 445068 349288 197"
"159.270104"
"$GPGGA,062854,2441.1290,N,08036.2952,W,1,9,1.6,18,"
"##MN-00 00 56 0158 01973 5174 445061 349302 197"
"159.27015"
"$GPGGA,062858,2441.1274,N,08036.2944,W,1,9,1.6,18,"
"##MN-00 00 57 0160 01973 5175 445093 349309 197"
"159.270197"
"$GPGGA,062902,2441.1259,N,08036.2936,W,1,9,1.6,18,"
"##MN+00 00 56 0161 01970 5175 445174 349323 197"
"159.270243"
"$GPGGA,062906,2441.1246,N,08036.2929,W,1,9,1.6,18,"
"##MN+00 00 56 0162 01975 5176 445238 349344 197"
"159.270289"
"$GPGGA,062910,2441.1232,N,08036.2921,W,1,9,1.6,18,"
"##MN+00 00 57 0163 01972 5176 445269 349351 197"
"159.270336"
"$GPGGA,062914,2441.1217,N,08036.2913,W,1,9,1.7,18,"
"##MN-00 00 57 0164 01973 5177 445296 349369 197"
"159.270382"
"$GPGGA,062918,2441.1204,N,08036.2904,W,1,9,1.6,18,"
"##MN-00 00 57 0165 01974 5177 445352 349374 197"
"159.270428"
"$GPGGA,062922,2441.1190,N,08036.2895,W,1,9,1.6,18,"
"##MN-00 00 56 0166 01972 5177 445373 349384 197"
"159.270475"
"$GPGGA,062926,2441.1178,N,08036.2886,W,1,9,1.6,18,"
"##MN-00 00 56 0167 01973 5178 445333 349393 197"
"159.270521"
"$GPGGA,062930,2441.1164,N,08036.2877,W,1,9,1.6,18,"
"##MN-00 00 57 0168 01972 5178 445313 349387 197"
"159.270567"
"$GPGGA,062934,2441.1150,N,08036.2868,W,1,9,1.6,18,"
"##MN+00 00 57 0169 01972 5178 445296 349383 197"
"159.270613"
"$GPGGA,062938,2441.1135,N,08036.2860,W,1,9,1.6,18,"
"##MN+00 00 57 0170 01971 5179 445292 349380 197"
"159.27066"
"$GPGGA,062942,2441.1120,N,08036.2851,W,1,9,1.6,18,"
"##MN+00 00 57 0171 01973 5179 445283 349378 197"
"159.270706"
"$GPGGA,062946,2441.1105,N,08036.2844,W,1,9,1.6,18,"
"##MN-00 00 69 0172 01975 5180 445252 349379 197"
"159.270752"
"#increment_net"
"$GPGGA,062950,2441.1089,N,08036.2835,W,1,9,1.6,18,"
"##MN-00 00 61 0173 01973 5180 445232 349376 197"
"159.270799"
"$GPGGA,062954,2441.1073,N,08036.2827,W,1,8,1.7,18,"
"##MN-00 00 58 0174 01973 5180 445215 349372 197"
"159.270845"
"$GPGGA,062958,2441.1059,N,08036.2818,W,1,8,1.7,18,"
"##MN-00 00 57 0175 01973 5181 445198 349370 197"
"159.270891"
"$GPGGA,063002,2441.1044,N,08036.2809,W,1,8,1.7,18,"
"##MN-00 00 56 0176 01973 5181 445178 349367 197"
"159.270938"
"$GPGGA,063006,2441.1030,N,08036.2802,W,1,9,1.6,18,"
"##MN-00 00 55 0177 01972 5182 445140 349366 197"
"159.270984"
"$GPGGA,063010,2441.1014,N,08036.2793,W,1,9,1.6,18,"
"##MN-00 00 55 0178 01973 5182 445157 349357 197"
"159.27103"
"$GPGGA,063014,2441.1001,N,08036.2785,W,1,9,1.6,18,"
"##MN-00 00 55 0180 01970 5183 445163 349352 197"
"159.271076"
"$GPGGA,063018,2441.0986,N,08036.2778,W,1,9,1.6,19,"
"##MN-00 00 55 0181 01971 5183 445141 349348 197"
"159.271123"
"$GPGGA,063022,2441.0972,N,08036.2771,W,1,9,1.6,19,"
"##MN-00 00 55 0182 01969 5183 445096 349330 197"
"159.271169"
"$GPGGA,063026,2441.0956,N,08036.2764,W,1,9,1.6,19,"
"##MN-00 00 55 0183 01970 5184 445015 349320 197"
"159.271215"
"$GPGGA,063030,2441.0941,N,08036.2756,W,1,8,1.6,19,"
"##MN-00 00 56 0184 01968 5184 445012 349308 197"
"159.271262"
"$GPGGA,063034,2441.0923,N,08036.2749,W,1,8,1.6,19,"
"##MN-00 00 56 0185 01970 5184 444989 349304 197"
"159.271308"
"$GPGGA,063038,2441.0909,N,08036.2741,W,1,8,1.7,19,"
"##MN-00 00 57 0186 01974 5185 444960 349295 197"
"159.271354"
"$GPGGA,063042,2441.0896,N,08036.2733,W,1,8,1.7,18,"
"##MN-00 00 56 0187 01973 5185 444918 349279 197"
"159.2714"
"$GPGGA,063046,2441.0883,N,08036.2723,W,1,9,1.6,18,"
"##MN-00 00 55 0188 01970 5185 444907 349285 197"
"159.271447"
"$GPGGA,063050,2441.0869,N,08036.2715,W,1,9,1.6,18,"
"##MN-00 00 55 0189 01970 5186 444846 349277 197"
"159.271505"
"$GPGGA,063054,2441.0855,N,08036.2705,W,1,9,1.6,18,"
"##MN-00 00 57 0190 01972 5186 444810 349264 197"
"159.271551"
"$GPGGA,063058,2441.0842,N,08036.2695,W,1,9,1.6,18,"
"##MN-00 00 55 0191 01972 5187 444878 349235 197"
"159.271597"
"$GPGGA,063102,2441.0827,N,08036.2687,W,1,8,1.6,18,"
"##MN-00 00 56 0192 01970 5187 444966 349247 197"
"159.271644"
"$GPGGA,063106,2441.0813,N,08036.2678,W,1,9,1.6,18,"
"##MN-00 00 56 0193 01971 5187 445029 349262 197"
"159.27169"
"$GPGGA,063110,2441.0799,N,08036.2668,W,1,8,1.6,18,"
"##MN-00 00 55 0195 01973 5188 445026 349264 197"
"159.271736"
"$GPGGA,063114,2441.0786,N,08036.2658,W,1,9,1.6,18,"
"##MN-00 00 56 0196 01971 5188 445021 349261 197"
"159.271782"
"$GPGGA,063118,2441.0773,N,08036.2650,W,1,9,1.6,18,"
"##MN+00 00 56 0197 01974 5188 445014 349257 197"
"159.271829"
"$GPGGA,063122,2441.0759,N,08036.2642,W,1,9,1.6,18,"
"##MN+00 00 56 0198 01972 5189 445012 349255 197"
"159.271875"
"$GPGGA,063126,2441.0742,N,08036.2633,W,1,9,1.6,18,"
"##MN+00 00 56 0199 01970 5189 445012 349253 197"
"159.271921"
"$GPGGA,063130,2441.0726,N,08036.2626,W,1,9,1.6,18,"
"##MN-00 00 56 0200 01971 5189 445036 349256 197"
"159.271968"
"$GPGGA,063134,2441.0712,N,08036.2618,W,1,9,1.6,18,"
"##MN-00 00 56 0201 01972 5190 445121 349257 197"
"159.272014"
"$GPGGA,063138,2441.0695,N,08036.2610,W,1,9,1.6,18,"
"##MN-00 00 55 0202 01969 5190 445184 349299 197"
"159.27206"
"$GPGGA,063142,2441.0680,N,08036.2603,W,1,9,1.6,18,"
"##MN-00 00 55 0203 01971 5190 445263 349319 197"
"159.272106"
"$GPGGA,063146,2441.0666,N,08036.2595,W,1,9,1.6,17,"
"##MN+00 00 56 0204 01972 5191 445300 349328 197"
"159.272153"
"$GPGGA,063150,2441.0651,N,08036.2587,W,1,9,1.6,17,"
"##MN+00 00 55 0205 01972 5191 445342 349354 196"
"159.272199"
"$GPGGA,063154,2441.0636,N,08036.2580,W,1,9,1.6,17,"
"##MN+00 00 55 0206 01970 5191 445390 349388 197"
"159.272245"
"$GPGGA,063158,2441.0622,N,08036.2572,W,1,9,1.6,17,"
"##MN-00 00 68 0207 01974 5192 445435 349406 197"
"159.272292"
"$GPGGA,063202,2441.0607,N,08036.2564,W,1,9,1.6,17,"
"##MN-00 00 60 0208 01975 5192 445384 349384 197"
"159.272338"
"#increment_net"
"$GPGGA,063206,2441.0592,N,08036.2556,W,1,9,1.6,17,"
"##MN-00 00 59 0209 01973 5192 445285 349364 197"
"159.272384"
"$GPGGA,063210,2441.0578,N,08036.2549,W,1,9,1.6,16,"
"##MN-00 00 55 0211 01973 5192 445253 349336 197"
"159.272431"
"$GPGGA,063214,2441.0564,N,08036.2542,W,1,9,1.6,16,"
"##MN-00 00 55 0212 01971 5193 445268 349328 197"
"159.272477"
"$GPGGA,063218,2441.0549,N,08036.2534,W,1,9,1.6,16,"
"##MN-00 00 55 0213 01970 5193 445316 349343 197"
"159.272523"
"$GPGGA,063222,2441.0535,N,08036.2527,W,1,9,1.6,16,"
"##MN-00 00 54 0214 01970 5193 445396 349362 197"
"159.272569"
"$GPGGA,063227,2441.0517,N,08036.2517,W,1,9,1.6,16,"
"##MN-00 00 55 0215 01970 5194 445479 349390 197"
"159.272616"
"$GPGGA,063230,2441.0506,N,08036.2511,W,1,9,1.6,16,"
"##MN-00 00 55 0216 01971 5194 445475 349399 197"
"159.272662"
"$GPGGA,063234,2441.0492,N,08036.2503,W,1,9,1.6,16,"
"##MN-00 00 55 0217 01971 5194 445462 349398 197"
"159.272708"
"$GPGGA,063239,2441.0474,N,08036.2494,W,1,9,1.6,15,"
"##MN-00 00 56 0218 01969 5195 445422 349392 197"
"159.272755"
"$GPGGA,063243,2441.0461,N,08036.2486,W,1,9,1.6,15,"
"##MN-00 00 55 0219 01970 5195 445407 349392 197"
"159.272801"
"$GPGGA,063247,2441.0448,N,08036.2479,W,1,9,1.6,15,"
"##MN-00 00 55 0221 01969 5195 445405 349390 197"
"159.272847"
"$GPGGA,063251,2441.0432,N,08036.2470,W,1,8,1.6,15,"
"##MN-00 00 55 0222 01970 5196 445424 349390 197"
"159.272894"
"$GPGGA,063255,2441.0420,N,08036.2461,W,1,9,1.6,16,"
"##MN-00 00 55 0223 01970 5196 445481 349403 197"
"159.27294"
"$GPGGA,063259,2441.0408,N,08036.2451,W,1,9,1.6,16,"
"##MN-00 00 55 0224 01970 5196 445542 349423 197"
"159.272986"
"$GPGGA,063303,2441.0394,N,08036.2443,W,1,9,1.6,16,"
"##MN-00 00 56 0225 01968 5196 445531 349432 197"
"159.273032"
"$GPGGA,063307,2441.0379,N,08036.2436,W,1,9,1.6,16,"
"##MN-00 00 55 0226 01969 5197 445518 349436 197"
"159.273079"
"$GPGGA,063311,2441.0365,N,08036.2428,W,1,9,1.6,16,"
"##MN-00 00 55 0227 01969 5197 445558 349441 197"
"159.273125"
"$GPGGA,063315,2441.0350,N,08036.2422,W,1,9,1.6,16,"
"##MN-00 00 56 0228 01970 5197 445579 349471 197"
"159.273171"
"$GPGGA,063319,2441.0336,N,08036.2414,W,1,9,1.6,16,"
"##MN-00 00 55 0229 01969 5198 445518 349468 197"
"159.273218"
"$GPGGA,063323,2441.0322,N,08036.2407,W,1,9,1.6,16,"
"##MN-00 00 55 0230 01970 5198 445454 349464 197"
"159.273264"
"$GPGGA,063327,2441.0307,N,08036.2399,W,1,9,1.6,16,"
"##MN-00 00 54 0232 01970 5198 445472 349456 197"
"159.27331"
"$GPGGA,063331,2441.0294,N,08036.2391,W,1,9,1.6,16,"
"##MN+00 00 56 0233 01971 5199 445474 349452 197"
"159.273356"
"$GPGGA,063335,2441.0279,N,08036.2384,W,1,9,1.6,16,"
"##MN+00 00 54 0234 01970 5199 445428 349440 196"
"159.273403"
"$GPGGA,063339,2441.0265,N,08036.2376,W,1,8,1.6,16,"
"##MN+00 00 56 0235 01969 5199 445458 349443 197"
"159.273449"
"$GPGGA,063343,2441.0253,N,08036.2368,W,1,9,1.6,16,"
"##MN-00 00 55 0236 01971 5199 445488 349452 197"
"159.273495"
"$GPGGA,063347,2441.0239,N,08036.2360,W,1,9,1.6,16,"
"##MN-00 00 56 0237 01969 5200 445554 349474 197"
"159.273542"
"$GPGGA,063351,2441.0225,N,08036.2350,W,1,9,1.6,16,"
"##MN-00 00 55 0238 01969 5200 445615 349496 197"
"159.273588"
"$GPGGA,063355,2441.0211,N,08036.2342,W,1,9,1.6,16,"
"##MN+00 00 56 0239 01969 5200 445683 349511 197"
"159.273634"
"$GPGGA,063359,2441.0197,N,08036.2334,W,1,9,1.6,16,"
"##MN+00 00 55 0240 01971 5201 445698 349527 196"
"159.273681"
"$GPGGA,063403,2441.0182,N,08036.2326,W,1,9,1.6,16,"
"##MN+00 00 55 0241 01970 5201 445675 349525 196"
"159.273727"
"$GPGGA,063407,2441.0167,N,08036.2317,W,1,9,1.6,16,"
"##MN-00 00 67 0242 01972 5201 445677 349522 197"
"159.273773"
"#increment_net"
"$GPGGA,063411,2441.0153,N,08036.2309,W,1,9,1.6,16,"
"##MN-00 00 61 0244 01972 5201 445705 349524 197"
"159.273819"
"$GPGGA,063415,2441.0139,N,08036.2300,W,1,9,1.6,16,"
"##MN-00 00 58 0245 01972 5202 445740 349537 197"
"159.273866"
"$GPGGA,063419,2441.0124,N,08036.2292,W,1,9,1.6,16,"
"##MN-00 00 55 0246 01971 5202 445778 349551 197"
"159.273912"
"$GPGGA,063423,2441.0109,N,08036.2284,W,1,9,1.6,16,"
"##MN-00 00 55 0247 01970 5202 445849 349669 197"
"159.273958"
"$GPGGA,063427,2441.0095,N,08036.2275,W,1,9,1.6,16,"
"##MN-00 00 55 0248 01972 5203 445860 349680 197"
"159.274005"
"$GPGGA,063431,2441.0080,N,08036.2267,W,1,9,1.6,16,"
"##MN-00 00 54 0249 01971 5203 445829 349579 197"
"159.274051"
"$GPGGA,063435,2441.0066,N,08036.2259,W,1,9,1.6,16,"
"##MN-00 00 55 0250 01971 5203 445792 349569 197"
"159.274097"
"$GPGGA,063439,2441.0052,N,08036.2250,W,1,9,1.6,16,"
"##MN-00 00 55 0251 01970 5203 445773 349560 197"
"159.274144"
"$GPGGA,063443,2441.0037,N,08036.2242,W,1,9,1.6,16,"
"##MN-00 00 55 0253 01971 5203 445722 349549 197"
"159.27419"
"$GPGGA,063447,2441.0023,N,08036.2233,W,1,9,1.6,16,"
"##MN-00 00 55 0254 01970 5204 445663 349515 197"
"159.274236"
"$GPGGA,063451,2441.0008,N,08036.2224,W,1,9,1.6,16,"
"##MN-00 00 54 0255 01972 5204 445615 349507 197"
"159.274282"
"$GPGGA,063455,2440.9994,N,08036.2217,W,1,8,1.6,16,"
"##MN-00 00 56 0256 01969 5204 445611 349490 197"
"159.274329"
"$GPGGA,063459,2440.9980,N,08036.2210,W,1,8,1.6,16,"
"##MN-00 00 54 0257 01968 5205 445668 349502 197"
"159.274375"
"$GPGGA,063503,2440.9967,N,08036.2199,W,1,8,1.6,16,"
"##MN-00 00 55 0258 01970 5205 445660 349501 197"
"159.274421"
"$GPGGA,063507,2440.9953,N,08036.2190,W,1,8,1.6,17,"
"##MN-00 00 54 0259 01971 5205 445648 349496 197"
"159.274468"
"$GPGGA,063511,2440.9940,N,08036.2182,W,1,9,1.6,17,"
"##MN-00 00 55 0260 01970 5205 445645 349497 197"
"159.274514"
"$GPGGA,063515,2440.9928,N,08036.2173,W,1,9,1.6,17,"
"##MN-00 00 54 0261 01972 5206 445594 349485 197"
"159.27456"
"$GPGGA,063519,2440.9914,N,08036.2163,W,1,9,1.6,17,"
"##MN-00 00 55 0263 01972 5206 445523 349467 197"
"159.274606"
"$GPGGA,063523,2440.9900,N,08036.2155,W,1,9,1.6,17,"
"##MN-00 00 54 0264 01972 5206 445494 349433 197"
"159.274664"
"$GPGGA,063527,2440.9886,N,08036.2146,W,1,9,1.6,17,"
"##MN-00 00 54 0265 01973 5206 445441 349416 197"
"159.274711"
"$GPGGA,063531,2440.9872,N,08036.2138,W,1,9,1.6,17,"
"##MN-00 00 54 0266 01972 5206 445408 349398 197"
"159.274757"
"$GPGGA,063535,2440.9859,N,08036.2129,W,1,9,1.6,17,"
"##MN-00 00 54 0267 01971 5206 445312 349375 197"
"159.274803"
"$GPGGA,063539,2440.9845,N,08036.2120,W,1,9,1.6,17,"
"##MN+00 00 55 0268 01971 5207 445245 349362 197"
"159.27485"
"$GPGGA,063543,2440.9829,N,08036.2112,W,1,9,1.6,17,"
"##MN+00 00 55 0269 01970 5207 445208 349350 196"
"159.274896"
"$GPGGA,063547,2440.9816,N,08036.2103,W,1,9,1.6,17,"
"##MN+00 00 54 0270 01970 5208 445181 349343 196"
"159.274942"
"$GPGGA,063551,2440.9802,N,08036.2095,W,1,9,1.6,17,"
"##MN-00 00 54 0272 01971 5207 445184 349339 196"
"159.274988"
"$GPGGA,063555,2440.9788,N,08036.2086,W,1,9,1.6,17,"
"##MN-00 00 55 0273 01970 5208 445207 349327 196"
"159.275035"
"$GPGGA,063559,2440.9774,N,08036.2077,W,1,9,1.6,17,"
"##MN+00 00 55 0274 01969 5208 445203 349315 196"
"159.275081"
"$GPGGA,063603,2440.9760,N,08036.2069,W,1,9,1.6,17,"
"##MN+00 00 55 0275 01969 5208 445188 349310 196"
"159.275127"
"$GPGGA,063607,2440.9747,N,08036.2061,W,1,9,1.6,17,"
"##MN+00 00 55 0276 01970 5208 445182 349306 196"
"159.275174"
"$GPGGA,063611,2440.9733,N,08036.2052,W,1,9,1.6,17,"
"##MN-00 00 67 0277 01973 5209 445195 349307 196"
"159.27522"
"#increment_net"
"$GPGGA,063615,2440.9719,N,08036.2043,W,1,9,1.6,17,"
"##MN-00 00 64 0278 01976 5209 445307 349316 196"
"159.275266"
"$GPGGA,063619,2440.9702,N,08036.2035,W,1,8,1.7,17,"
"##MN-00 00 58 0280 01984 5210 445444 349338 196"
"159.275313"
"$GPGGA,063623,2440.9687,N,08036.2025,W,1,7,1.8,17,"
"##MN-00 00 57 0281 01989 5209 445488 349374 196"
"159.275359"
"$GPGGA,063627,2440.9671,N,08036.2019,W,1,7,1.8,16,"
"##MN-00 00 55 0283 01992 5210 445480 349383 196"
"159.275405"
"$GPGGA,063631,2440.9657,N,08036.2011,W,1,7,1.8,16,"
"##MN-00 00 55 0284 01997 5210 445449 349377 196"
"159.275451"
"$GPGGA,063635,2440.9642,N,08036.2005,W,1,8,1.7,16,"
"##MN-00 00 54 0285 02000 5210 445472 349384 196"
"159.275498"
"$GPGGA,063639,2440.9628,N,08036.1995,W,1,8,1.7,16,"
"##MN-00 00 55 0287 01999 5210 445538 349402 196"
"159.275544"
"$GPGGA,063643,2440.9611,N,08036.1985,W,1,8,1.7,16,"
"##MN-00 00 56 0288 01993 5210 445580 349416 196"
"159.27559"
"$GPGGA,063647,2440.9594,N,08036.1975,W,1,8,1.7,16,"
"##MN-00 00 54 0290 01990 5210 445567 349417 196"
"159.275637"
"$GPGGA,063651,2440.9578,N,08036.1965,W,1,8,1.7,16,"
"##MN-00 00 54 0291 01983 5211 445483 349400 196"
"159.275683"
"$GPGGA,063655,2440.9563,N,08036.1955,W,1,8,1.7,16,"
"##MN-00 00 54 0293 01976 5211 445390 349378 196"
"159.275752"
"$GPGGA,063659,2440.9545,N,08036.1944,W,1,8,1.7,16,"
"##MN-00 00 54 0295 01970 5211 445298 349354 196"
"159.275799"
"$GPGGA,063706,2440.9518,N,08036.1925,W,1,8,1.7,16,"
"##MN-00 00 54 0296 01963 5212 445190 349340 196"
"159.275845"
"$GPGGA,063710,2440.9502,N,08036.1915,W,1,8,1.7,16,"
"##MN-00 00 53 0298 01955 5212 445076 349313 196"
"159.275891"
"$GPGGA,063714,2440.9487,N,08036.1906,W,1,8,1.7,16,"
"##MN-00 00 52 0299 01949 5212 444780 349262 196"
"159.275937"
"$GPGGA,063718,2440.9470,N,08036.1895,W,1,8,1.7,16,"
"##MN-00 00 53 0301 01942 5212 444557 349154 196"
"159.275984"
"$GPGGA,063722,2440.9454,N,08036.1885,W,1,8,1.7,16,"
"##MN-00 00 52 0302 01934 5212 444435 349152 196"
"159.27603"
"$GPGGA,063726,2440.9438,N,08036.1874,W,1,8,1.7,16,"
"##MN-00 00 54 0304 01927 5213 444382 349094 196"
"159.276076"
"$GPGGA,063730,2440.9422,N,08036.1863,W,1,8,1.7,16,"
"##MN-00 00 54 0305 01920 5213 444307 349087 196"
"159.276123"
"$GPGGA,063734,2440.9405,N,08036.1853,W,1,8,1.7,16,"
"##MN-00 00 53 0307 01915 5213 444051 349084 196"
"159.276169"
"$GPGGA,063738,2440.9389,N,08036.1842,W,1,8,1.7,16,"
"##MN-00 00 54 0308 01905 5214 443497 349000 196"
"159.276215"
"$GPGGA,063742,2440.9372,N,08036.1831,W,1,8,1.7,16,"
"##MN-00 00 54 0310 01899 5214 443177 348803 196"
"159.276262"
"$GPGGA,063746,2440.9357,N,08036.1821,W,1,7,1.7,16,"
"##MN-00 00 54 0311 01890 5214 442959 348706 196"
"159.276308"
"$GPGGA,063750,2440.9340,N,08036.1811,W,1,8,1.7,16,"
"##MN-00 00 54 0313 01883 5214 442799 348613 196"
"159.276354"
"$GPGGA,063754,2440.9324,N,08036.1802,W,1,7,1.7,16,"
"##MN-00 00 54 0314 01875 5214 442688 348578 196"
"159.2764"
"$GPGGA,063758,2440.9307,N,08036.1791,W,1,8,1.7,16,"
"##MN-00 00 54 0316 01870 5214 442174 348370 196"
"159.276447"
"$GPGGA,063802,2440.9292,N,08036.1779,W,1,8,1.7,16,"
"##MN-00 00 52 0317 01864 5214 440561 348038 196"
"159.276493"
"$GPGGA,063806,2440.9274,N,08036.1769,W,1,7,1.7,17,"
"##MN-00 00 53 0319 01867 5215 438898 347575 196"
"159.276539"
"$GPGGA,063810,2440.9259,N,08036.1758,W,1,8,1.8,17,"
"##MN-00 00 52 0320 01866 5215 438302 347648 196"
"159.276586"
"$GPGGA,063814,2440.9243,N,08036.1747,W,1,8,1.7,17,"
"##MN-00 00 51 0322 01864 5215 438141 347177 196"
"159.276632"
"$GPGGA,063818,2440.9228,N,08036.1736,W,1,8,1.7,17,"
"##MN-00 00 56 0323 01864 5216 438118 347109 196"
"159.276678"
"$GPGGA,063822,2440.9213,N,08036.1727,W,1,8,1.7,17,"
"##MN-00 00 52 0325 01863 5216 438121 347310 196"
"159.276725"
"$GPGGA,063826,2440.9196,N,08036.1714,W,1,8,1.8,17,"
"##MN-00 00 58 0326 01866 5216 438186 347029 196"
"159.276771"
"$GPGGA,063830,2440.9180,N,08036.1702,W,1,8,1.7,17,"
"##MN-00 00 58 0327 01863 5217 438288 347040 196"
"159.276817"
"$GPGGA,063834,2440.9165,N,08036.1692,W,1,8,1.7,18,"
"##MN-00 00 59 0329 01866 5217 438346 347114 196"
"159.276863"
"$GPGGA,063838,2440.9146,N,08036.1678,W,1,7,1.7,18,"
"##MN-00 00 56 0329 01864 5218 438571 394629 196"
"159.27691"
"$GPGGA,063842,2440.9129,N,08036.1666,W,1,8,1.7,17,"
"##MN-00 00 58 0329 01864 5218 440496 702942 196"
"159.276956"
"$GPGGA,063846,2440.9111,N,08036.1656,W,1,8,1.7,17,"
"##MN-00 00 56 0330 01864 5218 446459 838576 196"
