" Tow: L7s-B   RVWS/WS1406"
" Date: 06/08/2014"
" Temperature Probe #  2597    Conductivity Probe #  2870"
" Pressure Probe #  109"
" Flow Meter Calibration  4.71 (m/count)  "
"159.294595"
"$GPGGA,070406,2439.3249,N,08035.1433,W,1,7,2.0,17,"
"##MN-00 00 30 0084 01861 5163 457767 916276 197"
"159.294641"
"$GPGGA,070414,2439.3204,N,08035.1400,W,1,7,2.1,17,"
"##MN-00 00 38 0084 01861 5164 454888 916814 197"
"159.294688"
"$GPGGA,070418,2439.3183,N,08035.1384,W,1,7,2.1,17,"
"##MN-00 00 46 0084 01863 5165 455117 916834 197"
"159.294734"
"$GPGGA,070422,2439.3165,N,08035.1371,W,1,7,2.1,17,"
"##MN-00 00 52 0084 01863 5166 455448 916269 197"
"159.29478"
"$GPGGA,070426,2439.3144,N,08035.1357,W,1,7,1.9,16,"
"##MN-00 00 59 0084 01862 5167 455350 916128 197"
"159.294826"
"$GPGGA,070430,2439.3131,N,08035.1347,W,1,8,2.1,16,"
"##MN-00 00 60 0084 01865 5167 452383 656596 197"
"159.294873"
"$GPGGA,070434,2439.3111,N,08035.1332,W,1,8,1.9,16,"
"##MN-00 00 58 0085 01863 5168 435389 347333 197"
"159.294919"
"$GPGGA,070438,2439.3093,N,08035.1319,W,1,8,2.1,17,"
"##MN-00 00 59 0086 01865 5169 435155 346991 197"
"159.294965"
"$GPGGA,070442,2439.3074,N,08035.1306,W,1,8,2.1,17,"
"##MN-00 00 60 0087 01864 5169 435117 346921 197"
"159.295012"
"$GPGGA,070446,2439.3057,N,08035.1293,W,1,8,2.1,17,"
"##MN-00 00 62 0088 01862 5169 435049 346763 197"
"159.295058"
"$GPGGA,070450,2439.3038,N,08035.1278,W,1,7,2.1,17,"
"##MN-00 00 61 0089 01864 5169 435010 346421 197"
"159.295104"
"$GPGGA,070454,2439.3021,N,08035.1264,W,1,7,2.1,16,"
"##MN-00 00 63 0090 01863 5170 434982 346361 197"
"159.29515"
"$GPGGA,070458,2439.3006,N,08035.1251,W,1,7,2.1,16,"
"##MN-00 00 62 0091 01863 5171 434981 346282 197"
"159.295197"
"$GPGGA,070502,2439.2991,N,08035.1238,W,1,7,1.9,16,"
"##MN-00 00 63 0092 01863 5171 434955 346210 197"
"159.295243"
"$GPGGA,070506,2439.2980,N,08035.1227,W,1,8,1.9,16,"
"##MN-00 00 61 0093 01864 5171 434928 346188 197"
"159.295289"
"$GPGGA,070510,2439.2968,N,08035.1216,W,1,8,1.9,16,"
"##MN-00 00 61 0094 01864 5172 434936 346148 197"
"159.295336"
"$GPGGA,070514,2439.2956,N,08035.1204,W,1,8,1.9,16,"
"##MN-00 00 62 0095 01865 5172 434942 346198 197"
"159.295382"
"$GPGGA,070518,2439.2944,N,08035.1192,W,1,8,1.9,17,"
"##MN-00 00 62 0097 01864 5173 434952 346141 197"
"159.295428"
"$GPGGA,070522,2439.2938,N,08035.1183,W,1,7,1.9,17,"
"##MN-00 00 60 0098 01863 5173 434951 346131 197"
"159.295475"
"$GPGGA,070526,2439.2926,N,08035.1169,W,1,7,2.1,17,"
"##MN-00 00 60 0099 01863 5173 434904 346099 197"
"159.295521"
"$GPGGA,070530,2439.2916,N,08035.1159,W,1,7,2.1,18,"
"##MN-00 00 61 0100 01866 5174 434898 346098 197"
"159.295567"
"$GPGGA,070534,2439.2909,N,08035.1148,W,1,7,1.9,18,"
"##MN-00 00 60 0101 01865 5174 434922 346084 197"
"159.295613"
"$GPGGA,070538,2439.2896,N,08035.1137,W,1,7,2.1,18,"
"##MN-00 00 60 0102 01866 5175 434928 346085 197"
"159.29566"
"$GPGGA,070542,2439.2888,N,08035.1128,W,1,8,1.9,19,"
"##MN-00 00 60 0103 01866 5175 434914 346081 197"
"159.295706"
"$GPGGA,070546,2439.2877,N,08035.1118,W,1,7,2.1,19,"
"##MN-00 00 60 0104 01867 5176 434898 346084 197"
"159.295752"
"$GPGGA,070550,2439.2865,N,08035.1108,W,1,8,1.9,19,"
"##MN-00 00 61 0105 01869 5176 434887 346070 197"
"159.295799"
"$GPGGA,070554,2439.2854,N,08035.1099,W,1,8,1.9,19,"
"##MN-00 00 59 0106 01871 5177 434886 346052 197"
"159.295845"
"$GPGGA,070558,2439.2843,N,08035.1091,W,1,8,1.9,20,"
"##MN-00 00 60 0107 01873 5178 434895 346048 197"
"159.295891"
"$GPGGA,070602,2439.2832,N,08035.1083,W,1,8,2.1,20,"
"##MN-00 00 60 0108 01876 5178 434908 346049 197"
"159.295937"
"$GPGGA,070606,2439.2823,N,08035.1076,W,1,7,1.9,20,"
"##MN-00 00 60 0109 01880 5179 434925 346051 197"
"159.295984"
"$GPGGA,070610,2439.2812,N,08035.1071,W,1,8,1.9,20,"
"##MN-00 00 60 0111 01882 5179 434950 346037 197"
"159.29603"
"$GPGGA,070614,2439.2801,N,08035.1064,W,1,8,1.9,20,"
"##MN-00 00 60 0112 01882 5180 434950 346039 197"
"159.296076"
"$GPGGA,070618,2439.2790,N,08035.1058,W,1,8,1.9,20,"
"##MN-00 00 59 0113 01887 5180 434982 346041 197"
"159.296123"
"$GPGGA,070622,2439.2780,N,08035.1051,W,1,8,1.9,20,"
"##MN-00 00 60 0114 01889 5181 435138 346067 197"
"159.296169"
"$GPGGA,070626,2439.2769,N,08035.1045,W,1,8,1.9,20,"
"##MN-00 00 60 0115 01894 5182 435190 346094 197"
"159.296215"
"$GPGGA,070630,2439.2760,N,08035.1040,W,1,8,1.9,20,"
"##MN-00 00 60 0116 01897 5182 435210 346100 197"
"159.296262"
"$GPGGA,070634,2439.2748,N,08035.1034,W,1,8,1.9,20,"
"##MN-00 00 60 0117 01901 5183 435383 346105 197"
"159.296308"
"$GPGGA,070638,2439.2735,N,08035.1028,W,1,7,1.9,20,"
"##MN-00 00 59 0118 01905 5183 435750 346146 197"
"159.296354"
"$GPGGA,070642,2439.2724,N,08035.1022,W,1,7,2.1,20,"
"##MN-00 00 59 0119 01905 5184 436192 346184 197"
"159.2964"
"$GPGGA,070646,2439.2715,N,08035.1017,W,1,8,2.0,20,"
"##MN-00 00 60 0120 01908 5185 436697 346338 197"
"159.296447"
"$GPGGA,070650,2439.2704,N,08035.1011,W,1,8,2.0,20,"
"##MN-00 00 60 0121 01914 5185 437037 346448 197"
"159.296493"
"$GPGGA,070654,2439.2693,N,08035.1004,W,1,8,2.0,19,"
"##MN-00 00 60 0122 01915 5185 437244 346469 197"
"159.296539"
"$GPGGA,070658,2439.2681,N,08035.0996,W,1,8,2.0,19,"
"##MN-00 00 61 0123 01919 5187 437368 346624 197"
"159.296586"
"$GPGGA,070702,2439.2670,N,08035.0987,W,1,8,2.0,19,"
"##MN-00 00 59 0124 01920 5187 437443 346799 197"
"159.296632"
"$GPGGA,070706,2439.2657,N,08035.0979,W,1,8,2.0,19,"
"##MN-00 00 60 0125 01924 5188 437507 346797 197"
"159.296678"
"$GPGGA,070710,2439.2645,N,08035.0971,W,1,8,2.0,19,"
"##MN-00 00 60 0126 01925 5188 437537 346834 197"
"159.296725"
"$GPGGA,070714,2439.2634,N,08035.0961,W,1,8,2.0,19,"
"##MN-00 00 60 0127 01929 5189 437567 346856 197"
"159.296771"
"$GPGGA,070718,2439.2621,N,08035.0953,W,1,8,2.0,19,"
"##MN-00 00 59 0129 01932 5190 437593 346842 197"
"159.296817"
"$GPGGA,070722,2439.2609,N,08035.0943,W,1,8,2.0,19,"
"##MN-00 00 60 0130 01936 5191 437632 346880 197"
"159.296863"
"$GPGGA,070726,2439.2598,N,08035.0935,W,1,8,2.0,19,"
"##MN-00 00 59 0131 01939 5191 437650 346897 197"
"159.296921"
"$GPGGA,070730,2439.2587,N,08035.0927,W,1,8,2.0,19,"
"##MN-00 00 60 0132 01942 5192 437663 346921 197"
"159.296968"
"$GPGGA,070734,2439.2574,N,08035.0919,W,1,7,2.1,19,"
"##MN-00 00 60 0133 01943 5192 437676 346914 197"
"159.297014"
"$GPGGA,070738,2439.2563,N,08035.0913,W,1,7,2.1,19,"
"##MN-00 00 59 0134 01947 5193 437695 346921 197"
"159.29706"
"$GPGGA,070742,2439.2552,N,08035.0907,W,1,7,2.0,19,"
"##MN-00 00 60 0135 01953 5194 437727 346947 197"
"159.297106"
"$GPGGA,070746,2439.2546,N,08035.0902,W,1,7,2.0,19,"
"##MN-00 00 59 0136 01951 5195 437763 346965 197"
"159.297153"
"$GPGGA,070750,2439.2538,N,08035.0897,W,1,8,2.1,19,"
"##MN-00 00 60 0137 01955 5195 437833 346970 197"
"159.297199"
"$GPGGA,070754,2439.2531,N,08035.0892,W,1,8,2.0,19,"
"##MN-00 00 60 0138 01961 5196 437889 346997 197"
"159.297245"
"$GPGGA,070759,2439.2518,N,08035.0885,W,1,8,2.0,19,"
"##MN-00 00 60 0139 01963 5197 437934 347010 197"
"159.297292"
"$GPGGA,070803,2439.2506,N,08035.0879,W,1,8,2.0,19,"
"##MN-00 00 59 0140 01967 5197 437998 347029 197"
"159.297338"
"$GPGGA,070806,2439.2498,N,08035.0873,W,1,8,2.0,19,"
"##MN-00 00 60 0141 01971 5198 438035 347036 197"
"159.297384"
"$GPGGA,070810,2439.2487,N,08035.0865,W,1,8,2.0,19,"
"##MN-00 00 59 0142 01972 5198 438071 347051 197"
"159.297431"
"$GPGGA,070814,2439.2477,N,08035.0857,W,1,7,2.0,19,"
"##MN-00 00 60 0143 01972 5199 438097 347060 197"
"159.297477"
"$GPGGA,070818,2439.2465,N,08035.0849,W,1,8,2.0,19,"
"##MN-00 00 58 0145 01971 5200 438125 347064 197"
"159.297523"
"$GPGGA,070822,2439.2453,N,08035.0841,W,1,8,2.0,19,"
"##MN-00 00 58 0146 01969 5200 438131 347075 197"
"159.297569"
"$GPGGA,070827,2439.2436,N,08035.0830,W,1,8,2.0,20,"
"##MN-00 00 59 0147 01971 5201 438130 347070 197"
"159.297616"
"$GPGGA,070831,2439.2422,N,08035.0822,W,1,8,2.0,20,"
"##MN-00 00 58 0148 01968 5202 438122 347080 197"
"159.297662"
"$GPGGA,070835,2439.2407,N,08035.0815,W,1,8,2.0,20,"
"##MN-00 00 60 0150 01964 5203 438108 347082 197"
"159.297708"
"$GPGGA,070839,2439.2392,N,08035.0806,W,1,8,2.0,20,"
"##MN-00 00 61 0151 01966 5204 438079 347081 197"
"159.297755"
"$GPGGA,070843,2439.2375,N,08035.0799,W,1,8,2.0,20,"
"##MN-00 00 60 0152 01963 5204 438055 347076 197"
"159.297801"
"$GPGGA,070847,2439.2359,N,08035.0791,W,1,8,2.0,20,"
"##MN-00 00 60 0153 01962 5204 438040 347076 197"
"159.297847"
"$GPGGA,070851,2439.2341,N,08035.0783,W,1,8,2.0,20,"
"##MN-00 00 60 0154 01962 5205 438020 347081 197"
"159.297894"
"$GPGGA,070855,2439.2325,N,08035.0774,W,1,8,2.0,20,"
"##MN-00 00 62 0156 01961 5206 437989 347079 197"
"159.29794"
"$GPGGA,070859,2439.2309,N,08035.0766,W,1,8,2.0,20,"
"##MN-00 00 62 0157 01960 5207 437967 347074 197"
"159.297986"
"$GPGGA,070903,2439.2294,N,08035.0758,W,1,7,2.0,20,"
"##MN-00 00 61 0158 01961 5208 437958 347064 197"
"159.298032"
"$GPGGA,070907,2439.2280,N,08035.0750,W,1,8,3.0,20,"
"##MN-00 00 63 0159 01961 5208 437960 347064 197"
"159.298079"
"$GPGGA,070911,2439.2269,N,08035.0744,W,1,6,2.1,21,"
"##MN-00 00 62 0161 01962 5209 437959 347062 197"
"159.298125"
"$GPGGA,070915,2439.2262,N,08035.0739,W,1,7,2.1,21,"
"##MN-00 00 62 0162 01964 5209 437952 347055 197"
"159.298171"
"$GPGGA,070919,2439.2248,N,08035.0730,W,1,7,2.1,22,"
"##MN-00 00 63 0163 01963 5210 437953 347052 197"
"159.298218"
"$GPGGA,070923,2439.2231,N,08035.0721,W,1,8,2.0,23,"
"##MN-00 00 62 0164 01962 5211 437956 347052 197"
"159.298264"
"$GPGGA,070927,2439.2215,N,08035.0710,W,1,8,2.0,23,"
"##MN-00 00 63 0166 01964 5212 437965 347051 197"
"159.29831"
"$GPGGA,070931,2439.2193,N,08035.0698,W,1,7,2.1,24,"
"##MN-00 00 62 0167 01965 5212 437965 347057 197"
"159.298356"
"$GPGGA,070935,2439.2170,N,08035.0686,W,1,7,2.1,24,"
"##MN-00 00 63 0168 01964 5212 437965 347050 197"
"159.298403"
"$GPGGA,070939,2439.2150,N,08035.0675,W,1,7,2.1,23,"
"##MN-00 00 62 0170 01966 5213 437976 347052 197"
"159.298449"
"$GPGGA,070943,2439.2132,N,08035.0665,W,1,7,2.1,23,"
"##MN-00 00 63 0171 01967 5214 437971 347052 197"
"159.298495"
"$GPGGA,070947,2439.2114,N,08035.0653,W,1,7,2.1,23,"
"##MN-00 00 63 0172 01967 5215 437965 347049 197"
"159.298542"
"$GPGGA,070951,2439.2105,N,08035.0646,W,1,7,2.1,23,"
"##MN-00 00 62 0173 01970 5216 437975 347050 197"
"159.298588"
"$GPGGA,070955,2439.2092,N,08035.0637,W,1,7,2.1,23,"
"##MN-00 00 63 0175 01971 5216 438007 347052 197"
"159.298634"
"$GPGGA,070959,2439.2077,N,08035.0627,W,1,6,3.0,23,"
"##MN-00 00 63 0176 01971 5217 438032 347064 197"
"159.298681"
"$GPGGA,071003,2439.2063,N,08035.0619,W,1,7,2.1,23,"
"##MN-00 00 63 0177 01969 5218 438065 347066 197"
"159.298727"
"$GPGGA,071007,2439.2045,N,08035.0608,W,1,7,2.1,23,"
"##MN-00 00 63 0179 01970 5219 438079 347073 197"
"159.298773"
"$GPGGA,071011,2439.2027,N,08035.0599,W,1,7,2.2,23,"
"##MN+00 00 63 0180 01968 5219 438070 347076 197"
"159.298819"
"$GPGGA,071015,2439.2009,N,08035.0589,W,1,7,2.1,23,"
"##MN+00 00 63 0181 01968 5220 438050 347073 197"
"159.298866"
"$GPGGA,071019,2439.1993,N,08035.0580,W,1,8,2.0,23,"
"##MN+00 00 63 0183 01969 5221 438022 347074 197"
"159.298912"
"$GPGGA,071023,2439.1978,N,08035.0570,W,1,7,2.2,23,"
"##MN+00 00 63 0184 01968 5221 438012 347075 197"
"159.298958"
"$GPGGA,071027,2439.1960,N,08035.0558,W,1,7,2.2,23,"
"##MN+00 00 64 0185 01967 5222 437999 347063 197"
"159.299005"
"$GPGGA,071031,2439.1944,N,08035.0549,W,1,7,2.2,23,"
"##MN+00 00 73 0186 01971 5223 437989 347060 197"
"159.299051"
"$GPGGA,071035,2439.1926,N,08035.0539,W,1,7,2.2,23,"
"##MN-00 00 66 0187 01970 5224 437997 347058 197"
"159.299097"
"#increment_net"
"$GPGGA,071039,2439.1905,N,08035.0527,W,1,7,2.2,23,"
"##MN-00 00 63 0189 01968 5224 438004 347062 197"
"159.299144"
"$GPGGA,071043,2439.1886,N,08035.0517,W,1,8,2.0,23,"
"##MN-00 00 61 0190 01965 5225 437954 347058 197"
"159.29919"
"$GPGGA,071047,2439.1868,N,08035.0506,W,1,8,2.0,23,"
"##MN-00 00 62 0191 01965 5226 437898 347045 197"
"159.299236"
"$GPGGA,071051,2439.1851,N,08035.0497,W,1,8,2.0,22,"
"##MN-00 00 61 0192 01961 5226 437844 347031 197"
"159.299282"
"$GPGGA,071055,2439.1833,N,08035.0485,W,1,7,2.2,22,"
"##MN-00 00 63 0194 01962 5227 437822 347018 197"
"159.299329"
"$GPGGA,071059,2439.1814,N,08035.0475,W,1,7,2.2,22,"
"##MN-00 00 62 0195 01963 5227 437817 347015 197"
"159.299375"
"$GPGGA,071103,2439.1796,N,08035.0464,W,1,7,2.2,21,"
"##MN-00 00 65 0196 01961 5228 437815 347010 197"
"159.299421"
"$GPGGA,071107,2439.1785,N,08035.0455,W,1,7,2.1,21,"
"##MN-00 00 62 0197 01961 5228 437804 347006 197"
"159.299468"
"$GPGGA,071111,2439.1765,N,08035.0444,W,1,8,2.0,21,"
"##MN-00 00 63 0199 01964 5229 437803 347004 197"
"159.299514"
"$GPGGA,071115,2439.1749,N,08035.0434,W,1,7,2.1,20,"
"##MN-00 00 62 0200 01965 5230 437808 347005 197"
"159.29956"
"$GPGGA,071119,2439.1738,N,08035.0425,W,1,8,2.0,20,"
"##MN-00 00 63 0201 01964 5231 437816 347010 197"
"159.299606"
"$GPGGA,071123,2439.1729,N,08035.0418,W,1,7,2.1,20,"
"##MN-00 00 62 0202 01966 5231 437823 347010 197"
"159.299653"
"$GPGGA,071127,2439.1704,N,08035.0405,W,1,6,2.9,21,"
"##MN-00 00 62 0203 01967 5232 437834 347006 197"
"159.299699"
"$GPGGA,071131,2439.1682,N,08035.0394,W,1,6,2.9,20,"
"##MN-00 00 62 0205 01967 5233 437851 347007 197"
"159.299745"
"$GPGGA,071135,2439.1680,N,08035.0390,W,1,7,2.1,20,"
"##MN-00 00 63 0206 01968 5233 437883 347010 197"
"159.299792"
"$GPGGA,071139,2439.1669,N,08035.0382,W,1,7,2.1,20,"
"##MN-00 00 63 0207 01970 5234 437904 347016 197"
"159.299838"
"$GPGGA,071143,2439.1652,N,08035.0373,W,1,7,2.1,21,"
"##MN-00 00 62 0208 01970 5235 437941 347024 197"
"159.299884"
"$GPGGA,071147,2439.1635,N,08035.0364,W,1,7,2.1,21,"
"##MN-00 00 63 0210 01968 5235 437972 347023 197"
"159.299931"
"$GPGGA,071151,2439.1622,N,08035.0356,W,1,8,2.0,21,"
"##MN-00 00 62 0211 01970 5236 437986 347037 197"
"159.299977"
"$GPGGA,071155,2439.1604,N,08035.0347,W,1,7,2.1,21,"
"##MN-00 00 62 0212 01969 5237 437980 347040 197"
"159.300023"
"$GPGGA,071159,2439.1586,N,08035.0339,W,1,7,2.1,21,"
"##MN-00 00 63 0213 01968 5237 437958 347040 197"
"159.300069"
"$GPGGA,071203,2439.1579,N,08035.0334,W,1,6,2.9,21,"
"##MN-00 00 62 0215 01969 5237 437928 347038 197"
"159.300116"
"$GPGGA,071207,2439.1564,N,08035.0326,W,1,7,2.9,22,"
"##MN-00 00 63 0216 01969 5238 437908 347032 197"
"159.300174"
"$GPGGA,071211,2439.1551,N,08035.0319,W,1,6,2.9,22,"
"##MN+00 00 63 0217 01970 5239 437904 347032 197"
"159.30022"
"$GPGGA,071215,2439.1541,N,08035.0312,W,1,7,2.1,22,"
"##MN+00 00 62 0218 01969 5240 437897 347029 197"
"159.300266"
"$GPGGA,071219,2439.1535,N,08035.0305,W,1,7,2.1,23,"
"##MN+00 00 63 0220 01969 5240 437887 347026 197"
"159.300312"
"$GPGGA,071223,2439.1517,N,08035.0296,W,1,7,2.1,23,"
"##MN-00 00 63 0221 01967 5241 437872 347021 197"
"159.300359"
"$GPGGA,071227,2439.1501,N,08035.0288,W,1,7,2.1,23,"
"##MN-00 00 63 0222 01968 5242 437860 347019 197"
"159.300405"
"$GPGGA,071231,2439.1479,N,08035.0277,W,1,7,2.1,24,"
"##MN-00 00 62 0223 01969 5242 437852 347018 197"
"159.300451"
"$GPGGA,071235,2439.1456,N,08035.0265,W,1,6,2.9,23,"
"##MN-00 00 63 0224 01970 5243 437847 347018 197"
"159.300498"
"$GPGGA,071239,2439.1435,N,08035.0254,W,1,6,2.9,23,"
"##MN+00 00 63 0226 01970 5244 437843 347015 197"
"159.300544"
"$GPGGA,071243,2439.1414,N,08035.0244,W,1,7,2.9,22,"
"##MN+00 00 63 0227 01968 5244 437843 347008 197"
"159.30059"
"$GPGGA,071248,2439.1395,N,08035.0233,W,1,6,2.9,21,"
"##MN+00 00 76 0228 01972 5245 437845 347008 197"
"159.300637"
"#increment_net"
"$GPGGA,071251,2439.1382,N,08035.0226,W,1,6,2.9,20,"
"##MN-00 00 68 0229 01971 5245 437851 347008 197"
"159.300683"
"$GPGGA,071255,2439.1366,N,08035.0218,W,1,6,2.9,19,"
"##MN-00 00 66 0230 01971 5245 437861 347009 197"
"159.300729"
"$GPGGA,071300,2439.1346,N,08035.0208,W,1,6,2.9,19,"
"##MN-00 00 62 0232 01971 5246 437875 347011 197"
"159.300775"
"$GPGGA,071304,2439.1331,N,08035.0200,W,1,6,2.9,18,"
"##MN-00 00 63 0233 01970 5247 437883 347016 197"
"159.300822"
"$GPGGA,071308,2439.1319,N,08035.0193,W,1,6,2.1,18,"
"##MN-00 00 62 0234 01970 5248 437890 347016 197"
"159.300868"
"$GPGGA,071312,2439.1306,N,08035.0185,W,1,6,2.9,18,"
"##MN-00 00 62 0236 01970 5248 437895 347018 196"
"159.300914"
"$GPGGA,071316,2439.1292,N,08035.0176,W,1,6,2.1,18,"
"##MN-00 00 62 0237 01969 5249 437894 347018 197"
"159.300961"
"$GPGGA,071320,2439.1276,N,08035.0167,W,1,6,2.9,18,"
"##MN-00 00 62 0238 01970 5250 437892 347019 197"
"159.301007"
"$GPGGA,071324,2439.1272,N,08035.0161,W,1,7,2.2,18,"
"##MN-00 00 63 0239 01970 5251 437890 347025 197"
"159.301053"
"$GPGGA,071328,2439.1262,N,08035.0153,W,1,7,2.2,18,"
"##MN-00 00 63 0241 01967 5251 437892 347026 197"
"159.3011"
"$GPGGA,071332,2439.1251,N,08035.0147,W,1,8,2.2,18,"
"##MN-00 00 62 0242 01968 5252 437898 347027 197"
"159.301146"
"$GPGGA,071336,2439.1250,N,08035.0144,W,1,7,2.1,19,"
"##MN-00 00 63 0243 01966 5252 437904 347028 197"
"159.301192"
"$GPGGA,071340,2439.1233,N,08035.0133,W,1,6,2.1,19,"
"##MN-00 00 63 0244 01969 5253 437904 347030 197"
"159.301238"
"$GPGGA,071344,2439.1204,N,08035.0118,W,1,6,2.9,20,"
"##MN-00 00 62 0246 01969 5253 437905 347029 197"
"159.301285"
"$GPGGA,071348,2439.1182,N,08035.0107,W,1,6,2.9,19,"
"##MN-00 00 63 0247 01969 5254 437906 347030 196"
"159.301331"
"$GPGGA,071352,2439.1178,N,08035.0101,W,1,8,2.1,19,"
"##MN-00 00 62 0248 01968 5255 437913 347029 197"
"159.301377"
"$GPGGA,071356,2439.1168,N,08035.0093,W,1,8,2.0,20,"
"##MN-00 00 63 0249 01968 5255 437921 347024 197"
"159.301424"
"$GPGGA,071400,2439.1154,N,08035.0084,W,1,8,2.0,20,"
"##MN-00 00 62 0251 01966 5256 437928 347027 196"
"159.30147"
"$GPGGA,071404,2439.1142,N,08035.0077,W,1,8,2.0,20,"
"##MN-00 00 63 0252 01968 5257 437935 347027 196"
"159.301516"
"$GPGGA,071408,2439.1125,N,08035.0069,W,1,8,2.0,20,"
"##MN-00 00 63 0253 01968 5258 437938 347029 196"
"159.301563"
"$GPGGA,071412,2439.1110,N,08035.0063,W,1,7,2.1,20,"
"##MN-00 00 63 0255 01967 5258 437934 347031 196"
"159.301609"
"$GPGGA,071416,2439.1096,N,08035.0056,W,1,8,2.0,20,"
"##MN-00 00 62 0256 01968 5259 437932 347029 196"
"159.301655"
"$GPGGA,071420,2439.1084,N,08035.0049,W,1,8,2.0,20,"
"##MN+00 00 63 0257 01968 5259 437934 347035 196"
"159.301701"
"$GPGGA,071424,2439.1071,N,08035.0042,W,1,8,2.2,20,"
"##MN+00 00 62 0258 01967 5260 437932 347035 197"
"159.301748"
"$GPGGA,071428,2439.1057,N,08035.0034,W,1,8,2.0,20,"
"##MN+00 00 63 0260 01966 5260 437927 347029 197"
"159.301794"
"$GPGGA,071432,2439.1044,N,08035.0026,W,1,8,2.0,20,"
"##MN-00 00 63 0261 01967 5261 437922 347035 196"
"159.30184"
"$GPGGA,071436,2439.1030,N,08035.0018,W,1,8,2.0,20,"
"##MN-00 00 62 0262 01968 5262 437915 347035 196"
"159.301887"
"$GPGGA,071440,2439.1016,N,08035.0010,W,1,8,2.0,21,"
"##MN-00 00 63 0263 01968 5262 437911 347034 196"
"159.301933"
"$GPGGA,071444,2439.1002,N,08035.0004,W,1,7,2.0,21,"
"##MN-00 00 62 0265 01969 5262 437905 347032 196"
"159.301979"
"$GPGGA,071448,2439.0990,N,08034.9996,W,1,7,2.0,21,"
"##MN+00 00 62 0266 01968 5263 437896 347030 196"
"159.302025"
"$GPGGA,071452,2439.0973,N,08034.9988,W,1,7,2.2,21,"
"##MN+00 00 62 0267 01969 5264 437893 347029 196"
"159.302072"
"$GPGGA,071456,2439.0958,N,08034.9980,W,1,7,2.2,21,"
"##MN+00 00 75 0268 01972 5264 437895 347027 196"
"159.302118"
"#increment_net"
"$GPGGA,071500,2439.0943,N,08034.9972,W,1,7,2.2,21,"
"##MN-00 00 66 0269 01971 5265 437903 347028 196"
"159.302164"
"$GPGGA,071504,2439.0928,N,08034.9963,W,1,7,2.2,21,"
"##MN-00 00 63 0271 01971 5266 437908 347028 197"
"159.302211"
"$GPGGA,071508,2439.0912,N,08034.9954,W,1,7,2.2,21,"
"##MN-00 00 61 0272 01969 5266 437912 347029 197"
"159.302257"
"$GPGGA,071512,2439.0890,N,08034.9943,W,1,6,2.8,21,"
"##MN-00 00 61 0273 01966 5267 437914 347025 197"
"159.302303"
"$GPGGA,071516,2439.0868,N,08034.9933,W,1,6,2.8,21,"
"##MN-00 00 61 0275 01966 5268 437916 347024 196"
"159.30235"
"$GPGGA,071520,2439.0863,N,08034.9928,W,1,8,2.1,21,"
"##MN-00 00 61 0276 01968 5269 437917 347025 196"
"159.302396"
"$GPGGA,071524,2439.0847,N,08034.9918,W,1,8,2.0,21,"
"##MN-00 00 60 0277 01967 5269 437921 347025 196"
"159.302442"
"$GPGGA,071528,2439.0829,N,08034.9909,W,1,8,2.3,21,"
"##MN-00 00 62 0278 01964 5269 437924 347025 196"
"159.302488"
"$GPGGA,071532,2439.0820,N,08034.9903,W,1,7,2.1,21,"
"##MN-00 00 61 0280 01965 5270 437924 347026 196"
"159.302535"
"$GPGGA,071536,2439.0808,N,08034.9895,W,1,6,2.1,21,"
"##MN-00 00 61 0281 01967 5271 437924 347025 196"
"159.302581"
"$GPGGA,071540,2439.0797,N,08034.9887,W,1,8,2.8,21,"
"##MN-00 00 62 0282 01967 5271 437924 347021 196"
"159.302627"
"$GPGGA,071544,2439.0784,N,08034.9879,W,1,7,2.1,22,"
"##MN-00 00 61 0283 01969 5272 437930 347025 196"
"159.302674"
"$GPGGA,071548,2439.0768,N,08034.9870,W,1,7,2.1,22,"
"##MN-00 00 60 0285 01971 5272 437936 347026 196"
"159.30272"
"$GPGGA,071552,2439.0748,N,08034.9859,W,1,8,2.3,22,"
"##MN-00 00 60 0286 01970 5273 437944 347028 196"
"159.302766"
"$GPGGA,071556,2439.0731,N,08034.9850,W,1,8,2.3,23,"
"##MN-00 00 61 0287 01968 5274 437951 347031 196"
"159.302812"
"$GPGGA,071600,2439.0719,N,08034.9842,W,1,8,2.1,23,"
"##MN-00 00 61 0289 01969 5274 437956 347024 196"
"159.302859"
"$GPGGA,071604,2439.0692,N,08034.9829,W,1,6,2.3,22,"
"##MN-00 00 61 0290 01971 5275 437956 347023 196"
"159.302905"
"$GPGGA,071608,2439.0672,N,08034.9818,W,1,6,2.3,22,"
"##MN-00 00 61 0291 01969 5275 437955 347025 196"
"159.302951"
"$GPGGA,071612,2439.0656,N,08034.9809,W,1,7,2.3,21,"
"##MN-00 00 61 0292 01969 5275 437956 347023 196"
"159.302998"
"$GPGGA,071616,2439.0640,N,08034.9798,W,1,7,2.8,21,"
"##MN-00 00 61 0294 01970 5276 437957 347025 196"
"159.303044"
"$GPGGA,071620,2439.0632,N,08034.9791,W,1,7,2.3,20,"
"##MN-00 00 61 0295 01970 5277 437959 347023 196"
"159.30309"
"$GPGGA,071624,2439.0615,N,08034.9780,W,1,7,2.3,20,"
"##MN-00 00 61 0296 01969 5277 437962 347025 196"
"159.303137"
"$GPGGA,071628,2439.0597,N,08034.9770,W,1,7,2.3,20,"
"##MN+00 00 61 0298 01968 5278 437965 347026 196"
"159.303183"
"$GPGGA,071632,2439.0584,N,08034.9760,W,1,7,2.3,20,"
"##MN+00 00 63 0299 01971 5278 437968 347025 196"
"159.303229"
"$GPGGA,071636,2439.0571,N,08034.9751,W,1,7,2.3,20,"
"##MN+00 00 61 0300 01969 5279 437977 347029 196"
"159.303287"
"$GPGGA,071640,2439.0558,N,08034.9742,W,1,7,2.3,19,"
"##MN-00 00 62 0301 01968 5280 437985 347035 196"
"159.303333"
"$GPGGA,071644,2439.0542,N,08034.9732,W,1,7,2.3,19,"
"##MN-00 00 62 0303 01968 5280 437989 347035 196"
"159.30338"
"$GPGGA,071648,2439.0528,N,08034.9724,W,1,7,2.3,19,"
"##MN+00 00 62 0304 01966 5280 437990 347032 196"
"159.303426"
"$GPGGA,071652,2439.0515,N,08034.9716,W,1,7,2.3,19,"
"##MN+00 00 62 0305 01968 5281 437983 347036 196"
"159.303472"
"$GPGGA,071656,2439.0502,N,08034.9708,W,1,7,2.3,19,"
"##MN+00 00 74 0306 01972 5282 437986 347065 196"
"159.303519"
"$GPGGA,071700,2439.0488,N,08034.9700,W,1,7,2.3,19,"
"##MN-00 00 67 0307 01971 5282 438009 347082 196"
"159.303565"
"#increment_net"
"$GPGGA,071704,2439.0475,N,08034.9693,W,1,7,2.3,19,"
"##MN-00 00 64 0309 01970 5282 438016 347043 196"
"159.303611"
"$GPGGA,071708,2439.0461,N,08034.9684,W,1,7,2.3,19,"
"##MN-00 00 62 0310 01968 5283 438015 347048 196"
"159.303657"
"$GPGGA,071712,2439.0448,N,08034.9675,W,1,7,2.3,19,"
"##MN-00 00 63 0311 01969 5283 438001 347049 196"
"159.303704"
"$GPGGA,071716,2439.0434,N,08034.9667,W,1,7,2.3,19,"
"##MN-00 00 62 0313 01967 5283 437983 347033 196"
"159.30375"
"$GPGGA,071720,2439.0419,N,08034.9659,W,1,7,2.3,19,"
"##MN-00 00 62 0314 01969 5284 437972 347028 196"
"159.303796"
"$GPGGA,071724,2439.0403,N,08034.9650,W,1,7,2.3,19,"
"##MN-00 00 61 0316 01969 5285 437971 347028 196"
"159.303843"
"$GPGGA,071729,2439.0384,N,08034.9640,W,1,7,2.3,19,"
"##MN-00 00 61 0317 01969 5285 437963 347028 196"
"159.303889"
"$GPGGA,071733,2439.0369,N,08034.9632,W,1,7,2.3,19,"
"##MN-00 00 63 0318 01969 5286 437957 347025 196"
"159.303935"
"$GPGGA,071736,2439.0359,N,08034.9626,W,1,7,2.3,19,"
"##MN-00 00 62 0320 01970 5287 437957 347025 196"
"159.303981"
"$GPGGA,071740,2439.0344,N,08034.9618,W,1,7,2.3,19,"
"##MN-00 00 61 0321 01968 5287 437963 347023 196"
"159.304028"
"$GPGGA,071745,2439.0326,N,08034.9608,W,1,7,2.3,19,"
"##MN-00 00 62 0322 01968 5288 437971 347022 196"
"159.304074"
"$GPGGA,071749,2439.0312,N,08034.9599,W,1,7,2.3,19,"
"##MN-00 00 62 0324 01968 5288 437963 347026 196"
"159.30412"
"$GPGGA,071753,2439.0298,N,08034.9591,W,1,7,2.3,19,"
"##MN-00 00 62 0325 01969 5289 437958 347017 196"
"159.304167"
"$GPGGA,071757,2439.0283,N,08034.9584,W,1,7,2.3,19,"
"##MN-00 00 62 0326 01969 5289 437954 347016 196"
"159.304213"
"$GPGGA,071801,2439.0269,N,08034.9576,W,1,7,2.3,19,"
"##MN-00 00 62 0328 01968 5290 437966 347017 196"
"159.304259"
"$GPGGA,071805,2439.0253,N,08034.9567,W,1,7,2.3,19,"
"##MN-00 00 62 0329 01966 5290 437962 347024 196"
"159.304306"
"$GPGGA,071809,2439.0239,N,08034.9559,W,1,7,2.3,19,"
"##MN-00 00 61 0330 01969 5291 437950 347023 196"
"159.304352"
"$GPGGA,071813,2439.0224,N,08034.9551,W,1,7,2.3,19,"
"##MN-00 00 62 0331 01967 5291 437952 347017 196"
"159.304398"
"$GPGGA,071817,2439.0210,N,08034.9542,W,1,7,2.3,19,"
"##MN-00 00 61 0333 01967 5292 437957 347016 196"
"159.304444"
"$GPGGA,071821,2439.0193,N,08034.9533,W,1,7,2.3,19,"
"##MN-00 00 62 0334 01968 5293 437955 347017 196"
"159.304491"
"$GPGGA,071825,2439.0178,N,08034.9524,W,1,7,2.3,19,"
"##MN-00 00 61 0335 01968 5293 437947 347017 196"
"159.304537"
"$GPGGA,071829,2439.0163,N,08034.9516,W,1,7,2.3,18,"
"##MN-00 00 62 0337 01968 5293 437949 347016 196"
"159.304583"
"$GPGGA,071833,2439.0152,N,08034.9509,W,1,7,2.3,18,"
"##MN+00 00 62 0338 01968 5294 437951 347015 196"
"159.30463"
"$GPGGA,071837,2439.0137,N,08034.9499,W,1,7,2.3,18,"
"##MN+00 00 61 0339 01967 5294 437957 347016 196"
"159.304676"
"$GPGGA,071841,2439.0120,N,08034.9490,W,1,7,2.3,18,"
"##MN+00 00 62 0341 01968 5295 437957 347015 196"
"159.304722"
"$GPGGA,071845,2439.0107,N,08034.9481,W,1,7,2.3,18,"
"##MN-00 00 61 0342 01966 5295 437960 347016 196"
"159.304769"
"$GPGGA,071849,2439.0094,N,08034.9473,W,1,7,2.3,18,"
"##MN-00 00 62 0344 01967 5296 437970 347022 196"
"159.304815"
"$GPGGA,071853,2439.0078,N,08034.9462,W,1,7,2.3,18,"
"##MN+00 00 63 0345 01969 5296 437988 347031 196"
"159.304861"
"$GPGGA,071857,2439.0066,N,08034.9454,W,1,7,2.3,18,"
"##MN+00 00 61 0346 01967 5297 438012 347035 196"
"159.304907"
"$GPGGA,071901,2439.0053,N,08034.9445,W,1,7,2.3,18,"
"##MN+00 00 76 0347 01971 5298 438028 347041 196"
"159.304954"
"$GPGGA,071905,2439.0031,N,08034.9435,W,1,6,2.8,18,"
"##MN-00 00 71 0349 01975 5299 438062 347053 196"
"159.305"
"#increment_net"
"$GPGGA,071909,2439.0022,N,08034.9428,W,1,7,2.3,18,"
"##MN-00 00 66 0350 01985 5299 438083 347058 196"
"159.305046"
"$GPGGA,071913,2439.0011,N,08034.9422,W,1,7,2.3,18,"
"##MN-00 00 66 0352 01988 5299 438110 347068 196"
"159.305093"
"$GPGGA,071917,2438.9998,N,08034.9415,W,1,7,2.3,18,"
"##MN-00 00 64 0353 01996 5300 438159 347077 196"
"159.305139"
"$GPGGA,071921,2438.9980,N,08034.9406,W,1,7,2.3,18,"
"##MN-00 00 63 0355 02002 5300 438298 347118 196"
"159.305185"
"$GPGGA,071925,2438.9965,N,08034.9398,W,1,7,2.3,18,"
"##MN-00 00 65 0357 02003 5301 438494 347172 196"
"159.305231"
"$GPGGA,071929,2438.9951,N,08034.9390,W,1,7,2.3,18,"
"##MN-00 00 66 0358 02000 5301 438580 347201 196"
"159.305278"
"$GPGGA,071933,2438.9930,N,08034.9380,W,1,7,2.3,18,"
"##MN-00 00 64 0360 02000 5301 438618 347215 196"
"159.305324"
"$GPGGA,071937,2438.9913,N,08034.9371,W,1,8,2.1,18,"
"##MN-00 00 66 0362 01996 5302 438613 347217 196"
"159.30537"
"$GPGGA,071941,2438.9899,N,08034.9361,W,1,8,2.1,18,"
"##MN-00 00 66 0363 01995 5302 438596 347213 196"
"159.305417"
"$GPGGA,071945,2438.9881,N,08034.9351,W,1,8,2.1,18,"
"##MN-00 00 64 0365 01991 5303 438494 347190 196"
"159.305463"
"$GPGGA,071949,2438.9863,N,08034.9340,W,1,7,2.2,19,"
"##MN-00 00 65 0367 01988 5303 438350 347159 196"
"159.305509"
"$GPGGA,071953,2438.9841,N,08034.9328,W,1,8,2.1,19,"
"##MN-00 00 63 0368 01984 5304 438270 347130 196"
"159.305556"
"$GPGGA,071957,2438.9824,N,08034.9318,W,1,7,2.1,19,"
"##MN-00 00 66 0370 01978 5304 438239 347124 196"
"159.305602"
"$GPGGA,072001,2438.9805,N,08034.9307,W,1,7,2.2,19,"
"##MN-00 00 64 0372 01973 5305 438218 347118 196"
"159.305648"
"$GPGGA,072005,2438.9784,N,08034.9295,W,1,8,2.2,19,"
"##MN-00 00 65 0373 01973 5305 438200 347109 196"
"159.305694"
"$GPGGA,072009,2438.9765,N,08034.9284,W,1,8,2.1,19,"
"##MN-00 00 63 0375 01967 5305 438187 347106 196"
"159.305741"
"$GPGGA,072013,2438.9745,N,08034.9273,W,1,8,2.1,19,"
"##MN-00 00 63 0377 01962 5306 438166 347097 196"
"159.305787"
"$GPGGA,072017,2438.9734,N,08034.9264,W,1,8,2.1,19,"
"##MN-00 00 63 0378 01957 5307 438135 347088 196"
"159.305833"
"$GPGGA,072021,2438.9715,N,08034.9253,W,1,8,2.1,19,"
"##MN-00 00 66 0380 01953 5307 438076 347066 196"
"159.30588"
"$GPGGA,072025,2438.9694,N,08034.9242,W,1,8,2.1,19,"
"##MN-00 00 66 0382 01947 5307 438021 347051 196"
"159.305926"
"$GPGGA,072029,2438.9672,N,08034.9231,W,1,8,2.1,18,"
"##MN-00 00 64 0383 01942 5308 437969 347041 196"
"159.305972"
"$GPGGA,072033,2438.9652,N,08034.9219,W,1,7,2.2,18,"
"##MN-00 00 66 0385 01937 5308 437922 347032 196"
"159.306019"
"$GPGGA,072037,2438.9635,N,08034.9208,W,1,7,2.2,18,"
"##MN-00 00 66 0387 01932 5309 437900 347021 196"
"159.306065"
"$GPGGA,072041,2438.9617,N,08034.9197,W,1,7,2.1,18,"
"##MN-00 00 64 0388 01930 5309 437857 347010 196"
"159.306111"
"$GPGGA,072045,2438.9599,N,08034.9187,W,1,8,2.1,17,"
"##MN-00 00 64 0390 01923 5310 437792 346987 196"
"159.306157"
"$GPGGA,072049,2438.9582,N,08034.9176,W,1,8,2.2,17,"
"##MN-00 00 64 0391 01918 5310 437730 346965 196"
"159.306204"
"$GPGGA,072053,2438.9563,N,08034.9164,W,1,8,2.1,17,"
"##MN-00 00 66 0393 01912 5311 437659 346933 196"
"159.30625"
"$GPGGA,072057,2438.9542,N,08034.9151,W,1,7,2.2,17,"
"##MN-00 00 67 0395 01907 5311 437469 346884 196"
"159.306296"
"$GPGGA,072101,2438.9525,N,08034.9139,W,1,7,2.2,17,"
"##MN-00 00 67 0396 01900 5311 437291 346812 196"
"159.306343"
"$GPGGA,072105,2438.9505,N,08034.9127,W,1,7,2.2,17,"
"##MN-00 00 67 0398 01896 5312 437071 346747 196"
"159.306389"
"$GPGGA,072109,2438.9487,N,08034.9116,W,1,7,2.1,17,"
"##MN-00 00 66 0400 01889 5313 436814 346677 196"
"159.306447"
"$GPGGA,072113,2438.9471,N,08034.9104,W,1,8,2.2,17,"
"##MN-00 00 67 0401 01885 5313 436351 346570 196"
"159.306493"
"$GPGGA,072117,2438.9458,N,08034.9096,W,1,8,2.1,17,"
"##MN-00 00 67 0403 01882 5314 435039 346350 196"
"159.306539"
"$GPGGA,072121,2438.9435,N,08034.9081,W,1,8,2.1,17,"
"##MN-00 00 66 0405 01877 5314 434336 345875 196"
"159.306586"
"$GPGGA,072125,2438.9418,N,08034.9069,W,1,8,2.1,17,"
"##MN-00 00 67 0406 01869 5314 434096 345780 196"
"159.306632"
"$GPGGA,072129,2438.9401,N,08034.9060,W,1,8,2.1,17,"
"##MN-00 00 67 0408 01865 5314 434012 345748 196"
"159.306678"
"$GPGGA,072133,2438.9375,N,08034.9045,W,1,8,2.1,17,"
"##MN-00 00 68 0409 01865 5315 434006 345743 196"
"159.306725"
"$GPGGA,072137,2438.9354,N,08034.9033,W,1,7,2.2,17,"
"##MN-00 00 69 0411 01864 5315 434019 345740 196"
"159.306771"
"$GPGGA,072141,2438.9335,N,08034.9021,W,1,7,2.2,17,"
"##MN-00 00 70 0412 01862 5316 433997 345718 196"
"159.306817"
"$GPGGA,072145,2438.9317,N,08034.9010,W,1,8,2.1,16,"
"##MN-00 00 72 0414 01863 5316 434010 345702 196"
"159.306863"
"$GPGGA,072149,2438.9299,N,08034.8999,W,1,8,2.1,16,"
"##MN-00 00 74 0415 01862 5317 434030 345715 196"
"159.30691"
"$GPGGA,072153,2438.9278,N,08034.8987,W,1,7,2.2,16,"
"##MN-00 00 66 0416 01863 5318 434047 362447 196"
"159.306956"
"$GPGGA,072157,2438.9261,N,08034.8975,W,1,8,2.1,16,"
"##MN-00 00 67 0416 01862 5319 434224 433610 196"
"159.307002"
"$GPGGA,072202,2438.9238,N,08034.8961,W,1,7,2.1,16,"
"##MN-00 00 73 0416 01863 5319 435886 785315 196"
"159.307049"
"$GPGGA,072206,2438.9222,N,08034.8951,W,1,8,2.1,16,"
"##MN-00 00 68 0416 01863 5320 441408 875062 196"
"159.307095"
"$GPGGA,072210,2438.9203,N,08034.8940,W,1,8,2.2,16,"
"##MN-00 00 55 0416 01862 5320 444702 907893 196"
"159.307141"
"$GPGGA,072214,2438.9182,N,08034.8929,W,1,7,2.2,16,"
"##MN-00 00 52 0416 01862 5319 447261 912104 196"
"159.307187"
"$GPGGA,072218,2438.9162,N,08034.8917,W,1,8,2.1,16,"
"##MN-00 00 60 0416 01862 5320 449600 912631 196"
