" Tow: L8s-B   RVWS/WS1406"
" Date: 06/08/2014"
" Temperature Probe #  2597    Conductivity Probe #  2870"
" Pressure Probe #  109"
" Flow Meter Calibration  4.71 (m/count)  "
"159.5275"
"$GPGGA,123929,2448.3631,N,08028.5184,W,1,9,1.6,17,"
"##MN-00 00 51 0090 01861 5427 415138 812229 196"
"159.527743"
"$GPGGA,123950,2448.3772,N,08028.5199,W,1,7,1.7,19,"
"##MN-00 00 52 0094 01872 5429 438429 347340 196"
"159.527789"
"$GPGGA,123958,2448.3825,N,08028.5202,W,1,8,1.7,18,"
"##MN-00 00 54 0095 01881 5429 438472 347414 196"
"159.527836"
"$GPGGA,124002,2448.3850,N,08028.5204,W,1,7,1.7,18,"
"##MN-00 00 53 0095 01890 5430 438617 347424 196"
"159.527882"
"$GPGGA,124006,2448.3876,N,08028.5202,W,1,7,1.6,18,"
"##MN-00 00 52 0096 01903 5431 438747 347452 196"
"159.527928"
"$GPGGA,124010,2448.3900,N,08028.5207,W,1,7,1.7,18,"
"##MN-00 00 52 0097 01911 5431 438855 347480 196"
"159.527975"
"$GPGGA,124014,2448.3924,N,08028.5210,W,1,8,2.0,18,"
"##MN-00 00 52 0097 01920 5432 439064 347582 196"
"159.528021"
"$GPGGA,124018,2448.3951,N,08028.5213,W,1,8,2.0,18,"
"##MN-00 00 51 0098 01928 5432 439716 347974 196"
"159.528067"
"$GPGGA,124022,2448.3974,N,08028.5215,W,1,8,1.7,18,"
"##MN-00 00 51 0099 01938 5432 441049 348486 196"
"159.528113"
"$GPGGA,124026,2448.4001,N,08028.5217,W,1,8,2.0,17,"
"##MN-00 00 51 0099 01950 5433 441816 348610 196"
"159.52816"
"$GPGGA,124030,2448.4024,N,08028.5222,W,1,8,2.0,17,"
"##MN-00 00 51 0100 01957 5433 442137 348649 196"
"159.528206"
"$GPGGA,124034,2448.4048,N,08028.5225,W,1,8,1.7,17,"
"##MN-00 00 49 0101 01964 5434 442284 348680 196"
"159.528252"
"$GPGGA,124038,2448.4074,N,08028.5227,W,1,7,1.7,17,"
"##MN-00 00 49 0101 01970 5434 442449 348719 196"
"159.528299"
"$GPGGA,124042,2448.4100,N,08028.5227,W,1,8,1.6,17,"
"##MN-00 00 49 0102 01976 5434 442519 348776 196"
"159.528345"
"$GPGGA,124046,2448.4124,N,08028.5227,W,1,9,1.6,17,"
"##MN-00 00 48 0103 01980 5435 442780 348859 196"
"159.528391"
"$GPGGA,124050,2448.4151,N,08028.5227,W,1,9,1.6,17,"
"##MN-00 00 46 0103 01982 5435 442848 348833 196"
"159.528437"
"$GPGGA,124054,2448.4176,N,08028.5228,W,1,9,1.6,17,"
"##MN-00 00 45 0104 01981 5435 442982 348847 196"
"159.528484"
"$GPGGA,124058,2448.4201,N,08028.5229,W,1,9,1.6,17,"
"##MN-00 00 44 0105 01981 5435 443093 348864 196"
"159.52853"
"$GPGGA,124102,2448.4225,N,08028.5235,W,1,9,1.9,17,"
"##MN-00 00 45 0106 01979 5436 443164 348877 196"
"159.528576"
"$GPGGA,124106,2448.4249,N,08028.5236,W,1,9,1.6,17,"
"##MN-00 00 46 0107 01981 5436 443195 348915 196"
"159.528623"
"$GPGGA,124110,2448.4274,N,08028.5240,W,1,9,1.6,17,"
"##MN-00 00 46 0107 01978 5436 443202 348916 196"
"159.528669"
"$GPGGA,124114,2448.4299,N,08028.5243,W,1,9,1.6,17,"
"##MN-00 00 46 0108 01980 5436 443172 348915 196"
"159.528715"
"$GPGGA,124118,2448.4323,N,08028.5246,W,1,9,1.6,17,"
"##MN+00 00 46 0109 01982 5437 443125 348903 196"
"159.528762"
"$GPGGA,124122,2448.4348,N,08028.5249,W,1,9,1.6,17,"
"##MN+00 00 46 0110 01981 5437 443079 348893 196"
"159.528808"
"$GPGGA,124126,2448.4371,N,08028.5251,W,1,9,1.6,17,"
"##MN+00 00 46 0110 01981 5437 443033 348889 196"
"159.528854"
"$GPGGA,124130,2448.4395,N,08028.5252,W,1,9,1.6,17,"
"##MN-00 00 45 0111 01980 5437 443008 348882 196"
"159.5289"
"$GPGGA,124134,2448.4418,N,08028.5256,W,1,8,1.9,17,"
"##MN-00 00 46 0112 01982 5437 442987 348874 196"
"159.528947"
"$GPGGA,124138,2448.4444,N,08028.5256,W,1,9,1.9,17,"
"##MN-00 00 45 0113 01983 5438 442962 348863 196"
"159.528993"
"$GPGGA,124142,2448.4467,N,08028.5262,W,1,9,1.6,18,"
"##MN+00 00 45 0113 01984 5438 442953 348864 196"
"159.529051"
"$GPGGA,124146,2448.4491,N,08028.5264,W,1,9,1.6,18,"
"##MN+00 00 45 0114 01983 5438 442931 348847 196"
"159.529097"
"$GPGGA,124150,2448.4515,N,08028.5271,W,1,8,1.6,18,"
"##MN+00 00 52 0115 01983 5438 442907 348834 196"
"159.529144"
"$GPGGA,124154,2448.4538,N,08028.5276,W,1,9,1.6,18,"
"##MN-00 00 49 0116 01982 5438 442941 348831 196"
"159.52919"
"#increment_net"
"$GPGGA,124158,2448.4562,N,08028.5282,W,1,8,1.6,19,"
"##MN-00 00 46 0116 01980 5438 443045 348847 196"
"159.529236"
"$GPGGA,124202,2448.4585,N,08028.5285,W,1,9,1.6,19,"
"##MN-00 00 46 0117 01980 5438 443298 348921 196"
"159.529282"
"$GPGGA,124206,2448.4612,N,08028.5287,W,1,9,1.6,19,"
"##MN-00 00 45 0118 01978 5438 443536 348974 196"
"159.529329"
"$GPGGA,124210,2448.4638,N,08028.5289,W,1,9,1.9,19,"
"##MN-00 00 45 0119 01975 5438 443653 349009 196"
"159.529375"
"$GPGGA,124214,2448.4663,N,08028.5290,W,1,8,1.9,19,"
"##MN-00 00 46 0120 01975 5438 443696 349047 196"
"159.529421"
"$GPGGA,124218,2448.4689,N,08028.5293,W,1,8,1.6,19,"
"##MN-00 00 46 0120 01974 5439 443761 349066 196"
"159.529468"
"$GPGGA,124222,2448.4715,N,08028.5294,W,1,8,1.9,19,"
"##MN-00 00 46 0121 01975 5439 443781 349078 196"
"159.529514"
"$GPGGA,124226,2448.4740,N,08028.5294,W,1,8,1.6,18,"
"##MN-00 00 46 0122 01975 5439 443839 349109 196"
"159.52956"
"$GPGGA,124230,2448.4765,N,08028.5296,W,1,8,1.9,18,"
"##MN-00 00 46 0123 01974 5439 443711 349095 196"
"159.529607"
"$GPGGA,124234,2448.4789,N,08028.5298,W,1,8,1.9,18,"
"##MN-00 00 46 0123 01974 5439 443634 349067 196"
"159.529653"
"$GPGGA,124238,2448.4812,N,08028.5301,W,1,9,1.9,17,"
"##MN-00 00 46 0124 01975 5439 443539 349043 196"
"159.529699"
"$GPGGA,124242,2448.4837,N,08028.5302,W,1,8,1.9,17,"
"##MN-00 00 46 0125 01974 5439 443488 349027 196"
"159.529745"
"$GPGGA,124246,2448.4859,N,08028.5307,W,1,9,1.6,17,"
"##MN-00 00 46 0126 01974 5439 443482 349008 196"
"159.529792"
"$GPGGA,124250,2448.4885,N,08028.5307,W,1,8,1.6,16,"
"##MN-00 00 46 0127 01976 5439 443568 349026 196"
"159.529838"
"$GPGGA,124254,2448.4909,N,08028.5309,W,1,9,1.9,16,"
"##MN-00 00 46 0127 01974 5438 443715 349061 196"
"159.529884"
"$GPGGA,124258,2448.4932,N,08028.5312,W,1,8,1.6,16,"
"##MN-00 00 46 0128 01976 5438 443878 349138 196"
"159.529931"
"$GPGGA,124302,2448.4957,N,08028.5314,W,1,9,1.6,15,"
"##MN-00 00 46 0129 01978 5438 444036 349138 196"
"159.529977"
"$GPGGA,124306,2448.4978,N,08028.5319,W,1,9,1.6,15,"
"##MN-00 00 46 0130 01976 5438 444116 349193 196"
"159.530023"
"$GPGGA,124310,2448.5003,N,08028.5321,W,1,9,1.6,15,"
"##MN-00 00 46 0130 01975 5438 444184 349211 196"
"159.530069"
"$GPGGA,124314,2448.5025,N,08028.5325,W,1,9,1.9,15,"
"##MN-00 00 47 0131 01976 5438 444238 349259 196"
"159.530116"
"$GPGGA,124318,2448.5050,N,08028.5326,W,1,9,1.6,15,"
"##MN-00 00 45 0132 01976 5438 444276 349280 196"
"159.530162"
"$GPGGA,124322,2448.5072,N,08028.5329,W,1,9,1.6,15,"
"##MN-00 00 46 0133 01976 5438 444308 349293 196"
"159.530208"
"$GPGGA,124326,2448.5097,N,08028.5332,W,1,9,1.6,15,"
"##MN-00 00 46 0133 01975 5438 444323 349307 196"
"159.530255"
"$GPGGA,124330,2448.5121,N,08028.5333,W,1,9,1.6,15,"
"##MN-00 00 46 0134 01976 5438 444326 349318 196"
"159.530301"
"$GPGGA,124334,2448.5144,N,08028.5336,W,1,9,1.6,15,"
"##MN-00 00 46 0135 01977 5438 444335 349318 196"
"159.530347"
"$GPGGA,124338,2448.5168,N,08028.5338,W,1,9,1.6,14,"
"##MN-00 00 46 0136 01976 5438 444328 349303 196"
"159.530394"
"$GPGGA,124342,2448.5191,N,08028.5341,W,1,9,1.6,14,"
"##MN+00 00 45 0136 01976 5438 444276 349308 196"
"159.53044"
"$GPGGA,124346,2448.5216,N,08028.5340,W,1,9,1.8,14,"
"##MN+00 00 46 0137 01976 5437 444263 349304 196"
"159.530486"
"$GPGGA,124350,2448.5242,N,08028.5337,W,1,9,1.6,14,"
"##MN+00 00 46 0138 01976 5437 444281 349311 196"
"159.530532"
"$GPGGA,124354,2448.5267,N,08028.5337,W,1,9,1.6,15,"
"##MN-00 00 46 0139 01977 5437 444349 349322 195"
"159.530579"
"$GPGGA,124358,2448.5292,N,08028.5339,W,1,7,1.6,15,"
"##MN-00 00 46 0139 01977 5437 444403 349322 195"
"159.530625"
"$GPGGA,124402,2448.5314,N,08028.5340,W,1,9,1.6,15,"
"##MN-00 00 46 0140 01976 5437 444464 349350 195"
"159.530671"
"$GPGGA,124406,2448.5339,N,08028.5345,W,1,8,1.7,15,"
"##MN-00 00 46 0141 01979 5437 444535 349372 195"
"159.530718"
"$GPGGA,124410,2448.5354,N,08028.5350,W,1,9,1.6,15,"
"##MN+00 00 46 0142 01975 5437 444560 349386 195"
"159.530764"
"$GPGGA,124414,2448.5383,N,08028.5351,W,1,9,1.6,16,"
"##MN+00 00 46 0142 01974 5436 444561 349388 196"
"159.53081"
"$GPGGA,124418,2448.5405,N,08028.5354,W,1,9,1.6,16,"
"##MN+00 00 54 0143 01974 5436 444540 349385 195"
"159.530856"
"#increment_net"
"$GPGGA,124423,2448.5437,N,08028.5357,W,1,9,1.6,17,"
"##MN-00 00 52 0144 01975 5436 444501 349387 196"
"159.530903"
"$GPGGA,124427,2448.5462,N,08028.5361,W,1,9,1.6,17,"
"##MN-00 00 47 0144 01977 5436 444428 349375 196"
"159.530949"
"$GPGGA,124430,2448.5481,N,08028.5359,W,1,8,1.6,17,"
"##MN-00 00 46 0145 01975 5436 444368 349357 196"
"159.530995"
"$GPGGA,124434,2448.5508,N,08028.5361,W,1,8,1.6,17,"
"##MN-00 00 45 0146 01973 5435 444261 349325 196"
"159.531042"
"$GPGGA,124439,2448.5538,N,08028.5363,W,1,7,2.1,18,"
"##MN-00 00 45 0147 01976 5435 444133 349304 196"
"159.531088"
"$GPGGA,124443,2448.5564,N,08028.5361,W,1,8,1.6,17,"
"##MN-00 00 45 0148 01974 5435 444025 349241 196"
"159.531134"
"$GPGGA,124447,2448.5588,N,08028.5368,W,1,7,2.0,17,"
"##MN-00 00 45 0148 01974 5435 443917 349190 196"
"159.531181"
"$GPGGA,124451,2448.5610,N,08028.5376,W,1,7,2.0,17,"
"##MN-00 00 45 0149 01973 5435 443840 349178 196"
"159.531227"
"$GPGGA,124455,2448.5635,N,08028.5377,W,1,8,1.6,16,"
"##MN-00 00 45 0150 01973 5434 443847 349156 196"
"159.531273"
"$GPGGA,124459,2448.5657,N,08028.5383,W,1,7,2.0,16,"
"##MN-00 00 45 0151 01972 5434 443912 349166 196"
"159.531319"
"$GPGGA,124503,2448.5681,N,08028.5386,W,1,6,2.5,16,"
"##MN-00 00 45 0151 01973 5434 443947 349170 196"
"159.531366"
"$GPGGA,124507,2448.5704,N,08028.5391,W,1,6,2.5,16,"
"##MN-00 00 45 0152 01972 5434 443938 349169 196"
"159.531412"
"$GPGGA,124511,2448.5730,N,08028.5392,W,1,7,2.0,16,"
"##MN-00 00 45 0153 01973 5434 443829 349123 196"
"159.531458"
"$GPGGA,124515,2448.5752,N,08028.5394,W,1,7,2.0,16,"
"##MN-00 00 45 0154 01972 5433 443703 349110 196"
"159.531505"
"$GPGGA,124519,2448.5776,N,08028.5398,W,1,9,1.6,16,"
"##MN-00 00 45 0155 01972 5433 443589 349098 196"
"159.531551"
"$GPGGA,124523,2448.5798,N,08028.5402,W,1,8,1.9,16,"
"##MN-00 00 45 0155 01976 5433 443477 349084 196"
"159.531597"
"$GPGGA,124527,2448.5820,N,08028.5408,W,1,9,1.6,17,"
"##MN-00 00 45 0156 01972 5432 443464 349072 196"
"159.531644"
"$GPGGA,124531,2448.5842,N,08028.5412,W,1,9,1.6,17,"
"##MN-00 00 45 0157 01973 5432 443592 349083 196"
"159.53169"
"$GPGGA,124535,2448.5867,N,08028.5415,W,1,9,1.6,17,"
"##MN-00 00 44 0158 01973 5432 443721 349116 196"
"159.531736"
"$GPGGA,124539,2448.5892,N,08028.5415,W,1,9,1.6,18,"
"##MN-00 00 44 0158 01973 5432 444074 349245 196"
"159.531782"
"$GPGGA,124543,2448.5918,N,08028.5416,W,1,9,1.6,18,"
"##MN-00 00 45 0159 01974 5431 444260 349269 196"
"159.531829"
"$GPGGA,124547,2448.5942,N,08028.5417,W,1,9,1.6,18,"
"##MN-00 00 45 0160 01973 5431 444420 349344 196"
"159.531875"
"$GPGGA,124551,2448.5965,N,08028.5421,W,1,9,1.6,17,"
"##MN-00 00 45 0161 01975 5431 444498 349374 196"
"159.531921"
"$GPGGA,124555,2448.5989,N,08028.5423,W,1,9,1.6,17,"
"##MN-00 00 44 0161 01976 5431 444592 349385 196"
"159.531968"
"$GPGGA,124559,2448.6012,N,08028.5426,W,1,9,1.6,17,"
"##MN-00 00 44 0162 01974 5430 444608 349399 196"
"159.532014"
"$GPGGA,124603,2448.6037,N,08028.5426,W,1,9,1.6,17,"
"##MN-00 00 44 0163 01975 5430 444596 349402 196"
"159.53206"
"$GPGGA,124607,2448.6062,N,08028.5428,W,1,9,1.6,18,"
"##MN+00 00 44 0164 01973 5430 444598 349408 196"
"159.532106"
"$GPGGA,124611,2448.6086,N,08028.5433,W,1,9,1.6,18,"
"##MN+00 00 44 0165 01974 5429 444619 349412 196"
"159.532164"
"$GPGGA,124615,2448.6109,N,08028.5435,W,1,9,1.6,18,"
"##MN+00 00 44 0165 01976 5429 444606 349415 196"
"159.532211"
"$GPGGA,124619,2448.6133,N,08028.5441,W,1,9,1.6,18,"
"##MN-00 00 44 0166 01974 5429 444590 349414 196"
"159.532257"
"$GPGGA,124623,2448.6156,N,08028.5444,W,1,9,1.6,18,"
"##MN-00 00 44 0167 01974 5429 444574 349415 196"
"159.532303"
"$GPGGA,124627,2448.6180,N,08028.5448,W,1,9,1.6,18,"
"##MN-00 00 44 0168 01973 5428 444576 349409 196"
"159.53235"
"$GPGGA,124631,2448.6205,N,08028.5449,W,1,8,1.6,18,"
"##MN-00 00 44 0168 01976 5428 444594 349416 196"
"159.532396"
"$GPGGA,124635,2448.6230,N,08028.5453,W,1,7,2.1,17,"
"##MN-00 00 44 0169 01975 5428 444607 349419 196"
"159.532442"
"$GPGGA,124639,2448.6254,N,08028.5455,W,1,7,2.1,17,"
"##MN+00 00 44 0170 01974 5428 444624 349430 196"
"159.532488"
"$GPGGA,124643,2448.6281,N,08028.5453,W,1,8,1.6,17,"
"##MN+00 00 44 0171 01974 5427 444629 349431 196"
"159.532535"
"$GPGGA,124647,2448.6306,N,08028.5454,W,1,8,1.6,17,"
"##MN+00 00 53 0172 01976 5427 444399 349363 196"
"159.532581"
"$GPGGA,124651,2448.6329,N,08028.5460,W,1,7,2.1,17,"
"##MN-00 00 51 0172 01975 5427 444151 349312 195"
"159.532627"
"#increment_net"
"$GPGGA,124655,2448.6355,N,08028.5456,W,1,9,1.5,17,"
"##MN-00 00 48 0173 01973 5426 444146 349283 195"
"159.532674"
"$GPGGA,124659,2448.6379,N,08028.5457,W,1,8,1.7,18,"
"##MN-00 00 46 0174 01973 5426 444020 349251 195"
"159.53272"
"$GPGGA,124703,2448.6404,N,08028.5460,W,1,8,1.7,18,"
"##MN-00 00 45 0175 01973 5425 443936 349217 195"
"159.532766"
"$GPGGA,124707,2448.6427,N,08028.5466,W,1,8,1.7,19,"
"##MN-00 00 44 0175 01970 5425 443856 349177 195"
"159.532813"
"$GPGGA,124711,2448.6449,N,08028.5473,W,1,8,1.7,19,"
"##MN-00 00 44 0176 01972 5425 443847 349174 195"
"159.532859"
"$GPGGA,124715,2448.6471,N,08028.5477,W,1,8,1.7,19,"
"##MN-00 00 44 0177 01972 5425 443854 349165 195"
"159.532905"
"$GPGGA,124719,2448.6494,N,08028.5480,W,1,8,1.7,19,"
"##MN-00 00 44 0178 01970 5424 443884 349169 195"
"159.532951"
"$GPGGA,124723,2448.6517,N,08028.5482,W,1,8,1.7,19,"
"##MN-00 00 44 0179 01971 5424 443918 349201 195"
"159.532998"
"$GPGGA,124727,2448.6539,N,08028.5491,W,1,7,2.1,19,"
"##MN-00 00 44 0179 01972 5424 443946 349209 195"
"159.533044"
"$GPGGA,124731,2448.6561,N,08028.5492,W,1,7,2.1,18,"
"##MN-00 00 44 0180 01972 5423 443945 349200 195"
"159.53309"
"$GPGGA,124735,2448.6585,N,08028.5491,W,1,8,1.7,18,"
"##MN-00 00 44 0181 01970 5423 443911 349203 195"
"159.533137"
"$GPGGA,124739,2448.6606,N,08028.5499,W,1,7,2.1,18,"
"##MN-00 00 44 0182 01970 5423 443856 349184 195"
"159.533183"
"$GPGGA,124743,2448.6628,N,08028.5506,W,1,7,2.1,17,"
"##MN-00 00 44 0183 01971 5423 443833 349188 195"
"159.533229"
"$GPGGA,124747,2448.6650,N,08028.5509,W,1,7,2.1,17,"
"##MN-00 00 44 0183 01972 5422 443914 349199 195"
"159.533275"
"$GPGGA,124751,2448.6673,N,08028.5516,W,1,7,2.1,16,"
"##MN-00 00 44 0184 01972 5422 443945 349201 195"
"159.533322"
"$GPGGA,124755,2448.6695,N,08028.5515,W,1,8,1.7,16,"
"##MN-00 00 44 0185 01972 5422 443966 349189 195"
"159.533368"
"$GPGGA,124759,2448.6716,N,08028.5517,W,1,8,2.1,15,"
"##MN-00 00 44 0186 01971 5421 443945 349204 195"
"159.533414"
"$GPGGA,124803,2448.6740,N,08028.5522,W,1,7,2.1,15,"
"##MN-00 00 44 0187 01973 5421 443940 349217 195"
"159.533461"
"$GPGGA,124807,2448.6765,N,08028.5520,W,1,8,1.7,15,"
"##MN-00 00 44 0187 01971 5421 444039 349225 195"
"159.533507"
"$GPGGA,124811,2448.6788,N,08028.5522,W,1,7,1.7,15,"
"##MN-00 00 44 0188 01974 5420 444241 349258 195"
"159.533553"
"$GPGGA,124815,2448.6810,N,08028.5528,W,1,8,1.7,15,"
"##MN-00 00 44 0189 01972 5420 444257 349264 195"
"159.5336"
"$GPGGA,124819,2448.6832,N,08028.5531,W,1,8,2.1,15,"
"##MN-00 00 44 0190 01972 5420 444030 349213 195"
"159.533646"
"$GPGGA,124823,2448.6853,N,08028.5536,W,1,8,1.7,15,"
"##MN-00 00 44 0190 01973 5419 443895 349188 195"
"159.533692"
"$GPGGA,124827,2448.6877,N,08028.5536,W,1,8,1.7,15,"
"##MN-00 00 44 0191 01973 5419 444077 349218 195"
"159.533738"
"$GPGGA,124831,2448.6897,N,08028.5545,W,1,8,2.1,15,"
"##MN-00 00 44 0192 01973 5419 444420 349339 195"
"159.533785"
"$GPGGA,124835,2448.6922,N,08028.5542,W,1,8,1.7,15,"
"##MN+00 00 44 0193 01975 5419 444450 349336 195"
"159.533831"
"$GPGGA,124839,2448.6944,N,08028.5546,W,1,8,1.7,15,"
"##MN+00 00 44 0194 01975 5418 444456 349343 196"
"159.533877"
"$GPGGA,124843,2448.6967,N,08028.5546,W,1,8,1.7,15,"
"##MN+00 00 44 0194 01974 5418 444459 349347 196"
"159.533924"
"$GPGGA,124847,2448.6990,N,08028.5551,W,1,9,1.6,15,"
"##MN-00 00 44 0195 01973 5418 444490 349353 194"
"159.53397"
"$GPGGA,124851,2448.7012,N,08028.5553,W,1,9,1.5,15,"
"##MN-00 00 44 0196 01974 5417 444535 349344 194"
"159.534016"
"$GPGGA,124855,2448.7034,N,08028.5556,W,1,8,1.6,15,"
"##MN-00 00 44 0197 01973 5417 444578 349349 194"
"159.534063"
"$GPGGA,124859,2448.7056,N,08028.5557,W,1,9,1.5,16,"
"##MN+00 00 44 0197 01974 5417 444601 349360 194"
"159.534109"
"$GPGGA,124903,2448.7079,N,08028.5560,W,1,9,1.5,16,"
"##MN+00 00 44 0198 01973 5416 444610 349366 195"
"159.534155"
"$GPGGA,124908,2448.7108,N,08028.5565,W,1,9,1.5,16,"
"##MN+00 00 52 0199 01974 5416 444620 349376 196"
"159.534201"
"$GPGGA,124912,2448.7131,N,08028.5568,W,1,8,1.5,16,"
"##MN-00 00 50 0200 01972 5416 444626 349393 196"
"159.534248"
"#increment_net"
"$GPGGA,124916,2448.7153,N,08028.5571,W,1,9,1.5,16,"
"##MN-00 00 47 0201 01973 5415 444671 349401 196"
"159.534294"
"$GPGGA,124920,2448.7178,N,08028.5575,W,1,9,1.5,16,"
"##MN-00 00 45 0202 01972 5415 444676 349408 196"
"159.53434"
"$GPGGA,124924,2448.7200,N,08028.5579,W,1,9,1.5,16,"
"##MN-00 00 44 0202 01974 5415 444674 349405 196"
"159.534387"
"$GPGGA,124928,2448.7224,N,08028.5582,W,1,9,1.5,16,"
"##MN-00 00 44 0203 01973 5414 444666 349410 196"
"159.534433"
"$GPGGA,124932,2448.7247,N,08028.5587,W,1,9,1.5,16,"
"##MN-00 00 44 0204 01973 5414 444653 349410 196"
"159.534479"
"$GPGGA,124936,2448.7269,N,08028.5590,W,1,8,1.5,16,"
"##MN-00 00 44 0205 01973 5414 444644 349389 196"
"159.534525"
"$GPGGA,124940,2448.7290,N,08028.5592,W,1,9,1.6,16,"
"##MN-00 00 44 0206 01973 5414 444642 349392 196"
"159.534572"
"$GPGGA,124944,2448.7314,N,08028.5597,W,1,8,1.5,16,"
"##MN-00 00 44 0206 01972 5413 444649 349415 196"
"159.534618"
"$GPGGA,124948,2448.7337,N,08028.5601,W,1,9,1.5,16,"
"##MN-00 00 44 0207 01972 5413 444663 349398 196"
"159.534664"
"$GPGGA,124952,2448.7359,N,08028.5608,W,1,8,1.6,16,"
"##MN-00 00 44 0208 01972 5413 444683 349409 196"
"159.534711"
"$GPGGA,124956,2448.7384,N,08028.5614,W,1,8,1.6,16,"
"##MN-00 00 44 0209 01973 5412 444692 349424 196"
"159.534757"
"$GPGGA,125000,2448.7406,N,08028.5619,W,1,8,1.6,16,"
"##MN-00 00 44 0210 01971 5412 444688 349427 196"
"159.534803"
"$GPGGA,125004,2448.7428,N,08028.5625,W,1,8,1.6,16,"
"##MN-00 00 44 0211 01972 5412 444682 349430 196"
"159.53485"
"$GPGGA,125008,2448.7450,N,08028.5629,W,1,8,1.6,15,"
"##MN-00 00 44 0211 01973 5411 444659 349429 196"
"159.534896"
"$GPGGA,125012,2448.7473,N,08028.5634,W,1,8,1.6,15,"
"##MN-00 00 44 0212 01972 5411 444638 349427 196"
"159.534942"
"$GPGGA,125016,2448.7496,N,08028.5639,W,1,8,1.6,15,"
"##MN-00 00 44 0213 01974 5411 444606 349421 196"
"159.534988"
"$GPGGA,125020,2448.7518,N,08028.5641,W,1,8,1.6,14,"
"##MN-00 00 44 0214 01971 5410 444571 349417 196"
"159.535035"
"$GPGGA,125024,2448.7540,N,08028.5645,W,1,8,1.6,14,"
"##MN-00 00 44 0215 01974 5410 444547 349407 196"
"159.535081"
"$GPGGA,125028,2448.7561,N,08028.5650,W,1,8,1.6,14,"
"##MN-00 00 44 0216 01973 5409 444551 349403 196"
"159.535127"
"$GPGGA,125032,2448.7585,N,08028.5652,W,1,8,1.6,14,"
"##MN-00 00 44 0216 01973 5409 444569 349398 196"
"159.535174"
"$GPGGA,125036,2448.7607,N,08028.5655,W,1,8,1.5,13,"
"##MN-00 00 44 0217 01974 5409 444604 349417 196"
"159.53522"
"$GPGGA,125040,2448.7630,N,08028.5659,W,1,9,1.5,13,"
"##MN-00 00 44 0218 01974 5408 444629 349425 196"
"159.535266"
"$GPGGA,125044,2448.7652,N,08028.5662,W,1,8,1.6,13,"
"##MN-00 00 44 0219 01973 5408 444647 349415 196"
"159.535312"
"$GPGGA,125048,2448.7673,N,08028.5668,W,1,8,1.6,13,"
"##MN-00 00 44 0220 01974 5408 444672 349413 196"
"159.53537"
"$GPGGA,125052,2448.7697,N,08028.5675,W,1,8,1.6,13,"
"##MN+00 00 44 0220 01973 5407 444684 349421 196"
"159.535417"
"$GPGGA,125056,2448.7719,N,08028.5679,W,1,8,1.6,13,"
"##MN+00 00 44 0221 01972 5407 444712 349447 196"
"159.535463"
"$GPGGA,125100,2448.7739,N,08028.5683,W,1,8,1.6,13,"
"##MN+00 00 43 0222 01975 5407 444741 349460 196"
"159.535509"
"$GPGGA,125104,2448.7762,N,08028.5686,W,1,9,1.6,13,"
"##MN-00 00 43 0223 01974 5406 444744 349466 196"
"159.535556"
"$GPGGA,125108,2448.7784,N,08028.5689,W,1,8,1.6,12,"
"##MN-00 00 44 0224 01974 5406 444756 349450 196"
"159.535602"
"$GPGGA,125112,2448.7806,N,08028.5691,W,1,9,1.6,12,"
"##MN-00 00 44 0224 01973 5406 444757 349452 196"
"159.535648"
"$GPGGA,125116,2448.7828,N,08028.5694,W,1,9,1.6,12,"
"##MN-00 00 44 0225 01975 5405 444747 349448 196"
"159.535694"
"$GPGGA,125120,2448.7850,N,08028.5698,W,1,9,1.5,12,"
"##MN+00 00 44 0226 01973 5405 444727 349444 196"
"159.535741"
"$GPGGA,125124,2448.7872,N,08028.5701,W,1,9,1.5,13,"
"##MN+00 00 43 0227 01976 5405 444724 349443 195"
"159.535787"
"$GPGGA,125128,2448.7894,N,08028.5704,W,1,9,1.5,13,"
"##MN+00 00 52 0228 01977 5405 444718 349443 195"
"159.535833"
"$GPGGA,125132,2448.7916,N,08028.5709,W,1,9,1.5,13,"
"##MN-00 00 50 0229 01976 5404 444723 349445 195"
"159.53588"
"$GPGGA,125136,2448.7940,N,08028.5712,W,1,9,1.5,13,"
"##MN-00 00 45 0229 01980 5404 444819 349472 195"
"159.535926"
"#increment_net"
"$GPGGA,125140,2448.7962,N,08028.5715,W,1,9,1.5,13,"
"##MN-00 00 42 0230 01985 5404 444903 349520 195"
"159.535972"
"$GPGGA,125144,2448.7986,N,08028.5722,W,1,9,1.5,13,"
"##MN-00 00 40 0232 01990 5404 445004 349576 195"
"159.536019"
"$GPGGA,125148,2448.8009,N,08028.5725,W,1,8,1.5,13,"
"##MN-00 00 39 0233 01993 5403 445120 349572 195"
"159.536065"
"$GPGGA,125152,2448.8031,N,08028.5730,W,1,9,1.5,13,"
"##MN-00 00 38 0234 01989 5403 445155 349565 195"
"159.536111"
"$GPGGA,125156,2448.8055,N,08028.5735,W,1,9,1.5,14,"
"##MN-00 00 38 0235 01986 5402 445164 349562 195"
"159.536157"
"$GPGGA,125200,2448.8078,N,08028.5740,W,1,9,1.5,14,"
"##MN-00 00 37 0236 01979 5402 445177 349576 195"
"159.536204"
"$GPGGA,125204,2448.8100,N,08028.5744,W,1,9,1.5,14,"
"##MN-00 00 36 0237 01972 5401 444962 349543 195"
"159.53625"
"$GPGGA,125208,2448.8118,N,08028.5746,W,1,9,1.5,14,"
"##MN-00 00 36 0238 01967 5401 444725 349489 195"
"159.536296"
"$GPGGA,125212,2448.8140,N,08028.5751,W,1,9,1.5,14,"
"##MN-00 00 36 0239 01962 5401 444608 349439 195"
"159.536343"
"$GPGGA,125216,2448.8171,N,08028.5759,W,1,9,1.5,14,"
"##MN-00 00 36 0240 01954 5401 444382 349346 195"
"159.536389"
"$GPGGA,125220,2448.8194,N,08028.5764,W,1,9,1.5,14,"
"##MN-00 00 36 0241 01949 5400 443576 349110 195"
"159.536435"
"$GPGGA,125224,2448.8218,N,08028.5770,W,1,9,1.5,14,"
"##MN-00 00 36 0242 01942 5400 442559 348953 195"
"159.536481"
"$GPGGA,125228,2448.8241,N,08028.5773,W,1,9,1.5,14,"
"##MN-00 00 36 0243 01937 5399 441870 348758 195"
"159.536528"
"$GPGGA,125232,2448.8266,N,08028.5780,W,1,9,1.5,14,"
"##MN-00 00 36 0244 01929 5399 441323 348500 195"
"159.536574"
"$GPGGA,125236,2448.8291,N,08028.5783,W,1,9,1.5,14,"
"##MN-00 00 36 0246 01923 5399 440960 348365 195"
"159.53662"
"$GPGGA,125240,2448.8316,N,08028.5789,W,1,9,1.5,14,"
"##MN-00 00 36 0247 01914 5398 440672 348317 195"
"159.536667"
"$GPGGA,125244,2448.8341,N,08028.5795,W,1,9,1.5,14,"
"##MN-00 00 34 0248 01906 5398 440268 348208 195"
"159.536713"
"$GPGGA,125248,2448.8364,N,08028.5799,W,1,9,1.5,14,"
"##MN-00 00 35 0249 01897 5398 439634 347997 195"
"159.536759"
"$GPGGA,125252,2448.8389,N,08028.5806,W,1,9,1.5,14,"
"##MN-00 00 34 0250 01889 5397 439119 347887 195"
"159.536806"
"$GPGGA,125256,2448.8414,N,08028.5811,W,1,9,1.5,14,"
"##MN-00 00 34 0251 01879 5397 438511 347762 195"
"159.536852"
"$GPGGA,125300,2448.8438,N,08028.5817,W,1,9,1.5,14,"
"##MN-00 00 35 0252 01872 5397 438001 347617 195"
"159.536898"
"$GPGGA,125304,2448.8463,N,08028.5824,W,1,9,1.5,14,"
"##MN-00 00 35 0253 01866 5397 437693 347530 195"
"159.536944"
"$GPGGA,125308,2448.8486,N,08028.5831,W,1,9,1.5,14,"
"##MN-00 00 37 0254 01862 5397 437436 347432 195"
"159.536991"
"$GPGGA,125312,2448.8512,N,08028.5838,W,1,9,1.5,14,"
"##MN-00 00 38 0255 01862 5396 437291 347246 195"
"159.537037"
"$GPGGA,125316,2448.8537,N,08028.5843,W,1,8,1.5,14,"
"##MN-00 00 41 0256 01861 5396 437094 347116 195"
"159.537083"
"$GPGGA,125320,2448.8562,N,08028.5849,W,1,9,1.5,14,"
"##MN-00 00 43 0257 01859 5395 438691 483948 195"
"159.53713"
"$GPGGA,125324,2448.8587,N,08028.5856,W,1,9,1.5,14,"
"##MN-00 00 38 0257 01863 5396 442941 851037 195"
"159.537176"
"$GPGGA,125328,2448.8611,N,08028.5860,W,1,9,1.5,14,"
"##MN-00 00 42 0258 01862 5395 445826 908655 195"
"159.537222"
"$GPGGA,125332,2448.8637,N,08028.5867,W,1,9,1.5,14,"
"##MN-00 00 36 0258 01862 5395 446788 907861 195"
"159.537269"
"$GPGGA,125336,2448.8662,N,08028.5872,W,1,9,1.5,13,"
"##MN-00 00 37 0258 01860 5395 447633 888878 195"
"159.537315"
"$GPGGA,125340,2448.8687,N,08028.5876,W,1,9,1.5,13,"
"##MN-00 00 32 0258 01860 5395 447536 889997 195"
"159.537361"
"$GPGGA,125344,2448.8712,N,08028.5882,W,1,9,1.5,14,"
"##MN-00 00 39 0258 01859 5395 446283 909136 195"
"159.537407"
"$GPGGA,125349,2448.8743,N,08028.5892,W,1,9,1.5,14,"
"##MN-00 00 31 0258 01860 5394 445694 909198 195"
"159.537454"
"$GPGGA,125353,2448.8768,N,08028.5896,W,1,9,1.5,14,"
"##MN-00 00 30 0258 01859 5394 446336 909080 196"
"159.5375"
"$GPGGA,125357,2448.8796,N,08028.5903,W,1,8,1.6,14,"
"##MN-00 00 39 0258 01859 5394 447279 908983 196"
"159.537546"
"$GPGGA,125401,2448.8822,N,08028.5910,W,1,8,1.6,14,"
"##MN-00 00 44 0258 01860 5393 448759 909561 196"
"159.537593"
"$GPGGA,125405,2448.8848,N,08028.5915,W,1,9,1.5,14,"
"##MN-00 00 47 0258 01860 5393 447351 912211 196"
"159.537639"
"$GPGGA,125409,2448.8876,N,08028.5922,W,1,8,1.7,14,"
"##MN-00 00 51 0258 01859 5393 445223 912269 196"
"159.537685"
"$GPGGA,125413,2448.8904,N,08028.5929,W,1,8,1.7,15,"
"##MN-00 00 51 0258 01861 5393 443645 912283 196"
"159.537731"
"$GPGGA,125417,2448.8930,N,08028.5940,W,1,9,1.5,15,"
"##MN-00 00 51 0258 01860 5393 442620 912354 196"
"159.537778"
"$GPGGA,125421,2448.8959,N,08028.5947,W,1,9,1.5,15,"
"##MN-00 00 54 0258 01860 5393 441311 912660 196"
"159.537824"
"$GPGGA,125425,2448.8985,N,08028.5955,W,1,9,1.5,15,"
"##MN-00 00 49 0258 01861 5393 440434 913883 196"
"159.53787"
"$GPGGA,125429,2448.9016,N,08028.5962,W,1,9,1.5,16,"
"##MN-00 00 57 0258 01861 5393 440661 914451 196"
"159.537917"
"$GPGGA,125433,2448.9043,N,08028.5972,W,1,9,1.5,16,"
"##MN-00 00 66 0258 01860 5393 440325 914498 196"
"159.537963"
"$GPGGA,125437,2448.9072,N,08028.5979,W,1,8,1.7,16,"
"##MN-00 00 63 0258 01860 5393 439159 914470 196"
"159.538009"
"$GPGGA,125441,2448.9100,N,08028.5988,W,1,8,1.7,17,"
"##MN-00 00 63 0258 01861 5393 438475 913474 196"
"159.538056"
"$GPGGA,125445,2448.9128,N,08028.5997,W,1,9,1.5,17,"
"##MN-00 00 74 0258 01861 5393 437599 839002 196"
"159.538102"
"$GPGGA,125449,2448.9155,N,08028.6008,W,1,9,1.5,17,"
"##MN-00 00 86 0258 01860 5393 436891 864784 196"
"159.538148"
"$GPGGA,125453,2448.9183,N,08028.6020,W,1,9,1.5,18,"
"##MN-00 00 90 0258 01862 5393 435810 887988 196"
"159.538194"
"$GPGGA,125457,2448.9212,N,08028.6030,W,1,8,1.7,18,"
"##MN-00 00 90 0258 01860 5393 434128 901423 196"
"159.538241"
"$GPGGA,125501,2448.9240,N,08028.6041,W,1,9,1.5,18,"
"##MN-00 00 90 0258 01860 5393 431870 912240 196"
"159.538287"
"$GPGGA,125505,2448.9269,N,08028.6052,W,1,9,1.5,18,"
"##MN-00 00 90 0258 01861 5393 429032 913010 196"
"159.538333"
"$GPGGA,125509,2448.9299,N,08028.6062,W,1,8,1.9,18,"
"##MN-00 00 90 0258 01858 5393 425859 913506 196"
"159.53838"
"$GPGGA,125513,2448.9330,N,08028.6073,W,1,9,1.5,18,"
"##MN-00 00 90 0258 01860 5393 424172 913796 196"
"159.538426"
"$GPGGA,125517,2448.9357,N,08028.6085,W,1,9,1.5,18,"
"##MN-00 00 90 0258 01862 5393 422349 914081 196"
"159.538472"
"$GPGGA,125521,2448.9386,N,08028.6096,W,1,9,1.5,18,"
"##MN-00 00 90 0258 01860 5393 419833 914631 196"
"159.538519"
"$GPGGA,125525,2448.9414,N,08028.6105,W,1,9,1.5,18,"
"##MN-00 00 90 0258 01860 5393 418075 915489 196"
"159.538565"
"$GPGGA,125529,2448.9442,N,08028.6116,W,1,9,1.5,18,"
"##MN-00 00 90 0258 01859 5393 415927 915565 196"
"159.538623"
"$GPGGA,125533,2448.9472,N,08028.6127,W,1,9,1.9,18,"
"##MN-00 00 90 0258 01861 5393 414148 915718 196"
"159.538669"
"$GPGGA,125537,2448.9501,N,08028.6139,W,1,9,1.5,18,"
"##MN-00 00 90 0258 01860 5393 413183 915781 196"
"159.538715"
"$GPGGA,125541,2448.9533,N,08028.6150,W,1,9,1.5,18,"
"##MN-00 00 90 0258 01861 5393 411916 915789 196"
"159.538762"
"$GPGGA,125545,2448.9565,N,08028.6160,W,1,8,1.7,19,"
"##MN-00 00 90 0258 01860 5393 410776 915789 196"
"159.538808"
"$GPGGA,125549,2448.9595,N,08028.6171,W,1,8,1.7,19,"
"##MN-00 00 90 0258 01861 5393 409544 915789 196"
"159.538854"
"$GPGGA,125553,2448.9623,N,08028.6182,W,1,8,1.5,19,"
"##MN-00 00 90 0258 01861 5393 407389 915787 196"
"159.5389"
"$GPGGA,125557,2448.9652,N,08028.6192,W,1,8,1.5,19,"
"##MN-00 00 90 0258 01859 5394 405803 915787 196"
"159.538947"
"$GPGGA,125601,2448.9678,N,08028.6203,W,1,8,1.5,19,"
"##MN-00 00 90 0258 01859 5394 404733 915786 196"
"159.538993"
"$GPGGA,125605,2448.9708,N,08028.6212,W,1,8,1.5,19,"
"##MN-00 00 90 0258 01861 5394 404221 915782 196"
"159.539039"
"$GPGGA,125609,2448.9740,N,08028.6219,W,1,9,1.5,19,"
"##MN-00 00 90 0258 01861 5394 403932 915779 196"
"159.539086"
"$GPGGA,125613,2448.9769,N,08028.6228,W,1,9,1.5,19,"
"##MN-00 00 90 0258 01860 5394 403032 915776 196"
"159.539132"
"$GPGGA,125617,2448.9798,N,08028.6240,W,1,9,1.5,19,"
"##MN-00 00 90 0258 01861 5394 402711 915773 196"
"159.539178"
"$GPGGA,125621,2448.9826,N,08028.6251,W,1,8,1.9,19,"
"##MN-00 00 90 0258 01860 5394 402324 915770 196"
"159.539225"
"$GPGGA,125625,2448.9852,N,08028.6261,W,1,9,1.5,19,"
"##MN-00 00 90 0258 01858 5394 402627 915767 196"
"159.539271"
"$GPGGA,125629,2448.9880,N,08028.6272,W,1,9,1.5,19,"
"##MN-00 00 90 0258 01860 5395 403098 915765 196"
"159.539317"
"$GPGGA,125633,2448.9910,N,08028.6284,W,1,8,1.9,19,"
"##MN-00 00 90 0258 01860 5395 402350 915763 196"
"159.539363"
"$GPGGA,125637,2448.9941,N,08028.6297,W,1,9,1.5,19,"
"##MN-00 00 90 0258 01860 5395 401594 915761 196"
"159.53941"
"$GPGGA,125641,2448.9968,N,08028.6308,W,1,8,1.9,19,"
"##MN-00 00 90 0258 01860 5395 401447 915759 196"
"159.539456"
"$GPGGA,125645,2448.9997,N,08028.6319,W,1,8,1.9,19,"
"##MN-00 00 90 0258 01860 5395 401486 915757 196"
"159.539502"
"$GPGGA,125649,2449.0033,N,08028.6333,W,1,8,1.6,20,"
"##MN-00 00 90 0258 01859 5395 401607 915756 196"
"159.539549"
"$GPGGA,125653,2449.0057,N,08028.6344,W,1,8,1.6,20,"
"##MN-00 00 90 0258 01862 5395 400951 915752 196"
"159.539595"
"$GPGGA,125657,2449.0082,N,08028.6356,W,1,9,1.5,19,"
"##MN-00 00 90 0258 01861 5396 400468 915749 196"
"159.539641"
"$GPGGA,125701,2449.0108,N,08028.6366,W,1,9,1.5,19,"
"##MN-00 00 90 0258 01859 5396 400570 915747 196"
"159.539688"
"$GPGGA,125705,2449.0134,N,08028.6380,W,1,9,1.5,19,"
"##MN-00 00 90 0258 01861 5396 402439 915744 196"
"159.539734"
"$GPGGA,125709,2449.0165,N,08028.6391,W,1,8,1.6,19,"
"##MN-00 00 90 0258 01861 5396 405898 915741 196"
"159.53978"
"$GPGGA,125713,2449.0194,N,08028.6403,W,1,9,1.5,18,"
"##MN-00 00 90 0258 01858 5397 407447 915739 196"
"159.539826"
"$GPGGA,125717,2449.0220,N,08028.6413,W,1,9,1.5,18,"
"##MN-00 00 90 0258 01860 5397 408774 915740 196"
"159.539873"
"$GPGGA,125721,2449.0255,N,08028.6424,W,1,7,2.3,18,"
"##MN-00 00 90 0258 01861 5397 408473 915738 196"
"159.539919"
"$GPGGA,125725,2449.0285,N,08028.6436,W,1,8,1.9,18,"
"##MN-00 00 90 0258 01859 5397 407445 915735 196"
"159.539965"
"$GPGGA,125729,2449.0314,N,08028.6446,W,1,8,1.9,18,"
"##MN-00 00 90 0258 01858 5397 408365 915733 196"
"159.540012"
"$GPGGA,125733,2449.0342,N,08028.6457,W,1,8,1.9,18,"
"##MN-00 00 90 0258 01862 5398 408889 915736 196"
"159.540058"
"$GPGGA,125737,2449.0375,N,08028.6470,W,1,8,1.9,18,"
"##MN-00 00 90 0258 01860 5398 408246 915737 196"
"159.540104"
"$GPGGA,125741,2449.0405,N,08028.6481,W,1,8,1.9,18,"
"##MN-00 00 90 0258 01861 5398 406736 915736 196"
"159.54015"
"$GPGGA,125745,2449.0434,N,08028.6492,W,1,9,1.5,18,"
"##MN-00 00 90 0258 01860 5399 405671 915729 196"
"159.540197"
"$GPGGA,125749,2449.0462,N,08028.6499,W,1,8,1.9,18,"
"##MN-00 00 90 0258 01859 5399 405228 915725 196"
"159.540243"
"$GPGGA,125753,2449.0487,N,08028.6507,W,1,9,1.5,19,"
"##MN-00 00 90 0258 01860 5399 404639 915722 196"
"159.540289"
"$GPGGA,125757,2449.0509,N,08028.6514,W,1,9,1.5,19,"
"##MN-00 00 90 0258 01859 5400 403713 915718 196"
"159.540336"
"$GPGGA,125801,2449.0530,N,08028.6521,W,1,9,1.5,19,"
"##MN-00 00 90 0258 01859 5400 402719 915715 196"
"159.540382"
"$GPGGA,125805,2449.0551,N,08028.6525,W,1,9,1.5,19,"
"##MN-00 00 90 0258 01861 5400 401815 915713 196"
"159.540428"
"$GPGGA,125809,2449.0571,N,08028.6530,W,1,9,1.5,19,"
"##MN-00 00 90 0258 01860 5400 401393 915707 196"
"159.540475"
"$GPGGA,125813,2449.0589,N,08028.6535,W,1,9,1.5,19,"
"##MN-00 00 90 0258 01860 5401 401114 915705 196"
"159.540521"
"$GPGGA,125817,2449.0610,N,08028.6539,W,1,8,1.9,19,"
"##MN-00 00 90 0258 01861 5401 400323 915701 196"
"159.540567"
"$GPGGA,125822,2449.0628,N,08028.6543,W,1,9,1.9,19,"
"##MN-00 00 90 0258 01860 5401 399556 915696 196"
"159.540613"
"$GPGGA,125826,2449.0647,N,08028.6546,W,1,8,1.6,19,"
"##MN-00 00 90 0258 01859 5402 398874 915693 196"
"159.54066"
"$GPGGA,125829,2449.0660,N,08028.6548,W,1,8,1.6,18,"
"##MN-00 00 90 0258 01859 5402 398837 915690 196"
"159.540706"
"$GPGGA,125834,2449.0679,N,08028.6551,W,1,8,1.6,18,"
"##MN-00 00 90 0258 01860 5403 399226 915687 196"
"159.540752"
"$GPGGA,125838,2449.0697,N,08028.6551,W,1,9,1.5,18,"
"##MN-00 00 90 0258 01861 5403 400255 915682 196"
"159.540799"
"$GPGGA,125842,2449.0715,N,08028.6553,W,1,9,1.5,18,"
"##MN-00 00 90 0258 01861 5403 400463 915677 196"
"159.540845"
"$GPGGA,125845,2449.0726,N,08028.6552,W,1,9,1.5,18,"
"##MN-00 00 90 0258 01860 5403 400498 915674 196"
"159.540891"
"$GPGGA,125850,2449.0744,N,08028.6553,W,1,9,1.5,18,"
"##MN-00 00 90 0258 01861 5404 400723 915669 196"
"159.540938"
"$GPGGA,125854,2449.0759,N,08028.6553,W,1,8,1.6,18,"
"##MN-00 00 90 0258 01861 5404 400353 915669 196"
"159.540984"
"$GPGGA,125858,2449.0775,N,08028.6553,W,1,8,1.6,18,"
"##MN-00 00 90 0258 01859 5405 400428 915665 196"
"159.54103"
"$GPGGA,125902,2449.0790,N,08028.6553,W,1,8,1.6,18,"
"##MN-00 00 90 0258 01860 5405 399928 915661 196"
"159.541076"
"$GPGGA,125906,2449.0804,N,08028.6550,W,1,7,1.6,18,"
"##MN-00 00 90 0258 01860 5406 399778 915660 196"
"159.541123"
"$GPGGA,125910,2449.0819,N,08028.6544,W,1,8,1.6,18,"
"##MN-00 00 90 0258 01860 5406 399659 915651 196"
"159.541169"
"$GPGGA,125914,2449.0833,N,08028.6542,W,1,8,1.6,18,"
"##MN-00 00 90 0258 01861 5407 400340 915643 196"
"159.541215"
"$GPGGA,125918,2449.0846,N,08028.6541,W,1,8,1.6,18,"
"##MN-00 00 90 0258 01860 5407 400686 915640 196"
"159.541262"
"$GPGGA,125922,2449.0860,N,08028.6538,W,1,8,1.6,18,"
"##MN-00 00 90 0258 01858 5407 400911 915638 196"
"159.541308"
"$GPGGA,125926,2449.0874,N,08028.6536,W,1,8,1.6,18,"
"##MN-00 00 90 0258 01862 5408 400907 915634 196"
"159.541354"
"$GPGGA,125930,2449.0887,N,08028.6535,W,1,8,1.6,18,"
"##MN-00 00 90 0258 01860 5409 400386 915627 196"
"159.5414"
"$GPGGA,125934,2449.0900,N,08028.6531,W,1,9,1.6,19,"
"##MN-00 00 90 0258 01860 5409 400293 915623 196"
"159.541447"
"$GPGGA,125938,2449.0914,N,08028.6526,W,1,9,1.5,19,"
"##MN-00 00 90 0258 01860 5409 400491 915616 196"
"159.541493"
"$GPGGA,125942,2449.0928,N,08028.6522,W,1,9,1.5,19,"
"##MN-00 00 90 0258 01858 5410 401665 915615 196"
"159.541539"
"$GPGGA,125946,2449.0942,N,08028.6518,W,1,9,1.5,19,"
"##MN-00 00 90 0258 01859 5410 403438 915610 196"
"159.541586"
"$GPGGA,125950,2449.0954,N,08028.6514,W,1,9,1.5,20,"
"##MN-00 00 90 0258 01860 5411 404395 915612 196"
"159.541632"
"$GPGGA,125954,2449.0968,N,08028.6511,W,1,9,1.5,20,"
"##MN-00 00 90 0258 01860 5411 406070 915613 196"
"159.541678"
"$GPGGA,125958,2449.0981,N,08028.6510,W,1,9,1.5,20,"
"##MN-00 00 90 0258 01860 5412 407385 915610 196"
"159.541725"
"$GPGGA,130002,2449.0990,N,08028.6507,W,1,9,1.5,20,"
"##MN-00 00 90 0258 01862 5412 408067 915608 196"
"159.541771"
"$GPGGA,130006,2449.1003,N,08028.6504,W,1,8,1.5,20,"
"##MN-00 00 90 0258 01860 5413 407487 915606 196"
"159.541817"
"$GPGGA,130010,2449.1018,N,08028.6499,W,1,9,1.5,20,"
"##MN-00 00 90 0258 01859 5413 407447 915605 196"
"159.541875"
"$GPGGA,130014,2449.1026,N,08028.6497,W,1,9,1.5,20,"
"##MN-00 00 90 0258 01860 5414 407733 915603 196"
"159.541921"
"$GPGGA,130018,2449.1043,N,08028.6495,W,1,9,1.5,20,"
"##MN-00 00 90 0258 01859 5414 408671 915601 196"
"159.541968"
"$GPGGA,130022,2449.1055,N,08028.6491,W,1,9,1.5,20,"
"##MN-00 00 90 0258 01859 5414 409512 915589 196"
"159.542014"
"$GPGGA,130026,2449.1066,N,08028.6489,W,1,9,1.3,20,"
"##MN-00 00 90 0258 01858 5415 410014 915591 196"
"159.54206"
"$GPGGA,130030,2449.1076,N,08028.6487,W,1,8,1.4,19,"
"##MN-00 00 90 0258 01858 5416 411025 915595 196"
"159.542106"
"$GPGGA,130034,2449.1086,N,08028.6486,W,1,8,1.4,19,"
"##MN-00 00 90 0258 01860 5416 411759 915595 196"
"159.542153"
"$GPGGA,130038,2449.1097,N,08028.6484,W,1,8,1.4,19,"
"##MN-00 00 90 0258 01861 5417 412133 915598 196"
"159.542199"
"$GPGGA,130042,2449.1108,N,08028.6481,W,1,8,1.4,18,"
"##MN-00 00 90 0258 01858 5417 412912 915598 196"
"159.542245"
"$GPGGA,130046,2449.1120,N,08028.6478,W,1,8,1.4,17,"
"##MN-00 00 90 0258 01860 5418 413397 915594 196"
"159.542292"
"$GPGGA,130050,2449.1131,N,08028.6474,W,1,9,1.4,17,"
"##MN-00 00 90 0258 01862 5418 413287 915591 196"
"159.542338"
"$GPGGA,130054,2449.1141,N,08028.6471,W,1,9,1.4,16,"
"##MN-00 00 90 0258 01860 5419 413024 915579 196"
"159.542384"
"$GPGGA,130058,2449.1152,N,08028.6468,W,1,9,1.4,16,"
"##MN-00 00 90 0258 01860 5419 412709 915574 196"
"159.542431"
"$GPGGA,130102,2449.1163,N,08028.6464,W,1,9,1.4,15,"
"##MN-00 00 90 0258 01858 5420 412996 915576 196"
"159.542477"
"$GPGGA,130106,2449.1174,N,08028.6460,W,1,9,1.4,15,"
"##MN-00 00 90 0258 01860 5420 413344 915574 196"
"159.542523"
"$GPGGA,130110,2449.1184,N,08028.6455,W,1,9,1.4,15,"
"##MN-00 00 90 0258 01858 5421 413261 915562 196"
"159.542569"
"$GPGGA,130114,2449.1196,N,08028.6451,W,1,9,1.4,14,"
"##MN-00 00 90 0258 01861 5422 413925 915564 196"
"159.542616"
"$GPGGA,130118,2449.1206,N,08028.6447,W,1,9,1.4,14,"
"##MN-00 00 90 0258 01862 5422 414967 915559 196"
"159.542662"
"$GPGGA,130122,2449.1217,N,08028.6445,W,1,9,1.4,14,"
"##MN-00 00 90 0258 01858 5423 415601 915554 196"
"159.542708"
"$GPGGA,130126,2449.1228,N,08028.6440,W,1,8,1.4,14,"
"##MN-00 00 90 0258 01862 5423 416071 915547 196"
"159.542755"
"$GPGGA,130130,2449.1238,N,08028.6434,W,1,8,1.4,14,"
"##MN-00 00 90 0258 01860 5424 416833 915546 196"
"159.542801"
"$GPGGA,130134,2449.1250,N,08028.6431,W,1,9,1.5,14,"
"##MN-00 00 90 0258 01859 5425 417001 915545 196"
"159.542847"
"$GPGGA,130138,2449.1264,N,08028.6430,W,1,9,1.4,14,"
"##MN-00 00 90 0258 01859 5425 419200 915543 196"
"159.542894"
"$GPGGA,130142,2449.1274,N,08028.6424,W,1,9,1.4,14,"
"##MN-00 00 90 0258 01861 5426 420717 915545 196"
"159.54294"
"$GPGGA,130146,2449.1283,N,08028.6418,W,1,9,1.4,14,"
"##MN-00 00 90 0258 01859 5426 420373 915544 196"
"159.542986"
"$GPGGA,130150,2449.1293,N,08028.6412,W,1,9,1.4,14,"
"##MN-00 00 90 0258 01859 5427 420994 915542 196"
"159.543032"
"$GPGGA,130154,2449.1304,N,08028.6407,W,1,9,1.4,14,"
"##MN-00 00 90 0258 01858 5428 422213 915628 196"
"159.543079"
"$GPGGA,130158,2449.1315,N,08028.6400,W,1,9,1.4,14,"
"##MN-00 00 90 0258 01860 5428 422892 915936 196"
"159.543125"
"$GPGGA,130202,2449.1325,N,08028.6393,W,1,9,1.4,14,"
"##MN-00 00 90 0258 01860 5429 423967 915957 196"
"159.543171"
"$GPGGA,130206,2449.1336,N,08028.6387,W,1,9,1.4,14,"
"##MN-00 00 90 0258 01859 5429 424393 915965 196"
"159.543218"
"$GPGGA,130210,2449.1346,N,08028.6382,W,1,9,1.4,13,"
"##MN-00 00 90 0258 01859 5430 423792 915970 196"
"159.543264"
"$GPGGA,130214,2449.1355,N,08028.6376,W,1,9,1.4,13,"
"##MN-00 00 90 0258 01861 5430 423465 915973 196"
"159.54331"
"$GPGGA,130218,2449.1365,N,08028.6370,W,1,9,1.4,13,"
"##MN-00 00 90 0258 01860 5431 424299 915973 196"
"159.543356"
"$GPGGA,130222,2449.1373,N,08028.6364,W,1,9,1.4,12,"
"##MN-00 00 90 0258 01859 5432 424396 915973 196"
"159.543403"
"$GPGGA,130226,2449.1384,N,08028.6359,W,1,9,1.4,12,"
"##MN-00 00 90 0258 01860 5432 424597 915974 196"
"159.543449"
"$GPGGA,130230,2449.1393,N,08028.6353,W,1,9,1.4,12,"
"##MN-00 00 90 0258 01860 5433 425649 915974 196"
"159.543495"
"$GPGGA,130234,2449.1402,N,08028.6348,W,1,9,1.4,12,"
"##MN-00 00 90 0258 01859 5434 426220 915975 196"
"159.543542"
"$GPGGA,130238,2449.1411,N,08028.6342,W,1,9,1.4,11,"
"##MN-00 00 90 0258 01860 5434 427116 915976 196"
"159.543588"
"$GPGGA,130242,2449.1420,N,08028.6336,W,1,9,1.4,11,"
"##MN-00 00 90 0258 01859 5435 426092 915977 196"
"159.543634"
"$GPGGA,130246,2449.1430,N,08028.6330,W,1,9,1.4,11,"
"##MN-00 00 90 0258 01858 5435 424207 915976 196"
"159.543681"
"$GPGGA,130250,2449.1440,N,08028.6324,W,1,9,1.4,11,"
"##MN-00 00 90 0258 01859 5436 422609 915977 196"
"159.543727"
"$GPGGA,130254,2449.1449,N,08028.6317,W,1,9,1.4,11,"
"##MN-00 00 90 0258 01857 5436 421473 915975 196"
"159.543773"
"$GPGGA,130259,2449.1460,N,08028.6311,W,1,9,1.4,11,"
"##MN-00 00 90 0258 01858 5437 420742 915973 196"
"159.543819"
"$GPGGA,130303,2449.1470,N,08028.6305,W,1,9,1.4,11,"
"##MN-00 00 90 0258 01861 5438 420638 915966 196"
"159.543866"
"$GPGGA,130307,2449.1478,N,08028.6300,W,1,9,1.4,11,"
"##MN-00 00 90 0258 01859 5438 419529 915965 196"
"159.543912"
"$GPGGA,130310,2449.1487,N,08028.6296,W,1,9,1.4,11,"
"##MN-00 00 90 0258 01859 5439 419174 915963 196"
"159.543958"
"$GPGGA,130315,2449.1495,N,08028.6287,W,1,9,1.4,11,"
"##MN-00 00 90 0258 01859 5439 419452 915959 196"
"159.544005"
"$GPGGA,130319,2449.1503,N,08028.6282,W,1,9,1.4,11,"
"##MN-00 00 90 0258 01861 5440 418636 915960 196"
"159.544051"
"$GPGGA,130323,2449.1513,N,08028.6277,W,1,9,1.4,11,"
"##MN-00 00 90 0258 01858 5441 418015 915959 196"
"159.544097"
"$GPGGA,130327,2449.1521,N,08028.6271,W,1,9,1.4,11,"
"##MN-00 00 90 0258 01860 5441 416346 915957 196"
"159.544144"
"$GPGGA,130331,2449.1532,N,08028.6266,W,1,8,1.4,11,"
"##MN-00 00 90 0258 01860 5442 418018 915956 196"
"159.54419"
"$GPGGA,130335,2449.1541,N,08028.6263,W,1,9,1.4,11,"
"##MN-00 00 90 0258 01861 5443 420079 915956 196"
"159.544236"
"$GPGGA,130339,2449.1548,N,08028.6259,W,1,9,1.4,11,"
"##MN-00 00 90 0258 01860 5443 421555 915957 196"
"159.544282"
"$GPGGA,130343,2449.1556,N,08028.6255,W,1,9,1.4,12,"
"##MN-00 00 90 0258 01860 5444 422372 915956 196"
"159.544329"
"$GPGGA,130347,2449.1563,N,08028.6253,W,1,9,1.5,12,"
"##MN-00 00 90 0258 01860 5444 422179 915957 196"
"159.544375"
"$GPGGA,130351,2449.1575,N,08028.6248,W,1,9,1.4,13,"
"##MN-00 00 90 0258 01859 5445 421449 915956 196"
"159.544421"
"$GPGGA,130355,2449.1585,N,08028.6244,W,1,9,1.5,13,"
"##MN-00 00 90 0258 01860 5445 421635 915955 196"
"159.544468"
"$GPGGA,130359,2449.1592,N,08028.6237,W,1,9,1.4,14,"
"##MN-00 00 90 0258 01859 5446 421959 915955 196"
"159.544514"
"$GPGGA,130403,2449.1597,N,08028.6229,W,1,9,1.5,14,"
"##MN-00 00 90 0258 01863 5446 421713 915954 196"
"159.54456"
"$GPGGA,130407,2449.1608,N,08028.6224,W,1,9,1.4,14,"
"##MN-00 00 90 0258 01857 5447 421708 915953 196"
"159.544606"
"$GPGGA,130411,2449.1619,N,08028.6218,W,1,9,1.4,14,"
"##MN-00 00 90 0258 01860 5448 421560 915950 196"
"159.544653"
"$GPGGA,130415,2449.1630,N,08028.6212,W,1,9,1.4,14,"
"##MN-00 00 90 0258 01861 5448 421670 915948 196"
"159.544699"
"$GPGGA,130419,2449.1640,N,08028.6204,W,1,9,1.4,14,"
"##MN-00 00 90 0258 01857 5449 421268 915946 196"
"159.544745"
"$GPGGA,130423,2449.1648,N,08028.6197,W,1,9,1.4,15,"
"##MN-00 00 90 0258 01858 5449 420590 915933 196"
"159.544792"
"$GPGGA,130427,2449.1657,N,08028.6190,W,1,9,1.4,15,"
"##MN-00 00 90 0258 01861 5450 419161 915943 196"
"159.544838"
"$GPGGA,130431,2449.1665,N,08028.6182,W,1,9,1.4,15,"
"##MN-00 00 90 0258 01858 5451 418259 915939 196"
"159.544884"
"$GPGGA,130435,2449.1673,N,08028.6175,W,1,9,1.4,15,"
"##MN-00 00 90 0258 01860 5451 418986 915933 196"
"159.544931"
"$GPGGA,130439,2449.1683,N,08028.6168,W,1,9,1.4,15,"
"##MN-00 00 90 0258 01860 5452 419463 915932 196"
"159.544977"
"$GPGGA,130443,2449.1691,N,08028.6161,W,1,9,1.4,14,"
"##MN-00 00 90 0258 01858 5452 418948 915930 196"
"159.545023"
"$GPGGA,130447,2449.1701,N,08028.6155,W,1,9,1.4,14,"
"##MN-00 00 90 0258 01859 5453 418596 915927 196"
"159.545069"
"$GPGGA,130451,2449.1709,N,08028.6148,W,1,9,1.4,14,"
"##MN-00 00 90 0258 01859 5453 420131 915925 196"
"159.545127"
"$GPGGA,130455,2449.1718,N,08028.6140,W,1,9,1.4,14,"
"##MN-00 00 90 0258 01860 5454 421565 915922 196"
"159.545174"
"$GPGGA,130459,2449.1727,N,08028.6132,W,1,8,1.8,14,"
"##MN-00 00 90 0258 01860 5455 421906 915920 196"
"159.54522"
"$GPGGA,130503,2449.1736,N,08028.6124,W,1,8,1.8,14,"
"##MN-00 00 90 0258 01859 5455 423236 915917 196"
"159.545266"
"$GPGGA,130507,2449.1745,N,08028.6116,W,1,8,1.8,13,"
"##MN-00 00 90 0258 01859 5456 423644 915916 196"
"159.545312"
"$GPGGA,130511,2449.1752,N,08028.6108,W,1,8,1.8,13,"
"##MN-00 00 90 0258 01860 5457 423596 915916 195"
"159.545359"
"$GPGGA,130515,2449.1762,N,08028.6102,W,1,8,1.8,13,"
"##MN-00 00 90 0258 01856 5457 422758 915912 196"
"159.545405"
"$GPGGA,130519,2449.1772,N,08028.6094,W,1,7,2.0,12,"
"##MN-00 00 90 0258 01857 5458 423162 915911 196"
"159.545451"
"$GPGGA,130523,2449.1783,N,08028.6088,W,1,8,1.8,12,"
"##MN-00 00 90 0258 01858 5459 423652 915910 196"
"159.545498"
"$GPGGA,130527,2449.1792,N,08028.6082,W,1,7,2.0,12,"
"##MN-00 00 90 0258 01859 5459 424010 915909 196"
"159.545544"
"$GPGGA,130531,2449.1802,N,08028.6075,W,1,8,1.8,12,"
"##MN-00 00 90 0258 01859 5460 423932 915908 196"
"159.54559"
"$GPGGA,130535,2449.1810,N,08028.6068,W,1,8,1.8,12,"
"##MN-00 00 90 0258 01859 5460 423849 915904 196"
"159.545637"
"$GPGGA,130539,2449.1819,N,08028.6061,W,1,8,1.8,13,"
"##MN-00 00 90 0258 01860 5461 424374 915903 196"
"159.545683"
"$GPGGA,130543,2449.1827,N,08028.6054,W,1,8,1.8,13,"
"##MN-00 00 90 0258 01857 5461 424989 915905 196"
"159.545729"
"$GPGGA,130547,2449.1835,N,08028.6047,W,1,8,1.8,13,"
"##MN-00 00 90 0258 01860 5462 424386 915901 195"
"159.545775"
"$GPGGA,130551,2449.1843,N,08028.6040,W,1,8,1.8,13,"
"##MN-00 00 90 0258 01860 5462 424558 915902 195"
"159.545822"
"$GPGGA,130555,2449.1852,N,08028.6034,W,1,8,1.8,13,"
"##MN-00 00 90 0258 01858 5463 423349 915900 195"
"159.545868"
"$GPGGA,130559,2449.1860,N,08028.6027,W,1,8,1.8,13,"
"##MN-00 00 90 0258 01860 5464 422245 915896 195"
"159.545914"
"$GPGGA,130603,2449.1868,N,08028.6020,W,1,8,1.8,13,"
"##MN-00 00 90 0258 01860 5464 422168 915894 195"
"159.545961"
"$GPGGA,130607,2449.1878,N,08028.6012,W,1,8,1.8,13,"
"##MN-00 00 90 0258 01861 5465 421820 915892 195"
"159.546007"
"$GPGGA,130611,2449.1886,N,08028.6005,W,1,8,1.8,13,"
"##MN-00 00 90 0258 01858 5465 421190 915890 195"
"159.546053"
"$GPGGA,130615,2449.1893,N,08028.5997,W,1,8,1.8,13,"
"##MN-00 00 90 0258 01859 5466 420728 915887 195"
"159.5461"
"$GPGGA,130619,2449.1902,N,08028.5989,W,1,8,1.8,13,"
"##MN-00 00 90 0258 01857 5467 419591 915886 195"
"159.546146"
"$GPGGA,130623,2449.1910,N,08028.5982,W,1,8,1.8,13,"
"##MN-00 00 90 0258 01859 5467 419644 915883 195"
"159.546192"
"$GPGGA,130627,2449.1918,N,08028.5975,W,1,8,1.8,13,"
"##MN-00 00 90 0258 01860 5468 420003 915881 195"
"159.546238"
"$GPGGA,130631,2449.1926,N,08028.5967,W,1,8,2.0,13,"
"##MN-00 00 90 0258 01859 5468 419679 915881 195"
"159.546285"
"$GPGGA,130635,2449.1933,N,08028.5960,W,1,7,1.8,13,"
"##MN-00 00 90 0258 01859 5469 419521 915878 195"
"159.546331"
"$GPGGA,130639,2449.1940,N,08028.5951,W,1,7,2.0,13,"
"##MN-00 00 90 0258 01860 5470 419750 915874 195"
"159.546377"
"$GPGGA,130643,2449.1949,N,08028.5943,W,1,7,2.0,13,"
"##MN-00 00 90 0258 01858 5470 420652 915872 195"
"159.546424"
"$GPGGA,130647,2449.1955,N,08028.5935,W,1,8,1.8,13,"
"##MN-00 00 90 0258 01860 5470 421937 915870 195"
"159.54647"
"$GPGGA,130651,2449.1965,N,08028.5930,W,1,8,1.8,13,"
"##MN-00 00 90 0258 01858 5471 422413 915869 195"
"159.546516"
"$GPGGA,130655,2449.1973,N,08028.5924,W,1,8,1.8,13,"
"##MN-00 00 90 0258 01860 5472 423016 915871 195"
"159.546563"
"$GPGGA,130659,2449.1980,N,08028.5919,W,1,8,1.8,13,"
"##MN-00 00 90 0258 01857 5472 423510 915870 195"
"159.546609"
"$GPGGA,130703,2449.1990,N,08028.5912,W,1,8,1.8,13,"
"##MN-00 00 90 0258 01858 5473 423894 915868 195"
"159.546655"
"$GPGGA,130707,2449.1998,N,08028.5905,W,1,8,1.8,13,"
"##MN-00 00 90 0258 01858 5474 423164 915867 195"
"159.546701"
"$GPGGA,130711,2449.2007,N,08028.5896,W,1,8,1.8,13,"
"##MN-00 00 90 0258 01859 5474 423823 915866 195"
"159.546748"
"$GPGGA,130715,2449.2014,N,08028.5887,W,1,7,2.0,13,"
"##MN-00 00 90 0258 01858 5474 425241 915867 195"
"159.546794"
"$GPGGA,130719,2449.2020,N,08028.5877,W,1,7,2.0,13,"
"##MN-00 00 90 0258 01859 5475 425991 915865 195"
"159.54684"
"$GPGGA,130723,2449.2027,N,08028.5869,W,1,7,2.0,13,"
"##MN-00 00 90 0258 01860 5475 426064 915864 195"
"159.546887"
"$GPGGA,130727,2449.2037,N,08028.5864,W,1,8,1.8,13,"
"##MN-00 00 90 0258 01861 5476 426595 915865 195"
"159.546933"
"$GPGGA,130731,2449.2045,N,08028.5858,W,1,8,1.8,13,"
"##MN-00 00 90 0258 01861 5477 427583 915865 195"
"159.546979"
"$GPGGA,130735,2449.2052,N,08028.5851,W,1,8,1.8,13,"
"##MN-00 00 90 0258 01858 5477 427791 915867 195"
"159.547025"
"$GPGGA,130739,2449.2061,N,08028.5843,W,1,8,1.8,13,"
"##MN-00 00 90 0258 01859 5477 427325 915865 195"
"159.547072"
"$GPGGA,130743,2449.2066,N,08028.5838,W,1,8,1.8,13,"
"##MN-00 00 90 0258 01861 5478 426610 915863 195"
"159.547118"
"$GPGGA,130747,2449.2077,N,08028.5827,W,1,7,2.2,13,"
"##MN-00 00 90 0258 01858 5479 425641 915861 195"
"159.547164"
"$GPGGA,130752,2449.2088,N,08028.5817,W,1,7,2.2,13,"
"##MN-00 00 90 0258 01858 5479 424542 915856 195"
"159.547211"
"$GPGGA,130755,2449.2092,N,08028.5810,W,1,8,1.8,13,"
"##MN-00 00 90 0258 01861 5480 423482 915853 195"
"159.547257"
"$GPGGA,130800,2449.2102,N,08028.5798,W,1,8,1.8,13,"
"##MN-00 00 90 0258 01858 5480 422741 915850 195"
"159.547303"
"$GPGGA,130803,2449.2109,N,08028.5790,W,1,8,1.8,13,"
"##MN-00 00 90 0258 01860 5481 421946 915847 195"
"159.54735"
"$GPGGA,130808,2449.2117,N,08028.5777,W,1,8,1.8,14,"
"##MN-00 00 90 0258 01860 5481 422076 915846 195"
"159.547396"
"$GPGGA,130812,2449.2126,N,08028.5768,W,1,8,1.8,14,"
"##MN-00 00 90 0258 01857 5482 421446 915843 195"
"159.547442"
"$GPGGA,130816,2449.2132,N,08028.5760,W,1,8,1.8,14,"
"##MN-00 00 90 0258 01859 5483 420933 915843 195"
"159.547488"
"$GPGGA,130820,2449.2139,N,08028.5750,W,1,8,1.8,15,"
"##MN-00 00 90 0258 01859 5483 421046 915840 195"
"159.547535"
"$GPGGA,130824,2449.2146,N,08028.5742,W,1,8,1.8,15,"
"##MN-00 00 90 0258 01859 5483 422105 915839 195"
"159.547581"
"$GPGGA,130828,2449.2155,N,08028.5733,W,1,8,1.8,15,"
"##MN-00 00 90 0258 01856 5484 421931 915838 195"
"159.547627"
"$GPGGA,130832,2449.2164,N,08028.5727,W,1,8,2.2,15,"
"##MN-00 00 90 0258 01857 5484 421392 915836 195"
"159.547674"
"$GPGGA,130836,2449.2171,N,08028.5720,W,1,8,1.8,15,"
"##MN-00 00 90 0258 01858 5485 421618 915836 195"
"159.54772"
"$GPGGA,130840,2449.2178,N,08028.5711,W,1,8,1.8,15,"
"##MN-00 00 90 0258 01857 5486 421308 915834 195"
"159.547766"
"$GPGGA,130844,2449.2184,N,08028.5701,W,1,8,1.8,15,"
"##MN-00 00 90 0258 01860 5486 421214 915831 195"
"159.547813"
"$GPGGA,130848,2449.2191,N,08028.5693,W,1,8,2.2,16,"
"##MN-00 00 90 0258 01860 5487 421592 915829 195"
"159.547859"
"$GPGGA,130852,2449.2200,N,08028.5687,W,1,8,1.8,16,"
"##MN-00 00 90 0258 01859 5487 422124 915828 195"
"159.547905"
"$GPGGA,130856,2449.2207,N,08028.5679,W,1,8,1.8,16,"
"##MN-00 00 90 0258 01860 5488 422159 915827 195"
"159.547951"
"$GPGGA,130900,2449.2215,N,08028.5670,W,1,8,1.8,15,"
"##MN-00 00 90 0258 01857 5488 422581 915826 195"
"159.547998"
"$GPGGA,130904,2449.2222,N,08028.5663,W,1,8,1.8,15,"
"##MN-00 00 90 0258 01859 5489 422520 915825 195"
"159.548044"
"$GPGGA,130908,2449.2229,N,08028.5655,W,1,8,1.8,15,"
"##MN-00 00 90 0258 01858 5489 422795 915824 195"
"159.54809"
"$GPGGA,130912,2449.2236,N,08028.5647,W,1,8,1.8,15,"
"##MN-00 00 90 0258 01857 5490 423386 915821 195"
"159.548137"
"$GPGGA,130916,2449.2243,N,08028.5639,W,1,8,1.8,15,"
"##MN-00 00 90 0258 01859 5490 424289 915821 195"
"159.548183"
"$GPGGA,130920,2449.2250,N,08028.5631,W,1,8,1.8,15,"
"##MN-00 00 90 0258 01857 5491 424463 915818 195"
"159.548229"
"$GPGGA,130924,2449.2258,N,08028.5623,W,1,8,1.8,15,"
"##MN-00 00 90 0258 01857 5491 424723 915815 195"
"159.548275"
"$GPGGA,130928,2449.2265,N,08028.5615,W,1,8,1.8,15,"
"##MN-00 00 90 0258 01860 5492 424780 915823 195"
"159.548333"
"$GPGGA,130932,2449.2272,N,08028.5608,W,1,8,1.8,15,"
"##MN-00 00 90 0258 01859 5492 424624 915819 195"
"159.54838"
"$GPGGA,130936,2449.2283,N,08028.5605,W,1,7,1.8,14,"
"##MN-00 00 90 0258 01859 5493 424861 915815 195"
"159.548426"
"$GPGGA,130940,2449.2293,N,08028.5599,W,1,8,1.8,14,"
"##MN-00 00 90 0258 01856 5493 425057 915820 195"
"159.548472"
"$GPGGA,130944,2449.2300,N,08028.5591,W,1,8,1.8,13,"
"##MN-00 00 90 0258 01859 5494 424463 915821 195"
"159.548518"
"$GPGGA,130948,2449.2307,N,08028.5581,W,1,8,1.8,13,"
"##MN-00 00 90 0258 01860 5494 425011 915814 195"
"159.548565"
"$GPGGA,130952,2449.2314,N,08028.5571,W,1,8,1.8,13,"
"##MN-00 00 90 0258 01858 5495 425892 915813 195"
"159.548611"
"$GPGGA,130956,2449.2322,N,08028.5562,W,1,8,1.8,13,"
"##MN-00 00 90 0258 01858 5495 426346 915813 195"
"159.548657"
"$GPGGA,131000,2449.2329,N,08028.5553,W,1,8,1.8,13,"
"##MN-00 00 90 0258 01858 5496 426720 915813 195"
"159.548704"
"$GPGGA,131004,2449.2336,N,08028.5545,W,1,8,1.8,13,"
"##MN-00 00 90 0258 01860 5496 426550 915812 195"
"159.54875"
"$GPGGA,131008,2449.2344,N,08028.5537,W,1,8,1.8,13,"
"##MN-00 00 90 0258 01859 5497 425952 915811 195"
"159.548796"
"$GPGGA,131012,2449.2352,N,08028.5528,W,1,8,1.8,13,"
"##MN-00 00 90 0258 01858 5497 425674 915813 195"
"159.548843"
"$GPGGA,131016,2449.2363,N,08028.5518,W,1,7,2.0,13,"
"##MN-00 00 90 0258 01859 5498 425864 915808 195"
"159.548889"
"$GPGGA,131020,2449.2370,N,08028.5510,W,1,7,1.9,13,"
"##MN-00 00 90 0258 01859 5498 425767 915804 195"
"159.548935"
"$GPGGA,131024,2449.2380,N,08028.5500,W,1,8,1.8,13,"
"##MN-00 00 90 0258 01860 5499 425687 915807 195"
"159.548981"
"$GPGGA,131028,2449.2388,N,08028.5491,W,1,8,1.8,14,"
"##MN-00 00 90 0258 01859 5499 425138 915807 195"
"159.549028"
"$GPGGA,131032,2449.2398,N,08028.5483,W,1,8,1.8,14,"
"##MN-00 00 90 0258 01858 5499 424596 915804 195"
"159.549074"
"$GPGGA,131036,2449.2406,N,08028.5474,W,1,8,1.8,14,"
"##MN-00 00 90 0258 01860 5500 425417 915802 195"
"159.54912"
"$GPGGA,131040,2449.2415,N,08028.5465,W,1,8,1.8,15,"
"##MN-00 00 90 0258 01858 5500 425497 915801 195"
"159.549167"
"$GPGGA,131044,2449.2423,N,08028.5457,W,1,8,1.8,15,"
"##MN-00 00 90 0258 01858 5501 425569 915793 195"
"159.549213"
"$GPGGA,131048,2449.2431,N,08028.5449,W,1,8,1.8,15,"
"##MN-00 00 90 0258 01856 5502 425441 915794 195"
"159.549259"
"$GPGGA,131052,2449.2439,N,08028.5441,W,1,8,1.8,15,"
"##MN-00 00 90 0258 01858 5502 425553 915793 195"
"159.549306"
"$GPGGA,131056,2449.2446,N,08028.5433,W,1,8,1.8,15,"
"##MN-00 00 90 0258 01858 5503 425790 915790 195"
"159.549352"
"$GPGGA,131100,2449.2455,N,08028.5425,W,1,8,1.9,15,"
"##MN-00 00 90 0258 01859 5503 425598 915791 195"
"159.549398"
"$GPGGA,131104,2449.2463,N,08028.5416,W,1,8,1.8,15,"
"##MN-00 00 90 0258 01859 5504 425007 915789 195"
"159.549444"
"$GPGGA,131108,2449.2470,N,08028.5410,W,1,7,1.9,15,"
"##MN-00 00 90 0258 01859 5504 424814 915786 195"
"159.549491"
"$GPGGA,131112,2449.2475,N,08028.5402,W,1,7,1.9,15,"
"##MN-00 00 90 0258 01857 5504 424641 915786 195"
"159.549537"
"$GPGGA,131116,2449.2486,N,08028.5392,W,1,7,1.8,15,"
"##MN-00 00 90 0258 01858 5505 424498 915783 195"
"159.549583"
"$GPGGA,131120,2449.2496,N,08028.5382,W,1,8,1.8,15,"
"##MN-00 00 90 0258 01859 5505 424901 915782 195"
"159.54963"
"$GPGGA,131124,2449.2507,N,08028.5373,W,1,8,1.9,15,"
"##MN-00 00 90 0258 01858 5506 424630 915780 195"
"159.549676"
"$GPGGA,131128,2449.2514,N,08028.5365,W,1,8,1.9,15,"
"##MN-00 00 90 0258 01858 5506 424427 915779 195"
"159.549722"
"$GPGGA,131132,2449.2522,N,08028.5357,W,1,8,1.9,15,"
"##MN-00 00 90 0258 01857 5507 424212 915778 195"
"159.549769"
"$GPGGA,131136,2449.2531,N,08028.5349,W,1,8,1.9,15,"
"##MN-00 00 90 0258 01857 5507 423806 915776 195"
"159.549815"
"$GPGGA,131140,2449.2538,N,08028.5342,W,1,8,1.9,15,"
"##MN-00 00 90 0258 01859 5508 423773 915775 195"
"159.549861"
"$GPGGA,131144,2449.2544,N,08028.5335,W,1,8,1.9,15,"
"##MN-00 00 90 0258 01859 5508 423340 915772 195"
"159.549907"
"$GPGGA,131148,2449.2553,N,08028.5329,W,1,8,1.9,15,"
"##MN-00 00 90 0258 01858 5509 423105 915772 195"
"159.549954"
"$GPGGA,131152,2449.2560,N,08028.5322,W,1,8,1.9,15,"
"##MN-00 00 90 0258 01857 5509 424609 915768 195"
"159.55"
"$GPGGA,131156,2449.2568,N,08028.5314,W,1,8,1.9,15,"
"##MN-00 00 90 0258 01859 5509 425253 915768 195"
"159.550046"
"$GPGGA,131200,2449.2576,N,08028.5306,W,1,8,1.9,15,"
"##MN-00 00 90 0258 01855 5510 424659 915768 195"
"159.550093"
"$GPGGA,131204,2449.2583,N,08028.5298,W,1,8,1.9,15,"
"##MN-00 00 90 0258 01861 5511 425490 915769 195"
"159.550139"
"$GPGGA,131208,2449.2592,N,08028.5290,W,1,8,1.9,15,"
"##MN-00 00 90 0258 01861 5511 426046 915766 195"
"159.550185"
"$GPGGA,131212,2449.2600,N,08028.5283,W,1,8,1.9,14,"
"##MN-00 00 90 0258 01859 5511 426733 915766 195"
"159.550231"
"$GPGGA,131216,2449.2607,N,08028.5275,W,1,8,1.9,14,"
"##MN-00 00 90 0258 01858 5512 426140 915762 195"
"159.550278"
"$GPGGA,131221,2449.2616,N,08028.5266,W,1,8,1.9,14,"
"##MN-00 00 90 0258 01857 5512 425777 915762 195"
"159.550324"
"$GPGGA,131225,2449.2625,N,08028.5258,W,1,8,1.9,14,"
"##MN-00 00 90 0258 01859 5513 426450 915761 195"
"159.55037"
"$GPGGA,131229,2449.2633,N,08028.5251,W,1,8,1.9,14,"
"##MN-00 00 90 0258 01858 5513 426387 915761 195"
"159.550417"
"$GPGGA,131233,2449.2640,N,08028.5244,W,1,8,1.9,14,"
"##MN-00 00 90 0258 01859 5514 426334 915758 195"
"159.550463"
"$GPGGA,131237,2449.2648,N,08028.5237,W,1,8,1.9,14,"
"##MN-00 00 90 0258 01859 5514 426252 915755 195"
"159.550509"
"$GPGGA,131241,2449.2655,N,08028.5230,W,1,8,1.9,14,"
"##MN-00 00 90 0258 01860 5515 425482 915756 195"
"159.550556"
"$GPGGA,131245,2449.2663,N,08028.5223,W,1,8,1.9,14,"
"##MN-00 00 90 0258 01856 5515 424636 915754 195"
"159.550602"
"$GPGGA,131249,2449.2670,N,08028.5216,W,1,8,1.9,14,"
"##MN-00 00 90 0258 01858 5516 424181 915753 195"
"159.550648"
"$GPGGA,131253,2449.2679,N,08028.5209,W,1,8,1.9,14,"
"##MN-00 00 90 0258 01858 5516 424340 915751 195"
"159.550694"
"$GPGGA,131257,2449.2687,N,08028.5202,W,1,8,1.9,14,"
"##MN-00 00 90 0258 01859 5516 424268 915750 195"
"159.550741"
"$GPGGA,131301,2449.2695,N,08028.5195,W,1,8,1.9,14,"
"##MN-00 00 90 0258 01857 5517 424569 915748 195"
"159.550787"
"$GPGGA,131305,2449.2702,N,08028.5188,W,1,8,1.9,14,"
"##MN-00 00 90 0258 01857 5517 424501 915745 195"
"159.550833"
"$GPGGA,131309,2449.2710,N,08028.5182,W,1,8,1.9,14,"
"##MN-00 00 90 0258 01858 5518 425025 915744 195"
"159.55088"
"$GPGGA,131313,2449.2717,N,08028.5175,W,1,8,1.9,14,"
"##MN-00 00 90 0258 01857 5519 426045 915743 195"
"159.550926"
"$GPGGA,131317,2449.2724,N,08028.5168,W,1,8,1.9,14,"
"##MN-00 00 90 0258 01860 5519 426484 915741 195"
"159.550972"
"$GPGGA,131321,2449.2734,N,08028.5162,W,1,8,1.9,14,"
"##MN-00 00 90 0258 01856 5519 426601 915740 195"
"159.551019"
"$GPGGA,131325,2449.2742,N,08028.5156,W,1,8,1.9,14,"
"##MN-00 00 90 0258 01859 5520 426615 915739 195"
"159.551065"
"$GPGGA,131329,2449.2751,N,08028.5149,W,1,8,1.9,14,"
"##MN-00 00 90 0258 01858 5521 425299 915736 195"
"159.551111"
"$GPGGA,131333,2449.2759,N,08028.5142,W,1,8,1.9,14,"
"##MN-00 00 90 0258 01859 5521 424668 915734 195"
"159.551157"
"$GPGGA,131337,2449.2767,N,08028.5136,W,1,8,1.9,13,"
"##MN-00 00 90 0258 01858 5522 425419 915733 195"
"159.551204"
"$GPGGA,131341,2449.2775,N,08028.5130,W,1,8,1.9,13,"
"##MN-00 00 90 0258 01859 5522 425843 915733 195"
"159.55125"
"$GPGGA,131345,2449.2782,N,08028.5123,W,1,8,1.9,13,"
"##MN-00 00 90 0258 01858 5523 426114 915732 195"
"159.551296"
"$GPGGA,131349,2449.2792,N,08028.5118,W,1,8,1.9,13,"
"##MN-00 00 90 0258 01858 5523 425642 915734 195"
"159.551343"
"$GPGGA,131353,2449.2800,N,08028.5112,W,1,8,1.9,13,"
"##MN-00 00 90 0258 01858 5524 425221 915741 195"
"159.551389"
"$GPGGA,131357,2449.2807,N,08028.5105,W,1,8,1.9,13,"
"##MN-00 00 90 0258 01857 5524 424210 915739 195"
"159.551447"
"$GPGGA,131401,2449.2817,N,08028.5097,W,1,8,1.9,13,"
"##MN-00 00 90 0258 01858 5525 423285 915739 195"
"159.551493"
"$GPGGA,131405,2449.2825,N,08028.5091,W,1,8,1.9,13,"
"##MN-00 00 90 0258 01859 5525 423075 915736 195"
"159.551539"
"$GPGGA,131409,2449.2832,N,08028.5084,W,1,8,1.9,13,"
"##MN-00 00 90 0258 01861 5526 423869 915732 195"
"159.551586"
"$GPGGA,131413,2449.2840,N,08028.5077,W,1,8,1.9,13,"
"##MN-00 00 90 0258 01861 5527 423797 915731 195"
"159.551632"
