" Tow: L8s-A   RVWS/WS1406"
" Date: 06/08/2014"
" Temperature Probe #  2597    Conductivity Probe #  2870"
" Pressure Probe #  109"
" Flow Meter Calibration  4.71 (m/count)  "
"159.501273"
"$GPGGA,120143,2445.8046,N,08028.0262,W,1,8,2.0,11,"
"##MN-00 00 40 0091 01904 5326 424962 840231 197"
"159.501319"
"$GPGGA,120151,2445.8100,N,08028.0253,W,1,8,2.0,11,"
"##MN-00 00 40 0091 01905 5327 438267 347320 197"
"159.501366"
"$GPGGA,120155,2445.8127,N,08028.0249,W,1,8,2.0,10,"
"##MN-00 00 40 0092 01907 5328 438328 347384 197"
"159.501412"
"$GPGGA,120159,2445.8153,N,08028.0244,W,1,8,2.0,10,"
"##MN-00 00 40 0092 01914 5328 438552 347430 197"
"159.501458"
"$GPGGA,120203,2445.8178,N,08028.0242,W,1,8,2.0,10,"
"##MN-00 00 41 0093 01925 5329 438934 347522 197"
"159.501516"
"$GPGGA,120207,2445.8208,N,08028.0237,W,1,9,1.5,10,"
"##MN-00 00 42 0093 01932 5330 439734 347731 197"
"159.501563"
"$GPGGA,120211,2445.8237,N,08028.0233,W,1,9,1.5,11,"
"##MN-00 00 40 0094 01939 5331 440705 348001 197"
"159.501609"
"$GPGGA,120215,2445.8261,N,08028.0229,W,1,8,2.0,11,"
"##MN-00 00 40 0094 01951 5332 441097 348119 197"
"159.501655"
"$GPGGA,120219,2445.8284,N,08028.0225,W,1,9,1.5,11,"
"##MN-00 00 40 0095 01960 5332 441879 348371 197"
"159.501701"
"$GPGGA,120223,2445.8308,N,08028.0221,W,1,9,1.5,11,"
"##MN-00 00 39 0095 01969 5333 442467 348543 197"
"159.501748"
"$GPGGA,120227,2445.8335,N,08028.0216,W,1,8,1.6,11,"
"##MN-00 00 39 0095 01976 5334 442952 348702 197"
"159.501794"
"$GPGGA,120231,2445.8363,N,08028.0213,W,1,9,1.5,11,"
"##MN-00 00 39 0096 01986 5335 443627 348937 197"
"159.50184"
"$GPGGA,120235,2445.8392,N,08028.0206,W,1,8,1.6,12,"
"##MN-00 00 37 0096 01988 5335 444180 349173 197"
"159.501887"
"$GPGGA,120239,2445.8416,N,08028.0197,W,1,9,1.5,12,"
"##MN-00 00 35 0097 01988 5336 444243 349188 197"
"159.501933"
"$GPGGA,120243,2445.8442,N,08028.0193,W,1,9,1.5,13,"
"##MN-00 00 34 0097 01987 5336 444411 349234 197"
"159.501979"
"$GPGGA,120247,2445.8467,N,08028.0189,W,1,9,1.5,13,"
"##MN-00 00 34 0098 01989 5337 444425 349223 197"
"159.502025"
"$GPGGA,120251,2445.8489,N,08028.0185,W,1,9,1.5,14,"
"##MN-00 00 34 0099 01986 5337 444374 349231 197"
"159.502072"
"$GPGGA,120255,2445.8512,N,08028.0182,W,1,8,1.6,14,"
"##MN-00 00 34 0099 01987 5338 444317 349220 197"
"159.502118"
"$GPGGA,120259,2445.8537,N,08028.0182,W,1,8,1.6,15,"
"##MN-00 00 34 0100 01985 5339 444224 349173 197"
"159.502164"
"$GPGGA,120303,2445.8562,N,08028.0182,W,1,8,1.6,15,"
"##MN-00 00 36 0100 01981 5339 443999 349093 197"
"159.502211"
"$GPGGA,120307,2445.8590,N,08028.0183,W,1,8,1.6,15,"
"##MN-00 00 37 0101 01977 5340 443780 349115 197"
"159.502257"
"$GPGGA,120311,2445.8620,N,08028.0185,W,1,9,1.4,16,"
"##MN-00 00 38 0102 01974 5340 443372 349068 197"
"159.502303"
"$GPGGA,120315,2445.8647,N,08028.0191,W,1,8,1.6,16,"
"##MN-00 00 40 0102 01967 5341 443056 348913 197"
"159.50235"
"$GPGGA,120319,2445.8674,N,08028.0195,W,1,8,1.6,16,"
"##MN-00 00 40 0103 01964 5341 442747 348783 197"
"159.502396"
"$GPGGA,120323,2445.8703,N,08028.0199,W,1,8,1.6,16,"
"##MN-00 00 42 0104 01962 5342 442394 348735 197"
"159.502442"
"$GPGGA,120327,2445.8731,N,08028.0206,W,1,9,1.4,16,"
"##MN-00 00 43 0105 01958 5342 442005 348621 197"
"159.502488"
"$GPGGA,120331,2445.8759,N,08028.0213,W,1,9,1.4,16,"
"##MN-00 00 45 0106 01957 5342 441671 348527 197"
"159.502535"
"$GPGGA,120335,2445.8786,N,08028.0222,W,1,8,2.0,16,"
"##MN-00 00 46 0107 01955 5343 441393 348383 197"
"159.502581"
"$GPGGA,120339,2445.8812,N,08028.0229,W,1,8,2.0,16,"
"##MN-00 00 49 0107 01954 5343 441115 348309 197"
"159.502627"
"$GPGGA,120343,2445.8839,N,08028.0238,W,1,8,2.0,16,"
"##MN-00 00 49 0108 01959 5344 440950 348248 197"
"159.502674"
"$GPGGA,120347,2445.8866,N,08028.0246,W,1,8,2.0,16,"
"##MN-00 00 51 0109 01959 5344 440972 348239 197"
"159.50272"
"$GPGGA,120351,2445.8895,N,08028.0256,W,1,8,2.0,16,"
"##MN-00 00 52 0110 01962 5345 441171 348262 197"
"159.502766"
"$GPGGA,120355,2445.8926,N,08028.0264,W,1,8,2.0,16,"
"##MN-00 00 52 0111 01963 5345 441462 348314 197"
"159.502813"
"$GPGGA,120359,2445.8955,N,08028.0275,W,1,8,2.0,16,"
"##MN-00 00 53 0112 01966 5346 441696 348374 197"
"159.502859"
"$GPGGA,120403,2445.8985,N,08028.0286,W,1,8,2.0,16,"
"##MN-00 00 54 0113 01969 5346 441888 348387 197"
"159.502905"
"$GPGGA,120407,2445.9017,N,08028.0298,W,1,9,1.4,16,"
"##MN-00 00 54 0113 01971 5346 442063 348445 197"
"159.502951"
"$GPGGA,120411,2445.9050,N,08028.0311,W,1,9,1.4,16,"
"##MN-00 00 54 0114 01972 5346 442324 348497 197"
"159.502998"
"$GPGGA,120415,2445.9079,N,08028.0322,W,1,9,1.4,16,"
"##MN-00 00 53 0116 01969 5347 442479 348520 197"
"159.503044"
"$GPGGA,120419,2445.9110,N,08028.0333,W,1,9,1.4,16,"
"##MN+00 00 53 0117 01965 5347 442555 348556 197"
"159.50309"
"$GPGGA,120424,2445.9147,N,08028.0350,W,1,9,1.4,16,"
"##MN+00 00 54 0118 01962 5348 442592 348606 197"
"159.503137"
"$GPGGA,120427,2445.9169,N,08028.0361,W,1,9,1.4,16,"
"##MN+00 00 55 0119 01958 5348 442595 348582 197"
"159.503183"
"$GPGGA,120432,2445.9209,N,08028.0377,W,1,9,1.4,16,"
"##MN-00 00 55 0120 01957 5348 442548 348601 196"
"159.503229"
"$GPGGA,120436,2445.9240,N,08028.0390,W,1,8,2.0,16,"
"##MN-00 00 56 0121 01952 5349 442337 348572 197"
"159.503275"
"$GPGGA,120440,2445.9272,N,08028.0405,W,1,8,2.0,15,"
"##MN-00 00 57 0122 01950 5349 441932 348563 197"
"159.503322"
"$GPGGA,120444,2445.9303,N,08028.0419,W,1,8,2.0,15,"
"##MN-00 00 58 0124 01950 5349 441599 348548 197"
"159.503368"
"$GPGGA,120448,2445.9334,N,08028.0434,W,1,8,2.0,15,"
"##MN-00 00 58 0125 01950 5349 441364 348423 196"
"159.503414"
"$GPGGA,120452,2445.9367,N,08028.0449,W,1,8,2.0,15,"
"##MN-00 00 59 0126 01954 5350 441312 348427 196"
"159.503461"
"$GPGGA,120456,2445.9400,N,08028.0464,W,1,8,1.4,15,"
"##MN-00 00 60 0127 01956 5350 441413 348334 196"
"159.503507"
"$GPGGA,120500,2445.9436,N,08028.0480,W,1,9,1.4,15,"
"##MN-00 00 60 0128 01957 5350 441630 348342 196"
"159.503553"
"$GPGGA,120504,2445.9468,N,08028.0498,W,1,9,1.6,15,"
"##MN-00 00 60 0129 01960 5351 441880 348349 196"
"159.5036"
"$GPGGA,120508,2445.9500,N,08028.0516,W,1,8,1.6,15,"
"##MN-00 00 60 0130 01962 5351 442235 348389 196"
"159.503646"
"$GPGGA,120512,2445.9530,N,08028.0529,W,1,8,1.4,15,"
"##MN-00 00 61 0131 01965 5351 442503 348405 196"
"159.503692"
"$GPGGA,120516,2445.9563,N,08028.0545,W,1,8,1.4,15,"
"##MN-00 00 61 0133 01966 5351 442725 348484 196"
"159.503738"
"$GPGGA,120520,2445.9595,N,08028.0563,W,1,9,1.4,15,"
"##MN-00 00 60 0134 01969 5352 442951 348531 196"
"159.503785"
"$GPGGA,120524,2445.9628,N,08028.0579,W,1,8,1.6,15,"
"##MN-00 00 61 0135 01971 5352 443307 348510 196"
"159.503831"
"$GPGGA,120528,2445.9660,N,08028.0594,W,1,8,1.4,15,"
"##MN-00 00 61 0136 01972 5352 443873 348576 196"
"159.503877"
"$GPGGA,120532,2445.9692,N,08028.0607,W,1,8,2.0,15,"
"##MN-00 00 61 0137 01977 5352 444289 348770 196"
"159.503924"
"$GPGGA,120536,2445.9724,N,08028.0621,W,1,8,2.0,15,"
"##MN-00 00 61 0138 01979 5352 444625 349021 196"
"159.50397"
"$GPGGA,120540,2445.9755,N,08028.0637,W,1,7,2.0,14,"
"##MN-00 00 61 0140 01979 5353 444801 349158 196"
"159.504016"
"$GPGGA,120544,2445.9787,N,08028.0655,W,1,7,2.3,14,"
"##MN-00 00 60 0141 01976 5353 444853 349143 196"
"159.504062"
"$GPGGA,120548,2445.9819,N,08028.0669,W,1,7,2.3,14,"
"##MN+00 00 61 0142 01976 5353 444872 349209 196"
"159.504109"
"$GPGGA,120552,2445.9855,N,08028.0677,W,1,8,2.0,14,"
"##MN+00 00 61 0143 01977 5353 444876 349209 197"
"159.504155"
"$GPGGA,120556,2445.9890,N,08028.0688,W,1,8,2.0,14,"
"##MN+00 00 72 0145 01978 5353 444865 349291 196"
"159.504201"
"$GPGGA,120600,2445.9921,N,08028.0702,W,1,8,2.0,15,"
"##MN-00 00 63 0146 01977 5353 444851 349287 196"
"159.504248"
"$GPGGA,120604,2445.9953,N,08028.0717,W,1,8,2.0,16,"
"##MN-00 00 60 0147 01973 5354 444851 349294 196"
"159.504294"
"#increment_net"
"$GPGGA,120608,2445.9986,N,08028.0733,W,1,8,2.0,16,"
"##MN-00 00 60 0148 01974 5354 444803 349302 196"
"159.504352"
"$GPGGA,120612,2446.0018,N,08028.0748,W,1,8,2.0,16,"
"##MN+00 00 60 0149 01971 5354 444512 349289 196"
"159.504398"
"$GPGGA,120616,2446.0049,N,08028.0763,W,1,8,2.0,17,"
"##MN+00 00 60 0151 01971 5355 444027 349262 197"
"159.504444"
"$GPGGA,120620,2446.0079,N,08028.0777,W,1,8,2.0,17,"
"##MN+00 00 60 0152 01968 5355 443602 349240 197"
"159.504491"
"$GPGGA,120624,2446.0111,N,08028.0793,W,1,8,2.0,17,"
"##MN-00 00 60 0153 01967 5355 443298 349094 196"
"159.504537"
"$GPGGA,120628,2446.0141,N,08028.0809,W,1,8,2.0,17,"
"##MN-00 00 60 0154 01968 5355 443111 349037 196"
"159.504583"
"$GPGGA,120632,2446.0173,N,08028.0822,W,1,8,2.0,17,"
"##MN-00 00 61 0155 01967 5355 442995 348921 196"
"159.50463"
"$GPGGA,120636,2446.0205,N,08028.0838,W,1,8,2.0,17,"
"##MN-00 00 61 0157 01966 5355 442941 348878 196"
"159.504676"
"$GPGGA,120640,2446.0235,N,08028.0852,W,1,8,2.0,17,"
"##MN-00 00 61 0158 01967 5355 442926 348870 196"
"159.504722"
"$GPGGA,120644,2446.0267,N,08028.0865,W,1,8,2.0,17,"
"##MN-00 00 61 0159 01965 5355 442919 348842 196"
"159.504769"
"$GPGGA,120648,2446.0299,N,08028.0879,W,1,8,2.0,17,"
"##MN-00 00 61 0160 01968 5355 442914 348816 196"
"159.504815"
"$GPGGA,120652,2446.0331,N,08028.0892,W,1,8,2.0,17,"
"##MN-00 00 61 0161 01965 5355 442911 348794 196"
"159.504861"
"$GPGGA,120656,2446.0361,N,08028.0907,W,1,8,2.0,17,"
"##MN-00 00 61 0162 01967 5355 442906 348799 196"
"159.504907"
"$GPGGA,120700,2446.0394,N,08028.0921,W,1,8,2.0,17,"
"##MN-00 00 62 0164 01967 5355 442903 348774 196"
"159.504954"
"$GPGGA,120704,2446.0426,N,08028.0933,W,1,8,2.0,17,"
"##MN-00 00 61 0165 01968 5355 442905 348749 196"
"159.505"
"$GPGGA,120708,2446.0457,N,08028.0947,W,1,8,2.0,17,"
"##MN-00 00 61 0166 01968 5355 442919 348779 196"
"159.505046"
"$GPGGA,120712,2446.0488,N,08028.0961,W,1,8,2.0,17,"
"##MN-00 00 61 0167 01966 5355 442927 348795 196"
"159.505093"
"$GPGGA,120716,2446.0519,N,08028.0975,W,1,8,2.0,17,"
"##MN-00 00 61 0168 01967 5355 442926 348790 196"
"159.505139"
"$GPGGA,120720,2446.0549,N,08028.0988,W,1,8,2.0,17,"
"##MN-00 00 61 0170 01966 5355 442928 348783 196"
"159.505185"
"$GPGGA,120724,2446.0581,N,08028.1002,W,1,8,2.0,17,"
"##MN-00 00 61 0171 01967 5356 442927 348774 196"
"159.505231"
"$GPGGA,120728,2446.0610,N,08028.1022,W,1,7,2.3,17,"
"##MN-00 00 61 0172 01967 5355 442926 348749 196"
"159.505278"
"$GPGGA,120732,2446.0640,N,08028.1037,W,1,8,2.0,17,"
"##MN-00 00 61 0173 01964 5356 442872 348731 196"
"159.505324"
"$GPGGA,120736,2446.0672,N,08028.1051,W,1,7,2.3,16,"
"##MN-00 00 62 0174 01967 5356 442794 348722 196"
"159.50537"
"$GPGGA,120740,2446.0705,N,08028.1067,W,1,7,2.3,16,"
"##MN-00 00 61 0175 01968 5356 442656 348715 196"
"159.505417"
"$GPGGA,120744,2446.0739,N,08028.1082,W,1,7,2.3,15,"
"##MN-00 00 63 0176 01970 5356 442506 348697 196"
"159.505463"
"$GPGGA,120748,2446.0773,N,08028.1094,W,1,8,1.9,15,"
"##MN-00 00 62 0178 01973 5355 442320 348669 196"
"159.505509"
"$GPGGA,120752,2446.0806,N,08028.1105,W,1,8,2.3,15,"
"##MN-00 00 62 0179 01978 5356 442226 348644 196"
"159.505556"
"$GPGGA,120756,2446.0840,N,08028.1121,W,1,7,2.3,15,"
"##MN-00 00 62 0180 01978 5356 442286 348613 196"
"159.505602"
"$GPGGA,120800,2446.0871,N,08028.1136,W,1,7,2.3,15,"
"##MN-00 00 62 0181 01975 5356 442459 348629 196"
"159.505648"
"$GPGGA,120804,2446.0905,N,08028.1150,W,1,7,2.3,15,"
"##MN-00 00 61 0182 01977 5356 442512 348610 196"
"159.505694"
"$GPGGA,120808,2446.0938,N,08028.1164,W,1,7,2.3,14,"
"##MN-00 00 62 0183 01978 5356 442568 348597 196"
"159.505741"
"$GPGGA,120812,2446.0972,N,08028.1174,W,1,7,2.3,14,"
"##MN+00 00 62 0185 01979 5356 442664 348630 196"
"159.505787"
"$GPGGA,120816,2446.1004,N,08028.1189,W,1,7,2.3,14,"
"##MN+00 00 61 0186 01979 5356 442808 348689 196"
"159.505833"
"$GPGGA,120820,2446.1033,N,08028.1203,W,1,7,1.9,14,"
"##MN+00 00 73 0187 01984 5356 443041 348724 197"
"159.50588"
"$GPGGA,120824,2446.1065,N,08028.1217,W,1,7,2.3,14,"
"##MN-00 00 64 0188 01984 5356 443596 348851 197"
"159.505926"
"#increment_net"
"$GPGGA,120829,2446.1105,N,08028.1230,W,1,8,1.9,13,"
"##MN-00 00 62 0189 01985 5355 444052 348909 197"
"159.505972"
"$GPGGA,120833,2446.1140,N,08028.1239,W,1,8,1.9,14,"
"##MN-00 00 60 0191 01983 5356 444442 349105 197"
"159.506019"
"$GPGGA,120837,2446.1173,N,08028.1248,W,1,8,1.9,14,"
"##MN-00 00 60 0192 01982 5356 444602 349096 197"
"159.506065"
"$GPGGA,120841,2446.1205,N,08028.1261,W,1,7,2.3,14,"
"##MN-00 00 59 0193 01981 5356 444687 349119 197"
"159.506111"
"$GPGGA,120844,2446.1228,N,08028.1272,W,1,7,2.3,14,"
"##MN-00 00 60 0194 01981 5356 444756 349163 197"
"159.506157"
"$GPGGA,120849,2446.1271,N,08028.1286,W,1,7,2.3,14,"
"##MN-00 00 60 0196 01981 5356 444791 349188 197"
"159.506204"
"$GPGGA,120853,2446.1304,N,08028.1297,W,1,7,2.3,13,"
"##MN-00 00 60 0197 01981 5356 444820 349208 197"
"159.50625"
"$GPGGA,120857,2446.1337,N,08028.1308,W,1,7,2.3,13,"
"##MN-00 00 58 0198 01982 5356 444834 349253 197"
"159.506296"
"$GPGGA,120901,2446.1371,N,08028.1318,W,1,7,2.3,13,"
"##MN-00 00 59 0199 01980 5356 444842 349289 197"
"159.506343"
"$GPGGA,120905,2446.1404,N,08028.1329,W,1,7,2.3,12,"
"##MN-00 00 58 0200 01981 5356 444846 349334 197"
"159.506389"
"$GPGGA,120909,2446.1438,N,08028.1338,W,1,7,2.3,12,"
"##MN-00 00 59 0202 01983 5356 444840 349362 197"
"159.506435"
"$GPGGA,120913,2446.1473,N,08028.1346,W,1,7,1.9,12,"
"##MN-00 00 61 0203 01982 5356 444822 349384 197"
"159.506481"
"$GPGGA,120917,2446.1507,N,08028.1351,W,1,8,1.9,12,"
"##MN-00 00 60 0204 01981 5356 444803 349380 197"
"159.506528"
"$GPGGA,120921,2446.1541,N,08028.1359,W,1,8,2.3,13,"
"##MN-00 00 60 0205 01983 5356 444787 349382 197"
"159.506574"
"$GPGGA,120925,2446.1572,N,08028.1367,W,1,8,2.3,13,"
"##MN-00 00 59 0206 01986 5356 444773 349383 197"
"159.50662"
"$GPGGA,120929,2446.1604,N,08028.1376,W,1,7,2.3,13,"
"##MN-00 00 58 0208 01987 5356 444759 349383 197"
"159.506667"
"$GPGGA,120933,2446.1639,N,08028.1383,W,1,8,1.9,14,"
"##MN-00 00 60 0209 01987 5355 444741 349381 197"
"159.506713"
"$GPGGA,120937,2446.1672,N,08028.1388,W,1,8,1.9,14,"
"##MN-00 00 58 0210 01988 5356 444695 349376 197"
"159.506759"
"$GPGGA,120941,2446.1704,N,08028.1398,W,1,8,1.9,14,"
"##MN-00 00 58 0211 01991 5356 444651 349371 197"
"159.506806"
"$GPGGA,120945,2446.1734,N,08028.1406,W,1,8,1.9,15,"
"##MN-00 00 58 0212 01992 5355 444591 349363 197"
"159.506852"
"$GPGGA,120949,2446.1766,N,08028.1414,W,1,8,1.9,15,"
"##MN-00 00 58 0213 01992 5356 444553 349350 197"
"159.506898"
"$GPGGA,120953,2446.1796,N,08028.1421,W,1,8,1.9,15,"
"##MN-00 00 58 0214 01995 5356 444577 349348 197"
"159.506944"
"$GPGGA,120957,2446.1825,N,08028.1431,W,1,8,1.9,15,"
"##MN-00 00 58 0216 01995 5356 444625 349348 197"
"159.506991"
"$GPGGA,121001,2446.1856,N,08028.1439,W,1,8,1.9,15,"
"##MN-00 00 58 0217 01996 5355 444659 349349 197"
"159.507037"
"$GPGGA,121005,2446.1885,N,08028.1447,W,1,8,1.9,15,"
"##MN+00 00 56 0218 01993 5355 444662 349355 197"
"159.507083"
"$GPGGA,121009,2446.1915,N,08028.1456,W,1,8,1.9,15,"
"##MN+00 00 57 0219 01990 5355 444485 349348 197"
"159.50713"
"$GPGGA,121013,2446.1944,N,08028.1463,W,1,8,1.9,15,"
"##MN+00 00 57 0220 01986 5356 443889 349339 195"
"159.507176"
"$GPGGA,121017,2446.1973,N,08028.1470,W,1,8,1.9,15,"
"##MN-00 00 56 0222 01982 5355 443352 349174 196"
"159.507222"
"$GPGGA,121021,2446.2001,N,08028.1478,W,1,8,1.9,15,"
"##MN+00 00 57 0223 01981 5355 443035 349099 197"
"159.507269"
"$GPGGA,121025,2446.2030,N,08028.1485,W,1,8,1.9,14,"
"##MN+00 00 57 0224 01975 5355 442603 349016 195"
"159.507315"
"$GPGGA,121029,2446.2059,N,08028.1492,W,1,7,2.3,14,"
"##MN+00 00 70 0225 01978 5355 442067 348835 196"
"159.507361"
"$GPGGA,121033,2446.2090,N,08028.1496,W,1,8,1.9,14,"
"##MN-00 00 61 0226 01980 5355 441807 348677 197"
"159.507407"
"$GPGGA,121037,2446.2119,N,08028.1504,W,1,8,1.9,14,"
"##MN-00 00 58 0227 01978 5355 441766 348556 197"
"159.507454"
"$GPGGA,121041,2446.2149,N,08028.1510,W,1,8,1.9,13,"
"##MN-00 00 56 0228 01981 5355 441815 348534 197"
"159.507512"
"$GPGGA,121045,2446.2178,N,08028.1517,W,1,8,1.9,13,"
"##MN-00 00 56 0230 01980 5355 441895 348547 197"
"159.507558"
"#increment_net"
"$GPGGA,121049,2446.2207,N,08028.1524,W,1,8,1.9,13,"
"##MN-00 00 54 0231 01979 5355 441983 348540 197"
"159.507604"
"$GPGGA,121053,2446.2238,N,08028.1530,W,1,8,1.9,13,"
"##MN-00 00 54 0232 01978 5355 442213 348548 197"
"159.50765"
"$GPGGA,121057,2446.2267,N,08028.1537,W,1,8,1.9,13,"
"##MN-00 00 54 0233 01979 5355 442303 348571 197"
"159.507697"
"$GPGGA,121101,2446.2298,N,08028.1543,W,1,8,1.9,13,"
"##MN-00 00 54 0234 01980 5355 442416 348588 197"
"159.507743"
"$GPGGA,121105,2446.2327,N,08028.1550,W,1,8,1.9,13,"
"##MN-00 00 54 0235 01982 5355 442544 348595 197"
"159.507789"
"$GPGGA,121109,2446.2356,N,08028.1558,W,1,8,1.9,13,"
"##MN-00 00 54 0236 01981 5355 442804 348663 197"
"159.507836"
"$GPGGA,121113,2446.2387,N,08028.1566,W,1,8,1.9,13,"
"##MN-00 00 54 0237 01984 5355 442989 348688 197"
"159.507882"
"$GPGGA,121117,2446.2417,N,08028.1573,W,1,8,1.9,13,"
"##MN-00 00 54 0238 01981 5354 443087 348738 197"
"159.507928"
"$GPGGA,121121,2446.2446,N,08028.1579,W,1,8,1.9,13,"
"##MN-00 00 55 0240 01981 5355 443159 348808 197"
"159.507975"
"$GPGGA,121125,2446.2475,N,08028.1584,W,1,7,2.3,13,"
"##MN-00 00 54 0241 01982 5354 443594 348917 197"
"159.508021"
"$GPGGA,121129,2446.2504,N,08028.1593,W,1,8,1.9,13,"
"##MN-00 00 55 0242 01984 5354 444063 349074 197"
"159.508067"
"$GPGGA,121133,2446.2533,N,08028.1602,W,1,7,2.3,13,"
"##MN-00 00 54 0243 01983 5354 444354 349186 197"
"159.508113"
"$GPGGA,121137,2446.2561,N,08028.1609,W,1,7,2.3,12,"
"##MN-00 00 56 0244 01984 5354 444564 349292 197"
"159.50816"
"$GPGGA,121141,2446.2589,N,08028.1618,W,1,7,2.3,12,"
"##MN-00 00 54 0245 01986 5354 444730 349364 197"
"159.508206"
"$GPGGA,121145,2446.2616,N,08028.1626,W,1,7,2.3,12,"
"##MN-00 00 56 0246 01986 5354 444856 349411 197"
"159.508252"
"$GPGGA,121149,2446.2648,N,08028.1631,W,1,8,1.9,12,"
"##MN-00 00 54 0247 01984 5354 444967 349445 197"
"159.508299"
"$GPGGA,121153,2446.2677,N,08028.1637,W,1,7,2.3,12,"
"##MN-00 00 55 0248 01987 5354 445040 349478 197"
"159.508345"
"$GPGGA,121157,2446.2708,N,08028.1642,W,1,7,2.3,12,"
"##MN-00 00 54 0249 01988 5354 445091 349490 197"
"159.508391"
"$GPGGA,121201,2446.2738,N,08028.1648,W,1,8,1.9,12,"
"##MN+00 00 54 0250 01987 5354 445109 349504 197"
"159.508438"
"$GPGGA,121205,2446.2770,N,08028.1652,W,1,8,1.9,13,"
"##MN+00 00 54 0251 01987 5353 445093 349501 197"
"159.508484"
"$GPGGA,121209,2446.2799,N,08028.1659,W,1,8,1.9,13,"
"##MN+00 00 53 0252 01985 5354 445051 349491 196"
"159.50853"
"$GPGGA,121213,2446.2828,N,08028.1667,W,1,8,1.9,14,"
"##MN-00 00 56 0253 01985 5353 445003 349479 196"
"159.508576"
"$GPGGA,121217,2446.2856,N,08028.1677,W,1,8,1.9,14,"
"##MN-00 00 53 0254 01987 5354 444942 349464 196"
"159.508623"
"$GPGGA,121221,2446.2883,N,08028.1687,W,1,7,2.3,14,"
"##MN-00 00 55 0255 01987 5353 444891 349451 196"
"159.508669"
"$GPGGA,121225,2446.2910,N,08028.1696,W,1,7,2.3,14,"
"##MN-00 00 54 0256 01987 5353 444851 349438 196"
"159.508715"
"$GPGGA,121229,2446.2939,N,08028.1705,W,1,7,2.3,14,"
"##MN+00 00 54 0257 01987 5353 444841 349435 196"
"159.508762"
"$GPGGA,121233,2446.2969,N,08028.1712,W,1,7,2.3,13,"
"##MN+00 00 55 0258 01987 5354 444824 349432 196"
"159.508808"
"$GPGGA,121237,2446.2998,N,08028.1720,W,1,7,2.3,13,"
"##MN+00 00 64 0259 01988 5353 444761 349417 196"
"159.508854"
"$GPGGA,121241,2446.3027,N,08028.1727,W,1,7,2.3,13,"
"##MN-00 00 61 0260 01981 5353 444734 349409 195"
"159.5089"
"#increment_net"
"$GPGGA,121245,2446.3057,N,08028.1735,W,1,7,2.3,13,"
"##MN-00 00 55 0261 01975 5353 444577 349378 196"
"159.508947"
"$GPGGA,121249,2446.3087,N,08028.1743,W,1,7,2.3,13,"
"##MN-00 00 53 0263 01973 5353 444095 349274 196"
"159.508993"
"$GPGGA,121253,2446.3117,N,08028.1752,W,1,7,2.3,12,"
"##MN-00 00 55 0264 01969 5353 443587 349052 196"
"159.509039"
"$GPGGA,121257,2446.3147,N,08028.1756,W,1,8,1.9,13,"
"##MN-00 00 54 0265 01973 5352 443403 348976 196"
"159.509086"
"$GPGGA,121301,2446.3176,N,08028.1763,W,1,7,2.3,13,"
"##MN-00 00 53 0266 01970 5352 443344 348956 196"
"159.509132"
"$GPGGA,121305,2446.3204,N,08028.1774,W,1,7,2.3,13,"
"##MN-00 00 54 0267 01971 5352 443317 348951 196"
"159.509178"
"$GPGGA,121309,2446.3233,N,08028.1782,W,1,7,2.3,13,"
"##MN-00 00 54 0268 01972 5352 443290 348932 195"
"159.509225"
"$GPGGA,121314,2446.3262,N,08028.1792,W,1,7,2.3,13,"
"##MN-00 00 53 0269 01972 5352 443133 348855 195"
"159.509271"
"$GPGGA,121317,2446.3291,N,08028.1800,W,1,7,2.3,13,"
"##MN-00 00 54 0270 01972 5352 442898 348787 196"
"159.509317"
"$GPGGA,121322,2446.3327,N,08028.1810,W,1,7,2.3,13,"
"##MN-00 00 54 0271 01970 5352 442635 348728 196"
"159.509363"
"$GPGGA,121325,2446.3348,N,08028.1817,W,1,7,2.3,13,"
"##MN-00 00 53 0272 01973 5352 442420 348667 196"
"159.50941"
"$GPGGA,121329,2446.3377,N,08028.1824,W,1,7,2.3,13,"
"##MN-00 00 54 0273 01972 5352 442206 348589 196"
"159.509456"
"$GPGGA,121334,2446.3413,N,08028.1835,W,1,7,2.3,13,"
"##MN-00 00 54 0274 01973 5352 442015 348539 196"
"159.509502"
"$GPGGA,121338,2446.3441,N,08028.1843,W,1,7,2.3,12,"
"##MN-00 00 54 0275 01971 5351 441993 348516 196"
"159.509549"
"$GPGGA,121342,2446.3470,N,08028.1853,W,1,7,2.3,12,"
"##MN-00 00 55 0276 01971 5351 441975 348499 196"
"159.509595"
"$GPGGA,121346,2446.3499,N,08028.1861,W,1,7,2.3,12,"
"##MN-00 00 54 0277 01971 5351 442024 348505 196"
"159.509641"
"$GPGGA,121350,2446.3526,N,08028.1869,W,1,7,2.3,12,"
"##MN-00 00 54 0278 01970 5351 442010 348502 196"
"159.509688"
"$GPGGA,121354,2446.3559,N,08028.1875,W,1,7,2.3,12,"
"##MN-00 00 54 0279 01970 5351 442087 348520 195"
"159.509734"
"$GPGGA,121358,2446.3588,N,08028.1883,W,1,7,2.3,12,"
"##MN-00 00 54 0280 01970 5351 442236 348543 195"
"159.50978"
"$GPGGA,121402,2446.3619,N,08028.1891,W,1,7,2.3,12,"
"##MN-00 00 54 0282 01971 5351 442354 348581 195"
"159.509826"
"$GPGGA,121406,2446.3648,N,08028.1901,W,1,7,2.3,12,"
"##MN-00 00 54 0283 01970 5351 442436 348609 195"
"159.509873"
"$GPGGA,121410,2446.3678,N,08028.1911,W,1,7,2.3,12,"
"##MN-00 00 54 0284 01969 5351 442678 348661 195"
"159.509919"
"$GPGGA,121414,2446.3707,N,08028.1919,W,1,7,2.3,12,"
"##MN+00 00 54 0285 01970 5351 442905 348737 195"
"159.509965"
"$GPGGA,121418,2446.3739,N,08028.1929,W,1,7,2.3,12,"
"##MN+00 00 54 0286 01971 5350 443016 348769 196"
"159.510012"
"$GPGGA,121422,2446.3770,N,08028.1934,W,1,7,2.3,12,"
"##MN+00 00 54 0287 01970 5351 443169 348815 195"
"159.510058"
"$GPGGA,121426,2446.3801,N,08028.1938,W,1,7,2.0,13,"
"##MN-00 00 54 0288 01972 5350 443295 348877 196"
"159.510104"
"$GPGGA,121430,2446.3832,N,08028.1944,W,1,7,2.0,13,"
"##MN-00 00 54 0289 01970 5350 443355 348906 196"
"159.51015"
"$GPGGA,121434,2446.3862,N,08028.1951,W,1,7,2.0,14,"
"##MN-00 00 54 0290 01971 5351 443375 348917 196"
"159.510197"
"$GPGGA,121438,2446.3893,N,08028.1958,W,1,7,2.0,15,"
"##MN+00 00 54 0291 01971 5350 443377 348923 196"
"159.510243"
"$GPGGA,121442,2446.3922,N,08028.1965,W,1,7,2.0,15,"
"##MN+00 00 54 0292 01970 5350 443386 348927 196"
"159.510289"
"$GPGGA,121446,2446.3952,N,08028.1973,W,1,7,2.0,16,"
"##MN+00 00 66 0293 01974 5350 443437 348947 196"
"159.510336"
"$GPGGA,121450,2446.3984,N,08028.1981,W,1,8,2.0,16,"
"##MN-00 00 62 0295 01975 5351 443720 349006 196"
"159.510382"
"#increment_net"
"$GPGGA,121454,2446.4014,N,08028.1991,W,1,8,2.0,16,"
"##MN-00 00 58 0296 01982 5351 444281 349212 196"
"159.510428"
"$GPGGA,121458,2446.4045,N,08028.1999,W,1,8,2.0,16,"
"##MN-00 00 55 0297 01988 5350 444677 349300 196"
"159.510475"
"$GPGGA,121502,2446.4077,N,08028.2009,W,1,8,2.0,17,"
"##MN-00 00 54 0299 01991 5350 444934 349389 196"
"159.510521"
"$GPGGA,121506,2446.4108,N,08028.2019,W,1,8,2.0,17,"
"##MN-00 00 54 0300 01995 5350 445083 349445 196"
"159.510567"
"$GPGGA,121510,2446.4140,N,08028.2028,W,1,8,2.0,17,"
"##MN-00 00 54 0302 01991 5350 445185 349515 196"
"159.510613"
"$GPGGA,121514,2446.4172,N,08028.2038,W,1,8,2.0,17,"
"##MN-00 00 54 0303 01986 5350 445216 349532 196"
"159.51066"
"$GPGGA,121518,2446.4204,N,08028.2049,W,1,8,2.0,17,"
"##MN-00 00 52 0305 01985 5350 445181 349529 196"
"159.510706"
"$GPGGA,121522,2446.4236,N,08028.2059,W,1,8,2.0,17,"
"##MN-00 00 53 0306 01981 5350 445148 349528 196"
"159.510764"
"$GPGGA,121526,2446.4267,N,08028.2068,W,1,8,2.0,17,"
"##MN-00 00 52 0307 01976 5350 445113 349523 196"
"159.51081"
"$GPGGA,121530,2446.4299,N,08028.2077,W,1,8,2.0,17,"
"##MN-00 00 52 0309 01973 5350 445037 349510 196"
"159.510856"
"$GPGGA,121534,2446.4332,N,08028.2088,W,1,8,2.0,17,"
"##MN-00 00 51 0310 01972 5350 444798 349452 196"
"159.510903"
"$GPGGA,121538,2446.4364,N,08028.2099,W,1,8,2.0,17,"
"##MN-00 00 51 0312 01967 5350 444262 349305 196"
"159.510949"
"$GPGGA,121542,2446.4396,N,08028.2108,W,1,8,2.0,17,"
"##MN-00 00 52 0313 01963 5349 443779 349127 196"
"159.510995"
"$GPGGA,121546,2446.4429,N,08028.2118,W,1,8,2.0,17,"
"##MN-00 00 51 0315 01959 5349 443295 349049 196"
"159.511042"
"$GPGGA,121550,2446.4462,N,08028.2131,W,1,8,2.0,17,"
"##MN-00 00 50 0316 01952 5349 442651 348827 196"
"159.511088"
"$GPGGA,121554,2446.4496,N,08028.2142,W,1,7,2.0,17,"
"##MN-00 00 51 0318 01949 5349 441934 348557 196"
"159.511134"
"$GPGGA,121558,2446.4527,N,08028.2150,W,1,8,2.0,17,"
"##MN-00 00 51 0319 01945 5349 441492 348498 196"
"159.511181"
"$GPGGA,121602,2446.4559,N,08028.2160,W,1,8,2.0,17,"
"##MN-00 00 52 0321 01939 5349 441185 348395 196"
"159.511227"
"$GPGGA,121606,2446.4592,N,08028.2171,W,1,8,2.0,17,"
"##MN-00 00 53 0322 01933 5349 441058 348318 196"
"159.511273"
"$GPGGA,121610,2446.4624,N,08028.2182,W,1,8,2.0,17,"
"##MN-00 00 53 0323 01929 5349 440930 348323 196"
"159.511319"
"$GPGGA,121614,2446.4657,N,08028.2193,W,1,8,2.0,17,"
"##MN-00 00 52 0325 01925 5349 440752 348220 196"
"159.511366"
"$GPGGA,121618,2446.4692,N,08028.2204,W,1,8,2.0,17,"
"##MN-00 00 53 0326 01917 5349 440458 348099 196"
"159.511412"
"$GPGGA,121622,2446.4725,N,08028.2215,W,1,8,2.0,17,"
"##MN-00 00 53 0328 01914 5349 440061 347998 196"
"159.511458"
"$GPGGA,121626,2446.4760,N,08028.2225,W,1,8,2.0,17,"
"##MN-00 00 54 0329 01910 5349 439605 347888 196"
"159.511505"
"$GPGGA,121630,2446.4794,N,08028.2236,W,1,8,2.0,17,"
"##MN-00 00 53 0331 01903 5349 438922 347659 196"
"159.511551"
"$GPGGA,121634,2446.4827,N,08028.2244,W,1,8,2.0,17,"
"##MN-00 00 52 0332 01900 5349 438409 347615 196"
"159.511597"
"$GPGGA,121638,2446.4861,N,08028.2254,W,1,8,2.0,17,"
"##MN-00 00 54 0334 01895 5349 438241 347475 196"
"159.511644"
"$GPGGA,121642,2446.4894,N,08028.2265,W,1,8,2.0,16,"
"##MN-00 00 54 0335 01891 5348 438017 347463 196"
"159.51169"
"$GPGGA,121646,2446.4927,N,08028.2276,W,1,8,2.0,16,"
"##MN-00 00 54 0337 01885 5348 437875 347401 196"
"159.511736"
"$GPGGA,121650,2446.4959,N,08028.2287,W,1,7,2.0,16,"
"##MN-00 00 54 0338 01881 5348 437801 347328 196"
"159.511782"
"$GPGGA,121654,2446.4991,N,08028.2299,W,1,8,2.0,16,"
"##MN-00 00 53 0340 01876 5348 437726 347283 196"
"159.511829"
"$GPGGA,121658,2446.5022,N,08028.2309,W,1,8,2.0,16,"
"##MN-00 00 54 0341 01870 5348 437623 347208 196"
"159.511875"
"$GPGGA,121702,2446.5056,N,08028.2319,W,1,8,2.0,16,"
"##MN-00 00 52 0343 01868 5348 437450 347225 196"
