" Tow: L9s-B   RVWS/WS1406"
" Date: 06/08/2014"
" Temperature Probe #  2597    Conductivity Probe #  2870"
" Pressure Probe #  109"
" Flow Meter Calibration  4.71 (m/count)  "
"159.788542"
"$GPGGA,185521,2450.6248,N,08023.2026,W,1,12,1.4,7,"
"##MN-00 00 51 0085 01849 6110 387663 908777 198"
"159.788588"
"$GPGGA,185530,2450.6214,N,08023.1967,W,1,12,1.4,7,"
"##MN-00 00 55 0086 01850 6112 394117 907136 198"
"159.788634"
"$GPGGA,185534,2450.6201,N,08023.1943,W,1,12,1.6,7,"
"##MN-00 00 51 0087 01850 6113 395861 907128 198"
"159.788681"
"$GPGGA,185538,2450.6189,N,08023.1921,W,1,12,1.4,7,"
"##MN-00 00 60 0087 01851 6115 401205 554030 198"
"159.788727"
"$GPGGA,185542,2450.6175,N,08023.1901,W,1,12,1.4,7,"
"##MN-00 00 56 0088 01851 6116 426964 346721 198"
"159.788773"
"$GPGGA,185546,2450.6162,N,08023.1883,W,1,12,1.4,7,"
"##MN-00 00 57 0089 01850 6118 427317 342865 198"
"159.788819"
"$GPGGA,185550,2450.6150,N,08023.1866,W,1,12,1.4,7,"
"##MN-00 00 60 0090 01850 6120 427337 342711 198"
"159.788866"
"$GPGGA,185554,2450.6138,N,08023.1851,W,1,12,1.4,7,"
"##MN-00 00 61 0091 01850 6121 427567 342798 198"
"159.788912"
"$GPGGA,185558,2450.6126,N,08023.1836,W,1,12,1.4,7,"
"##MN-00 00 57 0092 01850 6122 427896 343385 198"
"159.788958"
"$GPGGA,185602,2450.6115,N,08023.1822,W,1,12,1.4,7,"
"##MN-00 00 62 0093 01850 6123 427524 343075 198"
"159.789005"
"$GPGGA,185606,2450.6103,N,08023.1808,W,1,12,1.4,7,"
"##MN-00 00 57 0093 01850 6124 426822 343262 198"
"159.789213"
"$GPGGA,185620,2450.6066,N,08023.1754,W,1,12,1.4,7,"
"##MN-00 00 58 0093 01852 6130 426260 343044 198"
"159.789259"
"$GPGGA,185628,2450.6045,N,08023.1724,W,1,12,1.4,7,"
"##MN-00 00 60 0093 01850 6131 426593 343019 198"
"159.789306"
"$GPGGA,185632,2450.6034,N,08023.1708,W,1,12,1.4,7,"
"##MN-00 00 59 0093 01850 6132 426645 343077 198"
"159.789352"
"$GPGGA,185636,2450.6023,N,08023.1692,W,1,12,1.4,7,"
"##MN-00 00 59 0093 01854 6133 427221 343102 198"
"159.789398"
"$GPGGA,185640,2450.6015,N,08023.1681,W,1,12,1.4,7,"
"##MN-00 00 59 0093 01855 6134 428300 343352 198"
"159.789444"
"$GPGGA,185644,2450.6003,N,08023.1665,W,1,12,1.4,7,"
"##MN-00 00 58 0093 01859 6135 429874 343555 198"
"159.789491"
"$GPGGA,185648,2450.5990,N,08023.1645,W,1,12,1.4,7,"
"##MN-00 00 58 0093 01862 6136 430948 343930 198"
"159.789537"
"$GPGGA,185652,2450.5977,N,08023.1629,W,1,12,1.4,7,"
"##MN-00 00 58 0093 01868 6136 431633 344232 198"
"159.789583"
"$GPGGA,185656,2450.5965,N,08023.1614,W,1,12,1.4,7,"
"##MN-00 00 58 0093 01875 6137 432350 344494 198"
"159.78963"
"$GPGGA,185700,2450.5954,N,08023.1598,W,1,12,1.4,7,"
"##MN-00 00 59 0093 01875 6137 433525 344806 198"
"159.789676"
"$GPGGA,185704,2450.5943,N,08023.1582,W,1,12,1.4,7,"
"##MN-00 00 58 0093 01883 6138 434728 345278 198"
"159.789722"
"$GPGGA,185708,2450.5930,N,08023.1566,W,1,12,1.4,7,"
"##MN-00 00 59 0093 01891 6138 435594 345618 198"
"159.789769"
"$GPGGA,185712,2450.5918,N,08023.1551,W,1,12,1.4,7,"
"##MN-00 00 58 0093 01895 6139 436339 345874 198"
"159.789815"
"$GPGGA,185716,2450.5907,N,08023.1536,W,1,12,1.4,7,"
"##MN-00 00 59 0093 01899 6139 436864 346095 198"
"159.789861"
"$GPGGA,185720,2450.5894,N,08023.1520,W,1,12,1.4,7,"
"##MN-00 00 58 0093 01903 6140 437152 346179 198"
"159.789907"
"$GPGGA,185724,2450.5883,N,08023.1505,W,1,12,1.4,7,"
"##MN-00 00 60 0093 01907 6140 437359 346263 198"
"159.789954"
"$GPGGA,185728,2450.5871,N,08023.1489,W,1,12,1.4,7,"
"##MN-00 00 59 0093 01910 6140 437471 346382 198"
"159.79"
"$GPGGA,185732,2450.5860,N,08023.1474,W,1,12,1.4,7,"
"##MN-00 00 58 0093 01912 6140 437565 346480 198"
"159.790046"
"$GPGGA,185736,2450.5847,N,08023.1459,W,1,12,1.4,7,"
"##MN-00 00 60 0093 01919 6140 437671 346472 198"
"159.790093"
"$GPGGA,185740,2450.5836,N,08023.1443,W,1,12,1.4,7,"
"##MN-00 00 56 0093 01916 6140 437798 346533 198"
"159.790139"
"$GPGGA,185744,2450.5825,N,08023.1429,W,1,12,1.4,7,"
"##MN-00 00 58 0093 01917 6140 437842 346543 198"
"159.790185"
"$GPGGA,185748,2450.5814,N,08023.1413,W,1,12,1.4,7,"
"##MN-00 00 57 0093 01917 6140 437838 346616 198"
"159.790231"
"$GPGGA,185752,2450.5803,N,08023.1398,W,1,12,1.4,7,"
"##MN-00 00 57 0093 01917 6140 437913 346619 198"
"159.790278"
"$GPGGA,185756,2450.5792,N,08023.1384,W,1,12,1.4,7,"
"##MN-00 00 57 0093 01916 6140 437992 346583 198"
"159.790324"
"$GPGGA,185800,2450.5782,N,08023.1369,W,1,12,1.4,7,"
"##MN-00 00 55 0093 01907 6139 438067 346681 198"
"159.79037"
"$GPGGA,185804,2450.5773,N,08023.1355,W,1,12,1.4,7,"
"##MN-00 00 57 0093 01899 6139 437997 346753 198"
"159.790417"
"$GPGGA,185808,2450.5762,N,08023.1340,W,1,12,1.4,7,"
"##MN-00 00 57 0093 01890 6139 437800 346734 198"
"159.790463"
"$GPGGA,185812,2450.5753,N,08023.1325,W,1,12,1.4,7,"
"##MN-00 00 57 0093 01888 6139 437578 346704 198"
"159.790509"
"$GPGGA,185816,2450.5744,N,08023.1311,W,1,12,1.4,7,"
"##MN-00 00 58 0093 01881 6138 437403 346659 198"
"159.790556"
"$GPGGA,185820,2450.5735,N,08023.1297,W,1,12,1.4,7,"
"##MN-00 00 58 0093 01879 6138 437236 346632 198"
"159.790602"
"$GPGGA,185824,2450.5725,N,08023.1282,W,1,12,1.4,7,"
"##MN-00 00 57 0093 01876 6137 437030 346547 198"
"159.790648"
"$GPGGA,185828,2450.5716,N,08023.1267,W,1,12,1.4,7,"
"##MN-00 00 57 0093 01872 6136 436696 346507 198"
"159.790694"
"$GPGGA,185832,2450.5708,N,08023.1252,W,1,12,1.4,6,"
"##MN-00 00 57 0093 01868 6136 436083 346461 198"
"159.790752"
"$GPGGA,185836,2450.5697,N,08023.1238,W,1,12,1.4,6,"
"##MN-00 00 56 0093 01861 6135 435542 346452 198"
"159.790799"
"$GPGGA,185840,2450.5687,N,08023.1222,W,1,11,1.4,6,"
"##MN-00 00 55 0093 01855 6134 435091 346222 198"
"159.790845"
"$GPGGA,185844,2450.5678,N,08023.1207,W,1,12,1.4,6,"
"##MN-00 00 55 0093 01853 6134 434269 345893 198"
"159.790891"
"$GPGGA,185848,2450.5669,N,08023.1191,W,1,12,1.4,6,"
"##MN-00 00 55 0093 01853 6133 433003 345627 198"
"159.790938"
"$GPGGA,185852,2450.5659,N,08023.1175,W,1,12,1.4,6,"
"##MN-00 00 57 0093 01851 6132 431908 345515 198"
"159.790984"
"$GPGGA,185857,2450.5648,N,08023.1156,W,1,12,1.4,6,"
"##MN-00 00 59 0093 01849 6132 429805 344785 198"
"159.79103"
"$GPGGA,185900,2450.5641,N,08023.1145,W,1,12,1.4,6,"
"##MN-00 00 62 0093 01852 6131 428315 344845 198"
"159.791076"
"$GPGGA,185904,2450.5631,N,08023.1130,W,1,12,1.4,6,"
"##MN-00 00 61 0093 01849 6130 427781 344063 198"
"159.791123"
"$GPGGA,185909,2450.5619,N,08023.1110,W,1,12,1.4,6,"
"##MN-00 00 59 0093 01848 6129 427610 493341 198"
"159.791169"
"$GPGGA,185913,2450.5609,N,08023.1095,W,1,12,1.4,6,"
"##MN-00 00 59 0093 01851 6128 429219 823249 198"
"159.791215"
"$GPGGA,185917,2450.5600,N,08023.1080,W,1,12,1.4,6,"
"##MN-00 00 54 0094 01849 6127 432896 864205 198"
"159.791262"
"$GPGGA,185921,2450.5589,N,08023.1065,W,1,12,1.4,6,"
"##MN-00 00 54 0094 01853 6127 433592 563819 198"
"159.791308"
"$GPGGA,185925,2450.5579,N,08023.1049,W,1,12,1.4,6,"
"##MN-00 00 53 0095 01853 6126 427817 344286 198"
"159.791354"
"$GPGGA,185929,2450.5568,N,08023.1034,W,1,12,1.4,6,"
"##MN-00 00 54 0096 01852 6125 427789 343543 198"
"159.7914"
"$GPGGA,185933,2450.5557,N,08023.1019,W,1,12,1.4,6,"
"##MN-00 00 55 0097 01853 6124 427786 343461 198"
"159.791447"
"$GPGGA,185937,2450.5546,N,08023.1003,W,1,12,1.4,6,"
"##MN-00 00 58 0098 01852 6123 427874 343477 198"
"159.791493"
"$GPGGA,185941,2450.5535,N,08023.0987,W,1,12,1.4,6,"
"##MN-00 00 57 0099 01852 6121 428030 343496 198"
"159.791539"
"$GPGGA,185945,2450.5524,N,08023.0972,W,1,12,1.4,6,"
"##MN-00 00 58 0100 01855 6120 428247 343539 198"
"159.791586"
"$GPGGA,185949,2450.5513,N,08023.0956,W,1,12,1.4,6,"
"##MN-00 00 59 0101 01859 6120 428761 343611 198"
"159.791632"
"$GPGGA,185953,2450.5501,N,08023.0940,W,1,11,1.6,6,"
"##MN-00 00 60 0102 01861 6118 429587 343823 198"
"159.791678"
"$GPGGA,185957,2450.5491,N,08023.0926,W,1,12,1.6,6,"
"##MN-00 00 61 0103 01868 6117 430691 344079 198"
"159.791725"
"$GPGGA,190001,2450.5479,N,08023.0910,W,1,12,1.4,6,"
"##MN-00 00 61 0104 01873 6116 432348 344426 198"
"159.791771"
"$GPGGA,190005,2450.5467,N,08023.0894,W,1,11,1.4,6,"
"##MN-00 00 61 0105 01877 6115 433456 344901 198"
"159.791817"
"$GPGGA,190009,2450.5455,N,08023.0879,W,1,12,1.6,6,"
"##MN-00 00 61 0106 01889 6114 434317 345194 198"
"159.791863"
"$GPGGA,190013,2450.5444,N,08023.0863,W,1,11,1.4,6,"
"##MN-00 00 61 0107 01893 6113 434681 345448 198"
"159.79191"
"$GPGGA,190017,2450.5430,N,08023.0847,W,1,12,1.6,6,"
"##MN-00 00 60 0108 01900 6112 435227 345596 198"
"159.791956"
"$GPGGA,190021,2450.5419,N,08023.0831,W,1,12,1.6,6,"
"##MN-00 00 61 0109 01903 6111 435839 345786 198"
"159.792002"
"$GPGGA,190025,2450.5405,N,08023.0815,W,1,12,1.6,6,"
"##MN-00 00 58 0110 01907 6110 436468 346015 198"
"159.792049"
"$GPGGA,190029,2450.5394,N,08023.0800,W,1,11,1.6,6,"
"##MN-00 00 61 0111 01911 6109 436816 346168 198"
"159.792095"
"$GPGGA,190033,2450.5383,N,08023.0785,W,1,11,1.6,6,"
"##MN-00 00 61 0112 01917 6108 436981 346289 198"
"159.792141"
"$GPGGA,190037,2450.5369,N,08023.0769,W,1,11,1.6,6,"
"##MN-00 00 60 0113 01920 6107 437126 346367 198"
"159.792188"
"$GPGGA,190041,2450.5356,N,08023.0754,W,1,11,1.6,6,"
"##MN-00 00 61 0114 01928 6106 437306 346347 198"
"159.792234"
"$GPGGA,190045,2450.5344,N,08023.0738,W,1,11,1.4,6,"
"##MN-00 00 60 0115 01936 6104 437472 346483 198"
"159.79228"
"$GPGGA,190049,2450.5331,N,08023.0722,W,1,10,1.6,6,"
"##MN-00 00 62 0116 01943 6103 437606 346544 198"
"159.792326"
"$GPGGA,190053,2450.5320,N,08023.0707,W,1,11,1.6,6,"
"##MN-00 00 60 0117 01947 6102 437800 346584 198"
"159.792373"
"$GPGGA,190057,2450.5309,N,08023.0692,W,1,10,1.6,6,"
"##MN-00 00 61 0118 01956 6101 437999 346687 198"
"159.792419"
"$GPGGA,190101,2450.5295,N,08023.0676,W,1,11,1.4,6,"
"##MN-00 00 61 0119 01962 6100 438129 346738 198"
"159.792465"
"$GPGGA,190105,2450.5284,N,08023.0661,W,1,11,1.6,6,"
"##MN-00 00 60 0120 01967 6099 438324 346796 198"
"159.792512"
"$GPGGA,190109,2450.5273,N,08023.0647,W,1,10,1.6,6,"
"##MN-00 00 60 0121 01971 6097 438464 346838 198"
"159.792558"
"$GPGGA,190113,2450.5262,N,08023.0633,W,1,11,1.4,6,"
"##MN-00 00 59 0122 01973 6096 438600 346895 198"
"159.792604"
"$GPGGA,190117,2450.5253,N,08023.0618,W,1,10,1.6,6,"
"##MN-00 00 58 0123 01973 6094 438696 346955 198"
"159.79265"
"$GPGGA,190121,2450.5243,N,08023.0604,W,1,10,1.6,6,"
"##MN-00 00 57 0124 01970 6093 438695 346939 198"
"159.792697"
"$GPGGA,190125,2450.5232,N,08023.0589,W,1,11,1.4,6,"
"##MN-00 00 57 0125 01967 6092 438678 346941 198"
"159.792743"
"$GPGGA,190129,2450.5225,N,08023.0576,W,1,10,1.6,6,"
"##MN-00 00 58 0127 01965 6090 438637 346938 198"
"159.792789"
"$GPGGA,190133,2450.5214,N,08023.0561,W,1,11,1.4,6,"
"##MN-00 00 57 0128 01963 6089 438605 346937 198"
"159.792836"
"$GPGGA,190137,2450.5204,N,08023.0547,W,1,10,1.6,6,"
"##MN-00 00 59 0129 01965 6088 438561 346951 198"
"159.792882"
"$GPGGA,190141,2450.5191,N,08023.0531,W,1,11,1.4,6,"
"##MN-00 00 58 0130 01966 6087 438547 346948 198"
"159.792928"
"$GPGGA,190145,2450.5182,N,08023.0516,W,1,11,1.4,6,"
"##MN+00 00 59 0131 01967 6085 438548 346943 198"
"159.792975"
"$GPGGA,190149,2450.5173,N,08023.0502,W,1,11,1.4,6,"
"##MN+00 00 58 0132 01967 6084 438564 346950 197"
"159.793021"
"$GPGGA,190153,2450.5164,N,08023.0487,W,1,11,1.4,6,"
"##MN+00 00 59 0133 01965 6082 438571 346941 197"
"159.793067"
"$GPGGA,190157,2450.5154,N,08023.0472,W,1,11,1.4,6,"
"##MN-00 00 58 0134 01967 6081 438581 346953 197"
"159.793113"
"$GPGGA,190201,2450.5145,N,08023.0458,W,1,11,1.4,6,"
"##MN+00 00 58 0136 01967 6079 438597 346954 197"
"159.79316"
"$GPGGA,190205,2450.5135,N,08023.0444,W,1,11,1.4,6,"
"##MN+00 00 58 0137 01966 6078 438694 346958 197"
"159.793206"
"$GPGGA,190209,2450.5125,N,08023.0431,W,1,11,1.4,6,"
"##MN+00 00 67 0138 01968 6076 438767 346991 197"
"159.793252"
"$GPGGA,190213,2450.5116,N,08023.0418,W,1,11,1.4,6,"
"##MN-00 00 60 0139 01971 6075 438875 347011 197"
"159.793299"
"#increment_net"
"$GPGGA,190217,2450.5105,N,08023.0404,W,1,11,1.4,6,"
"##MN-00 00 57 0140 01966 6074 438903 347023 197"
"159.793345"
"$GPGGA,190221,2450.5095,N,08023.0391,W,1,11,1.4,6,"
"##MN-00 00 57 0141 01967 6072 438882 347017 197"
"159.793391"
"$GPGGA,190225,2450.5084,N,08023.0377,W,1,11,1.4,6,"
"##MN-00 00 57 0142 01965 6070 438799 347025 197"
"159.793437"
"$GPGGA,190229,2450.5076,N,08023.0365,W,1,11,1.4,6,"
"##MN-00 00 56 0143 01966 6069 438698 347025 197"
"159.793484"
"$GPGGA,190233,2450.5066,N,08023.0352,W,1,11,1.4,6,"
"##MN-00 00 57 0144 01965 6068 438628 347023 197"
"159.79353"
"$GPGGA,190237,2450.5058,N,08023.0340,W,1,11,1.4,6,"
"##MN-00 00 56 0145 01966 6066 438570 347003 197"
"159.793576"
"$GPGGA,190241,2450.5049,N,08023.0328,W,1,11,1.4,7,"
"##MN-00 00 57 0146 01966 6064 438540 346989 197"
"159.793623"
"$GPGGA,190245,2450.5040,N,08023.0315,W,1,11,1.4,7,"
"##MN-00 00 57 0147 01967 6063 438519 346988 197"
"159.793669"
"$GPGGA,190249,2450.5031,N,08023.0302,W,1,11,1.4,7,"
"##MN-00 00 57 0148 01968 6061 438511 346972 197"
"159.793715"
"$GPGGA,190253,2450.5022,N,08023.0289,W,1,11,1.4,7,"
"##MN-00 00 56 0149 01965 6060 438504 346963 197"
"159.793762"
"$GPGGA,190257,2450.5015,N,08023.0277,W,1,11,1.4,7,"
"##MN-00 00 56 0150 01968 6058 438495 346955 197"
"159.793808"
"$GPGGA,190301,2450.5007,N,08023.0264,W,1,11,1.4,7,"
"##MN-00 00 57 0151 01968 6056 438480 346959 197"
"159.793854"
"$GPGGA,190305,2450.5000,N,08023.0251,W,1,11,1.4,7,"
"##MN-00 00 55 0152 01967 6055 438464 346946 197"
"159.7939"
"$GPGGA,190309,2450.4991,N,08023.0238,W,1,11,1.4,7,"
"##MN-00 00 56 0153 01969 6053 438456 346942 197"
"159.793947"
"$GPGGA,190313,2450.4983,N,08023.0225,W,1,11,1.4,7,"
"##MN-00 00 56 0154 01968 6051 438443 346940 197"
"159.794005"
"$GPGGA,190317,2450.4975,N,08023.0213,W,1,11,1.4,7,"
"##MN-00 00 57 0155 01968 6050 438446 346938 197"
"159.794051"
"$GPGGA,190321,2450.4967,N,08023.0200,W,1,11,1.4,7,"
"##MN-00 00 56 0156 01967 6048 438443 346937 197"
"159.794097"
"$GPGGA,190325,2450.4959,N,08023.0188,W,1,11,1.4,7,"
"##MN-00 00 56 0157 01968 6046 438448 346935 197"
"159.794144"
"$GPGGA,190329,2450.4951,N,08023.0176,W,1,11,1.4,7,"
"##MN-00 00 56 0158 01968 6045 438452 346936 197"
"159.79419"
"$GPGGA,190333,2450.4942,N,08023.0163,W,1,11,1.4,7,"
"##MN-00 00 57 0159 01971 6043 438456 346939 197"
"159.794236"
"$GPGGA,190338,2450.4935,N,08023.0148,W,1,11,1.4,7,"
"##MN-00 00 56 0160 01970 6041 438461 346938 197"
"159.794282"
"$GPGGA,190341,2450.4932,N,08023.0142,W,1,11,1.4,7,"
"##MN-00 00 56 0161 01968 6040 438472 346941 197"
"159.794329"
"$GPGGA,190345,2450.4928,N,08023.0131,W,1,11,1.4,7,"
"##MN-00 00 57 0163 01967 6038 438460 346939 197"
"159.794375"
"$GPGGA,190350,2450.4914,N,08023.0117,W,1,11,1.4,8,"
"##MN-00 00 55 0164 01964 6037 438428 346938 197"
"159.794421"
"$GPGGA,190354,2450.4902,N,08023.0104,W,1,10,1.4,8,"
"##MN+00 00 55 0165 01965 6035 438396 346935 197"
"159.794468"
"$GPGGA,190358,2450.4886,N,08023.0088,W,1,10,1.4,8,"
"##MN+00 00 57 0166 01962 6033 438372 346882 197"
"159.794514"
"$GPGGA,190402,2450.4872,N,08023.0074,W,1,11,1.4,7,"
"##MN+00 00 56 0167 01959 6032 438345 346861 197"
"159.79456"
"$GPGGA,190406,2450.4859,N,08023.0060,W,1,11,1.4,7,"
"##MN-00 00 57 0168 01956 6030 438324 346852 197"
"159.794606"
"$GPGGA,190410,2450.4845,N,08023.0047,W,1,11,1.4,6,"
"##MN-00 00 58 0169 01954 6028 438288 346833 197"
"159.794653"
"$GPGGA,190414,2450.4831,N,08023.0034,W,1,11,1.4,6,"
"##MN-00 00 58 0171 01948 6027 438234 346865 197"
"159.794699"
"$GPGGA,190418,2450.4816,N,08023.0020,W,1,11,1.4,6,"
"##MN+00 00 60 0172 01945 6025 438166 346900 197"
"159.794745"
"$GPGGA,190422,2450.4802,N,08023.0006,W,1,11,1.4,6,"
"##MN+00 00 60 0173 01944 6023 438027 346868 197"
"159.794792"
"$GPGGA,190426,2450.4787,N,08022.9992,W,1,11,1.4,6,"
"##MN+00 00 72 0174 01945 6021 437709 346790 197"
"159.794838"
"$GPGGA,190430,2450.4769,N,08022.9977,W,1,11,1.4,6,"
"##MN-00 00 64 0175 01944 6020 437654 346755 197"
"159.794884"
"$GPGGA,190434,2450.4752,N,08022.9962,W,1,11,1.4,6,"
"##MN-00 00 62 0177 01940 6018 437600 346738 197"
"159.794931"
"#increment_net"
"$GPGGA,190438,2450.4736,N,08022.9947,W,1,11,1.4,6,"
"##MN-00 00 61 0178 01938 6016 437440 346693 197"
"159.794977"
"$GPGGA,190442,2450.4719,N,08022.9932,W,1,11,1.4,6,"
"##MN-00 00 61 0179 01937 6014 437385 346646 197"
"159.795023"
"$GPGGA,190446,2450.4702,N,08022.9917,W,1,11,1.4,6,"
"##MN-00 00 61 0181 01935 6013 437352 346607 197"
"159.795069"
"$GPGGA,190450,2450.4682,N,08022.9899,W,1,10,1.6,6,"
"##MN-00 00 62 0182 01938 6011 437355 346614 197"
"159.795116"
"$GPGGA,190454,2450.4666,N,08022.9884,W,1,11,1.6,6,"
"##MN-00 00 63 0183 01936 6010 437327 346606 197"
"159.795162"
"$GPGGA,190458,2450.4650,N,08022.9868,W,1,11,1.4,6,"
"##MN-00 00 63 0185 01938 6008 437419 346605 197"
"159.795208"
"$GPGGA,190502,2450.4637,N,08022.9852,W,1,10,1.4,6,"
"##MN-00 00 63 0186 01937 6007 437482 346616 197"
"159.795255"
"$GPGGA,190506,2450.4621,N,08022.9836,W,1,10,1.4,7,"
"##MN-00 00 62 0187 01938 6005 437574 346631 197"
"159.795301"
"$GPGGA,190510,2450.4606,N,08022.9820,W,1,11,1.4,7,"
"##MN-00 00 63 0189 01938 6003 437643 346651 197"
"159.795347"
"$GPGGA,190514,2450.4592,N,08022.9803,W,1,11,1.4,7,"
"##MN-00 00 63 0190 01939 6002 437672 346669 197"
"159.795394"
"$GPGGA,190518,2450.4578,N,08022.9787,W,1,11,1.4,7,"
"##MN-00 00 63 0191 01941 6000 437784 346689 197"
"159.79544"
"$GPGGA,190522,2450.4564,N,08022.9770,W,1,11,1.4,8,"
"##MN-00 00 63 0192 01942 5998 437886 346720 197"
"159.795486"
"$GPGGA,190526,2450.4549,N,08022.9752,W,1,11,1.4,8,"
"##MN-00 00 63 0194 01946 5996 437985 346728 197"
"159.795532"
"$GPGGA,190530,2450.4534,N,08022.9735,W,1,11,1.4,8,"
"##MN-00 00 64 0195 01946 5995 438052 346767 197"
"159.795579"
"$GPGGA,190534,2450.4520,N,08022.9717,W,1,11,1.4,8,"
"##MN-00 00 62 0196 01948 5993 438077 346783 197"
"159.795625"
"$GPGGA,190538,2450.4505,N,08022.9699,W,1,11,1.5,8,"
"##MN-00 00 63 0197 01947 5991 438082 346797 197"
"159.795671"
"$GPGGA,190542,2450.4488,N,08022.9680,W,1,11,1.5,8,"
"##MN-00 00 63 0199 01951 5990 438082 346800 197"
"159.795718"
"$GPGGA,190546,2450.4473,N,08022.9662,W,1,11,1.5,8,"
"##MN-00 00 64 0200 01953 5988 438099 346806 197"
"159.795764"
"$GPGGA,190550,2450.4458,N,08022.9643,W,1,11,1.5,8,"
"##MN-00 00 63 0201 01953 5986 438152 346822 197"
"159.79581"
"$GPGGA,190554,2450.4444,N,08022.9625,W,1,11,1.5,8,"
"##MN-00 00 63 0202 01955 5985 438220 346823 197"
"159.795856"
"$GPGGA,190558,2450.4428,N,08022.9607,W,1,11,1.5,8,"
"##MN-00 00 63 0204 01957 5983 438283 346842 197"
"159.795903"
"$GPGGA,190602,2450.4413,N,08022.9589,W,1,11,1.5,8,"
"##MN-00 00 62 0205 01957 5981 438320 346874 197"
"159.795949"
"$GPGGA,190606,2450.4399,N,08022.9571,W,1,11,1.5,8,"
"##MN-00 00 63 0206 01957 5980 438346 346890 197"
"159.795995"
"$GPGGA,190610,2450.4386,N,08022.9553,W,1,11,1.5,9,"
"##MN+00 00 63 0208 01956 5978 438359 346900 197"
"159.796042"
"$GPGGA,190614,2450.4375,N,08022.9537,W,1,11,1.5,9,"
"##MN+00 00 62 0209 01959 5977 438352 346910 197"
"159.796088"
"$GPGGA,190618,2450.4362,N,08022.9520,W,1,11,1.5,9,"
"##MN+00 00 62 0210 01960 5975 438355 346911 196"
"159.796134"
"$GPGGA,190622,2450.4352,N,08022.9503,W,1,11,1.5,9,"
"##MN-00 00 63 0211 01964 5973 438374 346910 196"
"159.796181"
"$GPGGA,190626,2450.4342,N,08022.9486,W,1,11,1.5,10"
"##MN-00 00 63 0212 01967 5972 438431 346912 197"
"159.796227"
"$GPGGA,190630,2450.4334,N,08022.9468,W,1,11,1.5,10"
"##MN-00 00 62 0213 01972 5970 438474 346923 197"
"159.796273"
"$GPGGA,190634,2450.4326,N,08022.9450,W,1,11,1.5,10"
"##MN+00 00 61 0215 01978 5969 438512 346926 197"
"159.796319"
"$GPGGA,190638,2450.4321,N,08022.9433,W,1,11,1.5,10"
"##MN+00 00 61 0216 01985 5967 438585 346939 196"
"159.796366"
"$GPGGA,190642,2450.4314,N,08022.9416,W,1,11,1.5,10"
"##MN+00 00 64 0216 01988 5966 438622 346963 197"
"159.796412"
"$GPGGA,190646,2450.4310,N,08022.9401,W,1,11,1.5,10"
"##MN-00 00 61 0217 01998 5964 438648 346981 196"
"159.796458"
"#increment_net"
"$GPGGA,190650,2450.4310,N,08022.9386,W,1,11,1.5,10"
"##MN-00 00 61 0218 02002 5963 438723 347001 196"
"159.796505"
"$GPGGA,190654,2450.4309,N,08022.9370,W,1,11,1.5,10"
"##MN-00 00 60 0219 02009 5961 438792 347026 196"
"159.796551"
"$GPGGA,190658,2450.4307,N,08022.9355,W,1,11,1.5,10"
"##MN-00 00 58 0220 02007 5959 438925 347059 196"
"159.796597"
"$GPGGA,190702,2450.4306,N,08022.9339,W,1,11,1.5,10"
"##MN-00 00 57 0221 02006 5957 439036 347116 196"
"159.796643"
"$GPGGA,190706,2450.4299,N,08022.9322,W,1,10,1.5,10"
"##MN-00 00 57 0222 02006 5956 439058 347108 196"
"159.79669"
"$GPGGA,190710,2450.4296,N,08022.9307,W,1,11,1.5,10"
"##MN-00 00 56 0223 02003 5954 439059 347116 196"
"159.796736"
"$GPGGA,190714,2450.4295,N,08022.9292,W,1,11,1.5,9,"
"##MN-00 00 56 0224 02001 5953 439054 347126 196"
"159.796782"
"$GPGGA,190718,2450.4290,N,08022.9277,W,1,11,1.5,9,"
"##MN-00 00 56 0226 01999 5951 439038 347129 196"
"159.796829"
"$GPGGA,190722,2450.4287,N,08022.9262,W,1,11,1.5,9,"
"##MN-00 00 55 0227 01998 5950 439015 347133 196"
"159.796875"
"$GPGGA,190726,2450.4283,N,08022.9247,W,1,11,1.5,9,"
"##MN-00 00 55 0228 01994 5948 438969 347130 196"
"159.796921"
"$GPGGA,190730,2450.4281,N,08022.9232,W,1,11,1.5,9,"
"##MN-00 00 55 0229 01992 5946 438837 347105 196"
"159.796968"
"$GPGGA,190734,2450.4276,N,08022.9217,W,1,11,1.5,9,"
"##MN-00 00 55 0230 01987 5945 438756 347087 196"
"159.797014"
"$GPGGA,190738,2450.4274,N,08022.9202,W,1,11,1.5,9,"
"##MN-00 00 55 0231 01983 5943 438694 347062 196"
"159.79706"
"$GPGGA,190742,2450.4269,N,08022.9187,W,1,11,1.5,9,"
"##MN-00 00 54 0232 01979 5941 438657 347069 196"
"159.797107"
"$GPGGA,190746,2450.4264,N,08022.9173,W,1,11,1.5,9,"
"##MN-00 00 54 0233 01974 5940 438614 347053 196"
"159.797153"
"$GPGGA,190750,2450.4260,N,08022.9157,W,1,11,1.5,9,"
"##MN-00 00 54 0234 01971 5938 438571 347021 196"
"159.797199"
"$GPGGA,190754,2450.4256,N,08022.9143,W,1,11,1.5,9,"
"##MN-00 00 53 0235 01967 5937 438535 347018 196"
"159.797257"
"$GPGGA,190758,2450.4252,N,08022.9129,W,1,11,1.5,9,"
"##MN-00 00 55 0236 01969 5935 438499 347008 196"
"159.797303"
"$GPGGA,190802,2450.4247,N,08022.9114,W,1,11,1.5,9,"
"##MN-00 00 55 0237 01972 5934 438481 347005 196"
"159.79735"
"$GPGGA,190806,2450.4243,N,08022.9099,W,1,11,1.5,9,"
"##MN-00 00 54 0238 01972 5932 438465 346999 196"
"159.797396"
"$GPGGA,190810,2450.4238,N,08022.9085,W,1,11,1.5,9,"
"##MN-00 00 55 0239 01970 5930 438457 346985 196"
"159.797442"
"$GPGGA,190814,2450.4232,N,08022.9070,W,1,11,1.5,8,"
"##MN-00 00 54 0240 01968 5928 438449 346978 196"
"159.797488"
"$GPGGA,190819,2450.4227,N,08022.9051,W,1,11,1.5,8,"
"##MN-00 00 54 0241 01973 5927 438435 346974 196"
"159.797535"
"$GPGGA,190823,2450.4220,N,08022.9035,W,1,11,1.5,8,"
"##MN-00 00 54 0242 01970 5925 438424 346975 196"
"159.797581"
"$GPGGA,190827,2450.4216,N,08022.9020,W,1,11,1.5,8,"
"##MN+00 00 54 0243 01970 5923 438415 346975 196"
"159.797627"
"$GPGGA,190831,2450.4210,N,08022.9006,W,1,11,1.5,8,"
"##MN+00 00 54 0244 01968 5922 438408 346977 196"
"159.797674"
"$GPGGA,190835,2450.4205,N,08022.8990,W,1,11,1.5,8,"
"##MN+00 00 55 0245 01967 5920 438399 346970 196"
"159.79772"
"$GPGGA,190839,2450.4200,N,08022.8975,W,1,11,1.5,8,"
"##MN-00 00 54 0246 01967 5919 438384 346965 196"
"159.797766"
"$GPGGA,190843,2450.4195,N,08022.8959,W,1,11,1.5,7,"
"##MN-00 00 55 0247 01966 5918 438370 346962 197"
"159.797812"
"$GPGGA,190847,2450.4191,N,08022.8944,W,1,11,1.5,7,"
"##MN-00 00 55 0248 01967 5916 438363 346956 197"
"159.797859"
"$GPGGA,190851,2450.4184,N,08022.8928,W,1,11,1.5,7,"
"##MN+00 00 54 0249 01968 5915 438354 346949 197"
"159.797905"
"$GPGGA,190855,2450.4178,N,08022.8913,W,1,11,1.5,7,"
"##MN+00 00 54 0250 01965 5913 438351 346943 196"
"159.797951"
"$GPGGA,190859,2450.4173,N,08022.8898,W,1,11,1.5,7,"
"##MN+00 00 55 0251 01967 5912 438339 346932 196"
"159.797998"
"#increment_net"
"$GPGGA,190903,2450.4167,N,08022.8883,W,1,11,1.5,7,"
"##MN-00 00 55 0252 01967 5910 438328 346936 196"
"159.798044"
"$GPGGA,190907,2450.4162,N,08022.8868,W,1,11,1.5,7,"
"##MN-00 00 55 0253 01964 5908 438320 346936 196"
"159.79809"
"$GPGGA,190911,2450.4157,N,08022.8853,W,1,11,1.5,7,"
"##MN-00 00 55 0254 01967 5907 438320 346934 196"
"159.798137"
"$GPGGA,190915,2450.4151,N,08022.8837,W,1,11,1.5,7,"
"##MN-00 00 55 0254 01965 5906 438307 346932 196"
"159.798183"
"$GPGGA,190919,2450.4146,N,08022.8822,W,1,11,1.5,7,"
"##MN-00 00 55 0255 01964 5904 438289 346931 196"
"159.798229"
"$GPGGA,190923,2450.4141,N,08022.8807,W,1,11,1.5,7,"
"##MN-00 00 55 0256 01963 5902 438278 346931 196"
"159.799259"
"$GPGGA,191049,2450.4032,N,08022.8472,W,1,11,1.5,6,"
"##MN-00 00 56 0279 01962 5870 438291 346930 196"
"159.799306"
"$GPGGA,191056,2450.4022,N,08022.8443,W,1,11,1.5,6,"
"##MN+00 00 56 0280 01962 5868 438289 346948 196"
"159.799352"
"$GPGGA,191100,2450.4018,N,08022.8428,W,1,11,1.5,6,"
"##MN+00 00 57 0281 01963 5867 438282 346946 196"
"159.799398"
"$GPGGA,191104,2450.4014,N,08022.8412,W,1,11,1.5,6,"
"##MN+00 00 56 0282 01962 5866 438314 346951 196"
"159.799444"
"$GPGGA,191108,2450.4008,N,08022.8396,W,1,11,1.5,6,"
"##MN-00 00 56 0283 01961 5864 438363 346966 196"
"159.799491"
"$GPGGA,191112,2450.4003,N,08022.8380,W,1,11,1.5,6,"
"##MN+00 00 56 0284 01963 5863 438396 346975 196"
"159.799549"
"$GPGGA,191116,2450.3998,N,08022.8364,W,1,11,1.5,6,"
"##MN+00 00 56 0285 01962 5862 438411 346985 196"
"159.799595"
"$GPGGA,191120,2450.3993,N,08022.8348,W,1,11,1.5,6,"
"##MN+00 00 56 0286 01961 5860 438422 346993 196"
"159.799641"
"#increment_net"
"$GPGGA,191124,2450.3988,N,08022.8333,W,1,10,1.5,6,"
"##MN-00 00 56 0287 01962 5859 438415 347002 197"
"159.799687"
"$GPGGA,191128,2450.3985,N,08022.8319,W,1,11,1.5,6,"
"##MN-00 00 56 0288 01962 5857 438408 347002 197"
"159.799734"
"$GPGGA,191132,2450.3980,N,08022.8305,W,1,10,1.5,6,"
"##MN-00 00 55 0289 01963 5856 438381 346998 197"
"159.79978"
"$GPGGA,191136,2450.3975,N,08022.8291,W,1,11,1.5,6,"
"##MN-00 00 56 0290 01963 5855 438351 346972 197"
"159.799826"
"$GPGGA,191140,2450.3971,N,08022.8276,W,1,11,1.5,6,"
"##MN-00 00 55 0291 01960 5854 438334 346942 197"
"159.799873"
"$GPGGA,191144,2450.3965,N,08022.8262,W,1,11,1.5,6,"
"##MN-00 00 57 0292 01954 5852 438286 346959 197"
"159.799919"
"$GPGGA,191148,2450.3960,N,08022.8248,W,1,11,1.5,6,"
"##MN-00 00 55 0293 01946 5851 438193 346967 197"
"159.799965"
"$GPGGA,191152,2450.3956,N,08022.8233,W,1,11,1.5,7,"
"##MN-00 00 57 0294 01941 5850 438083 346921 197"
"159.800012"
"$GPGGA,191157,2450.3949,N,08022.8214,W,1,11,1.5,7,"
"##MN-00 00 55 0295 01935 5849 437969 346898 197"
"159.800058"
"$GPGGA,191200,2450.3946,N,08022.8202,W,1,11,1.5,7,"
"##MN-00 00 57 0296 01924 5847 437821 346832 197"
"159.800104"
"$GPGGA,191205,2450.3942,N,08022.8180,W,1,11,1.5,7,"
"##MN-00 00 56 0297 01917 5846 437683 346779 197"
"159.80015"
"$GPGGA,191209,2450.3938,N,08022.8165,W,1,11,1.5,7,"
"##MN-00 00 55 0298 01911 5844 437547 346779 197"
"159.800197"
"$GPGGA,191213,2450.3935,N,08022.8150,W,1,11,1.5,7,"
"##MN-00 00 56 0300 01904 5843 437331 346741 197"
"159.800243"
"$GPGGA,191217,2450.3931,N,08022.8134,W,1,11,1.5,7,"
"##MN-00 00 55 0301 01898 5841 436959 346695 197"
"159.800289"
"$GPGGA,191221,2450.3928,N,08022.8118,W,1,11,1.5,7,"
"##MN-00 00 55 0302 01887 5840 436315 346600 197"
"159.800336"
"$GPGGA,191225,2450.3924,N,08022.8102,W,1,10,1.5,7,"
"##MN-00 00 54 0303 01881 5838 435681 346379 197"
"159.800382"
"$GPGGA,191229,2450.3920,N,08022.8089,W,1,11,1.5,7,"
"##MN-00 00 54 0304 01871 5837 435179 346403 197"
"159.800428"
"$GPGGA,191233,2450.3916,N,08022.8074,W,1,11,1.5,7,"
"##MN-00 00 54 0305 01863 5836 434720 346382 197"
"159.800475"
"$GPGGA,191237,2450.3914,N,08022.8060,W,1,11,1.5,7,"
"##MN-00 00 54 0307 01860 5835 433971 346383 197"
"159.800521"
"$GPGGA,191241,2450.3911,N,08022.8045,W,1,11,1.5,7,"
"##MN-00 00 54 0308 01858 5833 432739 345701 197"
"159.800567"
"$GPGGA,191245,2450.3909,N,08022.8029,W,1,11,1.5,7,"
"##MN-00 00 55 0309 01858 5832 431779 345448 197"
"159.800613"
"$GPGGA,191249,2450.3904,N,08022.8013,W,1,11,1.5,7,"
"##MN-00 00 55 0310 01856 5831 431083 345364 197"
"159.80066"
"$GPGGA,191253,2450.3900,N,08022.7996,W,1,10,1.5,7,"
"##MN-00 00 55 0311 01856 5830 428753 344820 197"
"159.800706"
"$GPGGA,191257,2450.3897,N,08022.7979,W,1,11,1.5,7,"
"##MN-00 00 57 0312 01856 5828 427705 344206 197"
"159.800752"
"$GPGGA,191301,2450.3893,N,08022.7962,W,1,10,1.5,7,"
"##MN-00 00 58 0312 01855 5827 427729 343940 197"
"159.800799"
"$GPGGA,191305,2450.3888,N,08022.7946,W,1,11,1.5,7,"
"##MN-00 00 58 0313 01857 5826 428539 434615 197"
"159.800845"
"$GPGGA,191309,2450.3884,N,08022.7929,W,1,11,1.5,7,"
"##MN-00 00 55 0313 01856 5825 433094 782096 197"
"159.800891"
"$GPGGA,191313,2450.3880,N,08022.7912,W,1,11,1.5,7,"
"##MN-00 00 57 0313 01856 5824 438362 845710 197"
"159.800937"
"$GPGGA,191317,2450.3876,N,08022.7894,W,1,11,1.5,7,"
"##MN-00 00 55 0314 01857 5823 442126 898402 197"
"159.800984"
"$GPGGA,191321,2450.3871,N,08022.7877,W,1,11,1.5,7,"
"##MN-00 00 49 0315 01855 5822 445068 905666 197"
"159.80103"
"$GPGGA,191325,2450.3866,N,08022.7861,W,1,11,1.5,7,"
"##MN-00 00 53 0316 01858 5820 447996 905548 197"
"159.801076"
"$GPGGA,191329,2450.3859,N,08022.7844,W,1,11,1.5,7,"
"##MN-00 00 48 0317 01858 5819 450078 905561 197"
"159.801123"
"$GPGGA,191333,2450.3853,N,08022.7827,W,1,11,1.5,6,"
"##MN-00 00 46 0318 01858 5818 451542 905634 197"
"159.801169"
"$GPGGA,191337,2450.3846,N,08022.7810,W,1,11,1.5,6,"
"##MN-00 00 45 0319 01855 5817 451341 905845 197"
" Tow: L9s-B   RVWS/WS1406"
" Date: 06/08/2014"
" Temperature Probe #  2597    Conductivity Probe #  2870"
" Pressure Probe #  109"
" Flow Meter Calibration  4.71 (m/count)  "
"159.817766"
"$GPGGA,193727,2450.8782,N,08022.7486,W,1,11,1.6,10"
"##MN-00 00 37 0331 01852 6051 000038 908617 196"
" Tow: L9s-B   RVWS/WS1406"
" Date: 06/08/2014"
" Temperature Probe #  2597    Conductivity Probe #  2870"
" Pressure Probe #  109"
" Flow Meter Calibration  4.71 (m/count)  "
"159.818877"
"$GPGGA,193909,2450.9386,N,08022.8119,W,1,10,1.6,12"
"##MN-00 00 62 0351 01983 6083 428090 376809 196"
"159.818924"
"$GPGGA,193912,2450.9393,N,08022.8137,W,1,10,1.6,12"
"##MN-00 00 62 0352 01989 6083 438142 347056 196"
"159.81897"
"$GPGGA,193917,2450.9411,N,08022.8168,W,1,11,1.6,12"
"##MN-00 00 61 0353 01996 6084 438219 347089 196"
"159.819016"
"$GPGGA,193921,2450.9425,N,08022.8191,W,1,10,1.6,12"
"##MN-00 00 61 0354 02001 6085 438321 347135 196"
"159.819062"
"$GPGGA,193925,2450.9439,N,08022.8215,W,1,10,1.6,12"
"##MN-00 00 61 0355 02007 6085 438405 347138 196"
"159.819109"
"$GPGGA,193929,2450.9454,N,08022.8237,W,1,11,1.6,13"
"##MN-00 00 62 0356 02015 6086 438532 347175 196"
"159.819155"
"$GPGGA,193933,2450.9469,N,08022.8259,W,1,11,1.6,12"
"##MN-00 00 61 0357 02018 6086 438651 347254 196"
"159.819201"
"$GPGGA,193937,2450.9483,N,08022.8278,W,1,10,1.9,12"
"##MN-00 00 60 0358 02016 6086 438769 347292 196"
"159.819248"
"$GPGGA,193941,2450.9494,N,08022.8302,W,1,10,1.9,12"
"##MN-00 00 60 0360 02014 6086 438813 347299 196"
"159.819294"
"$GPGGA,193945,2450.9508,N,08022.8325,W,1,10,1.9,11"
"##MN-00 00 61 0361 02014 6086 438833 347298 196"
"159.81934"
"$GPGGA,193949,2450.9520,N,08022.8349,W,1,10,1.9,11"
"##MN-00 00 62 0362 02011 6086 438845 347314 196"
"159.819398"
"$GPGGA,193953,2450.9533,N,08022.8371,W,1,11,1.6,11"
"##MN-00 00 60 0364 02001 6087 438868 347372 196"
"159.819444"
"$GPGGA,193957,2450.9545,N,08022.8392,W,1,10,1.9,10"
"##MN-00 00 61 0365 01995 6087 438876 347379 196"
"159.819491"
"$GPGGA,194001,2450.9556,N,08022.8414,W,1,11,1.6,10"
"##MN-00 00 61 0367 01988 6086 438788 347380 196"
"159.819537"
"$GPGGA,194005,2450.9567,N,08022.8434,W,1,10,1.9,10"
"##MN-00 00 61 0368 01983 6086 438724 347382 196"
"159.819583"
"$GPGGA,194009,2450.9581,N,08022.8455,W,1,10,1.9,10"
"##MN-00 00 61 0369 01977 6086 438620 347350 196"
"159.81963"
"$GPGGA,194013,2450.9594,N,08022.8475,W,1,10,1.9,10"
"##MN-00 00 61 0371 01970 6086 438527 347318 196"
"159.819676"
"$GPGGA,194017,2450.9606,N,08022.8493,W,1,10,1.9,10"
"##MN-00 00 61 0372 01966 6085 438493 347309 196"
"159.819722"
"$GPGGA,194021,2450.9620,N,08022.8512,W,1,10,1.9,9,"
"##MN-00 00 62 0373 01960 6085 438477 347300 196"
"159.819769"
"$GPGGA,194025,2450.9632,N,08022.8533,W,1,10,1.9,9,"
"##MN-00 00 62 0375 01960 6085 438434 347280 196"
"159.819815"
"$GPGGA,194029,2450.9643,N,08022.8551,W,1,10,1.9,9,"
"##MN-00 00 62 0376 01962 6085 438375 347270 196"
"159.819861"
"$GPGGA,194033,2450.9655,N,08022.8570,W,1,10,1.9,9,"
"##MN-00 00 61 0377 01961 6084 438359 347266 196"
"159.819907"
"$GPGGA,194037,2450.9667,N,08022.8589,W,1,10,1.9,8,"
"##MN-00 00 61 0378 01962 6084 438364 347268 196"
"159.819954"
"$GPGGA,194041,2450.9678,N,08022.8613,W,1,11,1.6,8,"
"##MN-00 00 61 0379 01962 6083 438383 347268 196"
"159.82"
"$GPGGA,194045,2450.9689,N,08022.8634,W,1,11,1.6,8,"
"##MN-00 00 61 0381 01962 6083 438403 347255 196"
"159.820046"
"$GPGGA,194049,2450.9700,N,08022.8653,W,1,10,1.9,8,"
"##MN-00 00 61 0382 01964 6082 438428 347252 196"
"159.820093"
"$GPGGA,194053,2450.9711,N,08022.8674,W,1,10,1.9,8,"
"##MN-00 00 61 0383 01962 6082 438437 347247 196"
"159.820139"
"$GPGGA,194057,2450.9724,N,08022.8696,W,1,11,1.9,8,"
"##MN-00 00 62 0384 01963 6081 438439 347249 196"
"159.820185"
"$GPGGA,194101,2450.9736,N,08022.8717,W,1,11,1.6,8,"
"##MN-00 00 61 0385 01964 6080 438442 347242 196"
"159.820232"
"$GPGGA,194105,2450.9750,N,08022.8736,W,1,10,1.7,8,"
"##MN-00 00 62 0387 01966 6079 438480 347243 196"
"159.820278"
"$GPGGA,194109,2450.9765,N,08022.8755,W,1,9,1.6,8,M"
"##MN-00 00 61 0388 01967 6079 438530 347245 196"
"159.820324"
"$GPGGA,194113,2450.9778,N,08022.8775,W,1,10,1.6,9,"
"##MN-00 00 61 0389 01971 6078 438558 347251 196"
"159.82037"
"$GPGGA,194117,2450.9794,N,08022.8791,W,1,10,1.6,9,"
"##MN-00 00 61 0390 01974 6077 438589 347250 196"
"159.820417"
"$GPGGA,194121,2450.9811,N,08022.8808,W,1,10,1.6,10"
"##MN-00 00 61 0391 01975 6076 438610 347261 196"
"159.820463"
"$GPGGA,194125,2450.9823,N,08022.8822,W,1,10,1.7,11"
"##MN-00 00 60 0392 01981 6076 438619 347269 196"
"159.820509"
"$GPGGA,194129,2450.9838,N,08022.8834,W,1,10,1.6,12"
"##MN-00 00 60 0393 01985 6075 438654 347276 196"
"159.820556"
"$GPGGA,194133,2450.9854,N,08022.8848,W,1,9,1.7,12,"
"##MN-00 00 59 0394 01985 6074 438695 347291 196"
"159.820602"
"$GPGGA,194137,2450.9874,N,08022.8858,W,1,11,1.9,12"
"##MN-00 00 59 0395 01991 6073 438747 347303 196"
"159.820648"
"$GPGGA,194141,2450.9894,N,08022.8869,W,1,11,1.6,13"
"##MN-00 00 58 0396 01992 6072 438872 347347 196"
"159.820694"
"$GPGGA,194145,2450.9910,N,08022.8883,W,1,11,1.6,13"
"##MN-00 00 56 0397 01994 6071 439047 347398 196"
"159.820741"
"$GPGGA,194149,2450.9921,N,08022.8898,W,1,9,1.6,13,"
"##MN-00 00 56 0398 01994 6070 439105 347419 196"
"159.820787"
"$GPGGA,194153,2450.9932,N,08022.8913,W,1,9,1.7,13,"
"##MN-00 00 56 0399 01995 6069 439130 347428 196"
"159.820833"
"$GPGGA,194157,2450.9949,N,08022.8927,W,1,10,1.6,13"
"##MN-00 00 55 0400 01996 6068 439134 347440 196"
"159.82088"
"$GPGGA,194201,2450.9966,N,08022.8938,W,1,11,1.6,14"
"##MN-00 00 55 0401 01997 6067 439158 347462 196"
"159.820926"
"$GPGGA,194205,2450.9984,N,08022.8949,W,1,10,1.7,14"
"##MN-00 00 55 0402 01995 6066 439181 347454 196"
"159.820972"
"$GPGGA,194209,2451.0000,N,08022.8960,W,1,11,1.6,14"
"##MN-00 00 54 0403 01997 6065 439189 347474 196"
"159.821019"
"$GPGGA,194213,2451.0018,N,08022.8970,W,1,11,1.6,14"
"##MN-00 00 54 0404 01997 6064 439200 347480 196"
"159.821065"
"$GPGGA,194217,2451.0033,N,08022.8985,W,1,10,1.7,14"
"##MN-00 00 54 0405 01996 6063 439178 347477 196"
"159.821111"
"$GPGGA,194221,2451.0047,N,08022.8997,W,1,11,1.6,14"
"##MN-00 00 53 0406 01994 6061 439126 347475 196"
"159.821157"
"$GPGGA,194225,2451.0061,N,08022.9010,W,1,11,1.6,14"
"##MN-00 00 54 0407 01993 6060 439071 347467 196"
"159.821204"
"$GPGGA,194229,2451.0076,N,08022.9021,W,1,11,1.6,14"
"##MN-00 00 53 0408 01989 6059 439014 347459 196"
"159.82125"
"$GPGGA,194233,2451.0093,N,08022.9033,W,1,11,1.6,14"
"##MN-00 00 53 0409 01991 6058 438937 347437 196"
"159.821296"
"$GPGGA,194237,2451.0111,N,08022.9044,W,1,11,1.6,14"
"##MN-00 00 52 0410 01990 6056 438892 347412 196"
"159.821343"
"$GPGGA,194241,2451.0127,N,08022.9055,W,1,11,1.6,14"
"##MN-00 00 52 0411 01985 6055 438871 347405 196"
"159.821389"
"$GPGGA,194245,2451.0145,N,08022.9066,W,1,11,1.6,14"
"##MN-00 00 52 0412 01984 6054 438861 347397 196"
"159.821435"
"$GPGGA,194249,2451.0163,N,08022.9079,W,1,11,1.6,14"
"##MN-00 00 52 0413 01984 6053 438855 347400 196"
"159.821481"
"$GPGGA,194253,2451.0181,N,08022.9090,W,1,11,1.6,14"
"##MN-00 00 52 0414 01981 6051 438801 347387 196"
"159.821528"
"$GPGGA,194257,2451.0197,N,08022.9101,W,1,11,1.6,14"
"##MN-00 00 52 0415 01981 6050 438739 347365 196"
"159.821574"
"$GPGGA,194301,2451.0213,N,08022.9113,W,1,11,1.6,14"
"##MN-00 00 52 0416 01979 6049 438714 347361 196"
"159.82162"
"$GPGGA,194305,2451.0231,N,08022.9126,W,1,11,1.6,14"
"##MN-00 00 52 0417 01975 6047 438709 347374 196"
"159.821667"
"$GPGGA,194309,2451.0249,N,08022.9137,W,1,11,1.6,13"
"##MN-00 00 52 0418 01974 6046 438716 347358 196"
"159.821713"
"$GPGGA,194313,2451.0267,N,08022.9149,W,1,11,1.6,13"
"##MN-00 00 52 0419 01972 6045 438727 347349 196"
"159.821759"
"$GPGGA,194317,2451.0285,N,08022.9160,W,1,11,1.6,13"
"##MN-00 00 52 0420 01969 6043 438706 347351 196"
"159.821806"
"$GPGGA,194321,2451.0303,N,08022.9173,W,1,11,1.6,13"
"##MN-00 00 52 0421 01967 6042 438679 347342 196"
"159.821852"
"$GPGGA,194325,2451.0320,N,08022.9184,W,1,11,1.6,12"
"##MN-00 00 52 0422 01966 6041 438658 347343 196"
"159.821898"
"$GPGGA,194329,2451.0336,N,08022.9198,W,1,11,1.6,12"
"##MN-00 00 53 0422 01963 6039 438645 347327 196"
"159.821944"
"$GPGGA,194333,2451.0354,N,08022.9209,W,1,11,1.6,12"
"##MN+00 00 53 0423 01966 6038 438630 347320 196"
"159.821991"
"$GPGGA,194337,2451.0371,N,08022.9223,W,1,11,1.6,12"
"##MN+00 00 54 0424 01967 6037 438622 347316 195"
"159.822037"
"$GPGGA,194341,2451.0387,N,08022.9236,W,1,11,1.6,12"
"##MN+00 00 53 0425 01966 6035 438623 347305 196"
"159.822083"
"$GPGGA,194345,2451.0404,N,08022.9249,W,1,11,1.6,12"
"##MN-00 00 53 0426 01965 6034 438632 347311 196"
"159.82213"
"$GPGGA,194350,2451.0425,N,08022.9266,W,1,11,1.6,11"
"##MN-00 00 53 0427 01965 6032 438641 347311 196"
"159.822176"
"$GPGGA,194354,2451.0441,N,08022.9278,W,1,11,1.6,11"
"##MN-00 00 53 0428 01965 6031 438641 347314 196"
"159.822222"
"$GPGGA,194358,2451.0459,N,08022.9292,W,1,11,1.6,11"
"##MN-00 00 53 0429 01965 6029 438639 347322 196"
"159.822268"
"$GPGGA,194402,2451.0477,N,08022.9304,W,1,11,1.6,11"
"##MN-00 00 53 0430 01964 6028 438629 347303 196"
"159.822315"
"$GPGGA,194405,2451.0488,N,08022.9314,W,1,11,1.6,11"
"##MN-00 00 53 0431 01965 6026 438631 347285 196"
"159.822361"
"$GPGGA,194410,2451.0509,N,08022.9332,W,1,11,1.6,11"
"##MN-00 00 52 0432 01962 6025 438630 347320 196"
"159.822407"
"$GPGGA,194414,2451.0524,N,08022.9346,W,1,11,1.6,11"
"##MN-00 00 52 0433 01963 6023 438623 347320 196"
"159.822454"
"$GPGGA,194418,2451.0542,N,08022.9361,W,1,11,1.6,11"
"##MN-00 00 53 0433 01966 6021 438630 347320 196"
"159.8225"
"$GPGGA,194422,2451.0557,N,08022.9373,W,1,11,1.6,11"
"##MN+00 00 52 0434 01966 6020 438640 347322 196"
"159.822546"
"$GPGGA,194426,2451.0574,N,08022.9387,W,1,11,1.6,11"
"##MN+00 00 53 0435 01965 6019 438631 347326 196"
"159.822604"
"$GPGGA,194430,2451.0592,N,08022.9401,W,1,11,1.6,11"
"##MN+00 00 60 0436 01966 6017 438610 347319 196"
"159.82265"
"$GPGGA,194434,2451.0609,N,08022.9415,W,1,11,1.6,12"
"##MN+00 00 55 0437 01966 6016 438586 347319 196"
"159.822697"
"$GPGGA,194438,2451.0627,N,08022.9429,W,1,11,1.6,12"
"##MN-00 00 52 0438 01965 6015 438589 347316 196"
"159.822743"
"#increment_net"
"$GPGGA,194442,2451.0645,N,08022.9443,W,1,11,1.6,12"
"##MN-00 00 51 0439 01964 6013 438589 347313 196"
"159.822789"
"$GPGGA,194446,2451.0661,N,08022.9456,W,1,11,1.6,12"
"##MN-00 00 51 0440 01964 6012 438595 347313 196"
"159.822836"
"$GPGGA,194450,2451.0679,N,08022.9470,W,1,11,1.5,12"
"##MN-00 00 51 0441 01962 6010 438599 347312 196"
"159.822882"
"$GPGGA,194454,2451.0697,N,08022.9483,W,1,11,1.6,12"
"##MN-00 00 51 0442 01961 6009 438597 347298 196"
"159.822928"
"$GPGGA,194458,2451.0715,N,08022.9496,W,1,11,1.6,12"
"##MN-00 00 51 0442 01962 6007 438579 347306 196"
"159.822975"
"$GPGGA,194502,2451.0733,N,08022.9509,W,1,11,1.5,12"
"##MN-00 00 51 0443 01961 6006 438548 347309 196"
"159.823021"
"$GPGGA,194506,2451.0752,N,08022.9520,W,1,11,1.9,12"
"##MN-00 00 52 0444 01962 6004 438513 347308 196"
"159.823067"
"$GPGGA,194510,2451.0772,N,08022.9531,W,1,10,1.5,11"
"##MN-00 00 52 0445 01961 6003 438473 347301 196"
"159.823113"
"$GPGGA,194514,2451.0790,N,08022.9542,W,1,10,1.5,11"
"##MN-00 00 52 0446 01961 6001 438455 347237 196"
"159.82316"
"$GPGGA,194518,2451.0809,N,08022.9556,W,1,11,1.5,10"
"##MN-00 00 52 0447 01962 5999 438488 347293 196"
"159.823206"
"$GPGGA,194522,2451.0829,N,08022.9571,W,1,11,1.5,10"
"##MN-00 00 51 0448 01961 5998 438445 347294 196"
"159.823252"
"$GPGGA,194526,2451.0849,N,08022.9586,W,1,11,1.6,10"
"##MN-00 00 52 0449 01960 5996 438486 347292 196"
"159.823299"
"$GPGGA,194530,2451.0863,N,08022.9595,W,1,11,1.9,11"
"##MN-00 00 52 0450 01959 5995 438546 347294 196"
"159.823345"
"$GPGGA,194534,2451.0891,N,08022.9607,W,1,10,1.8,11"
"##MN-00 00 52 0451 01960 5993 438608 347311 196"
"159.823391"
"$GPGGA,194538,2451.0906,N,08022.9618,W,1,10,1.5,11"
"##MN-00 00 52 0451 01957 5992 438682 347329 196"
"159.823438"
"$GPGGA,194542,2451.0927,N,08022.9632,W,1,11,1.6,11"
"##MN-00 00 52 0452 01957 5990 438725 347323 196"
"159.823484"
"$GPGGA,194546,2451.0954,N,08022.9646,W,1,11,1.5,11"
"##MN-00 00 52 0453 01957 5988 438727 347344 196"
"159.82353"
"$GPGGA,194550,2451.0975,N,08022.9660,W,1,11,1.5,11"
"##MN-00 00 52 0454 01955 5987 438682 347333 196"
"159.823576"
"$GPGGA,194554,2451.0996,N,08022.9673,W,1,11,1.5,11"
"##MN-00 00 52 0455 01955 5986 438587 347317 196"
"159.823623"
"$GPGGA,194558,2451.1017,N,08022.9684,W,1,11,1.5,11"
"##MN-00 00 53 0456 01957 5984 438452 347289 196"
"159.823669"
"$GPGGA,194602,2451.1036,N,08022.9697,W,1,11,1.5,11"
"##MN-00 00 54 0457 01959 5982 438320 347247 196"
"159.823715"
"$GPGGA,194606,2451.1055,N,08022.9711,W,1,11,1.5,11"
"##MN-00 00 54 0458 01961 5981 438232 347214 196"
"159.823762"
"$GPGGA,194610,2451.1076,N,08022.9725,W,1,11,1.5,11"
"##MN-00 00 54 0459 01960 5979 438205 347194 196"
"159.823808"
"$GPGGA,194614,2451.1095,N,08022.9738,W,1,11,1.5,11"
"##MN-00 00 53 0460 01961 5978 438172 347202 196"
"159.823854"
"$GPGGA,194618,2451.1113,N,08022.9752,W,1,10,1.5,11"
"##MN-00 00 52 0460 01961 5976 438098 347096 196"
"159.8239"
"$GPGGA,194622,2451.1133,N,08022.9766,W,1,11,1.5,11"
"##MN-00 00 53 0461 01962 5974 438050 347043 196"
"159.823947"
"$GPGGA,194626,2451.1152,N,08022.9779,W,1,11,1.5,11"
"##MN+00 00 52 0462 01961 5973 438027 347026 196"
"159.823993"
"$GPGGA,194630,2451.1170,N,08022.9794,W,1,11,1.5,11"
"##MN+00 00 52 0463 01962 5971 438020 347087 196"
"159.824039"
"$GPGGA,194634,2451.1188,N,08022.9806,W,1,11,1.5,11"
"##MN+00 00 52 0464 01962 5970 438019 347129 196"
"159.824086"
"$GPGGA,194638,2451.1206,N,08022.9819,W,1,11,1.5,11"
"##MN-00 00 52 0465 01964 5968 438025 347126 195"
"159.824132"
"$GPGGA,194642,2451.1224,N,08022.9831,W,1,11,1.5,11"
"##MN-00 00 52 0466 01963 5967 438055 347129 196"
"159.824178"
"$GPGGA,194646,2451.1243,N,08022.9844,W,1,11,1.5,11"
"##MN-00 00 53 0467 01964 5965 438096 347133 196"
"159.824225"
"$GPGGA,194650,2451.1261,N,08022.9855,W,1,10,1.5,11"
"##MN+00 00 52 0468 01965 5964 438171 347148 196"
"159.824271"
"$GPGGA,194654,2451.1281,N,08022.9866,W,1,10,1.5,11"
"##MN+00 00 62 0469 01967 5962 438344 347181 196"
"159.824317"
"#increment_net"
"$GPGGA,194658,2451.1299,N,08022.9878,W,1,10,1.5,11"
"##MN+00 00 57 0469 01967 5960 438523 347205 195"
"159.824363"
"$GPGGA,194702,2451.1317,N,08022.9889,W,1,10,1.5,11"
"##MN-00 00 53 0470 01968 5958 438671 347245 196"
"159.82441"
"$GPGGA,194706,2451.1335,N,08022.9902,W,1,10,1.5,11"
"##MN-00 00 51 0471 01967 5957 438791 347277 196"
"159.824456"
"$GPGGA,194710,2451.1353,N,08022.9913,W,1,10,1.5,11"
"##MN-00 00 50 0472 01969 5955 438878 347309 196"
"159.824502"
"$GPGGA,194714,2451.1371,N,08022.9924,W,1,10,1.5,11"
"##MN-00 00 50 0473 01966 5954 439014 347350 196"
"159.824549"
"$GPGGA,194718,2451.1389,N,08022.9936,W,1,10,1.5,11"
"##MN-00 00 50 0474 01966 5953 439121 347396 196"
"159.824595"
"$GPGGA,194722,2451.1405,N,08022.9949,W,1,10,1.5,11"
"##MN-00 00 49 0475 01965 5951 439190 347421 196"
"159.824641"
"$GPGGA,194726,2451.1423,N,08022.9960,W,1,10,1.5,11"
"##MN-00 00 49 0476 01964 5950 439218 347410 196"
"159.824687"
"$GPGGA,194730,2451.1440,N,08022.9972,W,1,10,1.5,11"
"##MN-00 00 49 0477 01963 5948 439197 347440 196"
"159.824734"
"$GPGGA,194734,2451.1456,N,08022.9985,W,1,10,1.5,11"
"##MN-00 00 49 0478 01961 5947 439101 347444 196"
"159.82478"
"$GPGGA,194738,2451.1474,N,08022.9996,W,1,10,1.5,11"
"##MN-00 00 49 0479 01959 5945 438977 347432 196"
"159.824826"
"$GPGGA,194742,2451.1492,N,08023.0007,W,1,10,1.5,11"
"##MN-00 00 50 0479 01962 5944 438853 347396 196"
"159.824873"
"$GPGGA,194746,2451.1510,N,08023.0018,W,1,10,1.5,10"
"##MN-00 00 50 0480 01961 5942 438785 347392 196"
"159.824919"
"$GPGGA,194750,2451.1528,N,08023.0029,W,1,9,1.5,10,"
"##MN-00 00 50 0481 01960 5940 438750 347379 196"
"159.824965"
"$GPGGA,194754,2451.1545,N,08023.0040,W,1,9,1.8,10,"
"##MN-00 00 50 0482 01963 5939 438696 347354 196"
"159.825012"
"$GPGGA,194758,2451.1563,N,08023.0052,W,1,10,1.8,10"
"##MN-00 00 50 0483 01960 5938 438650 347382 196"
"159.825058"
"$GPGGA,194802,2451.1579,N,08023.0062,W,1,9,1.8,10,"
"##MN-00 00 50 0484 01962 5936 438626 347420 196"
"159.825104"
"$GPGGA,194806,2451.1597,N,08023.0073,W,1,9,1.8,10,"
"##MN-00 00 50 0484 01962 5934 438607 347386 196"
"159.82515"
"$GPGGA,194810,2451.1615,N,08023.0084,W,1,9,1.8,10,"
"##MN-00 00 49 0485 01962 5933 438588 347308 196"
"159.825197"
"$GPGGA,194814,2451.1632,N,08023.0097,W,1,9,1.8,9,M"
"##MN-00 00 49 0486 01961 5931 438578 347308 196"
"159.825243"
"$GPGGA,194818,2451.1648,N,08023.0108,W,1,9,1.8,9,M"
"##MN-00 00 49 0487 01962 5930 438579 347365 196"
"159.825289"
"$GPGGA,194822,2451.1665,N,08023.0123,W,1,10,1.5,9,"
"##MN-00 00 49 0488 01961 5929 438584 347387 196"
"159.825336"
"$GPGGA,194827,2451.1687,N,08023.0141,W,1,10,1.5,10"
"##MN-00 00 49 0489 01962 5927 438584 347383 196"
"159.825382"
"$GPGGA,194831,2451.1705,N,08023.0152,W,1,10,1.5,10"
"##MN-00 00 49 0490 01963 5925 438600 347382 196"
"159.825428"
"$GPGGA,194835,2451.1723,N,08023.0164,W,1,10,1.5,10"
"##MN+00 00 49 0490 01963 5924 438622 347389 196"
"159.825475"
"$GPGGA,194839,2451.1741,N,08023.0177,W,1,10,1.5,11"
"##MN+00 00 49 0491 01964 5923 438657 347397 195"
"159.825521"
"$GPGGA,194843,2451.1759,N,08023.0188,W,1,10,1.5,11"
"##MN+00 00 49 0492 01961 5921 438690 347405 196"
"159.825567"
"$GPGGA,194847,2451.1776,N,08023.0199,W,1,10,1.5,11"
"##MN-00 00 49 0493 01962 5919 438723 347416 196"
"159.825613"
"$GPGGA,194851,2451.1792,N,08023.0210,W,1,10,1.5,12"
"##MN-00 00 49 0494 01963 5918 438754 347416 196"
"159.82566"
"$GPGGA,194855,2451.1810,N,08023.0221,W,1,10,1.5,12"
"##MN-00 00 49 0495 01961 5916 438779 347415 196"
"159.825718"
"$GPGGA,194859,2451.1827,N,08023.0232,W,1,10,1.5,12"
"##MN-00 00 49 0495 01962 5915 438803 347430 196"
"159.825764"
"$GPGGA,194903,2451.1843,N,08023.0243,W,1,10,1.5,12"
"##MN-00 00 49 0496 01962 5913 438839 347428 196"
"159.82581"
"$GPGGA,194907,2451.1861,N,08023.0254,W,1,10,1.5,12"
"##MN+00 00 49 0497 01965 5912 438874 347434 196"
"159.825856"
"$GPGGA,194911,2451.1879,N,08023.0267,W,1,10,1.5,12"
"##MN+00 00 59 0498 01967 5911 438918 347459 195"
"159.825903"
"#increment_net"
"$GPGGA,194915,2451.1896,N,08023.0278,W,1,10,1.5,12"
"##MN+00 00 55 0499 01964 5909 438962 347463 196"
"159.825949"
"$GPGGA,194919,2451.1911,N,08023.0289,W,1,10,1.5,12"
"##MN-00 00 51 0500 01964 5908 439020 347493 195"
"159.825995"
"$GPGGA,194923,2451.1929,N,08023.0301,W,1,10,1.5,12"
"##MN-00 00 50 0501 01963 5906 438999 347502 195"
"159.826042"
"$GPGGA,194927,2451.1946,N,08023.0314,W,1,10,1.5,12"
"##MN-00 00 49 0501 01962 5904 438968 347505 195"
"159.826088"
"$GPGGA,194931,2451.1962,N,08023.0325,W,1,10,1.5,12"
"##MN-00 00 49 0502 01963 5903 438969 347513 195"
"159.826134"
"$GPGGA,194935,2451.1980,N,08023.0336,W,1,10,1.5,12"
"##MN-00 00 48 0503 01962 5901 438990 347525 195"
"159.826181"
"$GPGGA,194939,2451.1998,N,08023.0347,W,1,10,1.5,12"
"##MN-00 00 48 0504 01961 5900 438982 347528 195"
"159.826227"
"$GPGGA,194943,2451.2015,N,08023.0359,W,1,10,1.5,12"
"##MN-00 00 48 0505 01964 5899 438964 347528 195"
"159.826273"
"$GPGGA,194947,2451.2033,N,08023.0370,W,1,10,1.5,12"
"##MN-00 00 48 0506 01963 5897 438942 347534 195"
"159.826319"
"$GPGGA,194951,2451.2048,N,08023.0383,W,1,10,1.5,12"
"##MN-00 00 48 0507 01960 5896 438927 347548 195"
"159.826366"
"$GPGGA,194955,2451.2066,N,08023.0394,W,1,10,1.5,11"
"##MN-00 00 49 0508 01961 5894 438924 347546 195"
"159.826412"
"$GPGGA,194959,2451.2084,N,08023.0406,W,1,10,1.5,11"
"##MN-00 00 49 0508 01961 5893 438933 347547 195"
"159.826458"
"$GPGGA,195003,2451.2101,N,08023.0417,W,1,10,1.5,11"
"##MN-00 00 49 0509 01961 5891 438953 347551 195"
"159.826505"
"$GPGGA,195007,2451.2119,N,08023.0427,W,1,10,1.5,11"
"##MN-00 00 49 0510 01962 5890 438984 347555 195"
"159.826551"
"$GPGGA,195011,2451.2135,N,08023.0438,W,1,10,1.5,11"
"##MN-00 00 49 0511 01962 5888 439015 347548 195"
"159.826597"
"$GPGGA,195015,2451.2153,N,08023.0451,W,1,10,1.5,10"
"##MN-00 00 48 0512 01964 5887 439028 347536 195"
"159.826644"
"$GPGGA,195019,2451.2173,N,08023.0459,W,1,10,1.5,10"
"##MN-00 00 48 0513 01964 5885 439022 347566 195"
"159.82669"
"$GPGGA,195023,2451.2191,N,08023.0470,W,1,10,1.5,10"
"##MN-00 00 48 0514 01962 5884 439033 347572 195"
"159.826736"
"$GPGGA,195027,2451.2207,N,08023.0484,W,1,10,1.5,10"
"##MN-00 00 48 0515 01964 5882 439055 347569 195"
"159.826782"
"$GPGGA,195031,2451.2225,N,08023.0493,W,1,10,1.5,10"
"##MN-00 00 48 0515 01963 5881 439072 347577 195"
"159.826829"
"$GPGGA,195035,2451.2242,N,08023.0506,W,1,9,1.5,10,"
"##MN-00 00 48 0516 01963 5880 439049 347580 195"
"159.826875"
"$GPGGA,195039,2451.2262,N,08023.0516,W,1,10,1.5,10"
"##MN-00 00 48 0517 01963 5878 439006 347565 195"
"159.826921"
"$GPGGA,195043,2451.2279,N,08023.0527,W,1,9,1.5,10,"
"##MN-00 00 49 0518 01960 5877 438967 347564 195"
"159.826968"
"$GPGGA,195047,2451.2296,N,08023.0538,W,1,10,1.5,10"
"##MN-00 00 49 0519 01963 5875 438912 347548 195"
"159.827014"
"$GPGGA,195051,2451.2312,N,08023.0550,W,1,9,1.5,10,"
"##MN-00 00 49 0520 01962 5874 438819 347548 195"
"159.82706"
"$GPGGA,195055,2451.2330,N,08023.0561,W,1,10,1.5,10"
"##MN+00 00 49 0521 01960 5872 438764 347520 195"
"159.827106"
"$GPGGA,195059,2451.2350,N,08023.0571,W,1,9,1.5,10,"
"##MN+00 00 49 0522 01961 5871 438725 347509 195"
"159.827153"
"$GPGGA,195103,2451.2367,N,08023.0582,W,1,10,1.5,10"
"##MN+00 00 49 0522 01960 5870 438728 347505 195"
"159.827199"
"$GPGGA,195107,2451.2384,N,08023.0594,W,1,10,1.5,10"
"##MN-00 00 49 0523 01961 5868 438769 347511 195"
"159.827245"
"$GPGGA,195111,2451.2403,N,08023.0605,W,1,10,1.5,10"
"##MN-00 00 49 0524 01959 5867 438799 347513 195"
"159.827292"
"$GPGGA,195115,2451.2421,N,08023.0616,W,1,10,1.5,10"
"##MN-00 00 49 0525 01962 5866 438829 347521 195"
"159.827338"
"$GPGGA,195119,2451.2441,N,08023.0626,W,1,10,1.5,10"
"##MN-00 00 49 0526 01961 5864 438861 347531 195"
"159.827384"
"$GPGGA,195123,2451.2459,N,08023.0639,W,1,10,1.5,10"
"##MN+00 00 49 0527 01959 5863 438912 347538 195"
"159.827431"
"$GPGGA,195127,2451.2478,N,08023.0650,W,1,10,1.5,9,"
"##MN+00 00 60 0528 01962 5861 438976 347551 195"
"159.827477"
"#increment_net"
"$GPGGA,195131,2451.2496,N,08023.0661,W,1,10,1.5,9,"
"##MN+00 00 55 0529 01961 5860 439004 347550 195"
"159.827523"
"$GPGGA,195135,2451.2514,N,08023.0672,W,1,10,1.5,9,"
"##MN-00 00 52 0530 01959 5859 439017 347532 195"
"159.827569"
"$GPGGA,195139,2451.2533,N,08023.0683,W,1,10,1.5,9,"
"##MN-00 00 50 0531 01959 5857 438994 347536 195"
"159.827616"
"$GPGGA,195143,2451.2551,N,08023.0695,W,1,10,1.5,9,"
"##MN-00 00 49 0531 01961 5856 438993 347544 195"
"159.827662"
"$GPGGA,195147,2451.2571,N,08023.0708,W,1,10,1.5,9,"
"##MN-00 00 49 0532 01959 5854 439020 347550 195"
"159.827708"
"$GPGGA,195151,2451.2590,N,08023.0717,W,1,10,1.5,9,"
"##MN-00 00 49 0533 01960 5853 439033 347565 195"
"159.827755"
"$GPGGA,195155,2451.2608,N,08023.0731,W,1,10,1.5,9,"
"##MN-00 00 49 0534 01961 5852 439027 347578 195"
"159.827801"
"$GPGGA,195159,2451.2623,N,08023.0748,W,1,9,1.5,9,M"
"##MN-00 00 49 0535 01963 5851 438992 347568 195"
"159.827847"
"$GPGGA,195203,2451.2643,N,08023.0759,W,1,10,1.5,10"
"##MN-00 00 49 0536 01960 5849 438949 347570 195"
"159.827893"
"$GPGGA,195207,2451.2662,N,08023.0770,W,1,10,1.5,10"
"##MN-00 00 49 0537 01959 5848 438911 347591 195"
"159.82794"
"$GPGGA,195211,2451.2681,N,08023.0781,W,1,10,1.5,10"
"##MN-00 00 49 0538 01961 5846 438860 347592 195"
"159.827986"
"$GPGGA,195215,2451.2701,N,08023.0791,W,1,10,1.5,10"
"##MN-00 00 49 0539 01959 5845 438831 347575 195"
"159.828032"
"$GPGGA,195219,2451.2720,N,08023.0803,W,1,10,1.5,10"
"##MN-00 00 49 0540 01959 5844 438787 347587 195"
"159.828079"
"$GPGGA,195223,2451.2738,N,08023.0816,W,1,10,1.5,10"
"##MN-00 00 49 0541 01958 5843 438690 347594 195"
"159.828125"
"$GPGGA,195227,2451.2757,N,08023.0827,W,1,10,1.5,10"
"##MN-00 00 49 0542 01958 5841 438543 347561 195"
"159.828171"
"$GPGGA,195231,2451.2775,N,08023.0842,W,1,9,1.5,10,"
"##MN-00 00 49 0543 01959 5840 438452 347552 195"
"159.828218"
"$GPGGA,195235,2451.2793,N,08023.0856,W,1,9,1.5,10,"
"##MN-00 00 49 0544 01958 5838 438383 347583 195"
"159.828264"
"$GPGGA,195239,2451.2811,N,08023.0871,W,1,10,1.5,10"
"##MN-00 00 49 0544 01959 5837 438321 347580 195"
"159.82831"
"$GPGGA,195243,2451.2829,N,08023.0885,W,1,9,1.5,10,"
"##MN-00 00 49 0545 01958 5836 438275 347571 195"
"159.828357"
"$GPGGA,195247,2451.2849,N,08023.0900,W,1,9,1.5,10,"
"##MN-00 00 49 0546 01959 5835 438303 347570 195"
"159.828403"
"$GPGGA,195251,2451.2869,N,08023.0910,W,1,10,1.5,10"
"##MN-00 00 49 0547 01958 5833 438369 347587 195"
"159.828449"
"$GPGGA,195255,2451.2890,N,08023.0923,W,1,9,1.5,10,"
"##MN-00 00 49 0548 01957 5832 438414 347622 195"
"159.828495"
"$GPGGA,195259,2451.2910,N,08023.0936,W,1,9,1.5,11,"
"##MN-00 00 49 0549 01956 5830 438461 347649 195"
"159.828542"
"$GPGGA,195303,2451.2932,N,08023.0946,W,1,10,1.5,11"
"##MN-00 00 49 0550 01955 5829 438526 347693 195"
"159.828588"
"$GPGGA,195307,2451.2952,N,08023.0957,W,1,10,1.5,11"
"##MN+00 00 49 0551 01956 5828 438543 347727 195"
"159.828634"
"$GPGGA,195311,2451.2973,N,08023.0968,W,1,9,1.7,10,"
"##MN+00 00 50 0552 01956 5827 438559 347742 195"
"159.828681"
"$GPGGA,195315,2451.2994,N,08023.0979,W,1,9,1.7,10,"
"##MN+00 00 50 0553 01955 5825 438619 348044 195"
"159.828727"
"$GPGGA,195319,2451.3013,N,08023.0993,W,1,10,1.5,9,"
"##MN-00 00 50 0554 01955 5824 438677 348179 195"
"159.828773"
"$GPGGA,195324,2451.3040,N,08023.1011,W,1,10,1.5,9,"
"##MN-00 00 50 0555 01954 5823 438765 348190 195"
"159.828819"
"$GPGGA,195328,2451.3060,N,08023.1024,W,1,9,1.5,9,M"
"##MN-00 00 50 0556 01955 5822 438855 348217 195"
"159.828866"
"$GPGGA,195332,2451.3080,N,08023.1038,W,1,10,1.5,9,"
"##MN+00 00 50 0557 01955 5820 438940 348217 195"
"159.828924"
"$GPGGA,195336,2451.3100,N,08023.1051,W,1,10,1.5,10"
"##MN+00 00 61 0558 01957 5819 439028 348268 195"
"159.82897"
"$GPGGA,195340,2451.3122,N,08023.1062,W,1,10,1.5,10"
"##MN+00 00 58 0559 01958 5818 439102 348268 195"
"159.829016"
"$GPGGA,195344,2451.3145,N,08023.1073,W,1,10,1.5,10"
"##MN-00 00 54 0560 01963 5817 439174 348291 195"
"159.829062"
"#increment_net"
"$GPGGA,195348,2451.3164,N,08023.1087,W,1,9,1.5,10,"
"##MN-00 00 50 0561 01965 5815 439216 348322 195"
"159.829109"
"$GPGGA,195352,2451.3183,N,08023.1100,W,1,10,1.5,10"
"##MN-00 00 49 0563 01970 5814 439300 348347 195"
"159.829155"
"$GPGGA,195356,2451.3204,N,08023.1111,W,1,9,1.5,10,"
"##MN-00 00 47 0564 01975 5813 439410 348368 195"
"159.829201"
"$GPGGA,195400,2451.3225,N,08023.1125,W,1,9,1.5,10,"
"##MN-00 00 46 0565 01979 5811 439671 348410 195"
"159.829248"
"$GPGGA,195404,2451.3244,N,08023.1141,W,1,9,1.5,10,"
"##MN-00 00 46 0566 01980 5810 439913 348490 195"
"159.829294"
"$GPGGA,195408,2451.3262,N,08023.1156,W,1,10,1.5,10"
"##MN-00 00 45 0567 01982 5809 440086 348558 195"
"159.82934"
"$GPGGA,195412,2451.3284,N,08023.1171,W,1,10,1.5,10"
"##MN-00 00 45 0569 01985 5807 440251 348564 195"
"159.829387"
"$GPGGA,195416,2451.3302,N,08023.1188,W,1,9,1.5,10,"
"##MN-00 00 45 0570 01983 5806 440315 348596 195"
"159.829433"
"$GPGGA,195420,2451.3319,N,08023.1204,W,1,9,1.5,11,"
"##MN-00 00 45 0571 01978 5805 440328 348652 195"
"159.829479"
"$GPGGA,195424,2451.3338,N,08023.1219,W,1,10,1.5,11"
"##MN-00 00 46 0573 01970 5804 440133 348624 195"
"159.829525"
"$GPGGA,195428,2451.3356,N,08023.1235,W,1,9,1.5,11,"
"##MN-00 00 45 0574 01962 5802 439861 348577 195"
"159.829572"
"$GPGGA,195432,2451.3376,N,08023.1250,W,1,9,1.5,11,"
"##MN-00 00 45 0575 01956 5801 439539 348475 195"
"159.829618"
"$GPGGA,195436,2451.3393,N,08023.1265,W,1,9,1.5,11,"
"##MN-00 00 45 0576 01950 5800 439276 348455 195"
"159.829664"
"$GPGGA,195440,2451.3414,N,08023.1279,W,1,10,1.5,12"
"##MN-00 00 45 0578 01942 5799 439042 348340 195"
"159.829711"
"$GPGGA,195444,2451.3434,N,08023.1293,W,1,10,1.5,12"
"##MN-00 00 45 0579 01935 5798 438630 348297 195"
"159.829757"
"$GPGGA,195448,2451.3454,N,08023.1306,W,1,9,1.5,12,"
"##MN-00 00 44 0580 01929 5797 438308 348209 195"
"159.829803"
"$GPGGA,195452,2451.3472,N,08023.1322,W,1,9,1.5,12,"
"##MN-00 00 44 0582 01921 5795 437925 348186 195"
"159.82985"
"$GPGGA,195456,2451.3490,N,08023.1337,W,1,9,1.5,12,"
"##MN-00 00 44 0583 01911 5794 437622 348057 195"
"159.829896"
"$GPGGA,195500,2451.3508,N,08023.1351,W,1,9,1.8,12,"
"##MN-00 00 45 0584 01907 5793 437406 347897 195"
"159.829942"
"$GPGGA,195504,2451.3526,N,08023.1367,W,1,9,1.5,12,"
"##MN-00 00 44 0585 01897 5792 437340 347864 195"
"159.829988"
"$GPGGA,195508,2451.3544,N,08023.1384,W,1,9,1.5,12,"
"##MN-00 00 44 0587 01891 5791 437039 347731 195"
"159.830035"
"$GPGGA,195512,2451.3562,N,08023.1398,W,1,9,1.5,12,"
"##MN-00 00 44 0588 01884 5789 435791 347532 195"
"159.830081"
"$GPGGA,195516,2451.3580,N,08023.1416,W,1,9,1.5,12,"
"##MN-00 00 43 0589 01876 5788 434574 347043 195"
"159.830127"
"$GPGGA,195520,2451.3595,N,08023.1434,W,1,9,1.5,12,"
"##MN-00 00 43 0591 01869 5787 433777 346711 195"
"159.830174"
"$GPGGA,195524,2451.3613,N,08023.1449,W,1,9,1.5,12,"
"##MN-00 00 43 0592 01861 5786 432893 346543 195"
"159.83022"
"$GPGGA,195528,2451.3631,N,08023.1464,W,1,9,1.5,12,"
"##MN-00 00 41 0593 01862 5785 432129 346396 195"
"159.830266"
"$GPGGA,195532,2451.3649,N,08023.1478,W,1,9,1.5,12,"
"##MN-00 00 40 0594 01862 5784 431519 346207 195"
"159.830312"
"$GPGGA,195536,2451.3667,N,08023.1492,W,1,9,1.5,13,"
"##MN-00 00 40 0595 01865 5782 431461 346109 195"
"159.830359"
"$GPGGA,195540,2451.3685,N,08023.1507,W,1,10,1.5,13"
"##MN-00 00 40 0596 01863 5782 431721 346036 195"
"159.830405"
"$GPGGA,195544,2451.3702,N,08023.1525,W,1,9,1.5,13,"
"##MN-00 00 40 0598 01863 5781 431964 346032 195"
"159.830451"
"$GPGGA,195548,2451.3718,N,08023.1542,W,1,9,1.5,13,"
"##MN-00 00 41 0599 01863 5779 431898 346034 195"
"159.830498"
"$GPGGA,195552,2451.3736,N,08023.1558,W,1,9,1.5,13,"
"##MN-00 00 41 0600 01862 5778 431787 345983 195"
"159.830544"
"$GPGGA,195556,2451.3754,N,08023.1573,W,1,9,1.5,13,"
"##MN-00 00 42 0601 01859 5777 431627 345941 195"
"159.83059"
"$GPGGA,195600,2451.3772,N,08023.1590,W,1,9,1.5,13,"
"##MN-00 00 42 0602 01858 5776 430445 345647 195"
"159.830637"
"$GPGGA,195604,2451.3789,N,08023.1609,W,1,9,1.5,13,"
"##MN-00 00 43 0604 01857 5775 428666 345253 195"
