" Tow: L9s-A   RVWS/WS1406"
" Date: 06/08/2014"
" Temperature Probe #  2597    Conductivity Probe #  2870"
" Pressure Probe #  109"
" Flow Meter Calibration  4.71 (m/count)  "
"159.76184"
"$GPGGA,181656,2451.9180,N,08024.9223,W,1,10,1.5,9,"
"##MN-00 00 56 0085 01840 6848 405402 908800 198"
"159.761898"
"$GPGGA,181703,2451.9146,N,08024.9179,W,1,10,1.5,9,"
"##MN-00 00 56 0085 01840 6845 426596 340367 198"
"159.761944"
"$GPGGA,181707,2451.9128,N,08024.9154,W,1,10,1.5,9,"
"##MN-00 00 58 0087 01838 6842 426821 341787 198"
"159.761991"
"$GPGGA,181712,2451.9105,N,08024.9124,W,1,10,1.5,9,"
"##MN-00 00 63 0088 01839 6839 427072 346113 198"
"159.762037"
"$GPGGA,181716,2451.9088,N,08024.9101,W,1,10,1.5,9,"
"##MN-00 00 61 0089 01840 6836 427293 345110 198"
"159.762083"
"$GPGGA,181720,2451.9072,N,08024.9077,W,1,10,1.5,9,"
"##MN-00 00 60 0090 01838 6833 428325 341284 198"
"159.76213"
"$GPGGA,181724,2451.9054,N,08024.9055,W,1,10,1.5,9,"
"##MN-00 00 62 0091 01840 6831 429628 343810 198"
"159.762176"
"$GPGGA,181728,2451.9039,N,08024.9032,W,1,10,1.5,9,"
"##MN-00 00 59 0092 01841 6828 429582 344218 198"
"159.762222"
"$GPGGA,181732,2451.9022,N,08024.9010,W,1,10,1.5,9,"
"##MN-00 00 61 0093 01839 6825 429194 344209 198"
"159.762269"
"$GPGGA,181736,2451.9007,N,08024.8988,W,1,10,1.5,9,"
"##MN-00 00 60 0094 01840 6822 428928 344196 198"
"159.762315"
"$GPGGA,181740,2451.8992,N,08024.8967,W,1,10,1.5,8,"
"##MN-00 00 59 0095 01840 6820 428855 344219 198"
"159.762361"
"$GPGGA,181744,2451.8975,N,08024.8945,W,1,10,1.5,8,"
"##MN-00 00 59 0096 01840 6817 429438 344096 198"
"159.762407"
"$GPGGA,181748,2451.8960,N,08024.8924,W,1,10,1.5,8,"
"##MN-00 00 59 0097 01843 6815 432146 344708 198"
"159.762454"
"$GPGGA,181752,2451.8946,N,08024.8902,W,1,10,1.5,8,"
"##MN-00 00 59 0098 01845 6812 434479 345373 198"
"159.7625"
"$GPGGA,181756,2451.8931,N,08024.8880,W,1,10,1.5,8,"
"##MN-00 00 59 0099 01849 6809 436245 345903 198"
"159.762546"
"$GPGGA,181800,2451.8914,N,08024.8857,W,1,9,1.7,8,M"
"##MN-00 00 60 0100 01854 6807 437561 346218 198"
"159.762593"
"$GPGGA,181804,2451.8899,N,08024.8834,W,1,10,1.5,8,"
"##MN-00 00 60 0101 01859 6804 438547 346619 198"
"159.762639"
"$GPGGA,181808,2451.8880,N,08024.8811,W,1,9,1.7,8,M"
"##MN-00 00 60 0102 01862 6801 439590 346982 198"
"159.762685"
"$GPGGA,181812,2451.8863,N,08024.8789,W,1,9,1.7,8,M"
"##MN-00 00 60 0103 01868 6798 440197 347351 198"
"159.762731"
"$GPGGA,181816,2451.8846,N,08024.8767,W,1,9,1.7,8,M"
"##MN-00 00 60 0104 01871 6795 440897 347684 198"
"159.762778"
"$GPGGA,181820,2451.8830,N,08024.8745,W,1,9,1.7,7,M"
"##MN-00 00 61 0105 01881 6792 441143 347772 198"
"159.762824"
"$GPGGA,181824,2451.8815,N,08024.8723,W,1,9,1.7,7,M"
"##MN-00 00 60 0106 01889 6789 441343 348072 198"
"159.76287"
"$GPGGA,181828,2451.8801,N,08024.8702,W,1,9,1.7,7,M"
"##MN-00 00 60 0107 01895 6787 441744 348167 198"
"159.762917"
"$GPGGA,181832,2451.8788,N,08024.8681,W,1,9,1.7,7,M"
"##MN-00 00 60 0108 01906 6784 442130 348325 198"
"159.762963"
"$GPGGA,181836,2451.8776,N,08024.8659,W,1,9,1.7,7,M"
"##MN-00 00 60 0109 01914 6781 442620 348521 198"
"159.763009"
"$GPGGA,181840,2451.8766,N,08024.8638,W,1,9,1.7,7,M"
"##MN-00 00 61 0109 01922 6778 443224 348589 198"
"159.763056"
"$GPGGA,181844,2451.8757,N,08024.8616,W,1,9,1.7,7,M"
"##MN-00 00 60 0110 01934 6774 443476 348745 198"
"159.763102"
"$GPGGA,181848,2451.8750,N,08024.8595,W,1,9,1.7,6,M"
"##MN-00 00 60 0111 01945 6772 443723 348871 198"
"159.763148"
"$GPGGA,181852,2451.8741,N,08024.8575,W,1,9,1.7,6,M"
"##MN-00 00 59 0112 01954 6769 443926 348973 198"
"159.763194"
"$GPGGA,181856,2451.8733,N,08024.8554,W,1,9,1.7,6,M"
"##MN-00 00 58 0113 01965 6766 444194 349133 198"
"159.763241"
"$GPGGA,181900,2451.8726,N,08024.8534,W,1,9,1.7,6,M"
"##MN-00 00 54 0113 01966 6762 444350 349162 198"
"159.763287"
"$GPGGA,181904,2451.8719,N,08024.8514,W,1,9,1.7,6,M"
"##MN-00 00 52 0114 01964 6759 444433 349133 198"
"159.763333"
"$GPGGA,181908,2451.8711,N,08024.8495,W,1,9,1.7,6,M"
"##MN-00 00 51 0115 01967 6756 444488 349209 198"
"159.76338"
"$GPGGA,181912,2451.8703,N,08024.8474,W,1,9,1.7,6,M"
"##MN-00 00 52 0116 01968 6753 444503 349250 198"
"159.763426"
"$GPGGA,181916,2451.8694,N,08024.8453,W,1,9,1.7,6,M"
"##MN-00 00 51 0117 01968 6750 444507 349244 198"
"159.763472"
"$GPGGA,181920,2451.8685,N,08024.8433,W,1,9,1.7,7,M"
"##MN-00 00 52 0118 01968 6746 444508 349259 198"
"159.763518"
"$GPGGA,181924,2451.8678,N,08024.8412,W,1,9,1.7,7,M"
"##MN-00 00 52 0119 01969 6743 444517 349265 198"
"159.763565"
"$GPGGA,181928,2451.8668,N,08024.8391,W,1,9,1.7,7,M"
"##MN-00 00 52 0120 01966 6740 444526 349274 198"
"159.763611"
"$GPGGA,181932,2451.8660,N,08024.8371,W,1,9,1.7,7,M"
"##MN-00 00 50 0121 01965 6737 444529 349286 198"
"159.763657"
"$GPGGA,181936,2451.8650,N,08024.8349,W,1,9,1.7,7,M"
"##MN-00 00 50 0122 01961 6733 444526 349305 198"
"159.763704"
"$GPGGA,181940,2451.8642,N,08024.8329,W,1,9,1.7,7,M"
"##MN-00 00 51 0123 01959 6730 444502 349304 198"
"159.76375"
"$GPGGA,181944,2451.8632,N,08024.8308,W,1,9,1.7,7,M"
"##MN-00 00 51 0124 01957 6727 444450 349310 198"
"159.763796"
"$GPGGA,181948,2451.8624,N,08024.8287,W,1,9,1.7,7,M"
"##MN-00 00 52 0125 01957 6723 444420 349317 198"
"159.763843"
"$GPGGA,181952,2451.8614,N,08024.8266,W,1,9,1.7,7,M"
"##MN-00 00 52 0126 01957 6720 444365 349294 198"
"159.763889"
"$GPGGA,181956,2451.8605,N,08024.8245,W,1,9,1.7,7,M"
"##MN-00 00 53 0127 01956 6717 444358 349298 198"
"159.763935"
"$GPGGA,182000,2451.8596,N,08024.8224,W,1,9,1.7,7,M"
"##MN-00 00 52 0128 01956 6713 444421 349320 198"
"159.763982"
"$GPGGA,182004,2451.8585,N,08024.8204,W,1,9,1.7,7,M"
"##MN-00 00 52 0129 01956 6710 444457 349316 198"
"159.764028"
"$GPGGA,182008,2451.8575,N,08024.8183,W,1,9,1.7,7,M"
"##MN-00 00 51 0130 01957 6707 444472 349320 198"
"159.764074"
"$GPGGA,182012,2451.8566,N,08024.8162,W,1,9,1.7,7,M"
"##MN-00 00 52 0131 01952 6703 444465 349351 198"
"159.76412"
"$GPGGA,182016,2451.8555,N,08024.8141,W,1,9,1.7,7,M"
"##MN-00 00 53 0132 01950 6700 444452 349365 198"
"159.764167"
"$GPGGA,182020,2451.8546,N,08024.8121,W,1,9,1.7,7,M"
"##MN-00 00 53 0133 01950 6696 444426 349359 198"
"159.764213"
"$GPGGA,182024,2451.8537,N,08024.8102,W,1,9,1.7,6,M"
"##MN-00 00 54 0134 01951 6692 444347 349328 198"
"159.764259"
"$GPGGA,182028,2451.8528,N,08024.8085,W,1,9,1.7,6,M"
"##MN-00 00 52 0134 01953 6689 444331 349296 198"
"159.764306"
"$GPGGA,182032,2451.8519,N,08024.8068,W,1,9,1.7,6,M"
"##MN+00 00 55 0135 01952 6686 444329 349325 198"
"159.764352"
"$GPGGA,182036,2451.8510,N,08024.8051,W,1,9,1.7,6,M"
"##MN+00 00 53 0136 01952 6682 444323 349285 198"
"159.764398"
"$GPGGA,182040,2451.8502,N,08024.8036,W,1,9,1.7,6,M"
"##MN+00 00 52 0137 01952 6679 444339 349288 198"
"159.764444"
"$GPGGA,182044,2451.8493,N,08024.8021,W,1,9,1.7,6,M"
"##MN-00 00 53 0138 01954 6675 444357 349290 198"
"159.764491"
"$GPGGA,182048,2451.8484,N,08024.8006,W,1,9,1.7,6,M"
"##MN-00 00 54 0139 01955 6671 444389 349297 198"
"159.764537"
"$GPGGA,182052,2451.8474,N,08024.7992,W,1,9,1.7,6,M"
"##MN+00 00 52 0140 01955 6668 444425 349328 198"
"159.764583"
"$GPGGA,182056,2451.8465,N,08024.7978,W,1,9,1.7,6,M"
"##MN+00 00 53 0141 01957 6664 444440 349335 198"
"159.76463"
"$GPGGA,182100,2451.8455,N,08024.7965,W,1,9,1.7,6,M"
"##MN+00 00 58 0142 01956 6661 444445 349318 198"
"159.764676"
"$GPGGA,182104,2451.8444,N,08024.7952,W,1,9,1.7,6,M"
"##MN-00 00 55 0143 01955 6657 444448 349350 198"
"159.764722"
"$GPGGA,182108,2451.8433,N,08024.7940,W,1,9,1.7,6,M"
"##MN-00 00 54 0144 01956 6654 444450 349363 198"
"159.764769"
"$GPGGA,182112,2451.8423,N,08024.7927,W,1,9,1.7,6,M"
"##MN-00 00 54 0145 01952 6650 444450 349366 198"
"159.764815"
"#increment_net"
"$GPGGA,182116,2451.8412,N,08024.7914,W,1,9,1.7,6,M"
"##MN-00 00 53 0146 01952 6646 444439 349367 198"
"159.764861"
"$GPGGA,182120,2451.8401,N,08024.7901,W,1,9,1.7,6,M"
"##MN-00 00 54 0147 01952 6643 444409 349361 198"
"159.764907"
"$GPGGA,182124,2451.8390,N,08024.7888,W,1,9,1.7,6,M"
"##MN-00 00 54 0147 01948 6639 444376 349359 198"
"159.764954"
"$GPGGA,182128,2451.8379,N,08024.7874,W,1,9,1.7,6,M"
"##MN-00 00 55 0148 01950 6636 444324 349354 198"
"159.765012"
"$GPGGA,182133,2451.8365,N,08024.7856,W,1,9,1.7,6,M"
"##MN-00 00 55 0149 01948 6631 444234 349336 198"
"159.765058"
"$GPGGA,182137,2451.8355,N,08024.7841,W,1,9,1.7,6,M"
"##MN-00 00 55 0150 01948 6628 444119 349308 198"
"159.765104"
"$GPGGA,182141,2451.8344,N,08024.7826,W,1,9,1.7,6,M"
"##MN-00 00 55 0151 01943 6624 444050 349289 198"
"159.76515"
"$GPGGA,182145,2451.8333,N,08024.7811,W,1,9,1.7,6,M"
"##MN-00 00 56 0152 01943 6620 444034 349269 198"
"159.765197"
"$GPGGA,182149,2451.8322,N,08024.7795,W,1,9,1.7,6,M"
"##MN-00 00 56 0153 01940 6616 444031 349261 198"
"159.765243"
"$GPGGA,182153,2451.8311,N,08024.7779,W,1,9,1.7,6,M"
"##MN-00 00 57 0154 01938 6613 444024 349263 198"
"159.765289"
"$GPGGA,182157,2451.8300,N,08024.7761,W,1,9,1.7,6,M"
"##MN-00 00 57 0155 01936 6609 444020 349262 198"
"159.765336"
"$GPGGA,182201,2451.8288,N,08024.7744,W,1,9,1.7,6,M"
"##MN-00 00 57 0156 01935 6605 444014 349257 198"
"159.765382"
"$GPGGA,182205,2451.8275,N,08024.7727,W,1,9,1.7,6,M"
"##MN-00 00 58 0157 01934 6602 443987 349257 198"
"159.765428"
"$GPGGA,182209,2451.8262,N,08024.7709,W,1,9,1.7,6,M"
"##MN-00 00 58 0159 01929 6598 443928 349243 198"
"159.765475"
"$GPGGA,182213,2451.8248,N,08024.7690,W,1,9,1.7,6,M"
"##MN-00 00 58 0160 01930 6595 443825 349217 198"
"159.765521"
"$GPGGA,182217,2451.8233,N,08024.7672,W,1,9,1.7,7,M"
"##MN-00 00 58 0161 01928 6591 443688 349217 198"
"159.765567"
"$GPGGA,182221,2451.8219,N,08024.7654,W,1,9,1.7,7,M"
"##MN-00 00 58 0162 01928 6587 443463 349201 198"
"159.765613"
"$GPGGA,182225,2451.8204,N,08024.7635,W,1,9,1.7,7,M"
"##MN-00 00 59 0163 01924 6583 443202 349165 198"
"159.76566"
"$GPGGA,182229,2451.8190,N,08024.7617,W,1,9,1.7,7,M"
"##MN-00 00 60 0164 01923 6580 443035 349124 198"
"159.765706"
"$GPGGA,182233,2451.8176,N,08024.7598,W,1,9,1.7,7,M"
"##MN-00 00 60 0165 01923 6576 442952 349093 198"
"159.765752"
"$GPGGA,182237,2451.8162,N,08024.7579,W,1,9,1.7,7,M"
"##MN-00 00 60 0166 01920 6573 442898 349092 198"
"159.765799"
"$GPGGA,182241,2451.8149,N,08024.7560,W,1,9,1.7,7,M"
"##MN-00 00 61 0167 01921 6569 442879 349000 198"
"159.765845"
"$GPGGA,182245,2451.8136,N,08024.7541,W,1,9,1.7,7,M"
"##MN-00 00 61 0168 01922 6565 442899 349032 198"
"159.765891"
"$GPGGA,182249,2451.8122,N,08024.7522,W,1,9,1.7,7,M"
"##MN-00 00 61 0169 01922 6561 442953 349025 198"
"159.765937"
"$GPGGA,182253,2451.8107,N,08024.7502,W,1,9,1.7,7,M"
"##MN-00 00 61 0170 01925 6558 442988 349028 198"
"159.765984"
"$GPGGA,182257,2451.8093,N,08024.7482,W,1,9,1.7,7,M"
"##MN-00 00 61 0171 01924 6554 442996 349039 198"
"159.76603"
"$GPGGA,182301,2451.8079,N,08024.7462,W,1,10,1.6,7,"
"##MN-00 00 62 0172 01926 6551 442971 349038 198"
"159.766076"
"$GPGGA,182305,2451.8066,N,08024.7444,W,1,10,1.6,7,"
"##MN+00 00 61 0173 01926 6547 442924 349005 198"
"159.766123"
"$GPGGA,182309,2451.8053,N,08024.7424,W,1,10,1.6,7,"
"##MN+00 00 62 0175 01930 6543 442895 348978 198"
"159.766169"
"$GPGGA,182313,2451.8039,N,08024.7406,W,1,10,1.6,7,"
"##MN+00 00 61 0176 01930 6540 442925 348952 198"
"159.766215"
"$GPGGA,182317,2451.8027,N,08024.7389,W,1,9,1.6,8,M"
"##MN-00 00 62 0177 01931 6536 443098 349005 198"
"159.766262"
"$GPGGA,182321,2451.8021,N,08024.7374,W,1,10,1.6,8,"
"##MN-00 00 61 0178 01934 6532 443248 349048 198"
"159.766308"
"$GPGGA,182325,2451.8008,N,08024.7358,W,1,10,1.6,9,"
"##MN-00 00 62 0179 01934 6529 443325 349043 198"
"159.766354"
"$GPGGA,182329,2451.7993,N,08024.7341,W,1,10,1.6,9,"
"##MN-00 00 61 0180 01935 6525 443400 349071 198"
"159.7664"
"$GPGGA,182333,2451.7978,N,08024.7322,W,1,10,1.6,9,"
"##MN+00 00 62 0181 01937 6522 443520 349128 198"
"159.766447"
"$GPGGA,182337,2451.7963,N,08024.7303,W,1,10,1.6,10"
"##MN+00 00 62 0182 01936 6518 443609 349146 197"
"159.766493"
"$GPGGA,182341,2451.7949,N,08024.7284,W,1,10,1.6,10"
"##MN+00 00 69 0183 01940 6515 443726 349185 198"
"159.766539"
"$GPGGA,182345,2451.7935,N,08024.7267,W,1,10,1.6,10"
"##MN-00 00 63 0184 01943 6510 443835 349211 197"
"159.766586"
"#increment_net"
"$GPGGA,182349,2451.7923,N,08024.7249,W,1,10,1.6,10"
"##MN-00 00 60 0185 01942 6506 443945 349230 197"
"159.766632"
"$GPGGA,182353,2451.7908,N,08024.7230,W,1,10,1.6,10"
"##MN-00 00 58 0186 01943 6502 444048 349247 197"
"159.766678"
"$GPGGA,182357,2451.7894,N,08024.7211,W,1,10,1.6,10"
"##MN-00 00 56 0187 01941 6499 444144 349264 197"
"159.766725"
"$GPGGA,182401,2451.7881,N,08024.7191,W,1,10,1.6,10"
"##MN-00 00 57 0189 01939 6496 444167 349317 197"
"159.766771"
"$GPGGA,182405,2451.7867,N,08024.7171,W,1,10,1.6,10"
"##MN-00 00 58 0190 01938 6492 444164 349329 197"
"159.766817"
"$GPGGA,182409,2451.7852,N,08024.7152,W,1,10,1.6,10"
"##MN-00 00 57 0191 01939 6489 444196 349346 197"
"159.766863"
"$GPGGA,182413,2451.7838,N,08024.7132,W,1,10,1.6,10"
"##MN-00 00 57 0192 01938 6485 444207 349348 197"
"159.76691"
"$GPGGA,182417,2451.7824,N,08024.7113,W,1,10,1.6,10"
"##MN-00 00 58 0193 01936 6482 444180 349357 197"
"159.766956"
"$GPGGA,182421,2451.7811,N,08024.7093,W,1,10,1.6,10"
"##MN-00 00 57 0194 01940 6479 444163 349368 197"
"159.767002"
"$GPGGA,182425,2451.7796,N,08024.7074,W,1,10,1.6,9,"
"##MN-00 00 58 0195 01944 6475 444209 349364 197"
"159.767049"
"$GPGGA,182429,2451.7782,N,08024.7055,W,1,10,1.6,9,"
"##MN-00 00 58 0196 01943 6472 444269 349391 197"
"159.767095"
"$GPGGA,182433,2451.7768,N,08024.7036,W,1,10,1.6,9,"
"##MN-00 00 58 0197 01947 6468 444330 349422 197"
"159.767141"
"$GPGGA,182437,2451.7755,N,08024.7017,W,1,10,1.6,9,"
"##MN-00 00 58 0199 01949 6465 444354 349418 197"
"159.767188"
"$GPGGA,182441,2451.7742,N,08024.6998,W,1,10,1.6,8,"
"##MN-00 00 58 0200 01950 6461 444371 349413 197"
"159.767234"
"$GPGGA,182445,2451.7728,N,08024.6981,W,1,9,2.7,8,M"
"##MN-00 00 58 0201 01949 6458 444399 349433 197"
"159.76728"
"$GPGGA,182449,2451.7720,N,08024.6967,W,1,10,1.6,8,"
"##MN-00 00 57 0202 01950 6454 444446 349464 197"
"159.767326"
"$GPGGA,182453,2451.7708,N,08024.6951,W,1,10,1.6,8,"
"##MN-00 00 57 0203 01950 6451 444461 349465 197"
"159.767373"
"$GPGGA,182457,2451.7692,N,08024.6934,W,1,10,1.6,8,"
"##MN-00 00 58 0204 01949 6447 444477 349480 197"
"159.767419"
"$GPGGA,182501,2451.7677,N,08024.6917,W,1,10,1.6,8,"
"##MN-00 00 57 0205 01950 6444 444497 349475 197"
"159.767465"
"$GPGGA,182505,2451.7660,N,08024.6901,W,1,10,1.6,8,"
"##MN-00 00 58 0207 01950 6440 444504 349482 197"
"159.767512"
"$GPGGA,182509,2451.7645,N,08024.6883,W,1,10,1.6,8,"
"##MN-00 00 57 0208 01952 6437 444503 349489 197"
"159.767558"
"$GPGGA,182513,2451.7630,N,08024.6867,W,1,10,1.6,8,"
"##MN-00 00 57 0209 01951 6433 444501 349490 197"
"159.767604"
"$GPGGA,182517,2451.7613,N,08024.6851,W,1,10,1.6,8,"
"##MN+00 00 58 0210 01950 6430 444495 349498 197"
"159.76765"
"$GPGGA,182521,2451.7598,N,08024.6836,W,1,10,1.6,8,"
"##MN+00 00 57 0211 01951 6427 444486 349493 198"
"159.767697"
"$GPGGA,182525,2451.7584,N,08024.6820,W,1,10,1.6,7,"
"##MN+00 00 57 0212 01950 6423 444449 349490 198"
"159.767743"
"$GPGGA,182529,2451.7572,N,08024.6805,W,1,10,1.6,7,"
"##MN-00 00 58 0213 01951 6420 444405 349483 197"
"159.767789"
"$GPGGA,182533,2451.7569,N,08024.6793,W,1,10,1.6,8,"
"##MN-00 00 58 0214 01953 6416 444378 349470 198"
"159.767836"
"$GPGGA,182537,2451.7561,N,08024.6777,W,1,10,1.6,8,"
"##MN-00 00 57 0216 01954 6413 444374 349464 198"
"159.767882"
"$GPGGA,182541,2451.7551,N,08024.6759,W,1,10,1.6,9,"
"##MN+00 00 57 0217 01956 6409 444376 349461 198"
"159.767928"
"$GPGGA,182545,2451.7538,N,08024.6741,W,1,10,1.6,9,"
"##MN+00 00 57 0218 01956 6406 444371 349457 197"
"159.767975"
"$GPGGA,182549,2451.7527,N,08024.6722,W,1,10,1.6,10"
"##MN+00 00 69 0219 01962 6403 444384 349459 197"
"159.768021"
"$GPGGA,182553,2451.7516,N,08024.6704,W,1,10,1.6,10"
"##MN-00 00 63 0220 01962 6399 444417 349470 197"
"159.768067"
"#increment_net"
"$GPGGA,182557,2451.7504,N,08024.6686,W,1,10,1.6,10"
"##MN-00 00 58 0221 01960 6395 444405 349473 197"
"159.768113"
"$GPGGA,182601,2451.7493,N,08024.6669,W,1,10,1.6,11"
"##MN-00 00 56 0222 01961 6392 444314 349466 197"
"159.76816"
"$GPGGA,182606,2451.7477,N,08024.6648,W,1,10,1.6,11"
"##MN-00 00 55 0223 01960 6389 444286 349448 197"
"159.768218"
"$GPGGA,182610,2451.7464,N,08024.6631,W,1,10,1.6,11"
"##MN-00 00 55 0224 01957 6386 444195 349421 197"
"159.768264"
"$GPGGA,182613,2451.7453,N,08024.6619,W,1,10,1.6,11"
"##MN-00 00 55 0226 01957 6382 444070 349385 197"
"159.76831"
"$GPGGA,182617,2451.7439,N,08024.6604,W,1,10,1.6,11"
"##MN-00 00 55 0227 01956 6379 444072 349376 197"
"159.768356"
"$GPGGA,182622,2451.7418,N,08024.6584,W,1,10,1.6,11"
"##MN-00 00 56 0228 01957 6376 444168 349385 197"
"159.768403"
"$GPGGA,182626,2451.7402,N,08024.6569,W,1,10,1.6,11"
"##MN-00 00 56 0229 01957 6373 444238 349405 197"
"159.768449"
"$GPGGA,182630,2451.7388,N,08024.6553,W,1,10,1.6,10"
"##MN-00 00 55 0230 01957 6369 444266 349421 197"
"159.768495"
"$GPGGA,182634,2451.7374,N,08024.6536,W,1,10,1.6,10"
"##MN-00 00 56 0231 01956 6366 444290 349424 197"
"159.768542"
"$GPGGA,182638,2451.7361,N,08024.6518,W,1,10,1.6,10"
"##MN-00 00 55 0232 01956 6362 444311 349430 197"
"159.768588"
"$GPGGA,182642,2451.7348,N,08024.6501,W,1,10,1.6,10"
"##MN-00 00 56 0234 01954 6359 444337 349437 197"
"159.768634"
"$GPGGA,182646,2451.7334,N,08024.6483,W,1,10,1.6,10"
"##MN-00 00 56 0235 01955 6355 444378 349447 197"
"159.768681"
"$GPGGA,182650,2451.7321,N,08024.6465,W,1,10,1.6,9,"
"##MN-00 00 55 0236 01956 6352 444375 349463 197"
"159.768727"
"$GPGGA,182654,2451.7311,N,08024.6448,W,1,11,1.4,9,"
"##MN-00 00 56 0237 01953 6349 444351 349404 197"
"159.768773"
"$GPGGA,182658,2451.7302,N,08024.6432,W,1,11,1.4,9,"
"##MN-00 00 56 0238 01954 6346 444296 349345 197"
"159.768819"
"$GPGGA,182702,2451.7291,N,08024.6414,W,1,11,1.4,10"
"##MN-00 00 56 0239 01954 6342 444236 349328 197"
"159.768866"
"$GPGGA,182706,2451.7280,N,08024.6397,W,1,11,1.4,10"
"##MN-00 00 55 0240 01955 6339 444173 349313 197"
"159.768912"
"$GPGGA,182710,2451.7267,N,08024.6379,W,1,11,1.4,10"
"##MN-00 00 57 0242 01951 6336 444129 349289 197"
"159.768958"
"$GPGGA,182714,2451.7251,N,08024.6362,W,1,10,1.6,10"
"##MN-00 00 56 0243 01953 6332 444106 349274 197"
"159.769005"
"$GPGGA,182718,2451.7236,N,08024.6344,W,1,10,1.6,10"
"##MN-00 00 56 0244 01952 6329 444079 349272 197"
"159.769051"
"$GPGGA,182722,2451.7220,N,08024.6328,W,1,10,1.6,10"
"##MN-00 00 56 0245 01951 6326 444056 349268 197"
"159.769097"
"$GPGGA,182726,2451.7204,N,08024.6311,W,1,10,1.6,10"
"##MN+00 00 57 0246 01951 6323 444030 349242 197"
"159.769144"
"$GPGGA,182730,2451.7188,N,08024.6294,W,1,10,1.6,9,"
"##MN+00 00 56 0247 01950 6319 444025 349234 197"
"159.76919"
"$GPGGA,182734,2451.7172,N,08024.6277,W,1,10,1.6,9,"
"##MN+00 00 57 0248 01952 6317 444042 349231 197"
"159.769236"
"$GPGGA,182738,2451.7157,N,08024.6260,W,1,10,1.6,9,"
"##MN-00 00 57 0250 01951 6314 444076 349236 197"
"159.769282"
"$GPGGA,182742,2451.7143,N,08024.6244,W,1,10,1.6,9,"
"##MN-00 00 57 0251 01952 6310 444150 349243 197"
"159.769329"
"$GPGGA,182746,2451.7135,N,08024.6230,W,1,11,1.4,9,"
"##MN-00 00 57 0252 01953 6307 444162 349319 197"
"159.769375"
"$GPGGA,182750,2451.7125,N,08024.6215,W,1,11,1.4,9,"
"##MN+00 00 56 0253 01954 6304 444130 349398 197"
"159.769421"
"$GPGGA,182754,2451.7114,N,08024.6198,W,1,11,1.4,9,"
"##MN+00 00 57 0254 01953 6301 444173 349407 197"
"159.769468"
"$GPGGA,182758,2451.7103,N,08024.6180,W,1,11,1.4,9,"
"##MN+00 00 69 0255 01956 6297 444256 349423 197"
"159.769514"
"#increment_net"
"$GPGGA,182802,2451.7090,N,08024.6163,W,1,11,1.4,10"
"##MN-00 00 62 0256 01957 6294 444321 349437 197"
"159.76956"
"$GPGGA,182806,2451.7077,N,08024.6145,W,1,11,1.4,10"
"##MN-00 00 59 0258 01957 6291 444359 349448 197"
"159.769607"
"$GPGGA,182810,2451.7063,N,08024.6128,W,1,11,1.4,10"
"##MN-00 00 57 0259 01954 6288 444424 349463 197"
"159.769653"
"$GPGGA,182814,2451.7049,N,08024.6110,W,1,11,1.6,10"
"##MN-00 00 57 0260 01958 6284 444461 349484 197"
"159.769699"
"$GPGGA,182818,2451.7034,N,08024.6092,W,1,10,1.6,10"
"##MN-00 00 56 0261 01955 6281 444489 349510 197"
"159.769745"
"$GPGGA,182822,2451.7017,N,08024.6076,W,1,10,1.6,10"
"##MN-00 00 56 0262 01957 6278 444485 349524 197"
"159.769792"
"$GPGGA,182826,2451.7001,N,08024.6059,W,1,10,1.6,9,"
"##MN-00 00 57 0263 01955 6275 444459 349566 197"
"159.769838"
"$GPGGA,182830,2451.6987,N,08024.6044,W,1,10,1.6,9,"
"##MN-00 00 56 0264 01953 6272 444428 349569 197"
"159.769884"
"$GPGGA,182834,2451.6973,N,08024.6029,W,1,10,1.6,8,"
"##MN-00 00 57 0266 01953 6269 444363 349559 197"
"159.769931"
"$GPGGA,182838,2451.6958,N,08024.6014,W,1,10,1.6,8,"
"##MN-00 00 56 0267 01953 6266 444268 349532 197"
"159.769977"
"$GPGGA,182842,2451.6942,N,08024.5999,W,1,10,1.6,8,"
"##MN-00 00 57 0268 01953 6263 444219 349519 197"
"159.770023"
"$GPGGA,182846,2451.6928,N,08024.5984,W,1,10,1.6,8,"
"##MN-00 00 56 0269 01952 6260 444136 349497 197"
"159.770069"
"$GPGGA,182850,2451.6920,N,08024.5970,W,1,11,1.4,7,"
"##MN-00 00 56 0270 01954 6257 443941 349440 197"
"159.770116"
"$GPGGA,182854,2451.6909,N,08024.5953,W,1,11,1.4,8,"
"##MN-00 00 57 0271 01955 6254 443877 349431 197"
"159.770162"
"$GPGGA,182858,2451.6898,N,08024.5936,W,1,11,1.4,8,"
"##MN-00 00 56 0273 01954 6251 443847 349408 197"
"159.770208"
"$GPGGA,182902,2451.6887,N,08024.5917,W,1,11,1.4,8,"
"##MN-00 00 56 0274 01953 6248 443817 349378 197"
"159.770255"
"$GPGGA,182906,2451.6876,N,08024.5899,W,1,11,1.4,8,"
"##MN-00 00 57 0275 01956 6245 443815 349373 197"
"159.770301"
"$GPGGA,182910,2451.6864,N,08024.5881,W,1,11,1.4,9,"
"##MN-00 00 56 0276 01956 6242 443849 349374 197"
"159.770347"
"$GPGGA,182914,2451.6851,N,08024.5861,W,1,11,1.4,9,"
"##MN-00 00 56 0277 01955 6239 443811 349367 197"
"159.770394"
"$GPGGA,182918,2451.6839,N,08024.5842,W,1,11,1.4,9,"
"##MN-00 00 56 0278 01956 6236 443777 349358 197"
"159.77044"
"$GPGGA,182922,2451.6826,N,08024.5822,W,1,11,1.4,9,"
"##MN-00 00 56 0279 01955 6233 443747 349349 197"
"159.770486"
"$GPGGA,182926,2451.6814,N,08024.5802,W,1,11,1.4,9,"
"##MN-00 00 57 0281 01955 6230 443722 349337 197"
"159.770532"
"$GPGGA,182930,2451.6803,N,08024.5783,W,1,11,1.4,9,"
"##MN+00 00 56 0282 01958 6227 443698 349333 197"
"159.770579"
"$GPGGA,182934,2451.6792,N,08024.5763,W,1,11,1.4,9,"
"##MN+00 00 56 0283 01958 6224 443656 349328 197"
"159.770625"
"$GPGGA,182938,2451.6781,N,08024.5743,W,1,11,1.4,10"
"##MN+00 00 56 0284 01957 6221 443620 349306 197"
"159.770671"
"$GPGGA,182942,2451.6769,N,08024.5723,W,1,11,1.4,10"
"##MN-00 00 55 0285 01958 6218 443637 349306 197"
"159.770718"
"$GPGGA,182946,2451.6758,N,08024.5704,W,1,11,1.4,10"
"##MN-00 00 57 0286 01957 6215 443641 349228 197"
"159.770764"
"$GPGGA,182950,2451.6745,N,08024.5686,W,1,11,1.4,10"
"##MN-00 00 56 0288 01955 6212 443624 349310 197"
"159.77081"
"$GPGGA,182954,2451.6730,N,08024.5667,W,1,10,1.6,10"
"##MN+00 00 56 0289 01956 6209 443594 349302 197"
"159.770856"
"$GPGGA,182958,2451.6713,N,08024.5650,W,1,10,1.6,10"
"##MN+00 00 56 0290 01956 6206 443558 349289 197"
"159.770903"
"$GPGGA,183002,2451.6698,N,08024.5632,W,1,10,1.6,9,"
"##MN+00 00 70 0291 01960 6204 443548 349280 197"
"159.770949"
"#increment_net"
"$GPGGA,183006,2451.6684,N,08024.5616,W,1,10,1.6,9,"
"##MN-00 00 65 0292 01963 6202 443559 349280 197"
"159.770995"
"$GPGGA,183010,2451.6669,N,08024.5598,W,1,10,1.6,9,"
"##MN-00 00 61 0294 01965 6199 443628 349286 197"
"159.771042"
"$GPGGA,183014,2451.6655,N,08024.5581,W,1,10,1.6,8,"
"##MN-00 00 58 0295 01975 6195 443806 349341 197"
"159.771088"
"$GPGGA,183018,2451.6644,N,08024.5564,W,1,11,1.4,8,"
"##MN-00 00 57 0297 01980 6192 444117 349406 197"
"159.771134"
"$GPGGA,183022,2451.6633,N,08024.5547,W,1,11,1.4,8,"
"##MN-00 00 56 0298 01983 6189 444275 349460 197"
"159.771181"
"$GPGGA,183026,2451.6618,N,08024.5529,W,1,11,1.4,8,"
"##MN-00 00 58 0300 01976 6186 444495 349560 197"
"159.771227"
"$GPGGA,183030,2451.6604,N,08024.5511,W,1,11,1.4,8,"
"##MN-00 00 57 0301 01971 6183 444528 349583 197"
"159.771273"
"$GPGGA,183034,2451.6591,N,08024.5492,W,1,11,1.4,9,"
"##MN-00 00 58 0303 01964 6180 444447 349569 197"
"159.771319"
"$GPGGA,183038,2451.6576,N,08024.5471,W,1,11,1.4,9,"
"##MN-00 00 58 0304 01960 6177 444173 349487 197"
"159.771366"
"$GPGGA,183042,2451.6561,N,08024.5451,W,1,11,1.4,9,"
"##MN-00 00 56 0306 01953 6174 443727 349351 197"
"159.771412"
"$GPGGA,183046,2451.6547,N,08024.5429,W,1,11,1.4,9,"
"##MN-00 00 56 0308 01946 6172 443352 349267 197"
"159.77147"
"$GPGGA,183051,2451.6529,N,08024.5403,W,1,11,1.4,9,"
"##MN-00 00 55 0309 01937 6169 443148 349193 197"
"159.771516"
"$GPGGA,183055,2451.6515,N,08024.5378,W,1,11,1.3,9,"
"##MN-00 00 54 0311 01928 6166 442976 349118 197"
"159.771562"
"$GPGGA,183059,2451.6501,N,08024.5355,W,1,11,1.3,9,"
"##MN-00 00 55 0312 01920 6164 442707 349035 197"
"159.771609"
"$GPGGA,183103,2451.6486,N,08024.5332,W,1,11,1.3,10"
"##MN-00 00 55 0314 01910 6161 442352 348923 197"
"159.771655"
"$GPGGA,183107,2451.6471,N,08024.5310,W,1,11,1.3,10"
"##MN-00 00 56 0316 01904 6158 441745 348787 197"
"159.771701"
"$GPGGA,183110,2451.6460,N,08024.5294,W,1,11,1.3,10"
"##MN-00 00 55 0317 01892 6155 441094 348679 197"
"159.771748"
"$GPGGA,183115,2451.6440,N,08024.5267,W,1,11,1.3,10"
"##MN-00 00 56 0319 01885 6152 440430 348461 197"
"159.771794"
"$GPGGA,183119,2451.6425,N,08024.5245,W,1,11,1.3,10"
"##MN-00 00 56 0320 01874 6150 439752 348270 197"
"159.77184"
"$GPGGA,183123,2451.6409,N,08024.5224,W,1,11,1.3,10"
"##MN-00 00 56 0322 01867 6147 438746 348002 197"
"159.771887"
"$GPGGA,183127,2451.6395,N,08024.5203,W,1,11,1.3,10"
"##MN-00 00 56 0323 01858 6144 436421 347771 197"
"159.771933"
"$GPGGA,183131,2451.6378,N,08024.5181,W,1,11,1.3,10"
"##MN-00 00 58 0325 01853 6142 436337 347424 197"
"159.771979"
"$GPGGA,183135,2451.6362,N,08024.5160,W,1,11,1.3,10"
"##MN-00 00 56 0326 01852 6139 433508 345993 197"
"159.772025"
"$GPGGA,183139,2451.6346,N,08024.5139,W,1,11,1.3,10"
"##MN-00 00 54 0328 01853 6136 428608 344887 197"
"159.772072"
"$GPGGA,183143,2451.6331,N,08024.5117,W,1,11,1.3,10"
"##MN-00 00 56 0329 01850 6134 426102 344218 197"
"159.772118"
"$GPGGA,183147,2451.6316,N,08024.5096,W,1,12,1.3,10"
"##MN-00 00 54 0331 01853 6131 425534 343846 197"
"159.772164"
"$GPGGA,183151,2451.6301,N,08024.5074,W,1,12,1.3,9,"
"##MN-00 00 51 0332 01853 6129 425565 343433 197"
"159.772211"
"$GPGGA,183155,2451.6286,N,08024.5051,W,1,12,1.3,9,"
"##MN-00 00 54 0333 01853 6127 425760 343346 197"
"159.772257"
"$GPGGA,183159,2451.6269,N,08024.5029,W,1,12,1.3,9,"
"##MN-00 00 50 0334 01852 6124 425355 343229 197"
"159.772303"
"$GPGGA,183203,2451.6252,N,08024.5007,W,1,12,1.3,9,"
"##MN-00 00 55 0336 01852 6121 425396 343181 197"
